~VERSION INFORMATION
 VERS.                 2.0:   CWLS LOG ASCII STANDARD -VERSION 2.0
 WRAP.                  NO:   ONE LINE PER DEPTH STEP
~WELL INFORMATION BLOCK
#MNEM.UNIT           DATA                    DESCRIPTION OF MNEMONIC
#---------    -------------------            -------------------------------
# Generated from Intellog Unique Number	CW_73_75/WELL/1050
WELL.         TRICENT ET AL MITSUE 12-08     : Well_name    - WELL
LOC .         00/12-08-074-05W5/0            : Location     - LOCATION
UWI .         00/12-08-074-05W5/0            : Uwi          - UNIQUE WELL ID
ENTR.         JAYE                           : Entered      - ENTERED BY
SRVC.         SCHLUMBERGER                   : Scn          - SERVICE COMPANY
DATE.         11 JAN 84                      : Date         - LOG DATE
STRT.M        360                            : top_depth    - START DEPTH
STOP.M        590                            : bot_depth    - STOP DEPTH
STEP.M        0.25                           : increment    - STEP LENGTH
 NULL. -999.2500:NULL Value
~CURVE INFORMATION BLOCK
#MNEM UNIT       ERCB CURVE CODE    CURVE DESCRIPTION
#-----------   ------------------   ----------------------------------
DEPT.M        00 001 00 00         : DEPTH        - DEPTH
CALI.MM       00 280 01 00         : CAL          - CALIPER
GR  .API      00 310 00 00         : GR           - GAMMA RAY
NPHI.V/V      00 330 00 00         : PHIN         - NEUTRON POROSITY (SANDSTONE)
DPHI.V/V      00 890 00 00         : PHID         - DENSITY POROSITY (SANDSTONE)
ILD .OHMM     00 120 00 00         : RESD         - DEEP RESISTIVITY (DIL)
~PARAMETER INFORMATION
#MNEM.UNIT           DATA             DESCRIPTION OF MNEMONIC
#---------         -----------     ------------------------------
GL  .M        596.5                : gl           - GROUND LEVEL ELEVATION
EREF.M        600.65               : kb           - ELEVATION OF DEPTH REFERENCE
DATM.M        596.5                : datum        - DATUM ELEVATION
TDD .M        1689                 : tdd          - TOTAL DEPTH DRILLER
RUN .         ONE                  : Run          - RUN NUMBER
ENG .         GAGGINO              : Engineer     - RECORDING ENGINEER
WIT .         EARLE                : Witness      - WITNESSED BY
BASE.         EDM                  : Branch       - HOME BASE OF LOGGING UNIT
MUD .         GEL CHEM             : Mud_type     - MUD TYPE
MATR.         SANDSTONE            : Logunit      - NEUTRON MATRIX
TMAX.C        53                   : BHT          - MAXIMUM RECORDED TEMPERATURE
BHTD.M        1689.5               : BHTDEP       - MAXIMUM RECORDED TEMPERATURE
RMT .C        15                   : MDTP         - TEMPERATURE OF MUD
MUDD.KG/M     1130                 : MWT          - MUD DENSITY
NEUT.         1                    : NEUTRON      - NEUTRON TYPE
RESI.         0                    : RESIST       - RESISTIVITY TYPE
RM  .OHMM     0.618                : RM           - RESISTIVITY OF MUD
RMC .OHMM     0                    : RMC          - RESISTIVITY OF MUD CAKE
RMF .OHMM     1.15                 : RMF          - RESISTIVITY OF MUD FILTRATE
SUFT.C        0                    : SUFT         - SURFACE TEMPERATURE
~A  DEPTH      CAL       GR     PHIN     PHID     RESD
# ...
  506.000  293.595   54.193    0.425    0.296    4.174
  506.250  294.089   55.483    0.430    0.295    4.345
  506.500  295.932   56.342    0.422    0.284    4.482
  506.750  298.394   54.793    0.434    0.273    4.614
  507.000  300.547   52.256    0.427    0.270    4.635
  507.250  298.971   50.151    0.408    0.285    4.543
  507.500  295.838   50.269    0.409    0.296    4.445
  507.750  294.364   52.794    0.432    0.294    4.441
  508.000  293.614   54.208    0.415    0.287    4.436
  508.250  293.593   53.214    0.390    0.279    4.439
  508.500  293.149   55.739    0.396    0.265    4.501
  508.750  293.233   59.190    0.431    0.255    4.598
  509.000  293.522   63.072    0.438    0.250    4.691
  509.250  294.223   64.363    0.431    0.251    4.837
  509.500  294.409   62.876    0.458    0.263    4.951
  509.750  294.900   58.919    0.451    0.278    4.992
  510.000  294.673   55.518    0.414    0.287    5.072
  510.250  294.650   57.179    0.401    0.289    5.144
  510.500  294.832   60.938    0.392    0.290    5.236
  510.750  295.535   63.957    0.375    0.289    5.298
  511.000  296.650   63.087    0.360    0.288    5.343
  511.250  297.458   60.550    0.376    0.284    5.368
  511.500  298.472   58.137    0.389    0.289    5.382
  511.750  300.105   55.106    0.392    0.294    5.376
  512.000  301.324   53.619    0.392    0.292    5.350
  512.250  302.444   56.329    0.401    0.286    5.315
  512.500  303.974   58.977    0.419    0.282    5.288
  512.750  305.711   60.329    0.417    0.278    5.292
  513.000  307.038   60.509    0.410    0.278    5.337
  513.250  309.395   60.071    0.403    0.279    5.412
  513.500  311.343   62.534    0.403    0.279    5.467
  513.750  313.704   66.108    0.408    0.281    5.461
  514.000  315.962   67.645    0.407    0.286    5.385
  514.250  318.528   65.849    0.410    0.299    5.228
  514.500  321.925   61.029    0.435    0.308    5.068
  514.750  326.462   58.986    0.398    0.219    4.921
  515.000  331.517   57.375    0.336    0.173    4.807
  515.250  337.712   57.616    0.321    0.156    4.651
  515.500  342.767   62.857    0.346    0.196    4.441
  515.750  348.136   67.727    0.398    0.249    4.248
  516.000  355.885   70.067    0.432    0.247    4.102
  516.250  363.945   68.209    0.424    0.235    4.052
  516.500  375.841   64.500    0.450    0.218    4.055
  516.750  386.494   59.926    0.479    0.234    4.112
  517.000  393.415   61.402    0.467    0.281    4.202
  517.250  392.665   65.037    0.455    0.317    4.301
  517.500  393.782   62.193    0.458    0.301    4.394
  517.750  395.104   59.840    0.467    0.246    4.591
  518.000  396.326   60.699    0.452    0.224    4.727
  518.250  397.651   64.088    0.454    0.219    5.204
  518.500  399.283   59.823    0.479    0.222    5.066
  518.750  400.917   60.928    0.488    0.238    4.738
  519.000  402.450   63.329    0.480    0.233    4.636
  519.250  403.569   65.361    0.467    0.224    4.596
  519.500  404.790   62.824    0.454    0.222    4.574
  519.750  406.008   59.794    0.443    0.219    4.560
  520.000  406.505   59.294    0.434    0.214    4.556
  520.250  407.207   59.843    0.444    0.208    4.577
  520.500  407.700   62.245    0.454    0.210    4.774
  520.750  407.885   64.955    0.461    0.218    4.877
  521.000  407.861   64.517    0.470    0.213    4.946
  521.250  407.837   63.029    0.445    0.208    4.978
  521.500  407.711   62.529    0.435    0.214    4.852
  521.750  406.651   60.548    0.443    0.224    4.512
  522.000  407.768   57.580    0.451    0.239    4.221
  522.250  408.884   56.216    0.441    0.264    3.918
  522.500  408.552   57.321    0.419    0.255    3.685
  522.750  410.494   59.475    0.386    0.243    3.559
  523.000  413.995   61.630    0.401    0.262    3.555
  523.250  417.601   63.908    0.423    0.302    3.667
  523.500  421.724   63.593    0.443    0.301    3.897
  523.750  425.535   61.427    0.466    0.314    4.126
  524.000  427.690   60.619    0.493    0.348    4.402
  524.250  427.045   61.662    0.505    0.327    4.480
  524.500  423.805   64.742    0.473    0.286    4.367
  524.750  422.127   65.600    0.451    0.245    4.186
  525.000  421.893   64.854    0.432    0.221    3.997
  525.250  423.324   62.503    0.409    0.214    3.824
  525.500  427.653   60.892    0.388    0.210    3.784
  525.750  431.358   61.441    0.383    0.205    3.852
  526.000  431.648   62.423    0.398    0.221    4.048
  526.250  430.483   61.862    0.423    0.280    4.459
  526.500  428.079   56.918    0.437    0.307    5.071
  526.750  423.079   54.751    0.444    0.330    5.638
  527.000  415.076   55.362    0.455    0.322    5.936
  527.250  409.042   55.357    0.455    0.268    5.743
  527.500  415.030   54.363    0.446    0.235    4.982
  527.750  426.718   56.394    0.438    0.210    4.339
  528.000  443.588   56.573    0.432    0.210    3.511
  528.250  462.428   55.642    0.425    0.249    3.035
  528.500  453.077   54.586    0.430    0.453    3.031
  528.750  446.316   52.358    0.499    0.474    3.180
  529.000  448.885   54.698    0.435    0.499    3.463
  529.250  453.004   56.605    0.426    0.511    3.737
  529.500  455.574   55.303    0.442    0.525    3.912
  529.750  458.661   56.470    0.448    0.321    3.842
  530.000  458.638   56.958    0.464    0.289    3.641
  530.250  449.598   58.310    0.478    0.271    3.237
  530.500  441.386   58.119    0.508    0.254    2.777
  530.750  441.881   58.298    0.497    0.241    2.299
  531.000  444.031   62.490    0.470    0.240    1.917
  531.250  444.113   66.249    0.464    0.241    1.929
  531.500  443.469   65.441    0.465    0.237    2.161
  531.750  443.341   59.941    0.481    0.231    2.463
  532.000  443.215   63.762    0.495    0.222    2.822
  532.250  442.673   67.830    0.502    0.215    3.149
  532.500  442.545   61.960    0.480    0.215    3.629
  532.750  442.623   57.880    0.439    0.216    3.821
  533.000  443.223   58.368    0.453    0.221    3.746
  533.250  443.924   56.943    0.465    0.236    3.491
  533.500  444.111   53.727    0.471    0.246    3.377
  533.750  444.295   52.734    0.427    0.241    3.373
  534.000  444.474   54.023    0.404    0.233    3.363
  534.250  445.078   54.821    0.427    0.224    3.404
  534.500  445.779   54.259    0.430    0.218    3.445
  534.750  445.238   55.240    0.434    0.221    3.467
  535.000  444.386   58.568    0.445    0.232    3.464
  535.250  443.016   60.167    0.460    0.236    3.447
  535.500  442.474   62.754    0.478    0.232    3.463
  535.750  442.970   65.401    0.478    0.236    3.440
  536.000  444.187   61.013    0.458    0.236    3.430
  536.250  444.787   59.341    0.453    0.232    3.544
  536.500  444.455   60.137    0.452    0.234    3.752
  536.750  443.186   60.502    0.450    0.253    4.003
  537.000  442.023   59.816    0.452    0.271    4.144
  537.250  438.372   58.884    0.459    0.276    4.210
  537.500  432.857   59.372    0.483    0.248    4.245
  537.750  426.821   60.416    0.444    0.241    4.241
  538.000  424.411   62.880    0.429    0.260    4.292
  538.250  423.252   61.515    0.425    0.257    4.528
  538.500  420.222   58.979    0.437    0.248    4.997
  538.750  415.328   56.072    0.423    0.235    5.597
  539.000  412.091   55.942    0.438    0.229    6.108
  539.250  411.965   58.221    0.454    0.225    5.898
  539.500  413.083   62.103    0.464    0.206    5.466
  539.750  416.789   61.789    0.446    0.176    4.627
  540.000  418.942   56.660    0.343    0.158    4.060
  540.250  420.369   52.394    0.333    0.206    4.124
  540.500  420.863   57.944    0.363    0.217    4.190
  540.750  421.154   60.901    0.389    0.227    4.130
  541.000  420.716   60.216    0.412    0.234    4.027
  541.250  421.105   63.914    0.435    0.241    3.852
  541.500  421.499   61.932    0.431    0.238    3.741
  541.750  422.201   59.951    0.403    0.243    3.633
  542.000  421.659   61.920    0.405    0.247    3.568
  542.250  418.941   67.531    0.444    0.256    3.551
