~VERSION INFORMATION
 VERS.                 2.0:   CWLS LOG ASCII STANDARD -VERSION 2.0
 WRAP.                  NO:   ONE LINE PER DEPTH STEP
~WELL INFORMATION BLOCK
#MNEM.UNIT           DATA                    DESCRIPTION OF MNEMONIC
#---------    -------------------            -------------------------------
# Generated from Intellog Unique Number	CS_77_79/WELL/1001
WELL.         PCI PCEJ CHARD                 : Well_name    - WELL
LOC .         00/11-28-079-06W4/0            : Location     - LOCATION
UWI .         00/11-28-079-06W4/0            : Uwi          - UNIQUE WELL ID
ENTR.         JHS                            : Entered      - ENTERED BY
SRVC.         SCHLUMBERGER                   : Scn          - SERVICE COMPANY
STRT.M        70                             : top_depth    - START DEPTH
STOP.M        335                            : bot_depth    - STOP DEPTH
STEP.M        0.25                           : increment    - STEP LENGTH
 NULL. -999.2500:NULL Value
~CURVE INFORMATION BLOCK
#MNEM UNIT       ERCB CURVE CODE    CURVE DESCRIPTION
#-----------   ------------------   ----------------------------------
DEPT.M        00 001 00 00         : DEPTH        - DEPTH
DPHI.V/V      00 890 00 00         : PHID         - DENSITY POROSITY (LIMESTONE)
NPHI.V/V      00 330 00 00         : PHIN         - NEUTRON POROSITY (LIMESTONE)
GR  .API      00 310 00 00         : GR           - GAMMA RAY
ILD .OHMM     00 120 00 00         : RESD         - DEEP RESISTIVITY (DIL)
RHOB.KG/M3    00 350 00 00         : DENS         - BULK DENSITY
~PARAMETER INFORMATION
#MNEM.UNIT           DATA             DESCRIPTION OF MNEMONIC
#---------         -----------     ------------------------------
GL  .M        513.8                : gl           - GROUND LEVEL ELEVATION
EREF.M        516.9                : kb           - ELEVATION OF DEPTH REFERENCE
DATM.M        516.9                : datum        - DATUM ELEVATION
TDD .M        341                  : tdd          - TOTAL DEPTH DRILLER
RUN .         ONE                  : Run          - RUN NUMBER
ENG .         BILL                 : Engineer     - RECORDING ENGINEER
WIT .         JIM                  : Witness      - WITNESSED BY
MUD .         GEL                  : Mud_type     - MUD TYPE
MATR.         LIMESTONE            : Logunit      - NEUTRON MATRIX
TMAX.C        18                   : BHT          - MAXIMUM RECORDED TEMPERATURE
BHTD.M        341                  : BHTDEP       - MAXIMUM RECORDED TEMPERATURE
MATR.         1                    : LOGUNIT      - NEUTRON MATRIX
RMT .C        25                   : MDTP         - TEMPERATURE OF MUD
NEUT.         1                    : NEUTRON      - NEUTRON TYPE
RESI.         0                    : RESIST       - RESISTIVITY TYPE
RMC .OHMM     0.25                 : RMC          - RESISTIVITY OF MUD CAKE
RMF .OHMM     0.25                 : RMF          - RESISTIVITY OF MUD FILTRATE
SUFT.C        15                   : SUFT         - SURFACE TEMPERATURE
~A  DEPTH     PHID     PHIN       GR     RESD     DENS
# ...
  143.000    0.272    0.457   97.035   13.157    0.000
  143.250    0.244    0.455  104.926   13.416    0.000
  143.500    0.235    0.492  104.317   13.682    0.000
  143.750    0.262    0.503   85.489   14.216    0.000
  144.000    0.317    0.486   75.770   15.055    0.000
  144.250    0.342    0.454   68.480   15.351    0.000
  144.500    0.316    0.437   72.121   15.365    0.000
  144.750    0.279    0.426   76.976   14.255    0.000
  145.000    0.259    0.452   74.545   12.981    0.000
  145.250    0.171    0.499   73.935   12.274    0.000
  145.500    0.123    0.481   81.828   11.179    0.000
  145.750    0.114    0.463   87.898   10.568    0.000
  146.000    0.182    0.458   91.539    8.924    0.000
  146.250    0.253    0.458   88.499    7.825    0.000
  146.500    0.275    0.465   85.461    7.400    0.000
  146.750    0.288    0.485   84.244    7.545    0.000
  147.000    0.277    0.469   84.848    8.298    0.000
  147.250    0.257    0.462   80.595    9.299    0.000
  147.500    0.286    0.436   73.913   10.225    0.000
  147.750    0.323    0.413   69.658   11.460    0.000
  148.000    0.319    0.419   69.049   12.367    0.000
  148.250    0.298    0.451   85.443   12.378    0.000
  148.500    0.282    0.463   86.048   12.155    0.000
  148.750    0.287    0.477   72.078   12.392    0.000
  149.000    0.306    0.454   60.538   13.887    0.000
  149.250    0.315    0.452   52.033   16.470    0.000
  149.500    0.315    0.440   50.209   18.809    0.000
  149.750    0.319    0.415   54.457   21.481    0.000
  150.000    0.316    0.401   53.239   24.536    0.000
  150.250    0.353    0.401   52.023   25.982    0.000
  150.500    0.346    0.409   57.485   26.488    0.000
  150.750    0.339    0.434   59.912   27.013    0.000
  151.000    0.344    0.447   56.266   27.547    0.000
  151.250    0.352    0.420   52.012   28.092    0.000
  151.500    0.371    0.408   51.403   28.110    0.000
  151.750    0.388    0.423   53.222   28.132    0.000
  152.000    0.385    0.476   59.292   28.153    0.000
  152.250    0.363    0.446   61.111   28.709    0.000
  152.500    0.365    0.437   60.502   29.277    0.000
  152.750    0.363    0.436   59.892   29.852    0.000
  153.000    0.351    0.457   59.283   30.441    0.000
  153.250    0.348    0.462   59.280   30.461    0.000
  153.500    0.355    0.437   61.099   31.061    0.000
  153.750    0.363    0.428   61.097   31.081    0.000
  154.000    0.370    0.445   59.879   30.526    0.000
  154.250    0.376    0.450   57.447   30.544    0.000
  154.500    0.366    0.431   58.053   29.993    0.000
  154.750    0.348    0.425   58.657   29.451    0.000
  155.000    0.358    0.423   58.048   28.919    0.000
  155.250    0.371    0.434   58.045   27.865    0.000
  155.500    0.377    0.450   58.043   26.855    0.000
  155.750    0.381    0.461   57.433   25.392    0.000
  156.000    0.387    0.465   56.215   24.939    0.000
  156.250    0.373    0.459   56.213   24.951    0.000
  156.500    0.363    0.425   54.996   24.969    0.000
  156.750    0.379    0.408   58.030   24.984    0.000
  157.000    0.384    0.401   63.492   24.540    0.000
  157.250    0.365    0.439   67.134   24.096    0.000
  157.500    0.354    0.490   68.954   23.662    0.000
  157.750    0.356    0.469   66.522   23.235    0.000
  158.000    0.367    0.452   54.981   22.391    0.000
  158.250    0.374    0.446   57.407   21.576    0.000
  158.500    0.376    0.451   60.441   21.596    0.000
  158.750    0.378    0.457   61.653   21.604    0.000
  159.000    0.379    0.453   56.186   21.219    0.000
  159.250    0.373    0.461   51.931   21.225    0.000
  159.500    0.358    0.446   51.322   21.242    0.000
  159.750    0.358    0.437   53.142   21.256    0.000
  160.000    0.364    0.458   59.819   21.271    0.000
  160.250    0.363    0.458   59.209   21.693    0.000
  160.500    0.367    0.444   56.170   22.120    0.000
  160.750    0.373    0.439   53.739   22.137    0.000
  161.000    0.374    0.450   54.343   22.149    0.000
  161.250    0.378    0.464   56.162   22.584    0.000
  161.500    0.374    0.467   56.160   22.603    0.000
  161.750    0.365    0.453   55.550   22.617    0.000
  162.000    0.365    0.440   56.155   22.630    0.000
  162.250    0.368    0.441   57.367   23.081    0.000
  162.500    0.364    0.440   56.150   23.093    0.000
  162.750    0.357    0.429   54.325   23.109    0.000
  163.000    0.361    0.435   53.109   23.133    0.000
  163.250    0.370    0.466   52.499   22.707    0.000
  163.500    0.375    0.478   56.140   22.723    0.000
  163.750    0.373    0.460   60.389   22.741    0.000
  164.000    0.370    0.450   62.815   22.335    0.000
  164.250    0.373    0.453   59.169   22.351    0.000
  164.500    0.376    0.446   54.308   22.361    0.000
  164.750    0.379    0.436   51.269   22.377    0.000
  165.000    0.380    0.445   51.266   21.973    0.000
  165.250    0.377    0.466   52.478   21.986    0.000
  165.500    0.370    0.454   53.083   21.596    0.000
  165.750    0.380    0.478   54.296   21.603    0.000
  166.000    0.380    0.498   55.508   21.220    0.000
  166.250    0.358    0.473   54.291   20.837    0.000
  166.500    0.367    0.452   54.895   20.462    0.000
  166.750    0.368    0.445   51.249   20.475    0.000
  167.000    0.370    0.451   51.246   20.106    0.000
  167.250    0.375    0.455   56.709   19.744    0.000
  167.500    0.366    0.455   57.315   19.757    0.000
  167.750    0.362    0.458   56.097   19.767    0.000
  168.000    0.367    0.463   56.094   19.780    0.000
  168.250    0.369    0.458   57.306   20.169    0.000
  168.500    0.368    0.433   57.304   20.571    0.000
  168.750    0.364    0.417   56.087   20.582    0.000
  169.000    0.364    0.422   57.299   21.391    0.000
  169.250    0.369    0.445   57.904   21.811    0.000
  169.500    0.377    0.472   58.508   22.241    0.000
  169.750    0.375    0.499   58.506   23.555    0.000
  170.000    0.291    0.495   57.289   25.903    0.000
  170.250    0.104    0.373   51.821   29.027    0.000
  170.500    0.005    0.243   46.960   31.922    0.000
  170.750    0.044    0.202   40.885   33.806    0.000
  171.000    0.177    0.287   48.777   33.829    0.000
  171.250    0.339    0.346   55.454   31.991    0.000
  171.500    0.361    0.459   56.666   28.582    0.000
  171.750    0.373    0.430   56.056   24.133    0.000
  172.000    0.379    0.432   56.661   21.162    0.000
  172.250    0.362    0.443   57.266   20.390    0.000
  172.500    0.360    0.472   55.442   19.652    0.000
  172.750    0.360    0.477   55.439   19.297    0.000
  173.000    0.356    0.466   58.473   19.308    0.000
  173.250    0.360    0.462   57.256   18.962    0.000
  173.500    0.346    0.454   53.610   18.271    0.000
  173.750    0.336    0.437   50.571   16.956    0.000
  174.000    0.344    0.434   52.390   16.649    0.000
  174.250    0.355    0.448   56.031   16.976    0.000
  174.500    0.212    0.470   52.992   17.977    0.000
  174.750    0.065    0.361   43.881   21.727    0.000
  175.000    0.008    0.248   39.020   24.813    0.000
  175.250    0.073    0.247   55.414   22.593    0.000
  175.500    0.135    0.318   66.950   11.460    0.000
  175.750    0.247    0.363   82.737    7.715    0.000
  176.000    0.268    0.432   91.236    6.393    0.000
  176.250    0.275    0.464   96.091    6.046    0.000
  176.500    0.273    0.490   93.052    6.166    0.000
  176.750    0.251    0.466   89.407    6.168    0.000
  177.000    0.244    0.465   95.476    6.057    0.000
  177.250    0.245    0.487   99.117    6.062    0.000
  177.500    0.245    0.473   99.722    5.953    0.000
  177.750    0.244    0.468   96.076    5.846    0.000
  178.000    0.249    0.470   96.074    5.741    0.000
  178.250    0.251    0.481   98.500    5.429    0.000
  178.500    0.251    0.455  102.142    5.230    0.000
  178.750    0.245    0.465  102.746    5.040    0.000
  179.000    0.236    0.495  102.744    4.857    0.000
  179.250    0.239    0.520  102.134    4.679    0.000
