~VERSION INFORMATION
 VERS.                 2.0:   CWLS LOG ASCII STANDARD -VERSION 2.0
 WRAP.                  NO:   ONE LINE PER DEPTH STEP
~WELL INFORMATION BLOCK
#MNEM.UNIT           DATA                    DESCRIPTION OF MNEMONIC
#---------    -------------------            -------------------------------
# Generated from Intellog Unique Number	CS_73_76/WELL/3243
WELL.         SIEBENS OIL GAS LID.           : Well_name    - WELL
LOC .         00/10-26-076-09W4/0            : Location     - LOCATION
UWI .         00/10-26-076-09W4/0            : Uwi          - UNIQUE WELL ID
ENTR.         SP                             : Entered      - ENTERED BY
SRVC.         SCHLUMBERGER                   : Scn          - SERVICE COMPANY
STRT.M        240.792                        : top_depth    - START DEPTH
STOP.M        463.042                        : bot_depth    - STOP DEPTH
STEP.M        0.25                           : increment    - STEP LENGTH
 NULL. -999.2500:NULL Value
~CURVE INFORMATION BLOCK
#MNEM UNIT       ERCB CURVE CODE    CURVE DESCRIPTION
#-----------   ------------------   ----------------------------------
DEPT.M        00 001 00 00         : DEPTH        - DEPTH
GR  .API      00 310 00 00         : GR           - GAMMA RAY
DPHI.V/V      00 890 00 00         : PHID         - DENSITY POROSITY (SANDSTONE)
NPHI.V/V      00 330 00 00         : PHIN         - NEUTRON POROSITY (SANDSTONE)
ILD .OHMM     00 120 00 00         : RESD         - DEEP RESISTIVITY (DIL)
~PARAMETER INFORMATION
#MNEM.UNIT           DATA             DESCRIPTION OF MNEMONIC
#---------         -----------     ------------------------------
GL  .M        650.748              : gl           - GROUND LEVEL ELEVATION
EREF.M        654.406              : kb           - ELEVATION OF DEPTH REFERENCE
DATM.M        650.748              : datum        - DATUM ELEVATION
TDD .M        473.659              : tdd          - TOTAL DEPTH DRILLER
RUN .         ONE                  : Run          - RUN NUMBER
ENG .         BILL                 : Engineer     - RECORDING ENGINEER
WIT .         JIM                  : Witness      - WITNESSED BY
MUD .         GEL                  : Mud_type     - MUD TYPE
MATR.         SANDSTONE            : Logunit      - NEUTRON MATRIX
TMAX.C        15.5556              : BHT          - MAXIMUM RECORDED TEMPERATURE
BHTD.M        473.659              : BHTDEP       - MAXIMUM RECORDED TEMPERATURE
MATR.         1                    : LOGUNIT      - NEUTRON MATRIX
RMT .C        25                   : MDTP         - TEMPERATURE OF MUD
NEUT.         1                    : NEUTRON      - NEUTRON TYPE
RESI.         0                    : RESIST       - RESISTIVITY TYPE
RMC .OHMM     0.25                 : RMC          - RESISTIVITY OF MUD CAKE
RMF .OHMM     0.25                 : RMF          - RESISTIVITY OF MUD FILTRATE
SUFT.C        15                   : SUFT         - SURFACE TEMPERATURE
~A  DEPTH       GR     PHID     PHIN     RESD
# ...
  414.792   71.087    0.290    0.399   62.049
  415.042   76.556    0.280    0.395   65.541
  415.292   80.118    0.268    0.386   34.689
  415.542   82.154    0.250    0.394   23.546
  415.792   82.433    0.245    0.405   19.359
  416.042   81.430    0.255    0.411   17.146
  416.292   80.476    0.270    0.397   16.571
  416.542   79.610    0.271    0.384   17.186
  416.792   80.635    0.263    0.386   18.259
  417.042   82.473    0.262    0.397   19.824
  417.292   81.305    0.268    0.404   21.009
  417.542   84.471    0.262    0.404   20.281
  417.792   91.213    0.268    0.403   17.234
  418.042   97.057    0.254    0.406   15.057
  418.292  102.230    0.240    0.408   12.263
  418.542  106.041    0.235    0.405   10.988
  418.792  108.275    0.227    0.401    9.751
  419.042  106.937    0.222    0.400    9.029
  419.292   90.892    0.228    0.407    9.287
  419.542   77.606    0.271    0.427    9.667
  419.792   64.636    0.273    0.416   10.697
  420.042   61.197    0.269    0.406   11.856
  420.292   65.979    0.283    0.395   12.727
  420.542   68.842    0.287    0.396   14.152
  420.792   70.117    0.291    0.406   14.673
  421.042   72.935    0.290    0.426   15.107
  421.292   73.752    0.293    0.441   15.330
  421.542   71.260    0.281    0.428   15.230
  421.792   63.729    0.271    0.422   15.062
  422.042   65.959    0.260    0.413   15.052
  422.292   71.003    0.243    0.391   15.256
  422.542   73.006    0.236    0.381   15.696
  422.792   70.152    0.257    0.395   16.572
  423.042   68.178    0.278    0.421   17.605
  423.292   69.973    0.303    0.438   18.692
  423.542   72.665    0.285    0.425   19.835
  423.792   76.312    0.260    0.409   19.926
  424.042   77.772    0.227    0.400   17.154
  424.292   77.174    0.203    0.384   15.041
  424.542   74.372    0.174    0.378   14.063
  424.792   70.639    0.177    0.392   13.738
  425.042   62.386    0.219    0.410   13.774
  425.292   60.645    0.243    0.426   13.122
  425.542   61.627    0.273    0.421   11.943
  425.792   68.954    0.276    0.395   10.564
  426.042   82.477    0.236    0.379    9.728
  426.292   84.963    0.215    0.370    9.189
  426.542   81.545    0.207    0.387    9.013
  426.792   78.179    0.201    0.397    9.804
  427.042   73.492    0.233    0.408   12.462
  427.292   68.892    0.260    0.419   19.358
  427.542   57.151    0.299    0.426   25.686
  427.792   56.198    0.328    0.426   38.429
  428.042   59.115    0.312    0.422   55.201
  428.292   60.234    0.308    0.416   76.111
  428.542   58.073    0.301    0.404   94.644
  428.792   59.032    0.308    0.419   94.276
  429.042   59.075    0.303    0.418   87.831
  429.292   60.109    0.298    0.415   84.111
  429.542   61.947    0.309    0.426   79.915
  429.792   62.894    0.316    0.428   77.662
  430.042   64.821    0.317    0.434   74.180
  430.292   67.096    0.323    0.439   69.999
  430.542   70.121    0.312    0.439   67.326
  430.792   73.118    0.299    0.432   61.684
  431.042   75.114    0.298    0.427   53.935
  431.292   74.931    0.301    0.438   44.498
  431.542   72.425    0.302    0.441   36.772
  431.792   75.997    0.300    0.449   29.568
  432.042   78.263    0.281    0.452   22.379
  432.292   81.953    0.274    0.443   19.031
  432.542   83.245    0.266    0.435   15.817
  432.792   81.647    0.258    0.424   13.825
  433.042   80.137    0.238    0.417   12.537
  433.292   77.771    0.232    0.418   12.238
  433.542   78.707    0.238    0.428   12.031
  433.792   83.772    0.241    0.414   11.977
  434.042   87.485    0.229    0.406   11.846
  434.292   90.538    0.225    0.404   11.498
  434.542   93.766    0.255    0.411   11.181
  434.792   96.895    0.241    0.421   10.651
  435.042  101.161    0.224    0.421   10.142
  435.292  106.340    0.210    0.404    9.472
  435.542  111.718    0.210    0.399    8.777
  435.792  116.117    0.184    0.409    8.021
  436.042  117.355    0.185    0.422    7.332
  436.292  114.692    0.197    0.433    6.701
  436.542  114.019    0.197    0.430    6.154
  436.792  115.089    0.172    0.429    5.927
  437.042  115.638    0.172    0.427    5.805
  437.292  111.651    0.185    0.425    6.137
  437.542  102.707    0.198    0.413    6.396
  437.792   89.948    0.203    0.396    6.922
  438.042   67.453    0.196    0.385    7.991
  438.292   58.525    0.209    0.374    9.334
  438.542   54.502    0.229    0.375   11.620
  438.792   50.676    0.250    0.383   15.023
  439.042   50.252    0.278    0.394   20.558
  439.292   51.142    0.286    0.396   26.399
  439.542   52.821    0.279    0.386   37.060
  439.792   54.719    0.272    0.379   47.090
  440.042   57.424    0.269    0.378   49.138
  440.292   59.324    0.271    0.388   44.603
  440.542   60.840    0.267    0.394   39.395
  440.792   63.552    0.258    0.404   31.164
  441.042   68.149    0.264    0.410   26.455
  441.292   71.469    0.269    0.410   21.827
  441.542   75.717    0.264    0.403   17.968
  441.792   81.824    0.252    0.384   14.533
  442.042   85.735    0.241    0.365   11.741
  442.292   89.720    0.223    0.344   10.424
  442.542   94.701    0.204    0.334    9.215
  442.792  101.006    0.177    0.360    8.554
  443.042  104.411    0.137    0.377    7.960
  443.292  105.676    0.147    0.394    7.612
  443.542  103.893    0.157    0.395    7.484
  443.792  101.951    0.159    0.389    7.153
  444.042  100.327    0.173    0.383    7.074
  444.292   99.455    0.159    0.387    7.036
  444.542  102.888    0.160    0.389    7.036
  444.792  109.228    0.157    0.395    7.043
  445.042  118.346    0.152    0.385    7.049
  445.292  123.298    0.142    0.390    7.054
  445.542  124.633    0.152    0.388    7.059
  445.792  118.953    0.153    0.381    7.065
  446.042  113.939    0.167    0.374    7.056
  446.292  111.028    0.179    0.387    7.208
  446.542  108.528    0.175    0.396    7.348
  446.792  108.635    0.189    0.403    7.427
  447.042  109.506    0.177    0.401    7.635
  447.292  107.908    0.165    0.389    7.776
  447.542  112.579    0.178    0.380    7.872
  447.792  116.153    0.155    0.370    7.941
  448.042  117.724    0.148    0.375    7.812
  448.292  110.692    0.158    0.387    7.751
  448.542  105.027    0.165    0.406    7.521
  448.792   97.786    0.165    0.418    7.538
  449.042   94.050    0.146    0.408    7.592
  449.292   89.787    0.144    0.392    7.844
  449.542   87.516    0.154    0.380    8.244
  449.792   90.257    0.153    0.365    8.493
  450.042   92.949    0.164    0.376    8.761
  450.292   93.648    0.193    0.385    8.768
  450.542   92.802    0.197    0.392    8.783
  450.792   91.784    0.183    0.399    8.639
  451.042   91.116    0.201    0.403    8.394
  451.292   85.887    0.191    0.409    8.179
  451.542   83.044    0.211    0.413    8.465
  451.792   80.796    0.229    0.418    8.806
  452.042   77.796    0.246    0.415    9.178
  452.292   76.902    0.249    0.406    9.624
  452.542   82.138    0.234    0.398   10.194
  452.792   84.594    0.227    0.409   10.832
  453.042   83.845    0.245    0.423   11.139
  453.292   76.511    0.253    0.425   11.722
  453.542   73.245    0.259    0.409   12.547
  453.792   74.934    0.278    0.401   13.309
  454.042   80.987    0.274    0.402   15.006
  454.292   83.886    0.288    0.411   16.190
  454.542   81.994    0.300    0.420   17.104
  454.792   81.548    0.289    0.420   17.148
  455.042   83.038    0.265    0.397   15.869
  455.292   84.223    0.252    0.392   14.621
  455.542   88.281    0.249    0.404   14.098
  455.792   84.716    0.311    0.419   13.883
  456.042   82.334    0.318    0.413   13.551
  456.292   82.194    0.271    0.395   12.907
  456.542   85.659    0.230    0.392   11.973
  456.792   84.234    0.233    0.392   10.881
  457.042   81.331    0.227    0.390    7.519
  457.292   73.951    0.237    0.366    6.731
  457.542   71.105    0.230    0.381    5.929
  457.792   72.695    0.233    0.392    5.498
  458.042   77.000    0.224    0.391    5.368
