~VERSION INFORMATION
 VERS.                 2.0:   CWLS LOG ASCII STANDARD -VERSION 2.0
 WRAP.                  NO:   ONE LINE PER DEPTH STEP
~WELL INFORMATION BLOCK
#MNEM.UNIT           DATA                    DESCRIPTION OF MNEMONIC
#---------    -------------------            -------------------------------
# Generated from Intellog Unique Number	CC_80_83/WELL/2405
NULL.         -999.25                        : NULL_VALUE
WELL.         HOMESTEAD ET AL COWPAR         : WELL_NAME
LOC .         11-23-080-04W4                 : Location     - LOCATION          
UWI .         00/11-23-080-04W400            : Uwi          - UNIQUE WELL ID    
ENTR.         DW                             : Entered      - ENTERED BY        
SRVC.         SCHLUMBERGER                   : Scn          - SERVICE COMPANY   
DATE.         27 JAN 74                      : Date         - LOG DATE
STRT.M        85.344                         : top_depth    - START DEPTH       
STOP.M        347.473                        : bot_depth    - STOP DEPTH        
STEP.M        0.3048                         : increment    - STEP LENGTH       
~CURVE INFORMATION BLOCK
#MNEM UNIT       ERCB CURVE CODE    CURVE DESCRIPTION
#-----------   ------------------   ----------------------------------
DEPT.M        00 001 00 00         : DEPTH        - DEPTH                       
DPHI.V/V      00 890 00 00         : PHID         - DENSITY POROSITY (LIMESTONE)
NPHI.V/V      00 330 00 00         : PHIN         - NEUTRON POROSITY (LIMESTONE)
GR  .API      00 310 00 00         : GR           - GAMMA RAY                   
ILD .OHMM     00 120 00 00         : RESD         - DEEP RESISTIVITY (DIL)      
~PARAMETER INFORMATION       
#MNEM.UNIT           DATA             DESCRIPTION OF MNEMONIC
#---------         -----------     ------------------------------
GL  .M        513.588              : gl           - GROUND LEVEL ELEVATION      
EREF.M        517.246              : kb           - ELEVATION OF DEPTH REFERENCE
DATM.M        517.246              : datum        - DATUM ELEVATION             
TDD .M        361.493              : tdd          - TOTAL DEPTH DRILLER         
RUN .         ONE                  : Run          - RUN NUMBER                  
ENG .         BILL                 : Engineer     - RECORDING ENGINEER          
WIT .         JIM                  : Witness      - WITNESSED BY                
MUD .         GEL                  : Mud_type     - MUD TYPE                    
MATR.         LIMESTONE            : Logunit      - NEUTRON MATRIX              
TMAX.C        22.2222              : BHT          - MAXIMUM RECORDED TEMPERATURE
BHTD.M        361.493              : BHTDEP       - MAXIMUM RECORDED TEMPERATURE
MATR.         1                    : LOGUNIT      - NEUTRON MATRIX              
RMT .C        25                   : MDTP         - TEMPERATURE OF MUD          
NEUT.         1                    : NEUTRON      - NEUTRON TYPE                
RESI.         0                    : RESIST       - RESISTIVITY TYPE            
RMC .OHMM     0.25                 : RMC          - RESISTIVITY OF MUD CAKE     
RMF .OHMM     0.25                 : RMF          - RESISTIVITY OF MUD FILTRATE 
SUFT.C        15                   : SUFT         - SURFACE TEMPERATURE         
~A  DEPTH     PHID     PHIN       GR     RESD
   85.344    0.315    0.552  117.209    3.427
   85.649    0.324    0.532  115.998    3.490
   85.954    0.307    0.531  116.613    3.489
   86.258    0.303    0.542  117.834    3.487
   86.563    0.314    0.553  119.663    3.486
   86.868    0.327    0.558  120.880    3.421
   87.173    0.338    0.565  122.102    3.356
   87.478    0.339    0.567  122.109    3.293
   87.782    0.330    0.573  124.543    3.231
   88.087    0.324    0.574  126.977    3.170
   88.392    0.326    0.574  128.197    3.169
   88.697    0.331    0.577  123.952    3.052
   89.002    0.328    0.595  124.568    3.051
   89.306    0.332    0.600  122.751    3.166
   89.611    0.331    0.574  121.540    3.224
   89.916    0.319    0.548  127.013    3.223
   90.221    0.317    0.547  128.840    3.222
   90.526    0.315    0.566  128.239    3.221
   90.830    0.326    0.577  125.816    3.220
   91.135    0.323    0.587  122.785    3.158
   91.440    0.330    0.600  119.146    3.099
   91.745    0.342    0.597  111.865    3.098
   92.050    0.308    0.588  114.300    3.097
   92.354    0.310    0.583  119.772    3.096
   92.659    0.326    0.578  120.993    3.095
   92.964    0.327    0.571  120.997    3.152
   93.269    0.322    0.561  119.183    3.211
   93.574    0.305    0.559  119.189    3.211
   93.879    0.305    0.572  121.624    3.149
   94.183    0.315    0.582  123.452    3.090
   94.488    0.332    0.597  124.064    3.031
   94.793    0.340    0.595  118.604    2.974
   95.098    0.342    0.597  114.967    2.864
   95.403    0.326    0.605  111.329    2.810
   95.707    0.343    0.596  113.158    2.706
   96.012    0.331    0.585  114.985    2.606
   96.317    0.332    0.584  115.597    2.557
   96.622    0.338    0.591  118.640    2.556
   96.927    0.343    0.600  119.252    2.555
   97.231    0.327    0.585  113.186    2.507
   97.536    0.315    0.563  111.978    2.460
   97.841    0.320    0.578  115.019    2.413
   98.146    0.332    0.585  121.099    2.412
   98.451    0.335    0.567  120.496    2.411
   98.755    0.334    0.554  116.859    2.410
   99.060    0.334    0.555  117.472    2.410
   99.365    0.339    0.577  115.048    2.409
   99.670    0.352    0.579  115.662    2.409
   99.975    0.348    0.589  115.670    2.407
  100.279    0.339    0.557  116.281    2.452
  100.584    0.331    0.571  115.680    2.451
  100.889    0.323    0.583  116.293    2.497
  101.194    0.314    0.594  116.299    2.495
  101.499    0.303    0.591  117.519    2.542
  101.803    0.314    0.594  118.133    2.588
  102.108    0.328    0.601  118.137    2.636
  102.413    0.332    0.585  115.107    2.685
  102.718    0.323    0.590  116.328    2.735
  103.023    0.317    0.595  118.156    2.734
  103.327    0.316    0.597  116.946    2.785
  103.632    0.299    0.585  111.488    2.889
  103.937    0.278    0.595  109.063    2.942
  104.242    0.204    0.585  112.713    3.053
  104.547    0.263    0.555  121.222    3.168
  104.851    0.289    0.561  121.228    3.288
  105.156    0.295    0.561  118.803    3.349
  105.461    0.294    0.555  117.596    3.474
  105.766    0.289    0.566  116.993    3.473
  106.071    0.267    0.586  118.215    3.604
  106.375    0.259    0.547  117.005    3.671
  106.680    0.265    0.563  117.618    3.739
  106.985    0.272    0.570  121.875    3.737
  107.290    0.273    0.565  124.310    3.599
  107.595    0.264    0.538  127.959    3.402
  107.899    0.245    0.539  120.679    3.401
  108.204    0.250    0.530  120.076    3.662
  108.509    0.265    0.515  121.297    3.872
  108.814    0.258    0.506  122.518    4.018
  109.119    0.226    0.490  120.094    4.248
  109.423    0.170    0.416   96.415    4.575
  109.728    0.209    0.447  110.998    4.838
  110.033    0.256    0.499  115.254    4.927
  110.338    0.278    0.565  116.473    4.487
  110.643    0.296    0.545   96.440    4.241
  110.947    0.330    0.530   86.728    4.922
  111.252    0.369    0.571   76.411    6.757
  111.557    0.403    0.444   83.097   10.974
  111.862    0.288    0.418   89.179   12.976
  112.167    0.290    0.432   90.397   13.717
  112.471    0.325    0.451   88.581   13.971
  112.776    0.331    0.466   75.832   14.498
  113.081    0.339    0.471   66.121   16.514
  113.386    0.327    0.466   60.054   17.788
  113.691    0.320    0.445   49.736   18.457
  113.995    0.345    0.430   56.423   19.155
  114.300    0.375    0.474   65.538   19.876
  114.605    0.359    0.454   72.224   20.241
  114.910    0.363    0.437   72.229   20.236
  115.215    0.362    0.414   69.199   18.772
  115.519    0.353    0.411   72.849   16.163
  115.824    0.366    0.436  109.292   14.446
  116.129    0.347    0.490  111.728   13.911
  116.434    0.347    0.479  105.660   13.398
  116.739    0.319    0.477   93.520   13.143
  117.043    0.309    0.448  100.813   13.139
  117.348    0.303    0.431  106.285   13.383
  117.653    0.313    0.476  105.684   13.886
  117.958    0.332    0.455   95.365   14.957
  118.263    0.353    0.451   78.974   16.723
  118.567    0.381    0.455   60.762   17.682
  118.872    0.399    0.505   60.768   19.043
  119.177    0.475    0.585   56.524   19.396
  119.482    0.536    0.583   52.884   19.389
  119.787    0.611    0.586   57.141   19.026
  120.091    0.547    0.580   77.796   17.982
  120.396    0.505    0.604   76.588   16.683
  120.701    0.525    0.637   73.557   15.190
  121.006    0.554    0.668   69.919   15.186
  121.311    0.568    0.679   66.889   16.052
  121.615    0.553    0.672   65.678   16.659
  121.920    0.580    0.684   69.935   16.964
  122.225    0.566    0.672   83.302   16.648
  122.530    0.452    0.679   98.490   14.333
  122.835    0.417    0.654  125.216   11.242
  123.139    0.366    0.626  128.261    9.324
  123.444    0.348    0.570  125.229    8.490
  123.749    0.336    0.540  125.234    8.486
  124.054    0.324    0.530  127.669    8.484
  124.359    0.329    0.527  123.425    8.804
  124.663    0.338    0.559  126.466    8.967
  124.968    0.341    0.572  130.724    9.479
  125.273    0.344    0.552  128.299    9.476
  125.578    0.347    0.561  121.018    9.297
  125.883    0.349    0.580  127.705    9.123
  126.187    0.349    0.542  131.355    9.118
  126.492    0.343    0.524  133.182    9.114
  126.797    0.346    0.523  131.973    9.283
  127.102    0.337    0.572  126.513    9.455
  127.407    0.343    0.543  124.698    9.453
  127.711    0.330    0.508  125.918    9.626
  128.016    0.301    0.529  124.101    9.446
  128.321    0.296    0.514  121.072    9.266
  128.626    0.295    0.502  125.327    9.093
  128.931    0.274    0.496  132.621    8.920
  129.235    0.273    0.492  132.627    8.918
  129.540    0.266    0.497  131.418    9.083
  129.845    0.258    0.509  131.425    9.252
  130.150    0.257    0.484  128.394    9.598
  130.455    0.252    0.478  127.186    9.595
  130.759    0.244    0.502  130.227    9.773
  131.064    0.241    0.489  133.877    9.769
  131.369    0.249    0.468  133.277    9.586
  131.674    0.263    0.470  129.638    9.405
  131.979    0.265    0.497  129.037    9.579
  132.283    0.245    0.490  130.258    9.576
  132.588    0.230    0.467  130.870    9.753
  132.893    0.224    0.450  132.092   10.118
  133.198    0.238    0.445  132.097   10.500
  133.503    0.253    0.456  130.280   11.739
  133.807    0.278    0.458  102.957   12.413
  134.112    0.303    0.462   70.170   14.141
  134.417    0.356    0.423   51.350   16.412
  134.722    0.351    0.411   53.788   18.695
  135.027    0.347    0.416   58.045   21.695
  135.331    0.337    0.419   61.085   22.513
  135.636    0.344    0.423   61.699   22.507
  135.941    0.355    0.430   64.742   22.500
  136.246    0.336    0.441   66.568   21.668
  136.551    0.331    0.446   65.968   20.099
  136.855    0.330    0.424   65.972   19.722
  137.160    0.347    0.417   72.050   19.349
  137.465    0.355    0.418   70.234   19.344
  137.770    0.327    0.419   67.811   19.701
  138.074    0.325    0.413   65.995   20.066
