~VERSION INFORMATION
 VERS.                 2.0:   CWLS LOG ASCII STANDARD -VERSION 2.0
 WRAP.                  NO:   ONE LINE PER DEPTH STEP
~WELL INFORMATION BLOCK
#MNEM.UNIT           DATA                    DESCRIPTION OF MNEMONIC
#---------    -------------------            -------------------------------
# Generated from Intellog Unique Number	CC_80_83/WELL/2414
NULL.         -999.25                        : NULL_VALUE
WELL.         PEX HOUSE                      : Well_name    - WELL
LOC .         11-29-080-16W4                 : Location     - LOCATION          
UWI .         00/11-29-080-16W4/0            : Uwi          - UNIQUE WELL ID    
ENTR.         DW                             : Entered      - ENTERED BY        
SRVC.         SCHLUMBERGER                   : Scn          - SERVICE COMPANY   
DATE.         06 FEB 82                      : Date         - LOG DATE
STRT.M        155                            : top_depth    - START DEPTH       
STOP.M        340.098                        : bot_depth    - STOP DEPTH        
STEP.M        0.3                            : increment    - STEP LENGTH       
~CURVE INFORMATION BLOCK
#MNEM UNIT       ERCB CURVE CODE    CURVE DESCRIPTION
#-----------   ------------------   ----------------------------------
DEPT.M        00 001 00 00         : DEPTH        - DEPTH                       
DPHI.V/V      00 890 00 00         : PHID         - DENSITY POROSITY (LIMESTONE)
NPHI.V/V      00 330 00 00         : PHIN         - NEUTRON POROSITY (LIMESTONE)
GR  .API      00 310 00 00         : GR           - GAMMA RAY                   
ILD .OHMM     00 120 00 00         : RESD         - DEEP RESISTIVITY (DIL)      
~PARAMETER INFORMATION       
#MNEM.UNIT           DATA             DESCRIPTION OF MNEMONIC
#---------         -----------     ------------------------------
GL  .M        549.5                : gl           - GROUND LEVEL ELEVATION      
EREF.M        553.1                : kb           - ELEVATION OF DEPTH REFERENCE
DATM.M        553.1                : datum        - DATUM ELEVATION             
TDD .M        344                  : tdd          - TOTAL DEPTH DRILLER         
RUN .         ONE                  : Run          - RUN NUMBER                  
ENG .         BILL                 : Engineer     - RECORDING ENGINEER          
WIT .         JIM                  : Witness      - WITNESSED BY                
MUD .         GEL                  : Mud_type     - MUD TYPE                    
MATR.         LIMESTONE            : Logunit      - NEUTRON MATRIX              
TMAX.C        24.4                 : BHT          - MAXIMUM RECORDED TEMPERATURE
BHTD.M        344                  : BHTDEP       - MAXIMUM RECORDED TEMPERATURE
MATR.         1                    : LOGUNIT      - NEUTRON MATRIX              
RMT .C        25                   : MDTP         - TEMPERATURE OF MUD          
NEUT.         1                    : NEUTRON      - NEUTRON TYPE                
RESI.         0                    : RESIST       - RESISTIVITY TYPE            
RMC .OHMM     0.25                 : RMC          - RESISTIVITY OF MUD CAKE     
RMF .OHMM     0.25                 : RMF          - RESISTIVITY OF MUD FILTRATE 
SUFT.C        15                   : SUFT         - SURFACE TEMPERATURE         
~A  DEPTH     PHID     PHIN       GR     RESD
# ...
  207.201    0.328    0.449   43.529   14.139
  207.501    0.331    0.443   44.714   14.141
  207.801    0.327    0.440   44.699   14.144
  208.101    0.329    0.451   45.883   13.887
  208.401    0.333    0.479   45.257   13.889
  208.701    0.336    0.508   45.831   13.894
  209.001    0.339    0.486   46.424   13.896
  209.301    0.341    0.458   46.995   14.429
  209.601    0.336    0.436   48.197   14.703
  209.901    0.335    0.422   49.382   14.982
  210.201    0.331    0.424   50.575   14.986
  210.501    0.313    0.443   49.943   14.989
  210.801    0.301    0.454   48.092   14.718
  211.101    0.302    0.465   49.890   14.449
  211.401    0.318    0.455   51.693   14.451
  211.701    0.329    0.417   48.013   14.188
  212.001    0.319    0.425   44.927   14.191
  212.301    0.328    0.461   46.131   13.935
  212.601    0.335    0.460   49.148   13.681
  212.901    0.324    0.462   51.560   13.684
  213.201    0.314    0.473   50.928   13.944
  213.501    0.307    0.454   48.460   13.947
  213.801    0.300    0.444   53.312   13.950
  214.101    0.289    0.420   50.238   14.215
  214.401    0.290    0.428   50.817   14.220
  214.701    0.301    0.452   50.181   14.222
  215.001    0.305    0.448   50.153   14.767
  215.301    0.297    0.454   53.172   14.769
  215.601    0.295    0.452   56.199   14.772
  215.901    0.293    0.433   59.221   14.776
  216.201    0.286    0.407   61.635   13.719
  216.501    0.279    0.399   62.831   12.501
  216.801    0.275    0.429   62.800   12.047
  217.101    0.254    0.478   57.894   17.166
  217.401    0.062    0.501   53.602   18.845
  217.701    0.156    0.223   48.698   17.827
  218.001    0.229    0.261   55.989   17.177
  218.301    0.285    0.386   63.278   15.655
  218.601    0.303    0.440   61.424   14.808
  218.901    0.291    0.443   55.299   14.537
  219.201    0.297    0.472   52.223   15.378
  219.501    0.292    0.443   57.072   15.669
  219.801    0.284    0.445   61.317   16.269
  220.101    0.291    0.421   60.680   15.679
  220.401    0.299    0.373   61.261   15.392
  220.701    0.312    0.391   56.970   14.832
  221.001    0.308    0.430   54.505   13.773
  221.301    0.288    0.437   59.347   13.028
  221.601    0.288    0.440   61.761   12.554
  221.901    0.315    0.447   63.570   12.325
  222.201    0.299    0.446   65.371   11.877
  222.501    0.294    0.447   65.956   11.880
  222.801    0.303    0.435   64.710   12.106
  223.101    0.312    0.431   65.285   12.336
  223.401    0.317    0.434   65.871   12.572
  223.701    0.320    0.438   64.625   12.342
  224.001    0.302    0.450   63.384   12.116
  224.301    0.308    0.470   63.355   11.677
  224.601    0.309    0.446   64.551   11.045
  224.901    0.297    0.424   68.181   10.254
  225.201    0.258    0.456   66.935    9.173
  225.501    0.247    0.462   69.958    8.840
  225.801    0.262    0.469   82.124    8.519
  226.101    0.268    0.483   83.315    8.058
  226.401    0.270    0.457   80.854    7.342
  226.701    0.258    0.457   81.432    7.076
  227.001    0.256    0.460   83.234    7.347
  227.301    0.259    0.495   81.993    8.066
  227.601    0.274    0.483   65.497    8.530
  227.901    0.297    0.469   64.249    9.022
  228.201    0.288    0.427   66.666    9.723
  228.501    0.283    0.435   62.981   10.095
  228.801    0.279    0.448   55.641   10.096
  229.101    0.248    0.434   54.992    9.912
  229.401    0.278    0.454   56.198    8.703
  229.701    0.289    0.482   65.317    8.233
  230.001    0.246    0.491   74.427    8.548
  230.301    0.244    0.500   75.629    8.873
  230.601    0.252    0.510   74.991    9.386
  230.901    0.260    0.479   78.010    9.045
  231.201    0.264    0.451   75.547    8.716
  231.501    0.276    0.472   66.375    8.400
  231.801    0.296    0.446   65.130    8.560
  232.101    0.286    0.450   68.149    8.722
  232.401    0.271    0.472   71.171    8.888
  232.701    0.267    0.450   77.244    7.804
  233.001    0.232    0.445   83.924    6.479
  233.301    0.261    0.467   90.608    5.689
  233.601    0.272    0.489   94.229    5.185
  233.901    0.278    0.505   92.378    5.185
  234.201    0.294    0.518   80.769    5.588
  234.501    0.283    0.533   78.302    5.694
  234.801    0.273    0.546   79.493    5.696
  235.101    0.285    0.556   77.639    5.489
  235.401    0.293    0.556   76.392    5.389
  235.701    0.278    0.537   77.586    5.193
  236.001    0.271    0.507   81.219    5.098
  236.301    0.265    0.573   79.975    5.195
  236.601    0.262    0.633   84.827    5.495
  236.901    0.261    0.620   92.114    5.705
  237.201    0.229    0.605   90.865    5.814
  237.501    0.207    0.617   88.395    5.816
  237.801    0.203    0.612   88.968    5.816
  238.101    0.223    0.487   88.951    6.152
  238.401    0.249    0.479   88.930    6.755
  238.701    0.248    0.468   88.907    7.012
  239.001    0.239    0.451   91.930    7.417
  239.301    0.251    0.470   87.633    7.558
  239.601    0.263    0.481   84.552    7.702
  239.901    0.252    0.470   85.140    7.562
  240.201    0.223    0.452   88.774    7.287
  240.501    0.225    0.473   88.745    7.154
  240.801    0.235    0.502   84.452    7.157
  241.101    0.239    0.497   81.375    7.026
  241.401    0.244    0.477   79.521    6.897
  241.701    0.229    0.477   80.105    6.647
  242.001    0.223    0.497   92.883    6.526
  242.301    0.243    0.512   92.238    6.528
  242.601    0.245    0.512   82.459    6.529
  242.901    0.243    0.506   76.333    7.036
  243.201    0.243    0.490   72.654    9.305
  243.501    0.247    0.471   68.361    9.307
  243.801    0.285    0.448   69.550    8.021
  244.101    0.273    0.436   78.670    4.028
  244.401    0.231    0.454   87.791    3.407
  244.701    0.235    0.487   92.641    3.537
  245.001    0.248    0.511   92.615    4.031
  245.301    0.243    0.540   90.151    5.851
  245.601    0.212    0.545   86.462    6.545
  245.901    0.212    0.516   88.866    6.922
  246.201    0.217    0.490   90.063    7.460
  246.501    0.219    0.447   89.433    7.601
  246.801    0.225    0.456   85.748    7.603
  247.101    0.230    0.540   88.152    7.059
  247.401    0.208    0.605   88.744    6.433
  247.701    0.214    0.617   89.318    5.755
  248.001    0.219    0.481   89.301    5.974
  248.301    0.208    0.465   87.429    6.319
  248.601    0.210    0.472   87.418    6.809
  248.901    0.236    0.473   87.998    6.939
  249.201    0.235    0.472   91.631    6.687
  249.501    0.226    0.453   95.264    6.444
  249.801    0.231    0.444   96.456    6.446
  250.101    0.231    0.453   84.843    6.568
  250.401    0.231    0.473   80.552    6.947
  250.701    0.232    0.453   81.736    7.212
  251.001    0.216    0.478   82.314    6.951
  251.301    0.209    0.483   81.689    6.698
  251.601    0.222    0.459   81.662    6.455
  251.901    0.224    0.480   90.173    6.338
  252.201    0.222    0.500   91.361    6.458
  252.501    0.256    0.469   81.586    6.959
  252.801    0.267    0.471   71.800    8.231
  253.101    0.265    0.477   67.508    9.206
  253.401    0.305    0.473   65.035   10.296
  253.701    0.320    0.475   64.404   11.517
  254.001    0.270    0.473   65.596   11.520
  254.301    0.266    0.423   68.011   11.102
  254.601    0.298    0.408   66.148   10.899
  254.901    0.322    0.426   63.077   10.700
  255.201    0.325    0.444   61.829   10.506
  255.501    0.322    0.450   64.243   10.314
  255.801    0.324    0.441   64.821   10.511
  256.101    0.319    0.435   62.962   10.514
  256.401    0.309    0.440   64.160   10.516
  256.701    0.313    0.442   62.309   10.518
  257.001    0.313    0.440   61.054   10.521
  257.301    0.306    0.439   62.254   10.330
  257.601    0.302    0.438   70.765   10.331
  257.901    0.308    0.443   67.686   10.143
  258.201    0.318    0.454   63.390   10.145
  258.501    0.324    0.439   62.143    9.961
  258.801    0.324    0.419   64.555    9.964
  259.101    0.319    0.438   58.433    9.965
