~V
VERS. 2.00: Ver 2.00
WRAP. NO:
VEND. PRIZM:GeoGraphix
~W
STRT.M 97.5000:START DEPTH
STOP.M 344.5000:STOP DEPTH
STEP.M 0.2500:STEP
NULL. -999.2500:NULL VALUE
WELL. 00/10-19-083-05W4/0 :WELL
COMP. :COMPANY
UWI. 00_10-19-083-05W4_0:UNIQUE WELL ID
FLD. :FIELD
CNTY. :COUNTY
STAT. :STATE
CTRY. :COUNTRY
PDAT. :PERMANENT DATUM
LMF. :LOG MEASURED FROM
DMF. :DRILLING MEASURED FROM
LOC1. :LOCATION LINE 1
LOC2. :LOCATION LINE 2
LOC3. :LOCATION LINE 3
SEC. :SECTION
TWP. :TOWNSHIP
RAN. :RANGE
SRVC. :Logging Company
BASE. :Logging Unit Location
ENG. :Logging Engineer
WITN. :Witnessed By
RUN. :Run No.
MUD_TYPE. :Type Fluid in Hole
MUDS. :Source of Mud Sample
RMFS. :Source of Mud Filtrate
RMCS. :Source of Mud Cake
LOC. :LOCATION
DATE. :LOG DATE
~C
DEPT.M :DEPTH
NPHI. :NPHI
GR.API :GR
DPHI. :Created by graphical digitiser entry.
ILD.Ohmm :ILD
~P
EKB. -999.2500:ELEVATION OF KELLY BUSHING
EDF. -999.2500:ELEVATION OF DRILLING FLOOR
EGL. -999.2500:ELEVATION OF GROUND LEVEL
EPD. -999.2500:ELEVATION OF PERMANENT DATUM
APD. -999.2500:LMF DISTANCE ABOVE PERMANENT DATUM
LAT. -999.2500:LATITUDE OF WELL LOCATION
LONG. -999.2500:LONGITUDE OF WELL LOCATION
TDD. -999.2500:Total Depth Driller
TDL. -999.2500:Total Depth Logger
LCSG1. -999.2500:Depth of Casing from Logger
CSIZE. -999.2500:Casing Size
CWT. -999.2500:Casing Weight
BS. -999.2500:Bit Size
TLI. 97.5000:Top Logged Interval
BLI. 344.4000:Bottom Logged Interval
MRT. 0.0000:Maximum Recorded Temperature
WMUD. -999.2500:Drilling Mud Density
DFV. -999.2500:Drilling Mud Viscosity
PH. -999.2500:Drilling Mud pH
DFL. -999.2500:Drilling Mud Fluid Loss
RM. -999.2500:Resistivity of Drilling Fluid
RMT. -999.2500:Measured Temp. of Drilling Fluid
RMF. -999.2500:Resistivity of Drilling Fluid Filtrate
RMFT. -999.2500:Measured Temp. of Drilling Fluid Filtrate
RMC. -999.2500:Resistivity of Mud Cake
RMCT. -999.2500:Measured Temp. of Mud Cake
PHImax.V/V 0.3900:Maximum allowable Porosity
RwBnd.OHMM 0.1500:Bound Water Resistivity
RhoHy.KG/MT 1000.0000:Hydrocarbon Bulk density
SwCutoff.V/V 0.7000:Water Saturation Cutoff
PHINsh.V/V 0.4800:New Description
Rw.OHMM 1.0000:Formation Water Resistivity
Rshl.OHMM 5.0000:Resistivity shale
Trw.DEGC 25.0000:Rw measured at Lab conditions
ShaleCutoff.V/V 0.4000:New Description
GRcln.API 45.0000:Gamma Ray clean
RhoM.KG/MT 2650.0000:Bulk Density Matrix
GRshl.API 90.0000:Gamma Ray shale
m. 2.0000:Archie "m"
n. 2.0000:Archie "n"
GasTol.V/V 0.0500:Gas Tollerance
BHTemp.DEGC 25.0000:Bottom Hole Temperature
BHTDepth.M 1000.0000:Bottom Hole Depth
PHIDsh.US/MT 0.1800:New Description
a. 1.0000:Archie "a"
Gas Tol.V/V 0.0500:Gas Tollerance
RhoF.KG/MT 1000.0000:Bulk Density Fluid
RhoShl.KG/MT 2300.0000:Bulk Density Shale
TarCutoff.V/V 0.0300:New Description
SurfTemp.DEGC 10.0000:New Description
HIshl.V/V 0.4000:Neutron Hydrogen Index shale
NULL. -999.2500:
~A
# ...
  312.0000     0.4994    55.9116     0.2767     1.8946 
  312.2500     0.4912    55.7902     0.2756     1.7562 
  312.5000     0.4966    58.8723     0.2685     1.6520 
  312.7500     0.5203    59.7328     0.2650     1.6343 
  313.0000     0.5472    58.7104     0.2653     1.6685 
  313.2500     0.5638    58.9339     0.2657     1.7048 
  313.5000     0.5798    63.3490     0.2639     1.7486 
  313.7500     0.5535    64.7880     0.2483     1.7974 
  314.0000     0.5118    65.7139     0.2377     1.8461 
  314.2500     0.4758    66.1100     0.2417     1.8837 
  314.5000     0.4467    65.9387     0.2494     1.9093 
  314.7500     0.4203    65.1539     0.2480     1.9279 
  315.0000     0.4021    63.7129     0.2396     1.9465 
  315.2500     0.3924    63.1907     0.2239     1.9135 
  315.5000     0.3893    63.8930     0.2303     1.8730 
  315.7500     0.3936    65.0274     0.2498     1.7975 
  316.0000     0.4058    66.7125     0.2660     1.7464 
  316.2500     0.4280    69.0572     0.2651     1.7770 
  316.5000     0.4659    71.2404     0.2469     1.8563 
  316.7500     0.5021    73.4792     0.2369     1.9684 
  317.0000     0.5092    76.7730     0.2320     2.0933 
  317.2500     0.5042    77.9361     0.2344     2.2163 
  317.5000     0.4959    77.7479     0.2432     2.2973 
  317.7500     0.4882    78.5831     0.2499     2.3012 
  318.0000     0.4828    82.0419     0.2338     2.2280 
  318.2500     0.4803    78.3322     0.2341     2.1800 
  318.5000     0.4830    73.0406     0.2463     2.2078 
  318.7500     0.4879    68.9065     0.2572     2.2513 
  319.0000     0.4911    68.5315     0.2595     2.2439 
  319.2500     0.4913    69.3259     0.2551     2.1432 
  319.5000     0.4924    58.4556     0.2578     1.9606 
  319.7500     0.4935    47.9947     0.2724     1.6859 
  320.0000     0.4899    44.2490     0.2988     1.5586 
  320.2500     0.4878    43.6638     0.3225     1.4834 
  320.5000     0.4870    43.6766     0.3295     1.4281 
  320.7500     0.4779    43.1373     0.3206     1.3876 
  321.0000     0.4386    42.7294     0.3245     1.3496 
  321.2500     0.3993    42.3278     0.3362     1.3201 
  321.5000     0.3758    41.1281     0.3344     1.2906 
  321.7500     0.3888    41.2218     0.3295     1.2701 
  322.0000     0.4235    42.9196     0.3239     1.2579 
  322.2500     0.4574    44.3218     0.3206     1.2489 
  322.5000     0.4883    40.8894     0.3330     1.2398 
  322.7500     0.5042    38.0396     0.3473     1.2465 
  323.0000     0.5163    40.1934     0.3385     1.2601 
  323.2500     0.5221    43.8909     0.3235     1.2756 
  323.5000     0.5251    44.5557     0.3147     1.2925 
  323.7500     0.5253    40.4808     0.3162     1.3123 
  324.0000     0.5090    36.8136     0.3192     1.3335 
  324.2500     0.4715    35.3645     0.3278     1.3547 
  324.5000     0.4548    33.1887     0.3374     1.3590 
  324.7500     0.4530    30.3233     0.3444     1.3419 
  325.0000     0.4607    28.3883     0.3438     1.2999 
  325.2500     0.4730    28.7583     0.3379     1.2299 
  325.5000     0.4837    30.7342     0.3462     1.1288 
  325.7500     0.4803    33.6192     0.3372     1.1609 
  326.0000     0.4700    37.7051     0.3227     1.2364 
  326.2500     0.4716    44.0908     0.2957     1.3838 
  326.5000     0.4857    52.8409     0.2578     1.5738 
  326.7500     0.5092    61.7070     0.2217     1.7690 
  327.0000     0.5490    64.8477     0.2138     1.9731 
  327.2500     0.5888    65.4005     0.2116     2.2532 
  327.5000     0.6197    63.1100     0.2165     2.5748 
  327.7500     0.6261    62.4636     0.2237     2.8040 
  328.0000     0.6190    63.0469     0.2316     2.8816 
  328.2500     0.6129    62.0649     0.2388     2.8310 
  328.5000     0.6026    56.8623     0.2410     2.7662 
  328.7500     0.5919    57.0064     0.2286     2.6460 
  329.0000     0.5529    58.4269     0.2088     2.5257 
  329.2500     0.5183    60.9391     0.2131     2.4390 
  329.5000     0.4988    62.5035     0.2291     2.3856 
  329.7500     0.4944    61.6380     0.2351     2.3490 
  330.0000     0.5052    59.8299     0.2340     2.3123 
  330.2500     0.5110    60.0915     0.2282     2.2476 
  330.5000     0.4985    59.4197     0.2325     2.1778 
  330.7500     0.4831    57.2445     0.2422     2.1079 
  331.0000     0.4726    55.6416     0.2476     2.0445 
  331.2500     0.4687    56.5136     0.2424     1.9899 
  331.5000     0.4676    58.7716     0.2332     1.9352 
  331.7500     0.4676    58.1101     0.2314     1.8805 
  332.0000     0.4781    58.3075     0.2353     1.8570 
  332.2500     0.4923    61.0958     0.2369     1.8483 
  332.5000     0.5058    64.0275     0.2372     1.8443 
  332.7500     0.5168    64.9873     0.2388     1.8402 
  333.0000     0.5260    66.7041     0.2398     1.8362 
  333.2500     0.5281    65.1244     0.2350     1.8456 
  333.5000     0.5245    64.5968     0.2267     1.8644 
  333.7500     0.5245    64.4744     0.2182     1.8856 
  334.0000     0.5311    64.4502     0.2150     1.9068 
  334.2500     0.5418    64.4545     0.2179     1.9269 
  334.5000     0.5488    64.5513     0.2163     1.9428 
  334.7500     0.5460    66.0054     0.2110     1.9111 
  335.0000     0.5426    65.6857     0.2212     1.8793 
  335.2500     0.5426    65.2802     0.2291     1.8476 
  335.5000     0.5476    65.9296     0.2329     1.8208 
  335.7500     0.5533    68.2930     0.2332     1.8031 
  336.0000     0.5452    72.6129     0.2214     1.7923 
  336.2500     0.5360    83.6843     0.2311     1.8361 
  336.5000     0.5301    94.3766     0.2227     1.9767 
  336.7500     0.5255   103.7599     0.2084     2.1438 
  337.0000     0.5295   110.1970     0.1950     2.3176 
  337.2500     0.5423   112.8909     0.1899     2.4877 
  337.5000     0.5408   113.4335     0.2066     2.6108 
  337.7500     0.5315   109.2268     0.1969     2.5752 
  338.0000     0.5279   107.0950     0.1801     2.5398 
  338.2500     0.5270   107.8125     0.1852     2.5057 
  338.5000     0.5260   108.4857     0.2034     2.4722 
  338.7500     0.5228   105.7541     0.2167     2.4543 
  339.0000     0.5166    98.9909     0.2265     2.4984 
  339.2500     0.5199    96.9621     0.2476     2.6083 
  339.5000     0.5179    92.6235     0.2954     2.7602 
  339.7500     0.5045    88.1102     0.3499     2.9561 
  340.0000     0.4899    86.1239     0.3528     3.2710 
  340.2500     0.4851    88.3547     0.2813     3.7123 
  340.5000     0.4848    93.9019     0.2211     4.0785 
  340.7500     0.4843    97.5488     0.1404     4.3895 
  341.0000     0.4842    94.6352     0.1144     4.6160 
  341.2500     0.4833    88.7090     0.1010     4.7726 
  341.5000     0.4770    81.3936     0.0712     4.8638 
  341.7500     0.4560    72.9707     0.0294     4.9056 
  342.0000     0.4053    62.9648     0.0317     4.9478 
  342.2500     0.3964    61.5451     0.0452     5.1330 
  342.5000     0.4003    59.6354     0.0452     5.4145 
  342.7500     0.3996    58.2834     0.0380     5.8253 
  343.0000     0.4090    55.6199     0.0268     6.5320 
  343.2500     0.4394    47.7447     0.0161     7.5081 
  343.5000     0.4610    29.6130     0.0167     8.2061 
  343.7500     0.4808    14.8561     0.0165     8.6415 
  344.0000  -999.2500    11.6494     0.0055     9.0341 
  344.2500  -999.2500    10.6832     0.0117     9.4064 
  344.5000  -999.2500  -999.2500  -999.2500  -999.2500 
