~VERSION INFORMATION
 VERS.                 2.0:   CWLS LOG ASCII STANDARD -VERSION 2.0
 WRAP.                  NO:   ONE LINE PER DEPTH STEP
~WELL INFORMATION BLOCK
#MNEM.UNIT           DATA                    DESCRIPTION OF MNEMONIC
#---------    -------------------            -------------------------------
# Generated from Intellog Unique Number	CW_76_78/WELL/2813
WELL.         11-01-077-24W4                 : Well_name    - WELL
LOC .         00/11-01-077-24W4/0            : Location     - LOCATION
UWI .         00/11-01-077-24W4/0            : Uwi          - UNIQUE WELL ID
ENTR.         JJ                             : Entered      - ENTERED BY
SRVC.         WESTERN ATLAS                  : Scn          - SERVICE COMPANY
DATE.         10 MAR 70                      : Date         - LOG DATE
STRT.M        607.162                        : top_depth    - START DEPTH
STOP.M        735.162                        : bot_depth    - STOP DEPTH
STEP.M        0.25                           : increment    - STEP LENGTH
 NULL. -999.2500:NULL Value
~CURVE INFORMATION BLOCK
#MNEM UNIT       ERCB CURVE CODE    CURVE DESCRIPTION
#-----------   ------------------   ----------------------------------
DEPT.M        00 001 00 00         : DEPTH        - DEPTH
DELT.US/F     00 520 00 00         : DELT         - SONIC TRAVEL TIME
CALI.MM       00 280 01 00         : CAL          - CALIPER
GR  .API      00 310 00 00         : GR           - GAMMA RAY
ILD .OHMM     00 120 00 00         : RESD         - DEEP RESISTIVITY (DIL)
~PARAMETER INFORMATION
#MNEM.UNIT           DATA             DESCRIPTION OF MNEMONIC
#---------         -----------     ------------------------------
GL  .M        797.662              : gl           - GROUND LEVEL ELEVATION
EREF.M        800.71               : kb           - ELEVATION OF DEPTH REFERENCE
DATM.M        797.662              : datum        - DATUM ELEVATION
TDD .M        734.568              : tdd          - TOTAL DEPTH DRILLER
RUN .         ONE                  : Run          - RUN NUMBER
ENG .         KOWALCHUK            : Engineer     - RECORDING ENGINEER
WIT .         TOFT                 : Witness      - WITNESSED BY
BASE.         V.V.                 : Branch       - HOME BASE OF LOGGING UNIT
MUD .         MUD                  : Mud_type     - MUD TYPE
MATR.         SANDSTONE            : Logunit      - NEUTRON MATRIX
TMAX.C        33.3333              : BHT          - MAXIMUM RECORDED TEMPERATURE
BHTD.M        736.092              : BHTDEP       - MAXIMUM RECORDED TEMPERATURE
RMT .C        18.3333              : MDTP         - TEMPERATURE OF MUD
MUDD.KG/M     1140                 : MWT          - MUD DENSITY
NEUT.         1                    : NEUTRON      - NEUTRON TYPE
RESI.         0                    : RESIST       - RESISTIVITY TYPE
RM  .OHMM     4                    : RM           - RESISTIVITY OF MUD
RMC .OHMM     4.5                  : RMC          - RESISTIVITY OF MUD CAKE
RMF .OHMM     2.2                  : RMF          - RESISTIVITY OF MUD FILTRATE
SUFT.C        5                    : SUFT         - SURFACE TEMPERATURE
~A  DEPTH     DELT      CAL       GR     RESD
# ...
  650.662  373.831  233.550  109.730    8.131
  650.912  370.492  233.621  108.399    7.981
  651.162  362.960  234.016  106.338    7.907
  651.412  352.807  233.819  105.533    7.874
  651.662  352.482  233.719  102.863    7.882
  651.912  364.603  233.695   99.894    7.887
  652.162  370.894  234.174  105.933    7.894
  652.412  348.295  234.453  109.500    7.940
  652.662  345.611  234.563  105.318    8.025
  652.912  340.306  233.839   99.502    8.070
  653.162  349.218  232.208   95.736    8.079
  653.412  363.894  232.097   99.784    8.045
  653.662  344.636  232.281  103.292    7.973
  653.912  352.040  232.770  100.508    7.783
  654.162  360.035  233.165  105.999    7.633
  654.412  366.064  233.642  111.880    7.600
  654.662  354.142  234.071  111.511    7.527
  654.912  365.937  234.343  110.532    7.494
  655.162  356.767  234.717  109.054    7.462
  655.412  346.418  235.011  104.869    7.468
  655.662  348.058  235.221   98.938    7.474
  655.912  365.027  235.203  102.259    7.520
  656.162  357.757  235.063  106.784    7.605
  656.412  359.397  235.154  112.484    7.690
  656.662  361.102  235.058  113.124    7.895
  656.912  356.125  235.129  104.467    7.978
  657.162  360.844  235.235  109.183    8.024
  657.412  345.516  234.999  110.261    8.032
  657.662  340.015  234.717  102.387    7.998
  657.912  352.988  234.483  102.985    7.888
  658.162  361.114  234.171  108.971    7.855
  658.412  370.877  234.064  104.483    7.823
  658.662  356.007  233.940   99.093    7.789
  658.912  366.033  234.033  101.381    7.794
  659.162  353.784  234.018  104.821    7.842
  659.412  332.757  234.398  105.305    7.965
  659.662  360.732  234.604  102.264    8.050
  659.912  349.990  234.898  100.633    8.096
  660.162  355.233  234.862   98.939    8.065
  660.412  371.285  234.455   98.800    8.070
  660.662  377.183  233.330   99.575    8.077
  660.912  358.580  232.400  103.923    8.083
  661.162  349.148  230.988   95.629    8.168
  661.412  353.146  229.788   98.411    8.254
  661.662  348.497  229.161  103.610    8.339
  661.912  343.716  228.822  107.651    8.659
  662.162  339.788  227.920  100.315    9.098
  662.412  343.851  227.893   92.747    9.772
  662.662  349.291  228.287   88.985   10.604
  662.912  351.061  230.097   92.065   11.553
  663.162  334.489  231.493   94.538   12.111
  663.412  269.634  233.093   89.996   12.549
  663.662  270.029  233.376   86.052   11.967
  663.912  288.833  230.952   83.205   11.029
  664.162  311.698  230.744   84.406   10.054
  664.412  343.670  231.219   87.604    9.394
  664.662  317.009  231.946   88.628    9.163
  664.912  299.846  232.506   85.894    8.934
  665.162  317.143  233.511   84.860    8.705
  665.412  355.208  234.294   89.208    8.475
  665.662  351.738  234.713   95.254    8.325
  665.912  349.970  234.271  101.377    8.252
  666.162  348.531  234.375  101.713    8.378
  666.412  346.895  235.760   99.714    8.659
  666.662  348.731  237.353  102.250    9.255
  666.912  358.364  238.247  105.509   10.007
  667.162  355.155  234.704  109.007   10.957
  667.412  319.978  232.077  113.246   13.007
  667.662  279.886  232.099  105.910   15.057
  667.912  265.541  233.102   87.625   16.832
  668.162  270.588  233.347   79.748   18.017
  668.412  266.070  233.752   79.988   18.535
  668.662  275.505  233.937   85.370   16.262
  668.912  289.592  234.343   87.836   14.422
  669.162  307.609  234.913   88.499   12.817
  669.412  333.620  236.106   97.264   12.234
  669.662  329.101  237.817   99.495   11.533
  669.912  314.363  239.020  102.637   10.714
  670.162  324.388  239.489  107.711   10.053
  670.412  331.924  240.219  108.798    9.549
  670.662  332.450  240.391  109.342    9.203
  670.912  338.020  240.072  112.777    9.131
  671.162  356.235  237.823  116.212    9.137
  671.412  366.980  235.104  119.292    9.221
  671.662  344.118  235.185  112.211    9.386
  671.912  313.723  235.998  105.663    9.667
  672.162  323.486  235.894   98.222    9.910
  672.412  329.646  236.267   99.660    9.719
  672.662  329.124  236.535  104.916    9.412
  672.912  319.627  236.555  104.063    9.301
  673.162  328.342  236.718  101.453    9.464
  673.412  336.598  237.017  104.474    9.745
  673.662  327.035  236.906  104.463   10.224
  673.912  308.498  236.887  100.891   10.467
  674.162  265.065  238.193  102.268   10.589
  674.412  282.362  239.175   95.306   10.164
  674.662  329.860  239.068   89.913    9.975
  674.912  336.085  237.129   96.681    9.588
  675.162  346.897  237.037  103.035    9.242
  675.412  377.689  237.830  102.174    9.051
  675.662  391.514  238.633   95.393    8.821
  675.912  349.130  238.794   94.473    8.513
  676.162  361.186  239.088   98.830    8.324
  676.412  346.448  239.281  104.264    8.213
  676.662  348.677  239.380  106.372    8.180
  676.912  348.810  239.453  101.526    8.190
  677.162  365.255  239.859   98.308    8.192
  677.412  354.710  239.641   98.184    8.160
  677.662  338.007  239.720  103.560    8.166
  677.912  333.947  239.817  104.096    8.172
  678.162  345.282  239.483  102.643    8.062
  678.412  363.562  239.173  107.233    8.028
  678.662  351.575  239.467  111.396    7.918
  678.912  353.542  240.653  108.666    7.610
  679.162  355.182  241.256  103.942    7.184
  679.412  347.650  241.153  103.991    6.757
  679.662  329.571  241.319  107.866    6.253
  679.912  342.282  241.328  106.894    5.828
  680.162  374.778  241.412  103.669    5.519
  680.412  379.431  241.496  106.989    5.251
  680.662  363.972  241.492  110.200    4.903
  680.912  359.585  241.473  110.687    4.989
  681.162  386.643  241.653  115.198    5.860
  681.412  430.276  241.431  103.575    8.499
  681.662  397.653  241.131   99.088   10.274
  681.912  388.942  240.600   93.090   11.734
  682.162  390.516  240.187   78.923   12.254
  682.412  371.192  240.101   68.201   12.258
  682.662  379.907  239.684   63.289   12.384
  682.912  370.344  239.463   63.343   12.430
  683.162  352.134  238.844   59.463   12.121
  683.412  340.802  238.107   65.574   11.341
  683.662  349.058  237.197   73.434   10.326
  683.912  355.808  235.868   72.099    9.586
  684.162  374.153  235.244   69.907    9.161
  684.412  360.201  235.950   67.416    8.970
  684.662  361.972  236.934   64.325    8.820
  684.912  383.003  239.145   62.381    8.709
  685.162  355.294  239.651   67.396    8.676
  685.412  299.872  239.315   84.088    8.721
  685.662  329.093  237.397   95.825    9.084
  685.912  350.582  236.476   98.477    9.324
  686.162  363.425  236.152   95.264    9.646
  686.412  369.126  235.750   95.800   10.084
  686.662  382.099  235.337   93.922   10.641
  686.912  398.807  235.408   87.075   11.275
  687.162  387.082  235.007   70.845   11.086
  687.412  373.130  234.776   53.049   11.171
  687.662  360.423  234.476   50.075   11.767
  687.912  347.322  234.250   50.914   12.520
  688.162  347.259  233.731   54.727   13.313
  688.412  345.492  233.730   56.227   13.829
  688.662  342.152  233.826   55.315   14.661
  688.912  342.744  233.889   58.106   15.534
  689.162  341.370  233.705   61.111   16.168
  689.412  344.910  233.984   65.760   16.724
  689.662  345.305  234.285   71.264   14.806
  689.912  321.591  234.547   73.614   13.319
  690.162  305.936  234.851   73.615   12.579
  690.412  327.753  235.028   75.479   11.760
  690.662  341.972  235.034   81.282   14.910
  690.912  353.372  234.621   90.344   17.353
  691.162  350.099  234.281  101.414   22.364
  691.412  326.451  233.882   98.983   29.091
  691.662  356.130  233.853   83.366   38.182
  691.912  358.686  233.855   73.128   43.731
  692.162  348.861  234.044   68.642   44.969
  692.412  339.430  233.914   71.552   44.623
  692.662  337.925  233.820   68.998   43.496
  692.912  337.993  232.796   68.933   42.746
  693.162  340.549  232.275   71.047   42.012
  693.412  341.468  231.845   72.483   41.268
  693.662  339.898  231.046   72.655   39.355
  693.912  336.231  230.928   65.209   40.188
