~VERSION INFORMATION
 VERS.                 2.0:   CWLS LOG ASCII STANDARD -VERSION 2.0
 WRAP.                  NO:   ONE LINE PER DEPTH STEP
~WELL INFORMATION BLOCK
#MNEM.UNIT           DATA                    DESCRIPTION OF MNEMONIC
#---------    -------------------            -------------------------------
# Generated from Intellog Unique Number	CS_71_72/WELL/909
WELL.         BVX-PCP ET AL DUNCAN           : Well_name    - WELL
LOC .         00/11-30-071-14W4/0            : Location     - LOCATION
UWI .         00/11-30-071-14W4/0            : Uwi          - UNIQUE WELL ID
ENTR.         SP                             : Entered      - ENTERED BY
SRVC.         SCHLUMBERGER                   : Scn          - SERVICE COMPANY
STRT.M        350                            : top_depth    - START DEPTH
STOP.M        535                            : bot_depth    - STOP DEPTH
STEP.M        0.25                           : increment    - STEP LENGTH
 NULL. -999.2500:NULL Value
~CURVE INFORMATION BLOCK
#MNEM UNIT       ERCB CURVE CODE    CURVE DESCRIPTION
#-----------   ------------------   ----------------------------------
DEPT.M        00 001 00 00         : DEPTH        - DEPTH
ILD .OHMM     00 120 00 00         : RESD         - DEEP RESISTIVITY (DIL)
DPHI.V/V      00 890 00 00         : PHID         - DENSITY POROSITY (LIMESTONE)
NPHI.V/V      00 330 00 00         : PHIN         - NEUTRON POROSITY (LIMESTONE)
GR  .API      00 310 00 00         : GR           - GAMMA RAY
~PARAMETER INFORMATION
#MNEM.UNIT           DATA             DESCRIPTION OF MNEMONIC
#---------         -----------     ------------------------------
GL  .M        668.81               : gl           - GROUND LEVEL ELEVATION
EREF.M        672.81               : kb           - ELEVATION OF DEPTH REFERENCE
DATM.M        668.81               : datum        - DATUM ELEVATION
TDD .M        536                  : tdd          - TOTAL DEPTH DRILLER
RUN .         ONE                  : Run          - RUN NUMBER
ENG .         BILL                 : Engineer     - RECORDING ENGINEER
WIT .         JIM                  : Witness      - WITNESSED BY
MUD .         GEL                  : Mud_type     - MUD TYPE
MATR.         LIMESTONE            : Logunit      - NEUTRON MATRIX
TMAX.C        25                   : BHT          - MAXIMUM RECORDED TEMPERATURE
BHTD.M        536                  : BHTDEP       - MAXIMUM RECORDED TEMPERATURE
MATR.         1                    : LOGUNIT      - NEUTRON MATRIX
RMT .C        25                   : MDTP         - TEMPERATURE OF MUD
NEUT.         1                    : NEUTRON      - NEUTRON TYPE
RESI.         0                    : RESIST       - RESISTIVITY TYPE
RMC .OHMM     0.25                 : RMC          - RESISTIVITY OF MUD CAKE
RMF .OHMM     0.25                 : RMF          - RESISTIVITY OF MUD FILTRATE
SUFT.C        15                   : SUFT         - SURFACE TEMPERATURE
~A  DEPTH     RESD     PHID     PHIN       GR
  350.000    2.807    0.242    0.505  103.459
  350.250    2.880    0.233    0.506  108.096
  350.500    2.961    0.224    0.507  109.740
  350.750    3.066    0.227    0.467  105.155
  351.000    3.187    0.234    0.452  106.555
  351.250    3.270    0.233    0.473  105.938
  351.500    3.373    0.239    0.493  103.430
  351.750    3.481    0.240    0.483  102.875
  352.000    3.571    0.234    0.480  103.542
  352.250    3.622    0.225    0.479  105.370
  352.500    3.647    0.228    0.466  107.075
  352.750    3.665    0.236    0.469  106.215
  353.000    3.588    0.242    0.478  108.470
  353.250    3.421    0.235    0.472  109.503
  353.500    3.232    0.232    0.490  105.101
  353.750    3.070    0.238    0.503  101.432
  354.000    2.977    0.246    0.506  103.076
  354.250    2.925    0.251    0.512  105.514
  354.500    2.996    0.234    0.489  105.325
  354.750    3.091    0.219    0.476  105.382
  355.000    3.165    0.208    0.489  105.133
  355.250    3.217    0.214    0.509  103.540
  355.500    3.251    0.224    0.521  105.489
  355.750    3.249    0.232    0.534  108.844
  356.000    3.228    0.235    0.544  112.137
  356.250    3.263    0.237    0.506  111.705
  356.500    3.341    0.236    0.486  108.951
  356.750    3.415    0.243    0.475  105.404
  357.000    3.438    0.238    0.483  102.834
  357.250    3.341    0.230    0.501  101.608
  357.500    3.185    0.219    0.490  102.519
  357.750    3.148    0.210    0.482  102.148
  358.000    3.278    0.215    0.486  101.348
  358.250    3.414    0.237    0.494   99.206
  358.500    3.740    0.255    0.450   96.820
  358.750    3.991    0.271    0.410  102.923
  359.000    4.188    0.294    0.519   94.062
  359.250    4.289    0.396    0.621   79.888
  359.500    4.191    0.426    0.529   70.966
  359.750    4.064    0.355    0.456   64.793
  360.000    3.978    0.328    0.411   64.483
  360.250    3.901    0.318    0.392   73.395
  360.500    3.870    0.311    0.402   72.656
  360.750    3.889    0.313    0.408   71.370
  361.000    3.945    0.315    0.408   75.150
  361.250    4.086    0.312    0.400   77.467
  361.500    4.255    0.307    0.395   75.874
  361.750    4.366    0.303    0.395   76.480
  362.000    4.580    0.302    0.398   85.331
  362.250    4.673    0.285    0.399   93.144
  362.500    4.750    0.262    0.399   97.964
  362.750    4.791    0.247    0.402  101.501
  363.000    4.815    0.239    0.409  104.489
  363.250    4.794    0.233    0.416  105.767
  363.500    4.763    0.221    0.432  108.327
  363.750    4.620    0.209    0.435  111.498
  364.000    4.331    0.203    0.428  111.737
  364.250    3.810    0.233    0.439  100.983
  364.500    3.552    0.261    0.445   88.275
  364.750    3.355    0.297    0.430   75.445
  365.000    3.169    0.327    0.409   60.965
  365.250    3.022    0.343    0.393   58.151
  365.500    2.974    0.340    0.390   61.628
  365.750    2.962    0.333    0.389   64.310
  366.000    2.921    0.328    0.387   67.114
  366.250    2.870    0.325    0.398   70.590
  366.500    2.890    0.323    0.408   75.654
  366.750    2.976    0.326    0.421   80.351
  367.000    3.122    0.332    0.418   82.973
  367.250    3.252    0.332    0.399   84.801
  367.500    3.583    0.314    0.387   86.079
  367.750    4.030    0.299    0.397   87.662
  368.000    4.309    0.283    0.402   86.375
  368.250    4.686    0.261    0.385   82.522
  368.500    5.057    0.238    0.365   78.181
  368.750    5.345    0.230    0.348   72.985
  369.000    5.424    0.231    0.325   68.949
  369.250    5.430    0.224    0.324   74.686
  369.500    5.286    0.222    0.350   75.352
  369.750    4.956    0.234    0.369   72.660
  370.000    4.543    0.258    0.378   69.845
  370.250    4.141    0.276    0.376   67.887
  370.500    3.839    0.289    0.370   70.264
  370.750    3.566    0.297    0.377   78.382
  371.000    3.638    0.224    0.401   88.148
  371.250    3.889    0.205    0.408   95.473
  371.500    4.142    0.191    0.398  103.285
  371.750    4.331    0.176    0.422  109.083
  372.000    4.493    0.184    0.436  111.582
  372.250    4.541    0.190    0.449  112.859
  372.500    4.521    0.181    0.462  113.710
  372.750    4.451    0.175    0.455  114.743
  373.000    4.268    0.175    0.440  120.418
  373.250    4.047    0.196    0.463  124.688
  373.500    4.044    0.182    0.482  123.340
  373.750    3.995    0.171    0.481  121.380
  374.000    3.882    0.182    0.488  120.276
  374.250    3.709    0.190    0.492  123.020
  374.500    3.451    0.198    0.496  126.007
  374.750    3.254    0.208    0.517  126.125
  375.000    3.039    0.211    0.543  121.966
  375.250    2.959    0.220    0.562  123.489
  375.500    2.979    0.234    0.572  127.087
  375.750    3.033    0.240    0.555  124.334
  376.000    3.311    0.249    0.536  118.100
  376.250    3.682    0.259    0.481  113.942
  376.500    4.064    0.261    0.441  114.182
  376.750    4.313    0.254    0.427  112.711
  377.000    4.586    0.254    0.424  106.354
  377.250    4.848    0.262    0.428   98.775
  377.500    5.068    0.267    0.435   94.130
  377.750    5.219    0.272    0.439   93.514
  378.000    5.354    0.264    0.440   97.601
  378.250    5.513    0.235    0.439  100.038
  378.500    5.667    0.218    0.446  101.072
  378.750    5.803    0.175    0.456   98.259
  379.000    5.855    0.155    0.463   86.527
  379.250    5.656    0.169    0.428   88.355
  379.500    5.414    0.197    0.411   99.038
  379.750    5.066    0.220    0.423  108.927
  380.000    4.697    0.221    0.450  114.907
  380.250    4.395    0.218    0.463  120.094
  380.500    4.222    0.215    0.464  125.158
  380.750    4.102    0.218    0.476  126.069
  381.000    4.092    0.220    0.491  122.705
  381.250    4.214    0.217    0.501  118.181
  381.500    4.356    0.192    0.516  113.534
  381.750    4.596    0.169    0.528  112.980
  382.000    4.805    0.180    0.465  115.601
  382.250    4.929    0.208    0.440  115.902
  382.500    5.086    0.232    0.431  113.576
  382.750    5.120    0.244    0.452  109.968
  383.000    5.086    0.264    0.465  102.756
  383.250    5.066    0.283    0.468   96.583
  383.500    5.015    0.297    0.444   97.555
  383.750    4.946    0.287    0.430  103.230
  384.000    4.906    0.264    0.430  104.264
  384.250    4.968    0.243    0.428   98.029
  384.500    5.144    0.227    0.418  101.567
  384.750    5.258    0.232    0.424  102.295
  385.000    5.305    0.252    0.439   96.427
  385.250    5.271    0.269    0.435   93.124
  385.500    5.179    0.262    0.424  104.418
  385.750    5.051    0.255    0.422  113.390
  386.000    4.982    0.251    0.427  116.134
  386.250    4.960    0.251    0.433  107.579
  386.500    4.947    0.270    0.451  103.666
  386.750    4.934    0.293    0.473  101.951
  387.000    4.894    0.312    0.491  100.723
  387.250    4.836    0.309    0.467  100.107
  387.500    4.815    0.260    0.425  101.570
  387.750    4.893    0.248    0.399  105.839
  388.000    5.002    0.237    0.388  109.376
  388.250    5.199    0.229    0.394  112.914
  388.500    5.335    0.224    0.407  114.681
  388.750    5.442    0.227    0.422  116.264
  389.000    5.500    0.233    0.411  119.252
  389.250    5.496    0.220    0.406  122.056
  389.500    5.380    0.199    0.405  123.762
  389.750    5.015    0.186    0.473  124.856
  390.000    4.703    0.198    0.485  124.912
  390.250    4.335    0.217    0.492  127.411
  390.500    4.126    0.235    0.499  127.773
  390.750    3.994    0.237    0.491  122.699
  391.000    3.991    0.240    0.485  115.487
  391.250    4.041    0.250    0.481  109.375
  391.500    4.068    0.266    0.471  104.485
  391.750    4.059    0.284    0.455  110.220
  392.000    3.995    0.277    0.445  109.971
  392.250    3.739    0.268    0.490  104.042
  392.500    3.473    0.287    0.485  100.007
  392.750    3.588    0.295    0.465   98.170
  393.000    3.675    0.283    0.440   98.165
  393.250    3.764    0.273    0.423   99.564
