~VERSION INFORMATION
 VERS.                 2.0:   CWLS LOG ASCII STANDARD -VERSION 2.0
 WRAP.                  NO:   ONE LINE PER DEPTH STEP
~WELL INFORMATION BLOCK
#MNEM.UNIT           DATA                    DESCRIPTION OF MNEMONIC
#---------    -------------------            -------------------------------
# Generated from Intellog Unique Number	CN_91_93/WELL/2683
WELL.         10-26-091-18W4                 : Well_name    - WELL
LOC .         00/10-26-091-18W4/0            : Location     - LOCATION
UWI .         00/10-26-091-18W400            : Uwi          - UNIQUE WELL ID
ENTR.         JOETTE                         : Entered      - ENTERED BY
SRVC.         WESTERN ATLAS                  : Scn          - SERVICE COMPANY
DATE.         02/11/92                       : Date         - LOG DATE
STRT.M        100                            : top_depth    - START DEPTH
STOP.M        255                            : bot_depth    - STOP DEPTH
STEP.M        0.25                           : increment    - STEP LENGTH
 NULL. -999.2500:NULL Value
~CURVE INFORMATION BLOCK
#MNEM UNIT       ERCB CURVE CODE    CURVE DESCRIPTION
#-----------   ------------------   ----------------------------------
DEPT.M        00 001 00 00         : DEPTH        - DEPTH
GR  .API      00 310 00 00         : GR           - GAMMA RAY
CALI.MM       00 280 01 00         : CAL          - CALIPER
NPHI.V/V      00 330 00 00         : PHIN         - NEUTRON POROSITY (SANDSTONE)
DPHI.V/V      00 890 00 00         : PHID         - DENSITY POROSITY (SANDSTONE)
ILD .OHMM     00 120 00 00         : RESD         - DEEP RESISTIVITY (DIL)
~PARAMETER INFORMATION
#MNEM.UNIT           DATA             DESCRIPTION OF MNEMONIC
#---------         -----------     ------------------------------
GL  .M        611.06               : gl           - GROUND LEVEL ELEVATION
EREF.M        614.42               : kb           - ELEVATION OF DEPTH REFERENCE
DATM.M        614.42               : datum        - DATUM ELEVATION
TDD .M        267                  : tdd          - TOTAL DEPTH DRILLER
RUN .         ONE                  : Run          - RUN NUMBER
ENG .         BILL                 : Engineer     - RECORDING ENGINEER
WIT .         JIM                  : Witness      - WITNESSED BY
MUD .         GEL                  : Mud_type     - MUD TYPE
MATR.         SANDSTONE            : Logunit      - NEUTRON MATRIX
TMAX.C        20                   : BHT          - MAXIMUM RECORDED TEMPERATURE
BHTD.M        267                  : BHTDEP       - MAXIMUM RECORDED TEMPERATURE
RMT .C        13                   : MDTP         - TEMPERATURE OF MUD
MUDD.KG/M     1140                 : MWT          - MUD DENSITY
NEUT.         1                    : NEUTRON      - NEUTRON TYPE
RESI.         0                    : RESIST       - RESISTIVITY TYPE
RM  .OHMM     3.2                  : RM           - RESISTIVITY OF MUD
RMC .OHMM     3.8                  : RMC          - RESISTIVITY OF MUD CAKE
RMF .OHMM     2.8                  : RMF          - RESISTIVITY OF MUD FILTRATE
SUFT.C        4                    : SUFT         - SURFACE TEMPERATURE
~A  DEPTH       GR      CAL     PHIN     PHID     RESD
# ...
  136.500  106.007  196.103    0.491    0.219   10.014
  136.750  104.505  196.150    0.489    0.215   13.635
  137.000   82.198  195.693    0.504    0.199   14.425
  137.250   75.499  193.714    0.509    0.188   15.121
  137.500   75.845  191.211    0.493    0.285   12.806
  137.750   82.910  189.734    0.489    0.291   10.645
  138.000   89.673  189.734    0.486    0.277    8.768
  138.250   97.052  190.880    0.480    0.268    7.926
  138.500  104.423  192.967    0.483    0.263    7.572
  138.750  115.474  195.570    0.492    0.259    8.315
  139.000  120.095  197.153    0.477    0.255   11.627
  139.250   90.445  197.153    0.463    0.279   14.011
  139.500   80.992  198.802    0.460    0.289   16.730
  139.750   85.002  199.856    0.474    0.276   17.702
  140.000   80.750  200.935    0.447    0.200   16.758
  140.250   77.111  200.995    0.434    0.113   14.060
  140.500   72.859  201.035    0.405    0.107   11.475
  140.750   80.544  200.585    0.392    0.123    8.534
  141.000   86.691  200.672    0.418    0.219    8.004
  141.250   93.458  201.202    0.460    0.251    6.293
  141.500  101.139  203.308    0.488    0.245    5.849
  141.750  103.925  204.878    0.495    0.240    5.800
  142.000  101.513  206.468    0.486    0.239    5.800
  142.250  104.299  206.521    0.493    0.239    5.811
  142.500  101.573  204.541    0.492    0.239    5.979
  142.750  113.847  202.541    0.505    0.221    5.979
  143.000  105.312  201.581    0.507    0.206    6.336
  143.250  105.344  202.145    0.491    0.222    6.702
  143.500  119.450  203.728    0.480    0.231    7.429
  143.750  118.263  203.728    0.478    0.203    8.953
  144.000  108.194  205.371    0.463    0.189   12.518
  144.250  100.271  207.457    0.456    0.183   18.677
  144.500   98.165  206.490    0.445    0.198   22.713
  144.750   92.992  203.994    0.423    0.216   27.374
  145.000   89.964  202.021    0.400    0.152   31.792
  145.250   82.344  202.021    0.376    0.105   30.374
  145.500   83.909  202.134    0.356    0.083   24.328
  145.750   74.763  203.704    0.337    0.101   15.887
  146.000   75.402  206.300    0.339    0.114   10.280
  146.250   85.229  208.407    0.360    0.122    7.366
  146.500   91.384  208.956    0.438    0.126    6.535
  146.750   96.001  209.030    0.462    0.154    5.691
  147.000  112.865  207.547    0.496    0.222    5.489
  147.250  132.176  206.063    0.540    0.220    5.489
  147.500  127.007  204.084    0.530    0.218    5.450
  147.750  122.144  203.124    0.529    0.220    5.606
  148.000  120.348  202.667    0.531    0.219    5.606
  148.250  123.125  203.734    0.523    0.215    5.941
  148.500  128.057  205.310    0.517    0.211    6.523
  148.750  134.212  206.906    0.519    0.205    6.408
  149.000  130.568  206.953    0.510    0.201    6.237
  149.250  135.190  204.960    0.508    0.200    6.237
  149.500  128.491  200.437    0.526    0.201    6.134
  149.750  122.713  199.457    0.523    0.203    6.140
  150.000  122.129  199.001    0.499    0.206    6.497
  150.250  122.467  198.034    0.499    0.210    7.976
  150.500  119.750  195.544    0.487    0.210    8.440
  150.750  112.133  192.035    0.465    0.181   11.801
  151.000  102.060  190.545    0.451    0.131   12.604
  151.250   90.164  188.558    0.419    0.112   13.843
  151.500   99.064  188.102    0.384    0.128   13.985
  151.750  105.216  187.645    0.408    0.231   13.998
  152.000  106.781  187.195    0.434    0.239   14.406
  152.250  114.156  187.255    0.440    0.244   14.406
  152.500  112.968  187.255    0.417    0.248   15.409
  152.750  102.594  187.368    0.401    0.251   17.719
  153.000  102.932  187.925    0.388    0.231   18.065
  153.250  103.274  188.488    0.375    0.192   18.083
  153.500   99.018  189.555    0.370    0.111   17.438
  153.750   91.401  191.144    0.349    0.084   16.358
  154.000   83.168  193.747    0.328    0.155   15.628
  154.250   97.890  196.350    0.314    0.241   14.523
  154.500  107.713  200.490    0.343    0.243   14.523
  154.750  107.745  204.629    0.476    0.224   13.640
  155.000  109.307  203.152    0.483    0.223   12.907
  155.250  105.369  202.689    0.486    0.225   12.566
  155.500  107.849  205.285    0.482    0.217   12.566
  155.750  116.749  209.935    0.477    0.214   12.588
  156.000  110.662  211.511    0.466    0.185   13.078
  156.250  107.333  210.544    0.454    0.160   13.078
  156.500  100.630  208.571    0.442    0.139   13.470
  156.750   96.994  207.598    0.434    0.139   14.658
  157.000   98.858  208.168    0.446    0.226   15.096
  157.250  110.830  211.281    0.446    0.235   15.818
  157.500  113.306  215.917    0.432    0.240   16.277
  157.750  108.442  203.738    0.426    0.250   16.750
  158.000  103.269  204.308    0.427    0.235   17.401
  158.250  107.585  206.401    0.447    0.209   17.907
  158.500  105.169  206.958    0.442    0.198   17.923
  158.750   99.999  204.971    0.437    0.213   17.775
  159.000   91.159  202.468    0.439    0.229   17.464
  159.250  105.575  199.462    0.453    0.238   16.689
  159.500  108.058  197.992    0.462    0.242   15.366
  159.750  107.168  198.052    0.469    0.242   14.018
  160.000  110.566  198.052    0.457    0.230   13.644
  160.250  114.889  198.655    0.447    0.227   13.658
  160.500  109.712  201.775    0.461    0.233   14.450
  160.750  112.192  204.894    0.462    0.234   15.291
  161.000  107.944  204.948    0.439    0.233   16.181
  161.250  115.625  204.948    0.435    0.231   16.501
  161.500  116.277  204.054    0.432    0.230   16.668
  161.750  118.749  202.048    0.461    0.230   16.840
  162.000  110.218  200.068    0.453    0.227   17.011
  162.250  105.652  199.645    0.439    0.215   17.185
  162.500  105.688  200.175    0.432    0.202   17.363
  162.750   96.538  200.175    0.430    0.190   17.059
  163.000   91.980  201.824    0.432    0.177   16.000
  163.250  101.501  203.891    0.455    0.163   14.327
  163.500  119.584  203.891    0.478    0.187   13.562
  163.750  121.456  206.560    0.481    0.226   14.622
  164.000  114.447  209.667    0.481    0.201   15.188
  164.250  105.912  210.746    0.460    0.176   15.347
  164.500  105.638  210.746    0.448    0.184   15.217
  164.750  123.726  210.873    0.449    0.221   14.675
  165.000  123.146  210.396    0.474    0.226   13.262
  165.250  108.186  208.913    0.484    0.222   12.098
  165.500  105.158  207.953    0.489    0.224    9.782
  165.750  101.821  209.536    0.486    0.230    9.259
  166.000  109.199  212.146    0.480    0.244    7.769
  166.250  118.716  212.146    0.477    0.249    6.281
  166.500  125.487  213.259    0.489    0.254    5.946
  166.750  126.127  217.405    0.502    0.234    7.369
  167.000  125.241  217.968    0.504    0.211    8.881
  167.250  117.620  218.021    0.491    0.189   10.602
  167.500  113.369  217.571    0.478    0.113   11.537
  167.750  103.002  217.571    0.473    0.153   13.522
  168.000  110.071  216.658    0.497    0.199   13.917
  168.250  107.040  215.168    0.505    0.211   14.059
  168.500  107.079  212.679    0.508    0.206   12.705
  168.750  105.272  210.686    0.508    0.203   10.863
  169.000  117.236  207.679    0.506    0.208   10.871
  169.250  116.354  203.150    0.502    0.210   13.221
  169.500  117.916  199.124    0.488    0.206   13.233
  169.750  117.944  195.601    0.474    0.193   16.245
  170.000   99.614  192.601    0.450    0.133   17.676
  170.250   97.815  190.608    0.431    0.224   19.240
  170.500  104.582  190.608    0.413    0.234   18.726
  170.750  106.751  187.682    0.417    0.228   17.728
  171.000  110.153  184.649    0.418    0.240   17.097
  171.250  112.016  181.642    0.424    0.244   16.641
  171.500  118.784  179.159    0.429    0.245   17.128
  171.750  110.857  177.670    0.426    0.251   17.463
  172.000  103.852  177.253    0.413    0.249   17.463
  172.250   99.600  175.743    0.401    0.254   17.991
  172.500   97.490  175.743    0.390    0.258   21.679
  172.750   93.545  174.837    0.377    0.256   22.105
