~VERSION INFORMATION
 VERS.                 2.0:   CWLS LOG ASCII STANDARD -VERSION 2.0
 WRAP.                  NO:   ONE LINE PER DEPTH STEP
~WELL INFORMATION BLOCK
#MNEM.UNIT           DATA                    DESCRIPTION OF MNEMONIC
#---------    -------------------            -------------------------------
# Generated from Intellog Unique Number	CX_WELLS/WELL/3044
WELL.         10-06-082-14W4                 : Well_name    - WELL
LOC .         00/10-06-082-14W4/0            : Location     - LOCATION
UWI .         00/10-06-082-14W400            : Uwi          - UNIQUE WELL ID
ENTR.         T                              : Entered      - ENTERED BY
SRVC.         SCHLUMBERGER                   : Scn          - SERVICE COMPANY
STRT.M        135                            : top_depth    - START DEPTH
STOP.M        350                            : bot_depth    - STOP DEPTH
STEP.M        0.25                           : increment    - STEP LENGTH
 NULL. -999.2500:NULL Value
~CURVE INFORMATION BLOCK
#MNEM UNIT       ERCB CURVE CODE    CURVE DESCRIPTION
#-----------   ------------------   ----------------------------------
DEPT.M        00 001 00 00         : DEPTH        - DEPTH
GR  .API      00 310 00 00         : GR           - GAMMA RAY
NPHI.V/V      00 330 00 00         : PHIN         - NEUTRON POROSITY (SANDSTONE)
DPHI.V/V      00 890 00 00         : PHID         - DENSITY POROSITY (SANDSTONE)
ILD .OHMM     00 120 00 00         : RESD         - DEEP RESISTIVITY (OTHER)
~PARAMETER INFORMATION
#MNEM.UNIT           DATA             DESCRIPTION OF MNEMONIC
#---------         -----------     ------------------------------
GL  .M        578                  : gl           - GROUND LEVEL ELEVATION
EREF.M        581.8                : kb           - ELEVATION OF DEPTH REFERENCE
DATM.M        581.8                : datum        - DATUM ELEVATION
TDD .M        352                  : tdd          - TOTAL DEPTH DRILLER
RUN .         ONE                  : Run          - RUN NUMBER
ENG .         BILL                 : Engineer     - RECORDING ENGINEER
WIT .         JIM                  : Witness      - WITNESSED BY
MUD .         GEL                  : Mud_type     - MUD TYPE
MATR.         SANDSTONE            : Logunit      - NEUTRON MATRIX
TMAX.C        29                   : BHT          - MAXIMUM RECORDED TEMPERATURE
BHTD.M        352                  : BHTDEP       - MAXIMUM RECORDED TEMPERATURE
MATR.         1                    : LOGUNIT      - NEUTRON MATRIX
RMT .C        25                   : MDTP         - TEMPERATURE OF MUD
NEUT.         1                    : NEUTRON      - NEUTRON TYPE
RESI.         2.6                  : RESIST       - RESISTIVITY TYPE
RMC .OHMM     1.5                  : RMC          - RESISTIVITY OF MUD CAKE
RMF .OHMM     3                    : RMF          - RESISTIVITY OF MUD FILTRATE
SUFT.C        4                    : SUFT         - SURFACE TEMPERATURE
~A  DEPTH       GR     PHIN     PHID     RESD
# ...
  222.000   65.527    0.427    0.332   17.791
  222.250   66.766    0.419    0.336   17.147
  222.500   66.787    0.417    0.335   16.844
  222.750   66.829    0.425    0.331   15.932
  223.000   66.882    0.440    0.326   15.066
  223.250   67.518    0.458    0.319   13.978
  223.500   68.153    0.458    0.313   12.969
  223.750   69.985    0.454    0.312   12.267
  224.000   72.399    0.450    0.315   11.600
  224.250   74.813    0.447    0.313   11.173
  224.500   77.810    0.446    0.294    9.982
  224.750   81.421    0.456    0.270    9.261
  225.000   78.498    0.468    0.266    9.100
  225.250   75.575    0.462    0.272    9.105
  225.500   72.060    0.446    0.276    9.476
  225.750   70.334    0.435    0.278    9.663
  226.000   69.180    0.432    0.279   10.650
  226.250   68.629    0.428    0.284   11.077
  226.500   68.682    0.424    0.288   11.083
  226.750   69.910    0.436    0.289   11.096
  227.000   71.128    0.463    0.280   11.113
  227.250   73.542    0.461    0.270   11.126
  227.500   75.977    0.454    0.276   11.139
  227.750   73.044    0.456    0.283   11.149
  228.000   69.539    0.466    0.291   11.162
  228.250   68.406    0.470    0.300   11.175
  228.500   68.438    0.471    0.301   11.195
  228.750   69.073    0.475    0.296   11.212
  229.000   70.312    0.471    0.291   11.219
  229.250   71.519    0.459    0.290   11.232
  229.500   72.747    0.452    0.288   11.040
  229.750   73.383    0.458    0.286   11.046
  230.000   75.818    0.457    0.283   11.272
  230.250   77.046    0.453    0.279   11.723
  230.500   78.275    0.455    0.277   12.192
  230.750   77.724    0.451    0.285   12.684
  231.000   74.812    0.445    0.292   12.947
  231.250   72.472    0.441    0.303   13.211
  231.500   67.760    0.437    0.311   13.481
  231.750   65.430    0.435    0.329   13.753
  232.000   63.100    0.432    0.344   14.863
  232.250   60.771    0.429    0.338   16.371
  232.500   59.627    0.423    0.331   17.026
  232.750   59.690    0.418    0.329   17.379
  233.000   59.722    0.424    0.327   17.389
  233.250   59.764    0.438    0.328   17.410
  233.500   60.389    0.440    0.330   17.107
  233.750   61.046    0.438    0.328   17.132
  234.000   61.088    0.431    0.327   16.819
  234.250   61.723    0.429    0.331   16.527
  234.500   62.369    0.432    0.333   16.234
  234.750   63.587    0.432    0.334   15.942
  235.000   64.815    0.426    0.335   15.365
  235.250   66.636    0.426    0.340   14.538
  235.500   67.865    0.447    0.344   14.277
  235.750   69.093    0.437    0.349   14.024
  236.000   68.542    0.434    0.350   14.045
  236.250   67.398    0.429    0.345   14.066
  236.500   66.848    0.428    0.345   14.078
  236.750   66.901    0.427    0.352   13.829
  237.000   66.943    0.425    0.355   13.580
  237.250   66.985    0.431    0.350   13.092
  237.500   67.028    0.458    0.341   12.864
  237.750   67.059    0.463    0.342   12.633
  238.000   67.102    0.459    0.344   12.652
  238.250   66.593    0.454    0.344   12.194
  238.500   66.614    0.456    0.345   11.982
  238.750   67.250    0.464    0.344   11.763
  239.000   67.281    0.473    0.341   11.558
  239.250   67.938    0.480    0.340   11.357
  239.500   68.562    0.488    0.335   11.153
  239.750   69.187    0.488    0.329   11.162
  240.000   69.844    0.481    0.322   10.965
  240.250   69.865    0.468    0.321   10.981
  240.500   69.928    0.453    0.327   10.991
  240.750   69.378    0.440    0.335   11.004
  241.000   70.606    0.444    0.336   11.232
  241.250   73.613    0.446    0.332   11.245
  241.500   76.610    0.441    0.326   11.262
  241.750   80.210    0.434    0.308   11.060
  242.000   83.821    0.456    0.291   10.461
  242.250   85.059    0.465    0.265   10.279
  242.500   83.323    0.472    0.275    9.901
  242.750   82.772    0.480    0.285    9.726
  243.000   85.186    0.491    0.280    9.374
  243.250   88.797    0.492    0.271    9.037
  243.500   89.411    0.492    0.263    8.874
  243.750   89.475    0.491    0.257    8.394
  244.000   89.528    0.487    0.254    8.090
  244.250   88.966    0.484    0.254    7.369
  244.500   89.009    0.483    0.254    7.234
  244.750   88.448    0.480    0.256    6.974
  245.000   87.897    0.478    0.258    6.849
  245.250   86.753    0.466    0.259    6.993
  245.500   85.016    0.455    0.265    6.997
  245.750   83.280    0.443    0.271    7.142
  246.000   80.961    0.440    0.276    7.426
  246.250   79.807    0.451    0.278    7.580
  246.500   77.477    0.457    0.278    7.589
  246.750   77.530    0.457    0.277    7.457
  247.000   80.537    0.458    0.273    6.922
  247.250   84.137    0.463    0.269    6.670
  247.500   85.969    0.475    0.272    6.426
  247.750   83.057    0.488    0.278    6.194
  248.000   81.310    0.489    0.277    6.199
  248.250   80.166    0.478    0.275    6.208
  248.500   79.615    0.466    0.276    6.455
  248.750   79.658    0.467    0.278    6.978
  249.000   80.282    0.475    0.279    7.116
  249.250   80.335    0.487    0.279    7.838
  249.500   80.378    0.499    0.276    7.850
  249.750   81.024    0.491    0.275    7.709
  250.000   81.659    0.485    0.272    7.577
  250.250   82.284    0.477    0.271    7.584
  250.500   81.150    0.477    0.268    7.595
  250.750   80.600    0.479    0.267    7.599
  251.000   81.828    0.470    0.267    7.757
  251.250   83.056    0.464    0.265    7.915
  251.500   84.888    0.458    0.267    7.925
  251.750   86.106    0.465    0.268    7.934
  252.000   86.741    0.474    0.269    7.796
  252.250   86.783    0.475    0.266    7.803
  252.500   85.650    0.472    0.264    7.812
  252.750   85.089    0.467    0.262    7.674
  253.000   84.549    0.463    0.262    7.685
  253.250   84.591    0.462    0.263    7.697
  253.500   84.634    0.459    0.263    7.704
  253.750   84.665    0.457    0.262    7.710
  254.000   85.301    0.456    0.249    7.870
  254.250   86.540    0.455    0.248    8.185
  254.500   87.768    0.454    0.247    8.352
  254.750   88.403    0.453    0.243    8.525
  255.000   88.456    0.451    0.240    8.697
  255.250   88.498    0.449    0.239    8.710
  255.500   89.144    0.446    0.239    8.720
  255.750   89.165    0.445    0.242    8.566
  256.000   89.822    0.444    0.244    8.417
  256.250   89.853    0.443    0.244    8.422
  256.500   90.489    0.450    0.242    8.275
  256.750   91.145    0.468    0.240    8.131
  257.000   91.166    0.491    0.237    7.987
  257.250   91.802    0.493    0.236    7.995
  257.500   92.437    0.491    0.234    7.855
  257.750   93.072    0.487    0.232    7.862
  258.000   93.718    0.483    0.229    7.726
  258.250   93.750    0.478    0.229    7.733
  258.500   94.385    0.472    0.229    7.596
  258.750   95.031    0.470    0.234    7.605
  259.000   95.677    0.473    0.240    7.472
  259.250   96.301    0.476    0.237    7.479
  259.500   96.947    0.471    0.232    7.351
  259.750   96.386    0.464    0.233    7.221
  260.000   93.463    0.461    0.233    6.962
  260.250   94.109    0.461    0.233    6.836
  260.500   96.545    0.461    0.228    6.842
  260.750   96.555    0.464    0.223    6.721
  261.000   97.222    0.482    0.224    6.602
  261.250   96.650    0.481    0.227    6.614
  261.500   94.914    0.475    0.228    6.495
  261.750   92.584    0.463    0.231    6.380
  262.000   91.441    0.461    0.238    6.386
  262.250   90.911    0.461    0.244    6.396
  262.500   90.339    0.460    0.253    6.783
  262.750   87.416    0.460    0.266    7.324
  263.000   82.715    0.461    0.280    7.913
  263.250   79.199    0.464    0.290    8.881
  263.500   78.056    0.466    0.294    9.595
  263.750   78.691    0.466    0.284    9.791
  264.000   80.512    0.466    0.275    9.808
  264.250   82.948    0.467    0.268    9.635
  264.500   83.572    0.459    0.271    9.649
  264.750   84.208    0.453    0.272    9.655
  265.000   81.285    0.447    0.272   10.044
  265.250   74.212    0.362    0.254   10.852
