~VERSION INFORMATION
 VERS.                 2.0:   CWLS LOG ASCII STANDARD -VERSION 2.0
 WRAP.                  NO:   ONE LINE PER DEPTH STEP
~WELL INFORMATION BLOCK
#MNEM.UNIT           DATA                    DESCRIPTION OF MNEMONIC
#---------    -------------------            -------------------------------
# Generated from Intellog Unique Number	CW_76_78/WELL/913
WELL.         PCP MARTEN HILLS 10-28-076     : Well_name    - WELL
LOC .         00/10-28-076-04W5/0            : Location     - LOCATION
UWI .         00/10-28-076-04W5/0            : Uwi          - UNIQUE WELL ID
ENTR.         JAYE                           : Entered      - ENTERED BY
SRVC.         SCHLUMBERGER                   : Scn          - SERVICE COMPANY
DATE.         18 FEB 74                      : Date         - LOG DATE
STRT.M        463.296                        : top_depth    - START DEPTH
STOP.M        704.046                        : bot_depth    - STOP DEPTH
STEP.M        0.25                           : increment    - STEP LENGTH
 NULL. -999.2500:NULL Value
~CURVE INFORMATION BLOCK
#MNEM UNIT       ERCB CURVE CODE    CURVE DESCRIPTION
#-----------   ------------------   ----------------------------------
DEPT.M        00 001 00 00         : DEPTH        - DEPTH
ILD .OHMM     00 120 00 00         : RESD         - DEEP RESISTIVITY (DIL)
NPHI.V/V      00 330 00 00         : PHIN         - NEUTRON POROSITY (SANDSTONE)
DPHI.V/V      00 890 00 00         : PHID         - DENSITY POROSITY (SANDSTONE)
GR  .API      00 310 00 00         : GR           - GAMMA RAY
CALI.MM       00 280 01 00         : CAL          - CALIPER
~PARAMETER INFORMATION
#MNEM.UNIT           DATA             DESCRIPTION OF MNEMONIC
#---------         -----------     ------------------------------
GL  .M        771.754              : gl           - GROUND LEVEL ELEVATION
EREF.M        775.716              : kb           - ELEVATION OF DEPTH REFERENCE
DATM.M        771.754              : datum        - DATUM ELEVATION
TDD .M        717.804              : tdd          - TOTAL DEPTH DRILLER
RUN .         ONE                  : Run          - RUN NUMBER
MATR.         SANDSTONE            : Logunit      - NEUTRON MATRIX
TMAX.C        31.6667              : BHT          - MAXIMUM RECORDED TEMPERATURE
BHTD.M        717.499              : BHTDEP       - MAXIMUM RECORDED TEMPERATURE
RMT .C        20                   : MDTP         - TEMPERATURE OF MUD
MUDD.KG/M     0                    : MWT          - MUD DENSITY
NEUT.         1                    : NEUTRON      - NEUTRON TYPE
RESI.         0                    : RESIST       - RESISTIVITY TYPE
RM  .OHMM     2.52                 : RM           - RESISTIVITY OF MUD
RMC .OHMM     0                    : RMC          - RESISTIVITY OF MUD CAKE
RMF .OHMM     2.67                 : RMF          - RESISTIVITY OF MUD FILTRATE
SUFT.C        -17.7778             : SUFT         - SURFACE TEMPERATURE
~A  DEPTH     RESD     PHIN     PHID       GR      CAL
# ...
  499.796    8.613    0.498    0.333   38.265  200.434
  500.046    8.568    0.479    0.336   35.602  200.419
  500.296    8.492    0.460    0.349   33.831  200.471
  500.546    8.448    0.456    0.356   35.016  201.065
  500.796    8.450    0.474    0.352   35.067  201.564
  501.046    8.500    0.476    0.354   33.983  202.152
  501.296    8.565    0.468    0.358   34.075  202.735
  501.546    8.552    0.461    0.346   35.058  203.127
  501.796    8.523    0.481    0.328   37.135  203.111
  502.046    8.541    0.526    0.322   37.792  203.274
  502.296    8.575    0.482    0.328   36.749  203.963
  502.546    8.609    0.452    0.343   38.016  204.661
  502.796    8.596    0.453    0.340   36.366  204.841
  503.046    8.567    0.453    0.327   34.595  204.305
  503.296    8.491    0.463    0.319   35.213  200.964
  503.546    8.416    0.457    0.327   37.207  198.980
  503.796    8.326    0.447    0.341   38.150  200.606
  504.046    8.207    0.481    0.337   35.932  203.570
  504.296    8.001    0.460    0.359   33.755  204.479
  504.546    7.758    0.437    0.353   33.401  204.446
  504.796    7.549    0.462    0.345   34.911  204.112
  505.046    7.401    0.481    0.335   34.071  203.569
  505.296    7.282    0.497    0.351   34.041  202.821
  505.546    7.392    0.501    0.344   35.104  202.465
  505.796    7.614    0.477    0.332   37.706  202.134
  506.046    7.858    0.483    0.322   36.866  202.010
  506.296    8.035    0.493    0.315   34.285  201.990
  506.546    8.067    0.462    0.315   34.255  202.045
  506.796    8.040    0.453    0.310   34.712  202.026
  507.046    7.867    0.480    0.342   35.167  202.197
  507.296    7.434    0.489    0.335   36.150  201.972
  507.546    6.999    0.462    0.339   37.254  202.037
  507.796    6.482    0.445    0.335   38.965  202.117
  508.046    5.992    0.473    0.326   39.866  202.189
  508.296    5.600    0.512    0.326   39.877  201.874
  508.546    5.215    0.501    0.324   38.349  201.831
  508.796    4.964    0.466    0.322   36.617  201.903
  509.046    4.787    0.493    0.318   34.644  201.477
  509.296    4.779    0.502    0.332   35.302  201.044
  509.546    4.896    0.489    0.342   35.556  200.888
  509.796    5.071    0.448    0.344   35.080  200.773
  510.046    5.262    0.438    0.348   35.373  200.838
  510.296    5.481    0.448    0.346   36.032  200.701
  510.546    5.667    0.453    0.341   34.949  200.482
  510.796    5.869    0.457    0.345   35.729  200.132
  511.046    6.090    0.466    0.332   38.777  197.835
  511.296    6.414    0.437    0.323   34.818  194.715
  511.546    6.741    0.408    0.318   29.564  193.549
  511.796    7.138    0.384    0.306   26.659  195.901
  512.046    7.572    0.386    0.283   26.709  198.862
  512.296    7.771    0.417    0.301   30.162  201.619
  512.546    7.674    0.429    0.309   32.725  203.652
  512.796    7.332    0.467    0.304   33.666  204.657
  513.046    6.828    0.451    0.325   34.407  205.156
  513.296    6.440    0.448    0.339   34.862  205.641
  513.546    6.176    0.454    0.335   37.505  206.127
  513.796    5.868    0.470    0.319   40.715  206.403
  514.046    5.700    0.451    0.300   42.912  206.174
  514.296    5.660    0.442    0.279   43.085  205.846
  514.546    6.004    0.439    0.266   42.205  205.700
  514.796    6.499    0.435    0.278   38.124  205.371
  515.046    7.126    0.376    0.299   34.450  205.230
  515.296    7.958    0.348    0.299   30.734  204.696
  515.546    8.854    0.357    0.271   27.262  204.352
  515.796    9.942    0.366    0.282   24.842  203.913
  516.046   10.412    0.371    0.305   22.543  203.570
  516.296   10.396    0.370    0.326   19.637  203.334
  516.546   10.079    0.361    0.304   21.835  203.102
  516.796    9.300    0.348    0.301   27.192  202.977
  517.046    7.815    0.345    0.289   39.960  202.953
  517.296    6.639    0.363    0.268   47.909  203.129
  517.546    5.894    0.403    0.253   53.994  203.510
  517.796    5.271    0.415    0.239   54.815  203.685
  518.046    4.654    0.415    0.225   53.165  203.659
  518.296    4.374    0.403    0.235   53.014  203.747
  518.546    4.400    0.428    0.238   54.846  203.517
  518.796    4.557    0.453    0.245   58.542  203.473
  519.046    4.781    0.483    0.278   59.484  203.237
  519.296    4.980    0.467    0.298   58.442  203.003
  519.546    5.055    0.445    0.273   59.426  203.074
  519.796    5.056    0.428    0.252   60.934  206.971
  520.046    4.555    0.538    0.229   63.739  210.137
  520.296    3.863    0.576    0.241   64.519  212.800
  520.546    3.169    0.603    0.267   58.575  210.706
  520.796    2.717    0.541    0.291   47.408  207.890
  521.046    2.444    0.480    0.300   40.615  208.068
  521.296    2.554    0.434    0.303   36.939  206.596
  521.546    3.008    0.424    0.317   33.831  199.139
  521.796    3.676    0.424    0.297   30.319  189.000
  522.046    4.780    0.427    0.296   28.627  195.890
  522.296    5.579    0.432    0.315   28.151  201.240
  522.546    5.768    0.437    0.348   29.093  202.849
  522.796    5.675    0.443    0.362   30.765  203.544
  523.046    5.594    0.456    0.355   32.882  203.716
  523.296    5.524    0.462    0.351   33.944  203.495
  523.546    5.465    0.453    0.343   33.834  202.839
  523.796    5.447    0.446    0.355   33.035  200.130
  524.046    5.459    0.442    0.358   31.991  197.835
  524.296    5.500    0.459    0.345   31.111  196.257
  524.546    5.543    0.513    0.342   32.904  195.302
  524.796    5.575    0.493    0.346   33.926  195.691
  525.046    5.618    0.480    0.351   34.221  196.381
  525.296    5.650    0.478    0.358   34.069  197.808
  525.546    5.652    0.481    0.359   33.715  199.324
  525.796    5.674    0.466    0.347   33.726  201.040
  526.046    5.697    0.444    0.336   32.723  203.806
  526.296    5.709    0.424    0.352   33.099  205.845
  526.546    5.689    0.416    0.353   33.839  206.329
  526.796    5.681    0.418    0.343   34.214  204.745
  527.046    5.651    0.426    0.345   34.872  201.940
  527.296    5.622    0.442    0.356   35.611  200.056
  527.546    5.624    0.447    0.359   34.285  199.514
  527.796    5.625    0.438    0.358   33.850  200.201
  528.046    5.606    0.433    0.368   34.913  202.348
  528.296    5.546    0.448    0.376   35.045  204.580
  528.546    5.508    0.469    0.384   34.205  206.925
  528.796    5.529    0.476    0.389   33.690  207.308
  529.046    5.541    0.484    0.378   33.498  205.431
  529.296    5.553    0.497    0.374   34.399  203.025
  529.546    5.565    0.473    0.369   36.151  199.281
  529.796    5.607    0.453    0.364   35.756  202.662
  530.046    5.640    0.468    0.358   33.985  205.931
  530.296    5.673    0.491    0.353   33.792  206.214
  530.546    5.643    0.476    0.350   36.031  205.262
  530.796    5.614    0.465    0.362   36.730  204.521
  531.046    5.605    0.459    0.362   37.065  203.974
  531.296    5.607    0.447    0.352   37.358  203.939
  531.546    5.609    0.433    0.339   37.653  204.429
  531.796    5.611    0.418    0.328   37.664  204.605
  532.046    5.602    0.412    0.347   37.066  204.268
  532.296    5.614    0.414    0.353   36.104  204.032
  532.546    5.636    0.445    0.350   35.102  203.798
  532.796    5.658    0.482    0.345   34.667  202.632
  533.046    5.701    0.490    0.340   36.581  201.065
  533.296    5.724    0.504    0.342   38.981  201.648
  533.546    5.768    0.492    0.347   40.490  202.144
  533.796    5.823    0.464    0.359   39.609  201.492
  534.046    5.933    0.453    0.373   38.810  200.022
  534.296    6.111    0.464    0.368   38.496  197.205
  534.546    6.330    0.484    0.351   36.765  193.673
  534.796    6.727    0.468    0.349   34.872  189.103
  535.046    7.348    0.432    0.367   35.531  189.901
  535.296    8.267    0.416    0.346   35.501  197.825
  535.546    8.579    0.443    0.328   33.689  200.472
  535.796    8.740    0.452    0.327   33.578  201.584
  536.046    8.775    0.450    0.333   34.155  201.755
