~VERSION INFORMATION
 VERS.                 2.0:   CWLS LOG ASCII STANDARD -VERSION 2.0
 WRAP.                  NO:   ONE LINE PER DEPTH STEP
~WELL INFORMATION BLOCK
#MNEM.UNIT           DATA                    DESCRIPTION OF MNEMONIC
#---------    -------------------            -------------------------------
# Generated from Intellog Unique Number	CS_67_68/WELL/851
WELL.         ESSO RESOURCES CANADA LTD      : Well_name    - WELL
LOC .         00/12-18-068-07W4/0            : Location     - LOCATION
UWI .         00/12-18-068-07W4/0            : Uwi          - UNIQUE WELL ID
ENTR.         SP                             : Entered      - ENTERED BY
SRVC.         SCHLUMBERGER                   : Scn          - SERVICE COMPANY
STRT.M        290                            : top_depth    - START DEPTH
STOP.M        525                            : bot_depth    - STOP DEPTH
STEP.M        0.25                           : increment    - STEP LENGTH
 NULL. -999.2500:NULL Value
~CURVE INFORMATION BLOCK
#MNEM UNIT       ERCB CURVE CODE    CURVE DESCRIPTION
#-----------   ------------------   ----------------------------------
DEPT.M        00 001 00 00         : DEPTH        - DEPTH
ILD .OHMM     00 120 00 00         : RESD         - DEEP RESISTIVITY (DIL)
DPHI.V/V      00 890 00 00         : PHID         - DENSITY POROSITY (LIMESTONE)
NPHI.V/V      00 330 00 00         : PHIN         - NEUTRON POROSITY (LIMESTONE)
GR  .API      00 310 00 00         : GR           - GAMMA RAY
~PARAMETER INFORMATION
#MNEM.UNIT           DATA             DESCRIPTION OF MNEMONIC
#---------         -----------     ------------------------------
GL  .M        619.1                : gl           - GROUND LEVEL ELEVATION
EREF.M        623.3                : kb           - ELEVATION OF DEPTH REFERENCE
DATM.M        619.1                : datum        - DATUM ELEVATION
TDD .M        533                  : tdd          - TOTAL DEPTH DRILLER
RUN .         ONE                  : Run          - RUN NUMBER
ENG .         BILL                 : Engineer     - RECORDING ENGINEER
WIT .         JIM                  : Witness      - WITNESSED BY
MUD .         GEL                  : Mud_type     - MUD TYPE
MATR.         LIMESTONE            : Logunit      - NEUTRON MATRIX
TMAX.C        29                   : BHT          - MAXIMUM RECORDED TEMPERATURE
BHTD.M        533                  : BHTDEP       - MAXIMUM RECORDED TEMPERATURE
MATR.         1                    : LOGUNIT      - NEUTRON MATRIX
RMT .C        25                   : MDTP         - TEMPERATURE OF MUD
NEUT.         1                    : NEUTRON      - NEUTRON TYPE
RESI.         0                    : RESIST       - RESISTIVITY TYPE
RMC .OHMM     0.25                 : RMC          - RESISTIVITY OF MUD CAKE
RMF .OHMM     0.25                 : RMF          - RESISTIVITY OF MUD FILTRATE
SUFT.C        15                   : SUFT         - SURFACE TEMPERATURE
~A  DEPTH     RESD     PHID     PHIN       GR
# ...
  333.500    5.896    0.274    0.435   77.691
  333.750    5.777    0.260    0.456   86.455
  334.000    5.662    0.262    0.464   86.698
  334.250    5.529    0.256    0.466   80.689
  334.500    5.490    0.241    0.450   77.499
  334.750    5.461    0.245    0.429   78.416
  335.000    5.433    0.264    0.419   81.602
  335.250    5.386    0.275    0.417   83.807
  335.500    5.319    0.260    0.414   90.609
  335.750    5.261    0.252    0.412   98.086
  336.000    5.185    0.262    0.414   98.942
  336.250    5.110    0.259    0.432   93.239
  336.500    5.045    0.259    0.444   92.379
  336.750    4.936    0.277    0.443   99.978
  337.000    4.810    0.294    0.420   98.689
  337.250    4.731    0.295    0.394   93.415
  337.500    4.637    0.284    0.385   98.746
  337.750    4.579    0.274    0.394  102.545
  338.000    4.590    0.267    0.430  100.214
  338.250    4.671    0.281    0.452   91.017
  338.500    4.807    0.297    0.467   85.069
  338.750    4.957    0.295    0.453   81.389
  339.000    5.101    0.283    0.444   88.375
  339.250    5.219    0.273    0.437   93.338
  339.500    5.392    0.267    0.440   92.478
  339.750    5.549    0.265    0.434   86.469
  340.000    5.604    0.264    0.416   79.601
  340.250    5.628    0.265    0.412   77.025
  340.500    5.621    0.267    0.412   83.398
  340.750    5.560    0.271    0.410   85.358
  341.000    5.511    0.276    0.404   88.053
  341.250    5.411    0.276    0.397   95.284
  341.500    5.323    0.273    0.401   99.021
  341.750    5.266    0.269    0.418  101.962
  342.000    5.219    0.266    0.433   95.094
  342.250    5.183    0.260    0.419   89.085
  342.500    5.186    0.256    0.413   84.669
  342.750    5.208    0.261    0.413   81.786
  343.000    5.210    0.276    0.436   85.769
  343.250    5.223    0.293    0.455   90.609
  343.500    5.275    0.303    0.473   92.508
  343.750    5.378    0.320    0.477   85.763
  344.000    5.472    0.332    0.420   75.279
  344.250    5.653    0.341    0.344   65.346
  344.500    5.873    0.353    0.299   57.988
  344.750    6.228    0.078    0.282   50.263
  345.000    6.693    0.052    0.271   41.127
  345.250    7.046    0.089    0.296   35.669
  345.500    6.905    0.315    0.366   44.127
  345.750    6.457    0.330    0.404   51.603
  346.000    6.093    0.325    0.428   60.183
  346.250    5.581    0.304    0.448   66.005
  346.500    5.258    0.325    0.459   71.029
  346.750    5.085    0.348    0.473   75.625
  347.000    4.993    0.364    0.473   77.155
  347.250    5.005    0.348    0.463   75.437
  347.500    5.026    0.338    0.454   73.657
  347.750    5.029    0.327    0.443   76.475
  348.000    5.050    0.320    0.465   78.067
  348.250    5.063    0.331    0.438   73.897
  348.500    5.037    0.339    0.411   70.401
  348.750    5.011    0.338    0.396   65.985
  349.000    5.004    0.324    0.387   60.956
  349.250    5.006    0.308    0.404   56.234
  349.500    5.066    0.290    0.419   53.719
  349.750    5.165    0.280    0.419   58.437
  350.000    5.275    0.281    0.403   63.278
  350.250    5.440    0.281    0.386   62.173
  350.500    5.556    0.274    0.372   65.481
  350.750    5.622    0.269    0.366   70.996
  351.000    5.583    0.263    0.371   75.346
  351.250    5.554    0.260    0.402   75.773
  351.500    5.464    0.259    0.417   68.967
  351.750    5.415    0.262    0.406   63.570
  352.000    5.387    0.268    0.396   64.549
  352.250    5.361    0.270    0.383   70.126
  352.500    5.363    0.273    0.397   72.085
  352.750    5.386    0.274    0.415   72.451
  353.000    5.399    0.279    0.421   73.368
  353.250    5.412    0.287    0.405   75.328
  353.500    5.446    0.291    0.394   75.572
  353.750    5.468    0.288    0.381   71.524
  354.000    5.481    0.282    0.397   70.296
  354.250    5.495    0.277    0.407   74.953
  354.500    5.508    0.277    0.432   71.027
  354.750    5.563    0.282    0.451   68.696
  355.000    5.618    0.283    0.442   74.272
  355.250    5.684    0.282    0.428   79.174
  355.500    5.785    0.281    0.405   84.199
  355.750    5.887    0.279    0.392   87.385
  356.000    5.934    0.275    0.380   88.057
  356.250    6.005    0.272    0.373   81.067
  356.500    6.030    0.267    0.392   83.272
  356.750    6.056    0.262    0.408   92.832
  357.000    6.071    0.261    0.413  101.289
  357.250    6.062    0.258    0.418   99.388
  357.500    6.065    0.256    0.396   95.401
  357.750    6.079    0.263    0.377  104.287
  358.000    6.071    0.263    0.395  109.128
  358.250    6.063    0.258    0.403   97.173
  358.500    6.032    0.259    0.409   91.960
  358.750    5.956    0.264    0.417   89.139
  359.000    5.881    0.271    0.425   87.727
  359.250    5.818    0.277    0.419   83.924
  359.500    5.756    0.278    0.401   79.263
  359.750    5.694    0.282    0.385   76.809
  360.000    5.622    0.292    0.377   77.298
  360.250    5.562    0.295    0.389   76.192
  360.500    5.431    0.293    0.398   75.271
  360.750    5.322    0.293    0.404   75.269
  361.000    5.186    0.305    0.413   71.283
  361.250    5.035    0.323    0.426   64.353
  361.500    4.916    0.335    0.435   60.183
  361.750    4.846    0.351    0.449   55.584
  362.000    4.857    0.354    0.430   49.084
  362.250    4.878    0.346    0.413   54.538
  362.500    4.880    0.333    0.402   64.099
  362.750    4.901    0.322    0.397   72.250
  363.000    4.941    0.316    0.401   66.547
  363.250    4.982    0.328    0.398   62.377
  363.500    4.992    0.335    0.392   58.206
  363.750    5.023    0.322    0.389   62.495
  364.000    5.073    0.309    0.389   69.665
  364.250    5.153    0.298    0.386   75.731
  364.500    5.204    0.288    0.394   79.101
  364.750    5.246    0.279    0.384   82.593
  365.000    5.279    0.272    0.384   84.492
  365.250    5.321    0.264    0.388   84.122
  365.500    5.354    0.256    0.388   92.518
  365.750    5.377    0.250    0.394   98.033
  366.000    5.390    0.240    0.399  101.954
  366.250    5.403    0.233    0.389  104.833
  366.500    5.395    0.238    0.381  106.977
  366.750    5.418    0.241    0.375  108.507
  367.000    5.441    0.243    0.377  107.525
  367.250    5.506    0.244    0.381   99.738
  367.500    5.540    0.248    0.381   90.050
  367.750    5.585    0.262    0.381   86.003
  368.000    5.620    0.277    0.385   87.288
  368.250    5.633    0.267    0.381   89.677
  368.500    5.604    0.261    0.384   89.062
  368.750    5.564    0.270    0.388   82.501
  369.000    5.443    0.290    0.402   75.020
  369.250    5.365    0.304    0.415   70.850
  369.500    5.307    0.302    0.416   69.499
  369.750    5.250    0.297    0.414   69.804
  370.000    5.223    0.294    0.428   68.821
  370.250    5.158    0.305    0.440   68.329
  370.500    5.103    0.311    0.463   68.572
  370.750    5.020    0.298    0.484   68.938
  371.000    4.910    0.286    0.489   71.939
  371.250    4.767    0.276    0.468   76.719
  371.500    4.636    0.274    0.452   78.740
  371.750    4.493    0.276    0.438   78.615
  372.000    4.008    0.272    0.422   82.475
  372.250    3.884    0.264    0.439   86.703
  372.500    3.771    0.258    0.454   88.294
  372.750    3.654    0.253    0.459   85.289
  373.000    3.561    0.258    0.440   79.709
  373.250    3.457    0.274    0.427   84.059
  373.500    3.344    0.278    0.431   92.087
  373.750    3.271    0.286    0.436   97.970
  374.000    3.140    0.295    0.429   91.532
  374.250    3.042    0.301    0.421   78.656
  374.500    2.872    0.303    0.411   70.073
  374.750    2.793    0.308    0.423   74.423
  375.000    2.692    0.316    0.435   77.854
  375.250    2.574    0.323    0.438   79.262
  375.500    2.411    0.322    0.435   81.344
  375.750    2.271    0.309    0.446   87.778
  376.000    2.077    0.319    0.455   94.213
  376.250    1.978    0.320    0.463   99.789
  376.500    1.899    0.300    0.480   99.052
  376.750    1.889    0.296    0.487   94.820
