~VERSION INFORMATION
 VERS.                 2.0:   CWLS LOG ASCII STANDARD -VERSION 2.0
 WRAP.                  NO:   ONE LINE PER DEPTH STEP
~WELL INFORMATION BLOCK
#MNEM.UNIT           DATA                    DESCRIPTION OF MNEMONIC
#---------    -------------------            -------------------------------
# Generated from Intellog Unique Number	CS_73_76/WELL/3262
WELL.         W.W. BECKER OIL & GAS LTD.     : Well_name    - WELL
LOC .         00/11-11-075-14W4/0            : Location     - LOCATION
UWI .         00/11-11-075-14W4/0            : Uwi          - UNIQUE WELL ID
ENTR.         SP                             : Entered      - ENTERED BY
SRVC.         SCHLUMBERGER                   : Scn          - SERVICE COMPANY
STRT.M        396.24                         : top_depth    - START DEPTH
STOP.M        630.74                         : bot_depth    - STOP DEPTH
STEP.M        0.25                           : increment    - STEP LENGTH
 NULL. -999.2500:NULL Value
~CURVE INFORMATION BLOCK
#MNEM UNIT       ERCB CURVE CODE    CURVE DESCRIPTION
#-----------   ------------------   ----------------------------------
DEPT.M        00 001 00 00         : DEPTH        - DEPTH
GR  .API      00 310 00 00         : GR           - GAMMA RAY
DPHI.V/V      00 890 00 00         : PHID         - DENSITY POROSITY (SANDSTONE)
NPHI.V/V      00 330 00 00         : PHIN         - NEUTRON POROSITY (SANDSTONE)
ILD .OHMM     00 120 00 00         : RESD         - DEEP RESISTIVITY (DIL)
~PARAMETER INFORMATION
#MNEM.UNIT           DATA             DESCRIPTION OF MNEMONIC
#---------         -----------     ------------------------------
GL  .M        859.231              : gl           - GROUND LEVEL ELEVATION
EREF.M        859.231              : kb           - ELEVATION OF DEPTH REFERENCE
DATM.M        859.231              : datum        - DATUM ELEVATION
TDD .M        634.289              : tdd          - TOTAL DEPTH DRILLER
RUN .         ONE                  : Run          - RUN NUMBER
ENG .         BILL                 : Engineer     - RECORDING ENGINEER
WIT .         JIM                  : Witness      - WITNESSED BY
MUD .         GEL                  : Mud_type     - MUD TYPE
MATR.         SANDSTONE            : Logunit      - NEUTRON MATRIX
TMAX.C        23.8889              : BHT          - MAXIMUM RECORDED TEMPERATURE
BHTD.M        634.289              : BHTDEP       - MAXIMUM RECORDED TEMPERATURE
MATR.         1                    : LOGUNIT      - NEUTRON MATRIX
RMT .C        25                   : MDTP         - TEMPERATURE OF MUD
NEUT.         1                    : NEUTRON      - NEUTRON TYPE
RESI.         0                    : RESIST       - RESISTIVITY TYPE
RMC .OHMM     0.25                 : RMC          - RESISTIVITY OF MUD CAKE
RMF .OHMM     0.25                 : RMF          - RESISTIVITY OF MUD FILTRATE
SUFT.C        15                   : SUFT         - SURFACE TEMPERATURE
~A  DEPTH       GR     PHID     PHIN     RESD
# ...
  483.240   72.195    0.317    0.469   11.565
  483.490   68.165    0.320    0.458   11.131
  483.740   68.150    0.325    0.454   10.706
  483.990   70.659    0.320    0.466   10.226
  484.240   73.579    0.315    0.475    9.830
  484.490   72.774    0.313    0.476    9.429
  484.740   69.544    0.321    0.492    9.156
  484.990   67.447    0.323    0.489    8.960
  485.240   65.618    0.313    0.476    9.264
  485.490   66.287    0.320    0.464    9.658
  485.740   66.280    0.329    0.473   10.020
  485.990   65.568    0.324    0.478   10.155
  486.240   68.033    0.315    0.481   10.023
  486.490   72.279    0.311    0.476    9.012
  486.740   75.478    0.322    0.471    7.988
  486.990   81.292    0.305    0.481    7.196
  487.240   83.351    0.289    0.498    5.920
  487.490   87.952    0.272    0.488    5.043
  487.740   91.489    0.252    0.493    4.236
  487.990   94.023    0.227    0.504    3.580
  488.240   94.873    0.212    0.513    3.155
  488.490   97.504    0.196    0.520    2.599
  488.740   98.253    0.211    0.524    2.200
  488.990   97.255    0.219    0.530    2.046
  489.240   96.225    0.239    0.542    2.025
  489.490   93.528    0.233    0.531    2.221
  489.740   93.020    0.225    0.512    2.371
  489.990   94.185    0.220    0.509    2.657
  490.240   95.607    0.222    0.518    2.918
  490.490   97.298    0.218    0.533    3.032
  490.740   98.213    0.218    0.538    3.159
  490.990   97.838    0.237    0.530    3.212
  491.240   95.956    0.247    0.527    3.435
  491.490   93.394    0.238    0.526    3.855
  491.740   89.182    0.255    0.517    4.213
  491.990   84.561    0.274    0.527    4.574
  492.240   81.772    0.249    0.520    4.871
  492.490   85.176    0.265    0.483    4.953
  492.740   89.955    0.281    0.466    4.077
  492.990   96.124    0.270    0.469    3.716
  493.240  100.203    0.249    0.512    3.112
  493.490  105.623    0.234    0.568    2.604
  493.740  105.959    0.246    0.611    2.350
  493.990  101.413    0.260    0.615    2.094
  494.240   93.153    0.263    0.600    2.077
  494.490   87.920    0.264    0.570    2.456
  494.740   85.554    0.287    0.534    3.143
  494.990   82.473    0.310    0.498    4.048
  495.240   80.465    0.317    0.486    4.789
  495.490   78.387    0.311    0.481    5.876
  495.740   78.594    0.302    0.473    6.291
  495.990   80.246    0.297    0.477    6.579
  496.240   81.832    0.299    0.467    6.562
  496.490   82.827    0.309    0.459    6.562
  496.740   83.413    0.296    0.471    6.572
  496.990   82.319    0.294    0.492    6.438
  497.240   81.679    0.292    0.478    6.516
  497.490   81.246    0.284    0.463    6.927
  497.740   78.724    0.278    0.447    7.591
  497.990   78.719    0.299    0.435    8.625
  498.240   77.413    0.284    0.423    9.656
  498.490   70.518    0.072    0.293   11.264
  498.740   65.209    0.047    0.216   12.388
  498.990   66.228    0.114    0.226   12.727
  499.240   76.630    0.253    0.424   11.776
  499.490   81.825    0.274    0.466   10.044
  499.740   89.853    0.276    0.478    8.371
  499.990   91.726    0.265    0.481    7.196
  500.240   91.689    0.257    0.470    6.310
  500.490   88.299    0.273    0.470    6.099
  500.740   86.939    0.265    0.477    5.998
  500.990   85.748    0.259    0.480    5.872
  501.240   85.263    0.272    0.490    5.885
  501.490   87.787    0.285    0.483    5.873
  501.740   90.069    0.266    0.489    6.004
  501.990   88.414    0.259    0.505    5.994
  502.240   86.935    0.268    0.500    6.005
  502.490   87.767    0.268    0.493    5.878
  502.740   87.204    0.263    0.480    5.887
  502.990   87.273    0.263    0.471    5.887
  503.240   88.987    0.268    0.470    5.887
  503.490   89.526    0.256    0.481    5.886
  503.740   89.474    0.249    0.498    5.878
  503.990   86.474    0.254    0.498    5.996
  504.240   86.598    0.259    0.500    6.073
  504.490   87.686    0.254    0.491    6.153
  504.740   87.720    0.251    0.490    6.447
  504.990   84.084    0.250    0.475    6.785
  505.240   76.754    0.228    0.385    7.113
  505.490   71.909    0.093    0.297    7.441
  505.740   65.293    0.055    0.265    7.836
  505.990   73.395    0.112    0.408    7.871
  506.240   84.212    0.186    0.444    7.284
  506.490   90.457    0.221    0.459    6.786
  506.740   94.935    0.228    0.456    6.443
  506.990   95.508    0.240    0.447    6.007
  507.240   95.341    0.229    0.433    5.992
  507.490   94.306    0.223    0.442    6.108
  507.740   92.339    0.225    0.447    6.109
  507.990   90.481    0.225    0.450    6.116
  508.240   88.940    0.235    0.456    6.087
  508.490   87.600    0.247    0.462    6.022
  508.740   86.356    0.236    0.474    5.585
  508.990   86.847    0.242    0.476    5.577
  509.240   87.618    0.240    0.472    5.578
  509.490   87.531    0.238    0.483    5.579
  509.740   85.762    0.243    0.484    5.568
  509.990   86.186    0.246    0.471    5.686
  510.240   85.755    0.251    0.464    5.788
  510.490   80.658    0.256    0.461    5.964
  510.740   78.973    0.270    0.453    6.153
  510.990   82.111    0.287    0.443    6.224
  511.240   80.929    0.294    0.431    6.420
  511.490   78.297    0.300    0.429    6.452
  511.740   79.532    0.292    0.449    6.564
  511.990   80.790    0.295    0.451    6.575
  512.240   82.756    0.297    0.445    6.578
  512.490   82.799    0.283    0.457    6.591
  512.740   81.251    0.285    0.470    6.458
  512.990   78.975    0.287    0.474    6.341
  513.240   77.269    0.279    0.471    6.260
  513.490   78.959    0.286    0.462    6.198
  513.740   79.662    0.290    0.450    6.116
  513.990   79.897    0.283    0.454    6.113
  514.240   76.824    0.281    0.460    6.093
  514.490   77.169    0.275    0.462    6.004
  514.740   76.895    0.271    0.460    6.006
  514.990   76.709    0.274    0.461    6.008
  515.240   77.219    0.279    0.484    5.998
  515.490   76.969    0.286    0.483    6.130
  515.740   76.687    0.278    0.486    6.119
  515.990   78.228    0.273    0.480    6.130
  516.240   79.925    0.277    0.480    5.997
  516.490   80.841    0.274    0.483    6.009
  516.740   82.091    0.280    0.478    5.933
  516.990   81.940    0.277    0.462    5.887
  517.240   84.201    0.272    0.458    5.596
  517.490   89.725    0.253    0.446    5.098
  517.740   95.814    0.235    0.455    4.644
  517.990   99.554    0.217    0.524    3.842
  518.240   99.216    0.219    0.552    3.359
  518.490   98.838    0.235    0.546    2.872
  518.740   97.050    0.235    0.518    2.710
  518.990   99.983    0.222    0.501    2.637
  519.240  102.542    0.236    0.508    2.696
  519.490  101.949    0.250    0.513    2.822
  519.740  101.270    0.232    0.497    3.071
  519.990  100.746    0.243    0.459    3.228
  520.240   98.094    0.247    0.447    3.494
  520.490   96.203    0.238    0.451    3.811
  520.740   93.557    0.242    0.459    4.230
  520.990   93.440    0.250    0.472    4.447
  521.240   94.204    0.256    0.479    4.675
  521.490   94.190    0.255    0.471    4.897
  521.740   93.388    0.251    0.460    4.958
  521.990   93.427    0.245    0.453    5.015
  522.240   93.397    0.246    0.462    5.110
  522.490   93.037    0.244    0.467    5.131
  522.740   90.297    0.253    0.451    5.295
  522.990   85.021    0.254    0.441    5.468
  523.240   77.907    0.247    0.435    5.516
  523.490   73.557    0.260    0.444    5.593
  523.740   69.016    0.278    0.450    5.604
  523.990   63.474    0.301    0.443    5.485
  524.240   58.500    0.316    0.436    5.409
  524.490   58.967    0.321    0.437    5.298
  524.740   60.405    0.317    0.444    5.194
  524.990   63.405    0.328    0.448    5.123
  525.240   66.268    0.320    0.437    5.116
  525.490   67.380    0.310    0.435    5.009
  525.740   62.277    0.305    0.438    5.015
  525.990   61.581    0.321    0.443    5.014
  526.240   62.501    0.319    0.451    5.013
  526.490   64.192    0.314    0.458    4.954
