~VERSION INFORMATION
 VERS.                 2.0:   CWLS LOG ASCII STANDARD -VERSION 2.0
 WRAP.                  NO:   ONE LINE PER DEPTH STEP
~WELL INFORMATION BLOCK
#MNEM.UNIT           DATA                    DESCRIPTION OF MNEMONIC
#---------    -------------------            -------------------------------
# Generated from Intellog Unique Number	CC_80_83/WELL/2360
NULL.         -999.25                        : NULL_VALUE
WELL.         NUMAC SURMONT                  : Well_name    - WELL
LOC .         10-20-082-06W4                 : Location     - LOCATION          
UWI .         00/10-20-082-06W4/0            : Uwi          - UNIQUE WELL ID    
ENTR.         DW                             : Entered      - ENTERED BY        
SRVC.         DRESSER ATLAS                  : Scn          - SERVICE COMPANY   
DATE.         07 MAR 73                      : Date         - LOG DATE
STRT.M        67.056                         : top_depth    - START DEPTH       
STOP.M        295.655                        : bot_depth    - STOP DEPTH        
STEP.M        0.3048                         : increment    - STEP LENGTH       
~CURVE INFORMATION BLOCK
#MNEM UNIT       ERCB CURVE CODE    CURVE DESCRIPTION
#-----------   ------------------   ----------------------------------
DEPT.M        00 001 00 00         : DEPTH        - DEPTH                       
NPHI.V/V      00 330 00 00         : PHIN         - NEUTRON POROSITY (LIMESTONE)
GR  .API      00 310 00 00         : GR           - GAMMA RAY                   
RHOB.KG/M3    00 350 00 00         : DENS         - BULK DENSITY                
ILD .OHMM     00 120 00 00         : RESD         - DEEP RESISTIVITY (DIL)      
~PARAMETER INFORMATION       
#MNEM.UNIT           DATA             DESCRIPTION OF MNEMONIC
#---------         -----------     ------------------------------
GL  .M        529.133              : gl           - GROUND LEVEL ELEVATION      
EREF.M        530.962              : kb           - ELEVATION OF DEPTH REFERENCE
DATM.M        530.962              : datum        - DATUM ELEVATION             
TDD .M        295.351              : tdd          - TOTAL DEPTH DRILLER         
RUN .         ONE                  : Run          - RUN NUMBER                  
ENG .         BILL                 : Engineer     - RECORDING ENGINEER          
WIT .         JIM                  : Witness      - WITNESSED BY                
MUD .         GEL                  : Mud_type     - MUD TYPE                    
MATR.         LIMESTONE            : Logunit      - NEUTRON MATRIX              
TMAX.C        17.7778              : BHT          - MAXIMUM RECORDED TEMPERATURE
BHTD.M        295.351              : BHTDEP       - MAXIMUM RECORDED TEMPERATURE
MATR.         1                    : LOGUNIT      - NEUTRON MATRIX              
RMT .C        25                   : MDTP         - TEMPERATURE OF MUD          
NEUT.         0                    : NEUTRON      - NEUTRON TYPE                
RESI.         0                    : RESIST       - RESISTIVITY TYPE            
RMC .OHMM     0.25                 : RMC          - RESISTIVITY OF MUD CAKE     
RMF .OHMM     0.25                 : RMF          - RESISTIVITY OF MUD FILTRATE 
SUFT.C        15                   : SUFT         - SURFACE TEMPERATURE         
~A  DEPTH     PHIN       GR     DENS     RESD
# ...
  226.160    0.309   67.493 2286.850    9.945
  226.465    0.308   69.310 2264.490    9.056
  226.770    0.309   72.941 2301.070    8.246
  227.075    0.318   76.570 2303.090    5.355
  227.379    0.326   81.407 2286.830    4.877
  227.684    0.328   88.058 2280.730    5.064
  227.989    0.327   90.480 2280.730    5.065
  228.294    0.320   90.484 2292.920    5.461
  228.599    0.315   89.887 2296.980    6.114
  228.903    0.308   89.291 2288.850    6.844
  229.208    0.303   91.107 2286.810    7.107
  229.513    0.302   93.530 2276.650    6.976
  229.818    0.303   94.141 2266.480    6.977
  230.122    0.303   92.940 2268.510    6.722
  230.427    0.309   89.928 2256.310    5.169
  230.732    0.334   88.121 2231.920    4.050
  231.037    0.361   84.506 2203.470    3.057
  231.342    0.412   83.303 2170.950    2.631
  231.646    0.418   82.705 2164.840    2.535
  231.951    0.411   83.315 2175.000    2.682
  232.256    0.394   76.680 2197.360    3.117
  232.561    0.372   75.481 2213.610    3.556
  232.866    0.348   75.488 2223.770    3.763
  233.170    0.331   76.097 2237.990    4.212
  233.475    0.319   76.705 2254.250    5.377
  233.780    0.306   78.522 2266.440    6.020
  234.085    0.299   77.322 2258.310    6.251
  234.390    0.299   81.554 2248.140    6.371
  234.694    0.304   83.373 2244.070    6.253
  234.999    0.311   83.382 2252.200    4.900
  235.304    0.328   85.802 2274.550    3.987
  235.609    0.357   91.243 2288.770    3.699
  235.914    0.363   93.061 2294.870    3.564
  236.218    0.343   88.237 2298.930    3.701
  236.523    0.335   88.245 2282.670    3.771
  236.828    0.340   89.459 2264.370    3.633
  237.133    0.345   87.653 2264.370    3.500
  237.438    0.351   85.848 2262.330    3.501
  237.742    0.379   88.876 2260.300    3.635
  238.047    0.371   89.482 2270.460    3.919
  238.352    0.366   89.489 2276.550    3.920
  238.657    0.371   88.893 2278.580    3.503
  238.962    0.363   89.503 2270.450    3.504
  239.266    0.356   91.324 2262.310    3.708
  239.571    0.354   91.328 2262.310    3.779
  239.876    0.344   90.730 2266.370    3.709
  240.181    0.339   89.528 2274.500    4.152
  240.485    0.327   87.120 2292.780    4.826
  240.790    0.313   85.315 2302.940    5.505
  241.095    0.304   81.093 2325.300    6.897
  241.400    0.288   79.892 2376.100    4.564
  241.705    0.279   79.295 2376.100    4.565
  242.009    0.271   78.092 2288.700    5.613
  242.314    0.279   65.419 2280.570    8.647
  242.619    0.282   60.593 2158.630    8.174
  242.924    0.290   60.602 2174.880    8.024
  243.229    0.296   62.419 2187.070    8.025
  243.533    0.300   66.047 2211.460    7.877
  243.838    0.295   70.163 2215.000    5.918
  244.143    0.306   71.986 2176.480    7.277
  244.448    0.333   71.993 2164.320    7.847
  244.753    0.326   72.000 2178.530    5.606
  245.057    0.354   73.216 2200.850    3.449
  245.362    0.376   75.642 2204.920    3.324
  245.667    0.396   78.672 2200.880    3.265
  245.972    0.389   81.704 2209.000    3.031
  246.277    0.377   84.131 2233.350    3.394
  246.581    0.364   85.951 2263.790    4.581
  246.886    0.336   82.935 2273.940    8.345
  247.191    0.277   73.870 2261.790    9.000
  247.496    0.270   69.645 2213.120    9.348
  247.801    0.278   70.861 2225.300   11.710
  248.105    0.275   72.684 2156.350   16.722
  248.410    0.271   73.898 2188.810    9.193
  248.715    0.269   75.719 2280.100    6.327
  249.020    0.299   78.146 2274.030    5.985
  249.325    0.297   77.548 2229.420   11.531
  249.629    0.281   63.041 2166.550   10.910
  249.934    0.264   57.000 2154.400    9.944
  250.239    0.284   65.475 2178.750   10.328
  250.544    0.295   55.805 2239.610    8.733
  250.848    0.266   63.675 2241.650    7.958
  251.153    0.264   68.519 2223.410    8.267
  251.458    0.276   67.922 2217.330    8.588
  251.763    0.278   62.486 2221.400    9.262
  252.068    0.279   58.866 2197.070    9.443
  252.372    0.272   61.293 2199.110    9.628
  252.677    0.268   63.114 2209.270    8.610
  252.982    0.273   63.120 2186.970    9.462
  253.287    0.296   59.498 2140.330   10.016
  253.592    0.304   52.248 2152.510   10.211
  253.896    0.285   58.304 2178.900   10.028
  254.201    0.278   63.150 2203.250    9.488
  254.506    0.288   63.156 2205.280    9.496
  254.811    0.301   55.906 2158.650   10.051
  255.116    0.300   49.865 2140.400   10.245
  255.420    0.300   47.455 2156.640   10.645
  255.725    0.304   49.275 2195.190    8.194
  256.030    0.300   64.401 2235.770    7.469
  256.335    0.299   73.479 2270.270    9.011
  256.640    0.293   70.463 2276.360    8.849
  256.944    0.288   63.817 2276.370    6.943
  257.249    0.290   62.615 2237.850   11.093
  257.554    0.285   58.389 2160.780   11.523
  257.859    0.266   48.115 2195.280    9.564
  258.164    0.246   51.751 2217.600    9.218
  258.468    0.250   51.758 2152.710   10.916
  258.773    0.284   44.508 2162.860   11.341
  259.078    0.285   39.678 2144.620   11.350
  259.383    0.287   39.084 2120.290   11.358
  259.688    0.291   38.486 2132.470   11.363
  259.993    0.296   39.099 2148.710   11.585
  260.297    0.290   40.315 2146.700   10.960
  260.602    0.284   41.530 2140.620   10.565
  260.907    0.280   42.140 2150.780   11.182
  261.212    0.283   43.960 2164.980   13.491
  261.517    0.285   48.808 2167.030   18.214
  261.821    0.284   52.441 2171.100   12.772
  262.126    0.280   56.684 2173.140   16.923
  262.431    0.282   59.110 2185.320   22.009
  262.736    0.290   59.722 2207.640    6.773
  263.041    0.297   62.751 2231.990    6.652
  263.345    0.301   66.388 2189.410   28.656
  263.650    0.295   66.394 2154.940   44.103
  263.955    0.279   56.119 2167.120   23.796
  264.260    0.261   42.217 2171.190   19.751
  264.565    0.249   43.435 2159.030   13.091
  264.869    0.275   45.257 2140.790   24.755
  265.174    0.266   45.869 2118.490   40.297
  265.479    0.267   39.827 2098.220   48.627
  265.784    0.296   33.786 2092.150   59.782
  266.089    0.295   30.168 2090.130   60.950
  266.394    0.286   30.175 2069.860   64.513
  266.698    0.288   30.786 2090.160   80.816
  267.003    0.292   32.606 2112.480   68.333
  267.308    0.275   36.244 2134.800   38.996
  267.613    0.288   38.667 2140.900   22.257
  267.918    0.308   43.512 2144.970   22.694
  268.222    0.311   45.940 2157.160   49.844
  268.527    0.275   43.527 2153.110   52.751
  268.832    0.266   41.116 2153.120   24.507
  269.137    0.256   41.124 2155.160   26.429
  269.442    0.249   43.551 2112.580   72.658
  269.746    0.260   44.161 2098.390   99.952
  270.051    0.273   38.120 2106.520  103.837
  270.356    0.279   39.338 2120.730   84.564
  270.661    0.249   43.578 2151.160   20.404
  270.966    0.261   52.051 2149.150   15.712
  271.270    0.262   55.081 2096.420   29.157
  271.575    0.258   48.439 2100.490   71.645
  271.880    0.257   46.629 2137.010   21.640
  272.185    0.258   45.428 2151.220   25.153
  272.490    0.257   46.039 2155.290   38.709
  272.795    0.251   46.045 2167.480   17.983
  273.099    0.248   46.053 2165.460   37.337
  273.404    0.252   44.852 2110.710  149.266
  273.709    0.259   38.205 2120.860  186.958
  274.014    0.262   34.585 2137.100   80.591
  274.319    0.259   40.036 2163.480   32.840
  274.623    0.262   44.879 2173.630   14.695
  274.928    0.292   56.981 2131.050   10.900
  275.233    0.301   62.431 2080.350   16.464
  275.538    0.320   56.995 2056.030   30.557
  275.843    0.320   45.514 2064.150   26.819
  276.147    0.317   40.682 2049.970   55.688
  276.452    0.331   38.877 2047.950   58.942
  276.757    0.324   37.673 2070.270   75.236
  277.062    0.320   35.864 2102.740   69.845
  277.367    0.320   34.663 2106.810   23.604
  277.671    0.321   40.112 2102.760   37.713
  277.976    0.316   47.378 2098.720   35.016
  278.281    0.309   48.593 2121.040   19.614
  278.586    0.301   47.995 2157.560   11.843
  278.891    0.297   56.471 2096.730   19.641
