~VERSION INFORMATION
 VERS.                 2.0:   CWLS LOG ASCII STANDARD -VERSION 2.0
 WRAP.                  NO:   ONE LINE PER DEPTH STEP
~WELL INFORMATION BLOCK
#MNEM.UNIT           DATA                    DESCRIPTION OF MNEMONIC
#---------    -------------------            -------------------------------
# Generated from Intellog Unique Number	CW_82_90/WELL/924
WELL.         PARAMOUNT ET AL LIVOCK 10-25   : Well_name    - WELL
LOC .         00/10-25-084-19W4/0            : Location     - LOCATION
UWI .         00/10-25-084-19W400            : Uwi          - UNIQUE WELL ID
ENTR.         JAYE                           : Entered      - ENTERED BY
SRVC.         COMPUTALOG                     : Scn          - SERVICE COMPANY
DATE.         31 JAN 77                      : Date         - LOG DATE
STRT.M        213.36                         : top_depth    - START DEPTH
STOP.M        341.36                         : bot_depth    - STOP DEPTH
STEP.M        0.25                           : increment    - STEP LENGTH
 NULL. -999.2500:NULL Value
~CURVE INFORMATION BLOCK
#MNEM UNIT       ERCB CURVE CODE    CURVE DESCRIPTION
#-----------   ------------------   ----------------------------------
DEPT.M        00 001 00 00         : DEPTH        - DEPTH
CALI.MM       00 280 01 00         : CAL          - CALIPER
GR  .API      00 310 00 00         : GR           - GAMMA RAY
NPHI.V/V      00 330 00 00         : PHIN         - NEUTRON POROSITY (SANDSTONE)
DPHI.V/V      00 890 00 00         : PHID         - DENSITY POROSITY (SANDSTONE)
ILD .OHMM     00 120 00 00         : RESD         - DEEP RESISTIVITY (DIL)
~PARAMETER INFORMATION
#MNEM.UNIT           DATA             DESCRIPTION OF MNEMONIC
#---------         -----------     ------------------------------
GL  .M        582.168              : gl           - GROUND LEVEL ELEVATION
EREF.M        585.521              : kb           - ELEVATION OF DEPTH REFERENCE
DATM.M        582.168              : datum        - DATUM ELEVATION
TDD .M        370.942              : tdd          - TOTAL DEPTH DRILLER
RUN .         ONE                  : Run          - RUN NUMBER
ENG .         KING                 : Engineer     - RECORDING ENGINEER
WIT .         KNIGHT               : Witness      - WITNESSED BY
BASE.         MEDICINE HAT         : Branch       - HOME BASE OF LOGGING UNIT
MUD .         GEL CHEM             : Mud_type     - MUD TYPE
MATR.         SANDSTONE            : Logunit      - NEUTRON MATRIX
TMAX.C        0                    : BHT          - MAXIMUM RECORDED TEMPERATURE
BHTD.M        61                   : BHTDEP       - MAXIMUM RECORDED TEMPERATURE
RMT .C        1217                 : MDTP         - TEMPERATURE OF MUD
MUDD.KG/M     47                   : MWT          - MUD DENSITY
NEUT.         9.3                  : NEUTRON      - NEUTRON TYPE
RM  .OHMM     0                    : RM           - RESISTIVITY OF MUD
RMC .OHMM     5.5                  : RMC          - RESISTIVITY OF MUD CAKE
RMF .OHMM     0                    : RMF          - RESISTIVITY OF MUD FILTRATE
SUFT.C        3.8                  : SUFT         - SURFACE TEMPERATURE
SUFT.C        0                    : SUFT         - SURFACE TEMPERATURE
~A  DEPTH      CAL       GR     PHIN     PHID     RESD
  213.360  151.186   93.160    0.366    0.292   10.228
  213.610  151.189   96.322    0.387    0.311    9.846
  213.860  151.192   94.136    0.390    0.319    9.113
  214.110  151.605   93.591    0.378    0.318    8.235
  214.360  152.946   95.355    0.407    0.291    6.269
  214.610  155.727   99.671    0.444    0.289    4.919
  214.860  157.068  103.927    0.466    0.295    3.754
  215.110  158.615  105.084    0.464    0.312    3.781
  215.360  159.440  100.892    0.417    0.313    4.039
  215.610  158.619   96.821    0.436    0.309    4.546
  215.860  156.873   92.082    0.423    0.318    4.525
  216.110  155.640   97.189    0.425    0.318    4.408
  216.360  154.922  103.754    0.455    0.303    4.210
  216.610  155.645  104.789    0.471    0.276    3.788
  216.860  156.780  103.818    0.449    0.292    3.183
  217.110  157.812   97.013    0.447    0.307    2.850
  217.360  158.123   96.589    0.470    0.317    2.852
  217.610  156.273   97.988    0.474    0.324    2.911
  217.860  153.703   99.509    0.471    0.338    3.098
  218.110  151.647   98.113    0.446    0.350    3.485
  218.360  150.930   90.456    0.416    0.380    4.320
  218.610  150.623   90.093    0.371    0.397    6.851
  218.860  148.670   92.830    0.368    0.401    9.623
  219.110  151.041   92.770    0.413    0.398   10.209
  219.360  153.205   90.949    0.445    0.378   10.148
  219.610  153.824   90.647    0.455    0.351    9.247
  219.860  153.930   93.140    0.447    0.306    7.809
  220.110  154.036   95.208    0.452    0.291    7.100
  220.360  154.141  100.679    0.446    0.300    6.534
  220.610  153.011  100.985    0.441    0.303    6.105
  220.860  152.293  100.500    0.434    0.305    5.947
  221.110  151.987   98.131    0.420    0.310    5.950
  221.360  151.991   93.574    0.423    0.307    6.289
  221.610  152.095   90.780    0.410    0.296    6.716
  221.860  152.201   90.539    0.419    0.288    7.142
  222.110  151.895   84.766    0.411    0.287    7.769
  222.360  151.692   87.624    0.378    0.305    8.364
  222.610  151.283   84.283    0.374    0.307    8.887
  222.860  151.183   82.522    0.380    0.303    9.466
  223.110  151.493   80.700    0.370    0.297    9.901
  223.360  152.628   80.459    0.351    0.283   10.223
  223.610  154.484   75.963    0.297    0.261   10.394
  223.860  155.721   74.992    0.227    0.213   10.533
  224.110  155.312   76.270    0.174    0.262   10.623
  224.360  152.330   81.012    0.349    0.320   10.546
  224.610  150.480   82.290    0.369    0.319   10.301
  224.860  148.733   79.192    0.399    0.311   10.031
  225.110  147.809   76.823    0.386    0.313    9.755
  225.360  146.886   75.670    0.348    0.315    9.693
  225.610  145.962   70.383    0.340    0.319    9.832
  225.860  145.450   68.866    0.341    0.320   10.018
  226.110  145.453   65.646    0.346    0.311   10.405
  226.360  145.044   65.708    0.360    0.311   10.712
  226.610  144.326   65.710    0.364    0.310   11.043
  226.860  143.299   63.463    0.361    0.300   11.270
  227.110  143.302   60.425    0.329    0.294   11.288
  227.360  143.819   62.129    0.286    0.299   11.387
  227.610  145.468   58.666    0.287    0.301   11.558
  227.860  149.897   55.872    0.292    0.283   12.360
  228.110  153.501   53.260    0.282    0.254   13.412
  228.360  155.665   51.742    0.209    0.054   14.911
  228.610  156.903   51.743    0.009    0.016   17.018
  228.860  157.420   54.298   -0.012    0.011   18.333
  229.110  157.526   57.217   -0.028    0.011   18.945
  229.360  157.322   59.345   -0.041    0.017   19.308
  229.610  156.913   61.717   -0.047    0.039   19.510
  229.860  156.504   67.371   -0.047    0.065   19.465
  230.110  156.404   73.754   -0.032    0.094   19.275
  230.360  155.789   74.789   -0.002    0.122   18.453
  230.610  154.660   77.647    0.062    0.165   16.936
  230.860  151.986   78.683    0.124    0.197   15.194
  231.110  144.785   79.170    0.300    0.259   12.956
  231.360  138.098   82.757    0.366    0.292   11.526
  231.610  134.910   85.372    0.352    0.315   10.480
  231.860  133.986   86.589    0.348    0.316    9.827
  232.110  134.606   84.159    0.370    0.313    9.357
  232.360  139.240   78.873    0.384    0.313    9.144
  232.610  144.389   71.338    0.423    0.317    8.987
  232.860  146.450   75.047    0.396    0.321    8.886
  233.110  146.349   78.270    0.363    0.325    8.801
  233.360  147.381   74.990    0.389    0.320    8.779
  233.610  148.722   78.881    0.377    0.315    8.845
  233.860  149.856   82.165    0.364    0.307    9.024
  234.110  149.962   81.862    0.345    0.284    9.403
  234.360  148.730   67.946    0.329    0.265   10.158
  234.610  144.101   62.660    0.158    0.228   10.368
  234.860  145.235   53.058    0.104    0.050   10.475
  235.110  150.075   59.867    0.015    0.115   10.438
  235.360  149.975   73.118   -0.014    0.162   10.113
  235.610  148.846   75.368    0.310    0.263    9.747
  235.860  148.128   78.773    0.341    0.313    9.102
  236.110  148.028   81.328    0.335    0.314    9.025
  236.360  148.236   81.451    0.305    0.284    9.307
  236.610  149.885   73.734    0.252    0.216    9.966
  236.860  152.358   65.469    0.206    0.161   10.849
  237.110  153.595   64.924    0.120    0.118   11.325
  237.360  154.113   73.617    0.241    0.160   11.382
  237.610  153.704   80.000    0.325    0.230   11.073
  237.860  152.368   85.411    0.362    0.345   10.403
  238.110  152.680   85.351    0.390    0.351    9.606
  238.360  153.403   81.828    0.373    0.342    9.232
  238.610  152.890   80.127    0.358    0.332    8.948
  238.860  152.585   80.737    0.369    0.333    8.982
  239.110  152.381   80.434    0.359    0.339    9.081
  239.360  152.384   77.336    0.349    0.341    9.075
  239.610  152.078   80.438    0.364    0.339    8.982
  239.860  151.874   79.649    0.367    0.337    8.905
  240.110  151.260   72.661    0.357    0.338    8.844
  240.360  150.851   77.221    0.365    0.340    8.822
  240.610  150.236   79.046    0.370    0.344    8.785
  240.860  149.518   79.959    0.364    0.351    8.772
  241.110  149.109   79.596    0.366    0.354    8.743
  241.360  150.244   76.376    0.370    0.353    8.761
  241.610  151.893   77.290    0.366    0.340    8.795
  241.860  154.057   75.225    0.357    0.338    8.959
  242.110  155.191   74.862    0.341    0.325    9.169
  242.360  155.194   80.394    0.323    0.301    9.460
  242.610  155.403   79.362    0.312    0.272    9.478
  242.860  155.920   78.148    0.323    0.255    9.417
  243.110  156.334   80.581    0.357    0.315    9.308
  243.360  156.851   80.339    0.381    0.350    9.206
  243.610  156.339   78.153    0.394    0.361    9.089
  243.860  154.695   76.088    0.387    0.366    9.076
  244.110  150.890   75.299    0.389    0.369    9.062
  244.360  147.084   75.301    0.391    0.369    9.089
  244.610  141.016   75.728    0.369    0.355    9.076
  244.860  140.504   81.442    0.355    0.365    9.039
  245.110  141.226   86.975    0.381    0.374    9.009
  245.360  143.287   89.468    0.396    0.367    9.004
  245.610  145.657   83.817    0.375    0.356    9.095
  245.860  148.232   80.172    0.359    0.342    9.161
  246.110  150.396   80.296    0.348    0.335    9.236
  246.360  152.560   79.081    0.345    0.330    9.295
  246.610  155.238   77.685    0.345    0.327    9.281
  246.860  156.682   78.051    0.343    0.327    9.300
  247.110  157.096   82.490    0.347    0.332    9.351
  247.360  154.835   76.656    0.343    0.331    9.458
  247.610  151.750   78.846    0.325    0.326    9.596
  247.860  151.753   81.886    0.307    0.320    9.703
  248.110  152.784   82.435    0.314    0.318    9.794
  248.360  157.624   80.978    0.332    0.315    9.821
  248.610  157.832   76.604    0.351    0.313    9.752
  248.860  157.012   78.428    0.315    0.313    9.682
  249.110  156.397   79.159    0.309    0.316    9.540
  249.360  155.988   76.790    0.336    0.318    9.415
  249.610  155.990   79.953    0.311    0.322    9.242
