~VERSION INFORMATION
 VERS.                 2.0:   CWLS LOG ASCII STANDARD -VERSION 2.0
 WRAP.                  NO:   ONE LINE PER DEPTH STEP
~WELL INFORMATION BLOCK
#MNEM.UNIT           DATA                    DESCRIPTION OF MNEMONIC
#---------    -------------------            -------------------------------
# Generated from Intellog Unique Number	CW_70_72/WELL/3031
NULL.         -999.25                        : NULL_VALUE
WELL.         SULPETRO ET AL PARKER 11-23    : Well_name    - WELL              
LOC .         11-23-070-05W5                 : Location     - LOCATION          
UWI .         00/11-23-070-05W5/0            : Uwi          - UNIQUE WELL ID    
ENTR.         JAYE                           : Entered      - ENTERED BY        
SRVC.         SCHLUMBERGER                   : Scn          - SERVICE COMPANY   
DATE.         2 APR 82                       : Date         - LOG DATE          
STRT.M        660                            : top_depth    - START DEPTH       
STOP.M        905                            : bot_depth    - STOP DEPTH        
STEP.M        0.25                           : increment    - STEP LENGTH       
~CURVE INFORMATION BLOCK
#MNEM UNIT       ERCB CURVE CODE    CURVE DESCRIPTION
#-----------   ------------------   ----------------------------------
DEPT.M        00 001 00 00         : DEPTH        - DEPTH                       
ILD .OHMM     00 120 00 00         : RESD         - DEEP RESISTIVITY (DIL)      
CALI.MM       00 280 01 00         : CAL          - CALIPER                     
GR  .API      00 310 00 00         : GR           - GAMMA RAY                   
NPHI.V/V      00 330 00 00         : PHIN         - NEUTRON POROSITY (SANDSTONE)
DPHI.V/V      00 890 00 00         : PHID         - DENSITY POROSITY (SANDSTONE)
~PARAMETER INFORMATION       
#MNEM.UNIT           DATA             DESCRIPTION OF MNEMONIC
#---------         -----------     ------------------------------
GL  .M        779.8                : gl           - GROUND LEVEL ELEVATION      
EREF.M        782.7                : kb           - ELEVATION OF DEPTH REFERENCE
DATM.M        779.8                : datum        - DATUM ELEVATION             
TDD .M        926                  : tdd          - TOTAL DEPTH DRILLER         
RUN .         ONE                  : Run          - RUN NUMBER                  
ENG .         VANDENBRINK          : Engineer     - RECORDING ENGINEER          
WIT .         SPRATT               : Witness      - WITNESSED BY                
BASE.         EDM                  : Branch       - HOME BASE OF LOGGING UNIT   
MUD .         GEL CHEM             : Mud_type     - MUD TYPE                    
MATR.         SANDSTONE            : Logunit      - NEUTRON MATRIX              
TMAX.C        35.5                 : BHT          - MAXIMUM RECORDED TEMPERATURE
BHTD.M        928                  : BHTDEP       - MAXIMUM RECORDED TEMPERATURE
RMT .C        18.8                 : MDTP         - TEMPERATURE OF MUD          
MUDD.KG/M     1210                 : MWT          - MUD DENSITY                 
NEUT.         1                    : NEUTRON      - NEUTRON TYPE                
RESI.         0                    : RESIST       - RESISTIVITY TYPE            
RM  .OHMM     0.644                : RM           - RESISTIVITY OF MUD          
RMC .OHMM     0.25                 : RMC          - RESISTIVITY OF MUD CAKE     
RMF .OHMM     0.598                : RMF          - RESISTIVITY OF MUD FILTRATE 
SUFT.C        0                    : SUFT         - SURFACE TEMPERATURE         
~A  DEPTH     RESD      CAL       GR     PHIN     PHID
# ...
  806.000    2.835  172.848   95.207    0.411    0.171
  806.250    2.481  161.516   99.354    0.409    0.180
  806.500    2.268  154.356   95.558    0.408    0.198
  806.750    2.189  153.242   90.635    0.411    0.223
  807.000    2.226  154.629   88.902    0.422    0.245
  807.250    2.412  155.805   90.299    0.424    0.234
  807.500    2.605  157.090   92.194    0.415    0.193
  807.750    2.775  156.598   92.463    0.405    0.187
  808.000    2.880  153.606   87.164    0.407    0.207
  808.250    2.878  154.789   76.111    0.406    0.191
  808.500    2.779  155.025   69.813    0.397    0.166
  808.750    2.618  154.014   73.525    0.405    0.173
  809.000    2.453  152.899   66.848    0.429    0.225
  809.250    2.302  151.791   59.423    0.428    0.235
  809.500    2.145  149.732   61.322    0.379    0.216
  809.750    2.060  146.849   63.528    0.333    0.229
  810.000    2.042  147.198   65.172    0.353    0.260
  810.250    2.189  147.951   66.383    0.399    0.276
  810.500    2.511  149.130   66.964    0.423    0.273
  810.750    2.805  149.683   67.673    0.440    0.231
  811.000    2.944  150.136   68.002    0.390    0.205
  811.250    2.707  150.376   67.272    0.345    0.172
  811.500    2.355  150.719   62.160    0.317    0.161
  811.750    2.112  150.750   65.370    0.318    0.184
  812.000    1.923  150.781   69.206    0.340    0.192
  812.250    1.816  150.817   71.350    0.359    0.203
  812.500    1.763  150.845   65.991    0.381    0.232
  812.750    1.739  150.876   66.885    0.393    0.258
  813.000    1.705  151.016   68.844    0.410    0.242
  813.250    1.690  151.046   69.489    0.422    0.239
  813.500    1.679  151.502   69.445    0.439    0.259
  813.750    1.665  151.738   69.026    0.456    0.254
  814.000    1.661  151.875   68.920    0.461    0.256
  814.250    1.669  152.007   68.126    0.454    0.275
  814.500    1.652  151.934   67.959    0.463    0.289
  814.750    1.595  151.972   72.981    0.479    0.297
  815.000    1.523  152.728   77.133    0.451    0.265
  815.250    1.468  153.804   74.710    0.439    0.250
  815.500    1.417  155.301   63.030    0.429    0.263
  815.750    1.403  155.748   51.288    0.416    0.280
  816.000    1.396  155.566   52.558    0.412    0.296
  816.250    1.395  155.078   54.454    0.407    0.315
  816.500    1.391  153.858   50.032    0.413    0.300
  816.750    1.382  151.388   46.485    0.421    0.297
  817.000    1.350  149.960   48.695    0.402    0.295
  817.250    1.309  150.829   51.967    0.373    0.286
  817.500    1.247  153.467   53.363    0.377    0.288
  817.750    1.184  156.940   50.691    0.389    0.301
  818.000    1.097  158.115   48.834    0.393    0.309
  818.250    1.035  155.647   49.103    0.394    0.312
  818.500    0.981  153.175   49.686    0.386    0.302
  818.750    0.956  151.645   48.392    0.381    0.296
  819.000    0.943  150.637   48.410    0.403    0.289
  819.250    0.938  150.143   52.682    0.409    0.284
  819.500    0.957  150.701   54.266    0.397    0.285
  819.750    1.030  151.459   54.347    0.399    0.277
  820.000    1.116  152.324   53.678    0.393    0.269
  820.250    1.252  154.442   52.073    0.386    0.272
  820.500    1.357  157.914   51.402    0.405    0.302
  820.750    1.476  160.135   55.739    0.415    0.303
  821.000    1.582  158.396   61.136    0.390    0.281
  821.250    1.715  155.717   67.599    0.408    0.261
  821.500    1.800  153.350   69.932    0.419    0.264
  821.750    1.893  151.299   68.326    0.413    0.280
  822.000    2.063  149.561   68.845    0.421    0.288
  822.250    2.323  149.173   71.994    0.433    0.292
  822.500    2.595  148.995   76.391    0.433    0.234
  822.750    2.797  150.590   81.040    0.444    0.223
  823.000    3.008  156.361   84.686    0.452    0.219
  823.250    3.170  160.664   89.021    0.451    0.236
  823.500    3.308  164.657   92.418    0.443    0.226
  823.750    3.459  161.980   88.371    0.444    0.227
  824.000    3.589  154.817   84.075    0.464    0.253
  824.250    3.689  153.806   80.655    0.489    0.271
  824.500    3.763  157.594   81.799    0.446    0.218
  824.750    3.847  160.856   82.693    0.407    0.175
  825.000    3.815  162.868   83.901    0.383    0.168
  825.250    3.670  159.464   85.299    0.404    0.180
  825.500    3.497  156.573   85.880    0.411    0.192
  825.750    3.307  154.209   86.963    0.399    0.209
  826.000    3.158  152.673   88.044    0.419    0.225
  826.250    3.004  151.767   88.876    0.449    0.233
  826.500    2.835  150.966   87.771    0.467    0.238
  826.750    2.697  150.164   86.726    0.447    0.238
  827.000    2.565  149.986   83.679    0.429    0.233
  827.250    2.491  149.812   83.700    0.415    0.238
  827.500    2.396  149.739   81.278    0.427    0.243
  827.750    2.332  149.770   77.732    0.442    0.245
  828.000    2.264  149.491   74.688    0.436    0.245
  828.250    2.224  149.525   74.580    0.424    0.262
  828.500    2.181  149.770   76.851    0.409    0.265
  828.750    2.146  149.799   77.996    0.413    0.255
  829.000    2.128  149.517   77.015    0.426    0.249
  829.250    2.110  149.238   79.285    0.440    0.269
  829.500    2.089  148.748   81.744    0.448    0.277
  829.750    2.071  148.048   79.323    0.461    0.268
  830.000    2.050  147.972   76.215    0.472    0.258
  830.250    2.033  147.899   76.610    0.471    0.254
  830.500    2.019  148.873   79.694    0.453    0.272
  830.750    2.002  150.369   82.341    0.456    0.283
  831.000    1.989  151.331   79.294    0.465    0.281
  831.250    1.980  152.618   76.499    0.446    0.274
  831.500    1.956  153.274   78.707    0.418    0.267
  831.750    1.944  153.825   77.350    0.416    0.260
  832.000    1.931  153.861   74.242    0.428    0.254
  832.250    1.929  153.890   72.572    0.444    0.250
  832.500    1.927  152.044   72.028    0.444    0.266
  832.750    1.922  152.187   71.108    0.434    0.265
  833.000    1.921  151.700   73.381    0.426    0.259
  833.250    1.912  150.997   75.840    0.426    0.265
  833.500    1.907  151.653   76.672    0.428    0.271
  833.750    1.894  152.204   76.502    0.428    0.264
  834.000    1.882  153.072   76.084    0.419    0.257
  834.250    1.880  154.257   76.166    0.408    0.257
  834.500    1.889  155.120   76.560    0.402    0.260
  834.750    1.899  155.878   77.581    0.401    0.246
  835.000    1.919  156.117   73.282    0.400    0.235
  835.250    1.968  156.258   72.990    0.397    0.237
  835.500    2.054  156.182   75.138    0.391    0.240
  835.750    2.164  155.700   77.094    0.403    0.229
  836.000    2.328  155.107   77.801    0.403    0.217
  836.250    2.500  154.924   77.194    0.387    0.205
  836.500    2.746  154.546   77.466    0.377    0.191
  836.750    3.027  154.361   77.858    0.373    0.184
  837.000    3.337  153.871   66.368    0.369    0.198
  837.250    3.577  153.173   60.506    0.364    0.212
  837.500    3.705  152.892   57.585    0.362    0.202
  837.750    3.577  152.610   57.355    0.369    0.165
  838.000    3.383  152.441   59.813    0.336    0.147
  838.250    3.181  152.260   63.210    0.372    0.166
  838.500    3.026  151.768   68.610    0.394    0.201
  838.750    2.961  151.493   74.258    0.386    0.218
  839.000    3.015  151.728   83.349    0.367    0.198
  839.250    3.088  153.428   86.370    0.351    0.177
  839.500    3.126  156.592   86.514    0.338    0.162
  839.750    3.142  159.230   89.038    0.352    0.149
  840.000    3.133  161.033   93.122    0.373    0.134
  840.250    3.077  161.901   96.080    0.403    0.137
  840.500    3.029  162.242   95.661    0.422    0.157
  840.750    3.038  162.588   97.244    0.405    0.158
  841.000    3.212  162.729  101.205    0.391    0.137
  841.250    3.495  162.977  106.792    0.384    0.127
  841.500    3.774  163.098  108.877    0.376    0.120
  841.750    3.953  162.928  100.639    0.363    0.112
  842.000    4.064  162.749  102.658    0.327    0.103
  842.250    4.209  162.465  105.241    0.311    0.104
