~VERSION INFORMATION
 VERS.                 2.0:   CWLS LOG ASCII STANDARD -VERSION 2.0
 WRAP.                  NO:   ONE LINE PER DEPTH STEP
~WELL INFORMATION BLOCK
#MNEM.UNIT           DATA                    DESCRIPTION OF MNEMONIC
#---------    -------------------            -------------------------------
# Generated from Intellog Unique Number	CW_70_72/WELL/1055
NULL.         -999.25                        : NULL_VALUE
WELL.         NORCEN VICTOR 11-08            : Well_name    - WELL              
LOC .         11-08-072-01W5                 : Location     - LOCATION          
UWI .         00/11-08-072-01W5/0            : Uwi          - UNIQUE WELL ID    
ENTR.         JAYE                           : Entered      - ENTERED BY        
SRVC.         WESTERN ATLAS                  : Scn          - SERVICE COMPANY   
DATE.         11 MAR 81                      : Date         - LOG DATE          
STRT.M        424                            : top_depth    - START DEPTH       
STOP.M        673                            : bot_depth    - STOP DEPTH        
STEP.M        0.25                           : increment    - STEP LENGTH       
~CURVE INFORMATION BLOCK
#MNEM UNIT       ERCB CURVE CODE    CURVE DESCRIPTION
#-----------   ------------------   ----------------------------------
DEPT.M        00 001 00 00         : DEPTH        - DEPTH                       
DPHI.V/V      00 890 00 00         : PHID         - DENSITY POROSITY (SANDSTONE)
NPHI.V/V      00 330 00 00         : PHIN         - NEUTRON POROSITY (SANDSTONE)
GR  .API      00 310 00 00         : GR           - GAMMA RAY                   
CALI.MM       00 280 01 00         : CAL          - CALIPER                     
ILD .OHMM     00 120 00 00         : RESD         - DEEP RESISTIVITY (DIL)      
~PARAMETER INFORMATION       
#MNEM.UNIT           DATA             DESCRIPTION OF MNEMONIC
#---------         -----------     ------------------------------
GL  .M        610.84               : gl           - GROUND LEVEL ELEVATION      
EREF.M        615.4                : kb           - ELEVATION OF DEPTH REFERENCE
DATM.M        610.84               : datum        - DATUM ELEVATION             
TDD .M        685                  : tdd          - TOTAL DEPTH DRILLER         
RUN .         ONE                  : Run          - RUN NUMBER                  
BASE.         R.D.                 : Branch       - HOME BASE OF LOGGING UNIT   
MUD .         GEL CHEM             : Mud_type     - MUD TYPE                    
MATR.         SANDSTONE            : Logunit      - NEUTRON MATRIX              
TMAX.C        30                   : BHT          - MAXIMUM RECORDED TEMPERATURE
BHTD.M        685.4                : BHTDEP       - MAXIMUM RECORDED TEMPERATURE
RMT .C        5                    : MDTP         - TEMPERATURE OF MUD          
MUDD.KG/M     1110                 : MWT          - MUD DENSITY                 
NEUT.         1                    : NEUTRON      - NEUTRON TYPE                
RESI.         0                    : RESIST       - RESISTIVITY TYPE            
RM  .OHMM     7                    : RM           - RESISTIVITY OF MUD          
RMC .OHMM     3.5                  : RMC          - RESISTIVITY OF MUD CAKE     
RMF .OHMM     4.5                  : RMF          - RESISTIVITY OF MUD FILTRATE 
SUFT.C        0                    : SUFT         - SURFACE TEMPERATURE         
~A  DEPTH     PHID     PHIN       GR      CAL     RESD
# ...
  460.500    0.244    0.335   80.393  203.042    2.059
  460.750    0.202    0.344   88.630  202.861    2.062
  461.000    0.197    0.355   85.485  202.779    1.997
  461.250    0.225    0.364   68.046  202.807    1.930
  461.500    0.281    0.371   65.848  202.935    1.879
  461.750    0.305    0.361   71.619  203.386    1.861
  462.000    0.267    0.369   77.072  203.515    1.857
  462.250    0.270    0.380   79.617  203.332    1.853
  462.500    0.303    0.378   74.638  202.728    1.874
  462.750    0.362    0.370   69.342  200.750    1.938
  463.000    0.344    0.372   67.269  198.666    2.047
  463.250    0.290    0.358   64.820  197.745    2.129
  463.500    0.267    0.343   61.420  197.773    2.165
  463.750    0.250    0.328   61.437  198.222    2.190
  464.000    0.228    0.319   66.511  199.304    2.198
  464.250    0.276    0.332   73.735  201.332    2.200
  464.500    0.278    0.350   81.973  203.885    2.217
  464.750    0.237    0.371   91.285  206.860    2.238
  465.000    0.195    0.388   93.387  211.001    2.263
  465.250    0.199    0.379   96.566  213.237    2.301
  465.500    0.196    0.384  101.639  214.950    2.340
  465.750    0.203    0.389   93.182  215.818    2.379
  466.000    0.217    0.384   89.655  216.792    2.428
  466.250    0.236    0.370   91.950  217.664    2.503
  466.500    0.214    0.387   93.544  218.109    2.589
  466.750    0.189    0.394   97.797  218.136    2.672
  467.000    0.167    0.412   94.651  217.847    2.780
  467.250    0.208    0.432   88.912  217.873    2.875
  467.500    0.371    0.448   81.592  218.112    2.997
  467.750    0.439    0.462   74.968  218.240    3.070
  468.000    0.507    0.539   70.999  218.800    3.117
  468.250    0.438    0.489   83.157  218.715    3.104
  468.500    0.336    0.438   85.828  218.530    3.063
  468.750    0.307    0.411   87.298  218.453    3.016
  469.000    0.272    0.390   89.529  218.693    2.964
  469.250    0.252    0.379   90.556  218.927    2.892
  469.500    0.265    0.381   90.888  219.062    2.847
  469.750    0.242    0.391   89.639  219.189    2.747
  470.000    0.220    0.401   79.093  218.688    2.605
  470.250    0.362    0.445   67.978  216.819    2.400
  470.500    0.491    0.543   61.670  214.312    2.107
  470.750    0.325    0.336   60.420  210.968    1.928
  471.000    0.284    0.317   62.841  208.253    1.730
  471.250    0.269    0.319   59.948  205.012    1.601
  471.500    0.273    0.326   59.521  201.248    1.532
  471.750    0.265    0.330   61.626  199.476    1.506
  472.000    0.267    0.343   63.980  197.187    1.501
  472.250    0.285    0.352   66.145  195.422    1.506
  472.500    0.284    0.347   67.424  193.547    1.526
  472.750    0.294    0.338   66.301  190.835    1.543
  473.000    0.306    0.327   63.598  189.806    1.560
  473.250    0.306    0.328   64.374  191.944    1.568
  473.500    0.292    0.333   65.780  193.970    1.586
  473.750    0.283    0.338   64.594  195.365    1.609
  474.000    0.281    0.345   64.611  194.970    1.643
  474.250    0.292    0.364   66.838  193.415    1.693
  474.500    0.294    0.371   64.641  190.912    1.747
  474.750    0.299    0.369   67.568  188.831    1.825
  475.000    0.316    0.364   71.881  187.700    1.986
  475.250    0.307    0.356   76.830  187.200    2.134
  475.500    0.298    0.345   71.850  187.117    2.207
  475.750    0.301    0.337   69.525  187.565    2.219
  476.000    0.304    0.341   67.521  188.546    2.136
  476.250    0.301    0.345   66.965  189.094    2.003
  476.500    0.296    0.343   65.970  189.856    1.906
  476.750    0.290    0.338   64.782  190.514    1.764
  477.000    0.294    0.334   63.344  190.540    1.679
  477.250    0.297    0.335   62.538  189.515    1.601
  477.500    0.298    0.342   61.793  188.698    1.527
  477.750    0.297    0.353   62.125  187.984    1.496
  478.000    0.298    0.360   64.607  187.693    1.472
  478.250    0.303    0.362   66.900  187.298    1.442
  478.500    0.304    0.358   68.433  186.906    1.431
  478.750    0.303    0.351   76.228  186.510    1.428
  479.000    0.302    0.348   83.578  186.114    1.433
  479.250    0.301    0.357   75.500  185.508    1.466
  479.500    0.321    0.369   69.194  185.011    1.493
  479.750    0.317    0.373   66.361  184.930    1.530
  480.000    0.314    0.366   66.566  185.168    1.561
  480.250    0.261    0.351   71.010  185.298    1.600
  480.500    0.267    0.341   69.444  185.328    1.630
  480.750    0.281    0.336   64.844  185.348    1.660
  481.000    0.261    0.331   60.181  185.373    1.696
  481.250    0.267    0.324   57.159  185.506    1.717
  481.500    0.283    0.322   57.810  185.218    1.730
  481.750    0.285    0.324   63.263  185.029    1.724
  482.000    0.285    0.331   60.810  184.957    1.703
  482.250    0.288    0.343   60.892  184.557    1.662
  482.500    0.297    0.352   64.067  183.948    1.584
  482.750    0.308    0.356   66.742  182.922    1.494
  483.000    0.310    0.362   67.960  181.687    1.425
  483.250    0.323    0.366   66.963  180.656    1.380
  483.500    0.348    0.365   64.700  179.838    1.369
  483.750    0.322    0.365   62.504  178.813    1.364
  484.000    0.326    0.371   62.202  178.313    1.368
  484.250    0.346    0.385   62.027  177.811    1.376
  484.500    0.357    0.373   61.538  177.097    1.381
  484.750    0.345    0.365   63.892  176.493    1.383
  485.000    0.334    0.361   65.933  175.992    1.385
  485.250    0.331    0.360   63.862  175.278    1.378
  485.500    0.330    0.361   63.181  173.406    1.372
  485.750    0.337    0.366   66.169  172.273    1.368
  486.000    0.322    0.373   71.182  175.357    1.376
  486.250    0.303    0.367   70.438  179.497    1.386
  486.500    0.362    0.362   65.964  183.213    1.399
  486.750    0.347    0.358   60.098  185.974    1.409
  487.000    0.328    0.356   59.607  189.589    1.411
  487.250    0.293    0.353   62.155  192.035    1.417
  487.500    0.283    0.356   62.741  194.591    1.408
  487.750    0.282    0.361   62.500  196.619    1.405
  488.000    0.294    0.369   62.706  198.229    1.402
  488.250    0.280    0.371   62.658  199.728    1.404
  488.500    0.285    0.362   62.800  200.811    1.426
  488.750    0.283    0.344   62.755  201.577    1.469
  489.000    0.277    0.341   64.097  202.022    1.514
  489.250    0.274    0.346   66.010  202.368    1.543
  489.500    0.273    0.361   67.796  202.810    1.574
  489.750    0.269    0.368   69.710  202.943    1.632
  490.000    0.262    0.369   71.433  203.078    1.684
  490.250    0.257    0.364   72.400  203.102    1.755
  490.500    0.247    0.357   71.527  202.918    1.795
  490.750    0.245    0.350   68.254  202.519    1.833
  491.000    0.251    0.341   66.373  202.019    1.856
  491.250    0.247    0.332   66.704  201.837    1.884
  491.500    0.238    0.323   67.923  201.653    1.924
  491.750    0.233    0.324   69.332  201.574    1.964
  492.000    0.238    0.348   70.674  201.809    1.989
  492.250    0.251    0.348   71.827  202.256    2.008
  492.500    0.259    0.347   73.360  202.704    2.019
  492.750    0.261    0.349   72.239  202.939    2.029
  493.000    0.252    0.359   71.178  203.183    2.036
  493.250    0.242    0.370   71.448  203.204    2.040
  493.500    0.237    0.365   73.109  203.128    2.032
  493.750    0.244    0.361   74.641  202.834    2.020
  494.000    0.247    0.357   75.416  202.550    2.008
  494.250    0.247    0.355   76.065  202.570    1.992
  494.500    0.248    0.354   74.687  202.176    1.970
  494.750    0.249    0.353   72.870  201.989    1.947
  495.000    0.249    0.350   72.886  201.277    1.936
  495.250    0.247    0.350   73.344  199.303    1.928
  495.500    0.255    0.351   72.284  197.958    1.935
  495.750    0.263    0.353   71.730  197.773    1.942
  496.000    0.270    0.354   73.644  197.802    1.952
  496.250    0.265    0.354   74.988  197.931    1.970
  496.500    0.259    0.354   75.507  198.281    1.996
  496.750    0.249    0.351   74.261  198.088    2.061
