~VERSION INFORMATION
 VERS.                 2.0:   CWLS LOG ASCII STANDARD -VERSION 2.0
 WRAP.                  NO:   ONE LINE PER DEPTH STEP
~WELL INFORMATION BLOCK
#MNEM.UNIT           DATA                    DESCRIPTION OF MNEMONIC
#---------    -------------------            -------------------------------
# Generated from Intellog Unique Number	CS_73_76/WELL/3274
WELL.         BOW VALLEY EXPLORATION         : Well_name    - WELL
LOC .         00/12-34-075-14W4/0            : Location     - LOCATION
UWI .         00/12-34-075-14W4/0            : Uwi          - UNIQUE WELL ID
ENTR.         SP                             : Entered      - ENTERED BY
SRVC.         SCHLUMBERGER                   : Scn          - SERVICE COMPANY
STRT.M        345                            : top_depth    - START DEPTH
STOP.M        585                            : bot_depth    - STOP DEPTH
STEP.M        0.25                           : increment    - STEP LENGTH
 NULL. -999.2500:NULL Value
~CURVE INFORMATION BLOCK
#MNEM UNIT       ERCB CURVE CODE    CURVE DESCRIPTION
#-----------   ------------------   ----------------------------------
DEPT.M        00 001 00 00         : DEPTH        - DEPTH
ILD .OHMM     00 120 00 00         : RESD         - DEEP RESISTIVITY (DIL)
NPHI.V/V      00 330 00 00         : PHIN         - NEUTRON POROSITY (LIMESTONE)
DPHI.V/V      00 890 00 00         : PHID         - DENSITY POROSITY (LIMESTONE)
GR  .API      00 310 00 00         : GR           - GAMMA RAY
~PARAMETER INFORMATION
#MNEM.UNIT           DATA             DESCRIPTION OF MNEMONIC
#---------         -----------     ------------------------------
GL  .M        720.2                : gl           - GROUND LEVEL ELEVATION
EREF.M        723.4                : kb           - ELEVATION OF DEPTH REFERENCE
DATM.M        720.2                : datum        - DATUM ELEVATION
TDD .M        595                  : tdd          - TOTAL DEPTH DRILLER
RUN .         ONE                  : Run          - RUN NUMBER
ENG .         BILL                 : Engineer     - RECORDING ENGINEER
WIT .         JIM                  : Witness      - WITNESSED BY
MUD .         GEL                  : Mud_type     - MUD TYPE
MATR.         LIMESTONE            : Logunit      - NEUTRON MATRIX
TMAX.C        17                   : BHT          - MAXIMUM RECORDED TEMPERATURE
BHTD.M        595                  : BHTDEP       - MAXIMUM RECORDED TEMPERATURE
MATR.         1                    : LOGUNIT      - NEUTRON MATRIX
RMT .C        25                   : MDTP         - TEMPERATURE OF MUD
NEUT.         1                    : NEUTRON      - NEUTRON TYPE
RESI.         0                    : RESIST       - RESISTIVITY TYPE
RMC .OHMM     0.25                 : RMC          - RESISTIVITY OF MUD CAKE
RMF .OHMM     0.25                 : RMF          - RESISTIVITY OF MUD FILTRATE
SUFT.C        15                   : SUFT         - SURFACE TEMPERATURE
~A  DEPTH     RESD     PHIN     PHID       GR
# ...
  388.500    4.950    0.505    0.258   98.940
  388.750    4.950    0.519    0.249  103.803
  389.000    5.042    0.519    0.271  107.456
  389.250    5.232    0.498    0.261  115.949
  389.500    5.429    0.525    0.246  123.829
  389.750    5.530    0.542    0.258  128.088
  390.000    5.633    0.536    0.272  127.504
  390.250    5.738    0.514    0.259  123.909
  390.500    5.954    0.497    0.244  124.525
  390.750    6.065    0.486    0.235  125.761
  391.000    6.293    0.493    0.225  122.765
  391.250    6.652    0.502    0.231  121.569
  391.500    7.297    0.489    0.233  115.554
  391.750    7.572    0.464    0.257  113.151
  392.000    7.857    0.448    0.250  108.333
  392.250    7.713    0.448    0.238  109.567
  392.500    7.570    0.452    0.250  112.622
  392.750    7.431    0.457    0.259  113.849
  393.000    7.294    0.466    0.257  115.078
  393.250    7.160    0.481    0.251  115.098
  393.500    6.899    0.495    0.246  115.139
  393.750    6.648    0.493    0.235  115.150
  394.000    6.647    0.473    0.219  117.594
  394.250    6.771    0.455    0.234  118.824
  394.500    7.428    0.472    0.239  112.188
  394.750    8.455    0.488    0.245   89.835
  395.000    9.805    0.495    0.252   78.971
  395.250   11.161    0.477    0.268   71.129
  395.500   12.243    0.432    0.278   63.288
  395.750   13.183    0.415    0.284   54.844
  396.000   13.429    0.418    0.284   50.628
  396.250   13.679    0.426    0.291   51.257
  396.500   13.934    0.409    0.293   52.491
  396.750   14.193    0.408    0.314   53.116
  397.000   14.192    0.410    0.313   54.349
  397.250   14.191    0.419    0.310   58.609
  397.500   14.190    0.410    0.311   61.050
  397.750   14.190    0.405    0.311   64.100
  398.000   14.188    0.405    0.310   65.932
  398.250   13.927    0.422    0.316   66.563
  398.500   13.926    0.436    0.322   64.770
  398.750   13.925    0.432    0.333   62.984
  399.000   13.669    0.429    0.325   61.192
  399.250   13.668    0.432    0.327   60.607
  399.500   13.667    0.438    0.316   60.021
  399.750   13.666    0.434    0.329   60.654
  400.000   13.414    0.412    0.318   61.887
  400.250   13.413    0.404    0.320   63.125
  400.500   13.412    0.397    0.326   63.742
  400.750   13.166    0.409    0.317   64.370
  401.000   12.453    0.410    0.311   61.980
  401.250   11.779    0.400    0.309   61.390
  401.500   11.350    0.397    0.293   65.655
  401.750   10.539    0.406    0.294   67.486
  402.000   10.155    0.417    0.301   66.904
  402.250    9.968    0.426    0.312   65.721
  402.500    9.967    0.447    0.318   68.163
  402.750   10.153    0.446    0.298   71.212
  403.000   10.732    0.432    0.276   72.441
  403.250   10.932    0.432    0.284   72.469
  403.500   11.136    0.432    0.292   73.097
  403.750   11.555    0.444    0.299   72.515
  404.000   11.554    0.463    0.304   72.530
  404.250   11.554    0.452    0.298   71.948
  404.500   11.553    0.439    0.296   71.367
  404.750   11.552    0.427    0.316   69.585
  405.000   11.339    0.428    0.308   67.797
  405.250   11.130    0.427    0.313   67.808
  405.500   10.926    0.429    0.308   71.469
  405.750   10.925    0.426    0.297   73.301
  406.000   10.724    0.423    0.314   75.135
  406.250   10.333    0.430    0.306   75.162
  406.500   10.332    0.432    0.297   75.181
  406.750   10.332    0.431    0.297   73.992
  407.000   10.331    0.428    0.306   70.991
  407.250   10.331    0.435    0.317   73.439
  407.500   10.330    0.437    0.325   75.880
  407.750   10.329    0.444    0.330   77.110
  408.000   10.328    0.454    0.341   77.129
  408.250   10.521    0.444    0.347   77.153
  408.500   10.520    0.441    0.352   78.386
  408.750   10.519    0.444    0.352   75.997
  409.000   10.519    0.453    0.335   72.995
  409.250   10.518    0.473    0.347   72.406
  409.500   10.517    0.489    0.354   73.032
  409.750   10.323    0.475    0.353   76.082
  410.000   10.323    0.460    0.350   80.340
  410.250   10.322    0.454    0.359   83.385
  410.500   10.321    0.454    0.362   80.387
  410.750   10.321    0.449    0.351   78.589
  411.000   10.130    0.448    0.356   79.826
  411.250   10.130    0.453    0.347   82.268
  411.500   10.129    0.468    0.345   82.288
  411.750   10.128    0.488    0.346   82.314
  412.000   10.128    0.472    0.349   80.521
  412.250   10.127    0.457    0.354   76.914
  412.500    9.940    0.467    0.349   75.730
  412.750   10.126    0.469    0.345   76.354
  413.000   10.125    0.460    0.336   76.982
  413.250   10.125    0.458    0.346   76.402
  413.500   10.124    0.471    0.352   77.026
  413.750   10.312    0.480    0.345   74.632
  414.000   10.504    0.474    0.340   75.869
  414.250   10.700    0.475    0.339   78.916
  414.500   10.899    0.480    0.341   80.141
  414.750   11.102    0.484    0.339   79.559
  415.000   11.309    0.480    0.326   77.165
  415.250   11.520    0.473    0.338   76.581
  415.500   11.734    0.470    0.340   74.797
  415.750   11.952    0.468    0.339   73.002
  416.000   11.952    0.462    0.330   71.209
  416.250   11.951    0.478    0.323   70.627
  416.500   11.950    0.487    0.315   70.648
  416.750   11.730    0.474    0.319   71.276
  417.000   11.729    0.469    0.327   73.112
  417.250   11.729    0.463    0.323   74.950
  417.500   11.728    0.471    0.315   76.182
  417.750   11.727    0.483    0.322   76.814
  418.000   11.511    0.480    0.329   76.227
  418.250   11.510    0.480    0.333   74.437
  418.500   11.298    0.481    0.335   72.647
  418.750   11.297    0.476    0.329   73.882
  419.000   11.090    0.466    0.321   74.504
  419.250   10.885    0.465    0.311   70.900
  419.500   10.884    0.470    0.317   67.901
  419.750   10.296    0.476    0.318   64.899
  420.000   10.295    0.466    0.333   66.132
  420.250    9.920    0.463    0.341   68.577
  420.500    9.919    0.464    0.348   70.412
  420.750    9.919    0.461    0.353   72.254
  421.000    9.918    0.478    0.345   72.873
  421.250    9.917    0.486    0.343   73.505
  421.500    9.735    0.492    0.354   72.318
  421.750    9.734    0.495    0.366   72.955
  422.000    9.915    0.489    0.348   73.573
  422.250    9.914    0.483    0.344   71.183
  422.500    9.914    0.498    0.346   69.387
  422.750    9.913    0.510    0.358   70.619
  423.000   10.098    0.508    0.361   72.450
  423.250   10.286    0.505    0.355   72.478
  423.500   10.477    0.497    0.356   73.109
  423.750   10.872    0.501    0.356   74.333
  424.000   11.075    0.481    0.320   75.567
  424.250   11.492    0.433    0.296   73.172
  424.500   11.491    0.413    0.274   69.567
  424.750   11.072    0.442    0.333   70.191
  425.000   10.473    0.471    0.359   73.237
  425.250    9.906    0.491    0.370   73.870
  425.500    9.724    0.499    0.355   75.098
  425.750    9.724    0.503    0.349   75.728
  426.000    9.544    0.509    0.342   75.750
  426.250    9.543    0.518    0.350   72.145
  426.500    9.543    0.508    0.351   72.769
  426.750    9.542    0.495    0.344   72.796
  427.000    9.720    0.498    0.342   72.818
  427.250    9.719    0.494    0.338   71.023
  427.500    9.719    0.472    0.334   72.263
  427.750    9.718    0.457    0.336   73.488
  428.000    9.899    0.473    0.345   77.148
  428.250    9.899    0.481    0.354   78.374
  428.500   10.083    0.487    0.348   82.026
  428.750   10.271    0.492    0.345   81.449
  429.000   10.462    0.491    0.339   79.652
  429.250   10.657    0.490    0.343   79.674
  429.500   10.855    0.490    0.347   80.912
  429.750   10.854    0.491    0.353   81.537
  430.000   10.854    0.488    0.349   83.380
  430.250   11.262    0.484    0.350   83.397
  430.500   12.820    0.479    0.329   82.812
  430.750   14.867    0.446    0.275   78.607
  431.000   15.715    0.379    0.225   74.999
  431.250   16.307    0.229    0.217   71.994
  431.500   14.324    0.225    0.030   76.861
  431.750   12.816    0.278    0.096   80.508
