~VERSION INFORMATION
 VERS.                 2.0:   CWLS LOG ASCII STANDARD -VERSION 2.0
 WRAP.                  NO:   ONE LINE PER DEPTH STEP
~WELL INFORMATION BLOCK
#MNEM.UNIT           DATA                    DESCRIPTION OF MNEMONIC
#---------    -------------------            -------------------------------
# Generated from Intellog Unique Number	CW_73_75/WELL/1042
WELL.         AMOCO MARTEN HILLS 83 11-19    : Well_name    - WELL
LOC .         00/11-19-075-01W5/0            : Location     - LOCATION
UWI .         00/11-19-075-01W5/0            : Uwi          - UNIQUE WELL ID
ENTR.         JAYE                           : Entered      - ENTERED BY
SRVC.         SCHLUMBERGER                   : Scn          - SERVICE COMPANY
DATE.         13 FEB 77                      : Date         - LOG DATE
STRT.M        560.832                        : top_depth    - START DEPTH
STOP.M        749.832                        : bot_depth    - STOP DEPTH
STEP.M        0.25                           : increment    - STEP LENGTH
 NULL. -999.2500:NULL Value
~CURVE INFORMATION BLOCK
#MNEM UNIT       ERCB CURVE CODE    CURVE DESCRIPTION
#-----------   ------------------   ----------------------------------
DEPT.M        00 001 00 00         : DEPTH        - DEPTH
ILD .OHMM     00 120 00 00         : RESD         - DEEP RESISTIVITY (DIL)
NPHI.V/V      00 330 00 00         : PHIN         - NEUTRON POROSITY (SANDSTONE)
DPHI.V/V      00 890 00 00         : PHID         - DENSITY POROSITY (SANDSTONE)
GR  .API      00 310 00 00         : GR           - GAMMA RAY
CALI.MM       00 280 01 00         : CAL          - CALIPER
~PARAMETER INFORMATION
#MNEM.UNIT           DATA             DESCRIPTION OF MNEMONIC
#---------         -----------     ------------------------------
GL  .M        840.791              : gl           - GROUND LEVEL ELEVATION
EREF.M        845.515              : kb           - ELEVATION OF DEPTH REFERENCE
DATM.M        840.791              : datum        - DATUM ELEVATION
TDD .M        748.223              : tdd          - TOTAL DEPTH DRILLER
RUN .         ONE                  : Run          - RUN NUMBER
ENG .         PIMM                 : Engineer     - RECORDING ENGINEER
WIT .         BRAUN                : Witness      - WITNESSED BY
BASE.         EDM                  : Branch       - HOME BASE OF LOGGING UNIT
MUD .         GEL                  : Mud_type     - MUD TYPE
MATR.         SANDSTONE            : Logunit      - NEUTRON MATRIX
TMAX.C        33.3333              : BHT          - MAXIMUM RECORDED TEMPERATURE
BHTD.M        748.284              : BHTDEP       - MAXIMUM RECORDED TEMPERATURE
RMT .C        22.2222              : MDTP         - TEMPERATURE OF MUD
MUDD.KG/M     1152                 : MWT          - MUD DENSITY
NEUT.         1                    : NEUTRON      - NEUTRON TYPE
RESI.         0                    : RESIST       - RESISTIVITY TYPE
RM  .OHMM     3.83                 : RM           - RESISTIVITY OF MUD
RMC .OHMM     0                    : RMC          - RESISTIVITY OF MUD CAKE
RMF .OHMM     0                    : RMF          - RESISTIVITY OF MUD FILTRATE
SUFT.C        -17.7778             : SUFT         - SURFACE TEMPERATURE
~A  DEPTH     RESD     PHIN     PHID       GR      CAL
# ...
  670.332    5.755    0.389    0.176   82.079  229.731
  670.582    6.641    0.404    0.195   83.246  229.117
  670.832    7.720    0.415    0.193   83.923  228.605
  671.082    9.432    0.418    0.200   83.805  227.887
  671.332   10.864    0.424    0.220   75.366  226.652
  671.582   12.060    0.421    0.268   64.726  224.381
  671.832   13.314    0.401    0.254   63.874  222.938
  672.082   14.457    0.386    0.262   64.490  221.806
  672.332   14.636    0.370    0.273   62.904  221.399
  672.582   13.996    0.363    0.263   61.012  221.302
  672.832   13.042    0.374    0.252   60.955  221.205
  673.082   12.266    0.390    0.265   61.388  220.902
  673.332   11.474    0.412    0.281   63.716  220.701
  673.582   10.653    0.408    0.295   66.596  220.710
  673.832    9.855    0.396    0.296   63.480  221.236
  674.082    9.528    0.410    0.284   68.440  221.656
  674.332    9.646    0.422    0.274   69.300  222.596
  674.582    9.894    0.420    0.274   67.225  223.120
  674.832   10.411    0.405    0.270   64.660  223.646
  675.082   10.717    0.375    0.264   60.993  223.964
  675.332   10.692    0.364    0.248   58.857  224.593
  675.582   10.471    0.367    0.234   58.616  225.223
  675.832   10.181    0.380    0.239   61.006  225.436
  676.082    9.753    0.378    0.251   63.458  225.546
  676.332    9.431    0.371    0.208   64.380  225.451
  676.582    9.118    0.373    0.213   63.956  225.147
  676.832    8.996    0.389    0.235   63.899  224.637
  677.082    9.092    0.405    0.237   64.515  224.126
  677.332    9.376    0.404    0.266   64.458  223.822
  677.582    9.776    0.388    0.268   63.606  223.933
  677.832   10.082    0.378    0.224   63.182  224.044
  678.082   10.188    0.367    0.206   63.492  224.155
  678.332    9.833    0.377    0.234   64.903  223.851
  678.582    8.897    0.398    0.260   67.660  222.616
  678.832    7.977    0.431    0.282   70.724  221.173
  679.082    7.899    0.418    0.283   72.685  220.145
  679.332    8.298    0.422    0.246   75.688  219.634
  679.582    9.060    0.421    0.238   74.835  218.708
  679.832    9.360    0.411    0.243   70.924  217.680
  680.082    9.321    0.400    0.227   68.114  216.963
  680.332    9.316    0.422    0.255   69.649  216.762
  680.582    9.840    0.438    0.276   70.631  217.287
  680.832   11.396    0.416    0.285   70.330  218.641
  681.082   13.345    0.370    0.239   63.727  220.202
  681.332   14.870    0.334    0.188   58.348  221.555
  681.582   17.094    0.293    0.149   56.884  223.531
  681.832   18.461    0.288    0.119   57.073  224.885
  682.082   16.704    0.300    0.098   59.218  225.825
  682.332   12.852    0.322    0.072   63.565  226.454
  682.582   10.110    0.344    0.111   68.280  226.564
  682.832    8.116    0.366    0.166   72.383  222.635
  683.082    6.734    0.391    0.203   77.159  220.675
  683.332    6.184    0.413    0.218   78.386  222.132
  683.582    6.135    0.406    0.230   76.555  225.040
  683.832    6.143    0.400    0.196   78.762  226.186
  684.082    6.208    0.399    0.188   83.477  219.978
  684.332    6.414    0.394    0.193   85.806  219.157
  684.582    6.837    0.382    0.185   86.055  221.650
  684.832    7.143    0.351    0.177   79.330  224.247
  685.082    7.352    0.335    0.170   74.807  225.187
  685.332    7.444    0.349    0.148   71.814  225.195
  685.582    7.481    0.378    0.164   76.040  225.512
  685.832    7.504    0.369    0.194   79.286  225.520
  686.082    7.337    0.361    0.167   80.146  225.113
  686.332    7.041    0.369    0.189   79.845  225.120
  686.582    6.783    0.381    0.178   79.299  225.542
  686.832    6.656    0.393    0.198   78.141  225.653
  687.082    6.519    0.393    0.205   77.350  225.764
  687.332    6.491    0.391    0.222   76.987  225.772
  687.582    6.560    0.389    0.223   78.888  225.985
  687.832    6.642    0.387    0.235   81.706  226.303
  688.082    6.723    0.409    0.230   84.157  227.138
  688.332    6.770    0.422    0.222   85.692  228.804
  688.582    6.780    0.407    0.213   85.389  229.950
  688.832    6.813    0.407    0.206   81.723  230.786
  689.082    6.859    0.412    0.219   82.706  231.414
  689.332    6.907    0.399    0.205   81.976  231.527
  689.582    7.031    0.388    0.187   82.286  231.326
  689.832    7.041    0.393    0.168   83.698  231.229
  690.082    7.024    0.409    0.192   85.904  231.341
  690.332    7.033    0.396    0.197   85.542  231.140
  690.582    7.213    0.384    0.203   82.304  230.837
  690.832    7.466    0.374    0.208   82.186  230.844
  691.082    7.829    0.363    0.217   82.618  230.644
  691.332    8.268    0.379    0.207   82.316  230.133
  691.582    8.325    0.393    0.192   81.587  227.965
  691.832    8.094    0.379    0.175   81.897  225.693
  692.082    7.726    0.357    0.150   76.273  224.975
  692.332    7.240    0.358    0.108   77.868  226.330
  692.582    6.599    0.385    0.121   83.195  228.927
  692.832    6.138    0.393    0.194   85.707  230.902
  693.082    5.880    0.367    0.188   88.220  231.739
  693.332    5.877    0.368    0.182   90.181  232.056
  693.582    5.907    0.389    0.193   90.491  232.064
  693.832    5.947    0.394    0.191   86.764  231.760
  694.082    5.988    0.387    0.176   84.015  231.664
  694.332    6.029    0.404    0.191   83.224  231.464
  694.582    6.172    0.399    0.202   82.128  231.264
  694.832    6.459    0.399    0.215   80.541  231.064
  695.082    7.066    0.455    0.230   79.812  230.346
  695.332    8.336    0.439    0.183   78.898  229.110
  695.582    9.797    0.394    0.176   71.623  226.839
  695.832   11.903    0.384    0.194   57.618  224.360
  696.082   13.410    0.383    0.258   53.157  221.881
  696.332   14.374    0.383    0.266   52.916  220.334
  696.582   13.797    0.376    0.252   54.205  219.512
  696.832   13.242    0.371    0.245   55.372  220.556
  697.082   13.910    0.371    0.253   56.967  220.771
  697.332   15.844    0.392    0.258   57.950  221.296
  697.582   18.016    0.378    0.248   57.342  221.614
  697.832   19.419    0.345    0.223   53.921  221.620
  698.082   19.769    0.316    0.178   50.683  221.110
  698.332   18.220    0.339    0.182   50.259  220.600
  698.582   16.365    0.399    0.239   53.200  219.572
  698.832   15.083    0.421    0.283   56.568  218.543
  699.082   14.422    0.429    0.284   60.060  217.514
  699.332   14.710    0.391    0.277   60.186  217.003
  699.582   15.797    0.357    0.249   57.988  217.010
  699.832   17.344    0.346    0.228   54.261  219.401
  700.082   19.648    0.337    0.218   51.879  221.893
  700.332   21.892    0.326    0.199   51.333  223.040
  700.582   23.992    0.317    0.207   52.194  223.462
  700.832   24.246    0.313    0.215   53.729  223.779
  701.082   22.885    0.332    0.204   55.017  223.063
  701.332   21.527    0.350    0.199   56.550  222.656
  701.582   18.771    0.353    0.218   57.900  222.869
  701.832   17.018    0.357    0.231   56.559  223.291
  702.082   15.341    0.364    0.223   54.483  223.505
  702.332   14.589    0.370    0.234   55.772  223.617
  702.582   14.528    0.378    0.251   57.611  223.727
  702.832   15.232    0.388    0.279   58.472  223.838
  703.082   16.207    0.383    0.288   56.825  223.534
  703.332   16.230    0.352    0.252   56.095  223.646
  703.582   14.931    0.361    0.198   56.589  223.963
  703.832   13.812    0.379    0.210   58.489  224.281
  704.082   12.659    0.383    0.231   61.124  224.289
  704.332   12.151    0.373    0.259   62.352  223.882
  704.582   11.879    0.366    0.274   62.234  223.683
  704.832   11.916    0.369    0.246   62.116  223.482
  705.082   11.997    0.372    0.239   61.998  223.386
  705.332   11.815    0.364    0.249   62.125  223.082
  705.582   11.258    0.360    0.238   61.823  222.364
  705.832   10.471    0.375    0.230   61.827  221.646
  706.082    9.831    0.392    0.246   62.688  221.136
  706.332    9.010    0.403    0.265   64.405  220.832
  706.582    8.809    0.415    0.274   62.574  220.529
