~VERSION INFORMATION
 VERS.                 2.0:   CWLS LOG ASCII STANDARD -VERSION 2.0
 WRAP.                  NO:   ONE LINE PER DEPTH STEP
~WELL INFORMATION BLOCK
#MNEM.UNIT           DATA                    DESCRIPTION OF MNEMONIC
#---------    -------------------            -------------------------------
# Generated from Intellog Unique Number	CS_77_79/WELL/959
WELL.         MESA PETROLEUM (NA) CO.        : Well_name    - WELL
LOC .         00/10-22-077-11W4/0            : Location     - LOCATION
UWI .         00/10-22-077-11W4/0            : Uwi          - UNIQUE WELL ID
ENTR.         SP                             : Entered      - ENTERED BY
SRVC.         SCHLUMBERGER                   : Scn          - SERVICE COMPANY
STRT.F        900                            : top_depth    - START DEPTH
STOP.F        1689.86                        : bot_depth    - STOP DEPTH
STEP.F        0.82                           : increment    - STEP LENGTH
 NULL. -999.2500:NULL Value
~CURVE INFORMATION BLOCK
#MNEM UNIT       ERCB CURVE CODE    CURVE DESCRIPTION
#-----------   ------------------   ----------------------------------
DEPT.F        00 001 00 00         : DEPTH        - DEPTH
GR  .API      00 310 00 00         : GR           - GAMMA RAY
NPHI.V/V      00 330 00 00         : PHIN         - NEUTRON POROSITY (SANDSTONE)
DPHI.V/V      00 890 00 00         : PHID         - DENSITY POROSITY (SANDSTONE)
ILD .OHMM     00 120 00 00         : RESD         - DEEP RESISTIVITY (DIL)
~PARAMETER INFORMATION
#MNEM.UNIT           DATA             DESCRIPTION OF MNEMONIC
#---------         -----------     ------------------------------
GL  .M        687.019              : gl           - GROUND LEVEL ELEVATION
EREF.M        691.134              : kb           - ELEVATION OF DEPTH REFERENCE
DATM.M        687.019              : datum        - DATUM ELEVATION
TDD .M        544.068              : tdd          - TOTAL DEPTH DRILLER
RUN .         ONE                  : Run          - RUN NUMBER
ENG .         BILL                 : Engineer     - RECORDING ENGINEER
WIT .         JIM                  : Witness      - WITNESSED BY
MUD .         GEL                  : Mud_type     - MUD TYPE
MATR.         SANDSTONE            : Logunit      - NEUTRON MATRIX
TMAX.C        25                   : BHT          - MAXIMUM RECORDED TEMPERATURE
BHTD.M        552                  : BHTDEP       - MAXIMUM RECORDED TEMPERATURE
MATR.         1                    : LOGUNIT      - NEUTRON MATRIX
RMT .C        25                   : MDTP         - TEMPERATURE OF MUD
NEUT.         1                    : NEUTRON      - NEUTRON TYPE
RESI.         0                    : RESIST       - RESISTIVITY TYPE
RMC .OHMM     0.25                 : RMC          - RESISTIVITY OF MUD CAKE
RMF .OHMM     0.25                 : RMF          - RESISTIVITY OF MUD FILTRATE
SUFT.C        15                   : SUFT         - SURFACE TEMPERATURE
~A  DEPTH       GR     PHIN     PHID     RESD
# ...
 1613.580   64.515    0.396    0.216   25.163
 1614.400   59.570    0.394    0.214   27.588
 1615.220   56.478    0.389    0.215   29.696
 1616.040   57.092    0.378    0.222   31.961
 1616.860   61.410    0.375    0.223   28.061
 1617.680   63.876    0.382    0.227   25.097
 1618.500   67.578    0.394    0.226   24.176
 1619.320   71.280    0.402    0.234   22.859
 1620.140   71.275    0.411    0.241   22.848
 1620.960   70.656    0.408    0.234   23.697
 1621.780   71.269    0.404    0.226   25.502
 1622.600   72.500    0.399    0.217   26.947
 1623.430   73.731    0.394    0.204   27.939
 1624.250   74.344    0.389    0.197   27.935
 1625.070   73.724    0.389    0.195   28.443
 1625.890   73.103    0.396    0.203   28.425
 1626.710   73.099    0.400    0.226   28.414
 1627.530   73.713    0.399    0.240   28.393
 1628.350   74.326    0.399    0.243   28.386
 1629.170   71.233    0.400    0.250   28.898
 1629.990   68.759    0.400    0.261   29.976
 1630.810   66.285    0.401    0.255   32.259
 1631.630   63.194    0.402    0.258   34.083
 1632.450   61.336    0.404    0.271   34.706
 1633.270   60.714    0.398    0.263   35.333
 1634.090   60.093    0.386    0.257   35.315
 1634.910   58.853    0.388    0.265   35.956
 1635.730   57.614    0.398    0.280   38.694
 1636.550   56.991    0.404    0.295   40.138
 1637.370   56.989    0.413    0.297   42.413
 1638.190   58.219    0.406    0.297   43.990
 1639.010   58.833    0.398    0.285   41.584
 1639.830   59.447    0.406    0.271   39.324
 1640.650   58.825    0.412    0.269   36.505
 1641.470   58.821    0.416    0.271   32.645
 1642.290   58.818    0.418    0.272   30.867
 1643.110   58.195    0.417    0.274   29.730
 1643.930   58.811    0.411    0.277   29.712
 1644.750   59.425    0.409    0.280   30.259
 1645.570   59.420    0.410    0.284   31.380
 1646.390   57.563    0.412    0.290   32.547
 1647.210   54.471    0.416    0.302   39.874
 1648.030   50.762    0.418    0.324   41.356
 1648.850   45.200    0.422    0.335   40.583
 1649.670   45.811    0.427    0.329   39.089
 1650.490   48.279    0.432    0.316   36.278
 1651.310   52.598    0.432    0.312   32.450
 1652.130   54.447    0.432    0.312   29.029
 1652.950   56.297    0.432    0.308   19.673
 1653.770   58.763    0.432    0.302   12.848
 1654.590   57.524    0.434    0.301   11.280
 1655.410   51.962    0.438    0.317    9.030
 1656.230   50.104    0.435    0.335    6.120
 1657.050   53.807    0.429    0.339    5.274
 1657.870   54.419    0.426    0.340    4.987
 1658.690   54.416    0.423    0.331    4.715
 1659.510   56.264    0.422    0.308    4.542
 1660.330   58.731    0.421    0.302    4.540
 1661.150   60.580    0.422    0.312    4.623
 1661.980   59.959    0.449    0.313    4.620
 1662.800   57.483    0.449    0.306    4.532
 1663.620   56.864    0.444    0.302    4.531
 1664.440   56.242    0.435    0.297    4.529
 1665.260   58.708    0.431    0.296    4.527
 1666.080   61.175    0.426    0.295    4.609
 1666.900   65.495    0.421    0.288    4.606
 1667.720   64.872    0.429    0.291    4.689
 1668.540   61.781    0.439    0.307    4.686
 1669.360   55.600    0.448    0.325    4.772
 1670.180   50.037    0.451    0.340    4.769
 1671.000   52.504    0.432    0.319    4.857
 1671.820   58.677    0.394    0.260    4.945
 1672.640   66.702    0.391    0.216    5.225
 1673.460   64.228    0.387    0.150    5.834
 1674.280   58.665    0.369    0.143    6.397
 1675.100   53.720    0.358   -0.000    7.414
 1675.920   43.834    0.323   -0.012    9.781
 1676.740   40.124    0.260   -0.004   14.418
 1677.560   29.621    0.209    0.006   22.056
 1678.380   27.763    0.219    0.022   26.528
 1679.200   27.143    0.226    0.036   31.904
 1680.020   27.139    0.219    0.041   35.628
 1680.840   27.135    0.208    0.042   38.346
 1681.660   27.131    0.206    0.050   39.767
 1682.480   26.509    0.211    0.066   40.484
 1683.300   25.269    0.217    0.075   40.474
 1684.120   24.649    0.220    0.079   40.454
 1684.940   24.644    0.219    0.077   41.188
 1685.760   24.638    0.214    0.077   41.158
 1686.580   25.253    0.214    0.079   41.142
 1687.400   25.249    0.213    0.080   41.122
 1688.220   24.627    0.213    0.081   41.096
 1689.040   23.389    0.213    0.082   41.081
 1689.860   23.385    0.213    0.082   41.065
