~VERSION INFORMATION
 VERS.                 2.0:   CWLS LOG ASCII STANDARD -VERSION 2.0
 WRAP.                  NO:   ONE LINE PER DEPTH STEP
~WELL INFORMATION BLOCK
#MNEM.UNIT           DATA                    DESCRIPTION OF MNEMONIC
#---------    -------------------            -------------------------------
# Generated from Intellog Unique Number	CC_80_83/WELL/2343
NULL.         -999.25                        : NULL_VALUE
WELL.         BVX ET AL WATCHUSK             : Well_name    - WELL
LOC .         10-09-082-03W4                 : Location     - LOCATION          
UWI .         00/10-09-082-03W400            : Uwi          - UNIQUE WELL ID    
ENTR.         DW                             : Entered      - ENTERED BY        
SRVC.         SCHLUMBERGER                   : Scn          - SERVICE COMPANY   
DATE.         18 FEB 78                      : Date         - LOG DATE
STRT.M        115.824                        : top_depth    - START DEPTH       
STOP.M        262.126                        : bot_depth    - STOP DEPTH        
STEP.M        0.305                          : increment    - STEP LENGTH       
~CURVE INFORMATION BLOCK
#MNEM UNIT       ERCB CURVE CODE    CURVE DESCRIPTION
#-----------   ------------------   ----------------------------------
DEPT.M        00 001 00 00         : DEPTH        - DEPTH                       
DPHI.V/V      00 890 00 00         : PHID         - DENSITY POROSITY (LIMESTONE)
NPHI.V/V      00 330 00 00         : PHIN         - NEUTRON POROSITY (LIMESTONE)
GR  .API      00 310 00 00         : GR           - GAMMA RAY                   
ILD .OHMM     00 120 00 00         : RESD         - DEEP RESISTIVITY (DIL)      
~PARAMETER INFORMATION       
#MNEM.UNIT           DATA             DESCRIPTION OF MNEMONIC
#---------         -----------     ------------------------------
GL  .M        454.152              : gl           - GROUND LEVEL ELEVATION      
EREF.M        457.2                : kb           - ELEVATION OF DEPTH REFERENCE
DATM.M        457.2                : datum        - DATUM ELEVATION             
TDD .M        267.005              : tdd          - TOTAL DEPTH DRILLER         
RUN .         ONE                  : Run          - RUN NUMBER                  
ENG .         BILL                 : Engineer     - RECORDING ENGINEER          
WIT .         JIM                  : Witness      - WITNESSED BY                
MUD .         GEL                  : Mud_type     - MUD TYPE                    
MATR.         LIMESTONE            : Logunit      - NEUTRON MATRIX              
TMAX.C        15.5556              : BHT          - MAXIMUM RECORDED TEMPERATURE
BHTD.M        267.005              : BHTDEP       - MAXIMUM RECORDED TEMPERATURE
MATR.         1                    : LOGUNIT      - NEUTRON MATRIX              
RMT .C        25                   : MDTP         - TEMPERATURE OF MUD          
NEUT.         1                    : NEUTRON      - NEUTRON TYPE                
RESI.         0                    : RESIST       - RESISTIVITY TYPE            
RMC .OHMM     0.25                 : RMC          - RESISTIVITY OF MUD CAKE     
RMF .OHMM     0.25                 : RMF          - RESISTIVITY OF MUD FILTRATE 
SUFT.C        15                   : SUFT         - SURFACE TEMPERATURE         
~A  DEPTH     PHID     PHIN       GR     RESD
# ...
  168.859    0.256    0.500   91.883    3.819
  169.163    0.259    0.513   86.436    3.477
  169.468    0.276    0.528   81.594    3.410
  169.773    0.280    0.533   89.453    3.670
  170.078    0.283    0.575   96.706    4.177
  170.382    0.276    0.540   99.727    4.933
  170.687    0.278    0.517   98.514    5.825
  170.992    0.277    0.502   85.202    6.271
  171.297    0.237    0.511   84.595    6.747
  171.602    0.226    0.510   87.011    6.870
  171.906    0.236    0.499   89.425    6.737
  172.211    0.247    0.482   88.818    6.365
  172.516    0.244    0.488   86.999    5.277
  172.821    0.237    0.510   88.205    4.716
  173.126    0.227    0.509   82.758    4.711
  173.430    0.207    0.510   82.754    5.165
  173.735    0.203    0.533   88.193    5.877
  174.040    0.240    0.552   88.189    6.326
  174.345    0.276    0.501   86.372    6.440
  174.650    0.290    0.481   77.296    6.556
  174.954    0.259    0.487   81.523    6.670
  175.259    0.243    0.492   83.335    6.540
  175.564    0.259    0.492   85.147    6.660
  175.869    0.246    0.507   84.537    7.034
  176.174    0.241    0.512   87.558    8.003
  176.478    0.230    0.493   88.160    8.146
  176.783    0.203    0.452   78.479    8.138
  177.088    0.162    0.382   69.403    7.982
  177.393    0.083    0.369   65.165    7.399
  177.698    0.130    0.388   68.790    7.125
  178.002    0.147    0.406   76.044    6.250
  178.307    0.144    0.483   83.299    5.184
  178.612    0.265    0.469   83.295    3.917
  178.917    0.258    0.468   79.058    3.189
  179.222    0.258    0.516   85.102    2.645
  179.526    0.263    0.565   89.331    2.319
  179.831    0.293    0.571   89.933    2.275
  180.136    0.288    0.568   77.832    2.315
  180.441    0.295    0.600   74.805    2.400
  180.745    0.306    0.603   74.800    2.681
  181.050    0.292    0.599   79.029    2.833
  181.355    0.276    0.587   80.237    3.345
  181.660    0.270    0.571   80.232    3.879
  181.965    0.259    0.546   79.624    4.496
  182.269    0.216    0.522   79.016    4.578
  182.574    0.211    0.506   82.640    4.745
  182.879    0.242    0.485   85.659    4.741
  183.184    0.252    0.475   85.657    4.651
  183.489    0.228    0.473   84.444    4.475
  183.793    0.236    0.470   83.231    4.309
  184.098    0.251    0.471   85.647    3.922
  184.403    0.261    0.479   92.901    3.312
  184.708    0.274    0.543   98.341    3.189
  185.013    0.282    0.567   98.941    3.070
  185.317    0.264    0.559   97.124    3.068
  185.622    0.259    0.561   89.255    3.180
  185.927    0.252    0.564   87.438    3.237
  186.232    0.251    0.541   86.829    3.357
  186.537    0.243    0.522   87.431    3.352
  186.841    0.237    0.545   91.660    3.288
  187.146    0.236    0.564   96.495    3.106
  187.451    0.241    0.560   98.911    3.046
  187.756    0.245    0.544   97.093    3.102
  188.061    0.243    0.526   92.250    3.337
  188.365    0.243    0.555   89.827    3.659
  188.670    0.251    0.570   88.010    4.087
  188.975    0.236    0.546   85.585    4.318
  189.280    0.236    0.513   84.371    4.478
  189.585    0.239    0.481   83.159    4.389
  189.889    0.237    0.467   82.550    4.387
  190.194    0.242    0.485   81.336    4.382
  190.499    0.233    0.505   83.148    4.545
  190.804    0.234    0.504   88.587    4.626
  191.108    0.215    0.467   92.213    4.622
  191.413    0.209    0.439   89.185    3.905
  191.718    0.217    0.450   86.156    3.425
  192.023    0.225    0.457   84.339    2.948
  192.328    0.252    0.460   66.794    2.734
  192.632    0.277    0.434   51.670    2.535
  192.937    0.314    0.414   33.521    2.629
  193.242    0.326    0.409   32.307    2.626
  193.547    0.318    0.402   32.304    2.624
  193.852    0.321    0.408   37.138    2.720
  194.156    0.330    0.440   43.183    2.769
  194.461    0.338    0.443   40.154    2.818
  194.766    0.334    0.435   38.337    2.815
  195.071    0.322    0.440   38.332    2.812
  195.376    0.318    0.438   41.958    2.811
  195.680    0.299    0.426   49.818    2.860
  195.985    0.290    0.426   57.677    2.858
  196.290    0.275    0.440   61.303    2.855
  196.595    0.271    0.458   67.951    2.904
  196.900    0.282    0.481   70.368    2.902
  197.204    0.300    0.485   66.735    2.899
  197.509    0.303    0.486   69.149    2.897
  197.814    0.302    0.492   72.170    2.894
  198.119    0.300    0.481   75.190    2.838
  198.424    0.302    0.479   75.185    2.889
  198.728    0.304    0.483   75.182    2.887
  199.033    0.304    0.485   75.180    2.677
  199.338    0.280    0.478   76.384    2.674
  199.643    0.287    0.484   76.986    2.825
  199.948    0.297    0.503   76.377    3.156
  200.252    0.297    0.466   76.978    3.526
  200.557    0.287    0.479   79.395    3.793
  200.862    0.266    0.443   84.834    3.790
  201.167    0.250    0.420   87.855    3.647
  201.471    0.206    0.427   84.222    3.446
  201.776    0.211    0.426   80.589    3.022
  202.081    0.237    0.425   76.955    2.554
  202.386    0.226    0.428   72.114    2.119
  202.691    0.256    0.404   49.127    1.790
  202.995    0.292    0.393   42.469    1.629
  203.300    0.291    0.392   43.674    1.568
  203.605    0.295    0.393   44.881    1.626
  203.910    0.301    0.389   45.481    1.686
  204.215    0.310    0.386   44.268    1.883
  204.519    0.310    0.386   43.055    1.917
  204.824    0.280    0.391   43.656    1.988
  205.129    0.264    0.380   46.677    2.024
  205.434    0.292    0.361   52.722    2.138
  205.739    0.302    0.362   60.580    2.344
  206.043    0.285    0.381   65.414    2.667
  206.348    0.277    0.390   71.458    2.979
  206.653    0.266    0.383   72.666    3.205
  206.958    0.256    0.384   77.501    3.204
  207.263    0.245    0.396   75.077    3.026
  207.567    0.228    0.397   77.493    2.968
  207.872    0.222    0.390   79.909    2.753
  208.177    0.219    0.386   79.299    2.505
  208.482    0.230    0.397   67.199    2.412
  208.787    0.261    0.407   61.147    2.236
  209.091    0.263    0.388   58.724    2.152
  209.396    0.279    0.379   56.906    2.232
  209.701    0.260    0.401   62.951    2.315
  210.006    0.250    0.404   67.785    2.491
  210.311    0.295    0.394   67.177    2.582
  210.615    0.265    0.391   70.197    2.533
  210.920    0.238    0.394   72.008    2.393
  211.225    0.221    0.400   64.746    2.219
  211.530    0.242    0.398   58.694    2.177
  211.835    0.278    0.401   54.456    2.056
  212.139    0.285    0.403   53.242    1.907
  212.444    0.301    0.403   52.635    1.768
  212.749    0.286    0.397   50.211    1.671
  213.054    0.280    0.397   42.345    1.608
  213.358    0.296    0.396   40.526    1.637
  213.663    0.303    0.397   42.942    1.761
  213.968    0.298    0.394   37.495    1.826
  214.273    0.290    0.389   42.330    1.966
  214.578    0.279    0.367   50.189    2.038
  214.882    0.263    0.377   51.999    1.999
  215.187    0.277    0.393   44.738    1.819
  215.492    0.290    0.395   41.105    1.752
  215.797    0.314    0.411   42.915    1.655
  216.102    0.311    0.430   46.541    1.593
  216.406    0.319    0.403   45.932    1.533
  216.711    0.315    0.394   39.275    1.503
  217.016    0.301    0.414   33.224    1.502
  217.321    0.303    0.422   27.776    1.500
  217.626    0.317    0.397   24.143    1.527
  217.930    0.313    0.381   22.325    1.526
  218.235    0.306    0.378   25.346    1.553
  218.540    0.306    0.387   30.180    1.611
  218.845    0.302    0.377   33.200    1.669
  219.150    0.307    0.379   33.801    1.668
  219.454    0.326    0.403   32.588    1.666
  219.759    0.347    0.403   33.190    1.604
  220.064    0.352    0.402   37.418    1.515
  220.369    0.328    0.407   37.415    1.542
  220.674    0.324    0.402   36.202    1.691
  220.978    0.309    0.394   34.989    1.889
  221.283    0.290    0.385   40.429    2.151
  221.588    0.272    0.373   51.312    2.539
