~VERSION INFORMATION
 VERS.                 2.0:   CWLS LOG ASCII STANDARD -VERSION 2.0
 WRAP.                  NO:   ONE LINE PER DEPTH STEP
~WELL INFORMATION BLOCK
#MNEM.UNIT           DATA                    DESCRIPTION OF MNEMONIC
#---------    -------------------            -------------------------------
# Generated from Intellog Unique Number	CS_73_76/WELL/2204
WELL.         CANADA CITIES SERVICE LTD      : Well_name    - WELL
LOC .         00/11-29-074-01W4/0            : Location     - LOCATION
UWI .         00/11-29-074-01W4/0            : Uwi          - UNIQUE WELL ID
ENTR.         SP                             : Entered      - ENTERED BY
SRVC.         SCHLUMBERGER                   : Scn          - SERVICE COMPANY
STRT.M        325                            : top_depth    - START DEPTH
STOP.M        575                            : bot_depth    - STOP DEPTH
STEP.M        0.25                           : increment    - STEP LENGTH
 NULL. -999.2500:NULL Value
~CURVE INFORMATION BLOCK
#MNEM UNIT       ERCB CURVE CODE    CURVE DESCRIPTION
#-----------   ------------------   ----------------------------------
DEPT.M        00 001 00 00         : DEPTH        - DEPTH
ILD .OHMM     00 120 00 00         : RESD         - DEEP RESISTIVITY (DIL)
DPHI.V/V      00 890 00 00         : PHID         - DENSITY POROSITY (LIMESTONE)
NPHI.V/V      00 330 00 00         : PHIN         - NEUTRON POROSITY (LIMESTONE)
GR  .API      00 310 00 00         : GR           - GAMMA RAY
~PARAMETER INFORMATION
#MNEM.UNIT           DATA             DESCRIPTION OF MNEMONIC
#---------         -----------     ------------------------------
GL  .M        693.6                : gl           - GROUND LEVEL ELEVATION
EREF.M        597                  : kb           - ELEVATION OF DEPTH REFERENCE
DATM.M        693.6                : datum        - DATUM ELEVATION
TDD .M        582                  : tdd          - TOTAL DEPTH DRILLER
RUN .         ONE                  : Run          - RUN NUMBER
ENG .         BILL                 : Engineer     - RECORDING ENGINEER
WIT .         JIM                  : Witness      - WITNESSED BY
MUD .         GEL                  : Mud_type     - MUD TYPE
MATR.         LIMESTONE            : Logunit      - NEUTRON MATRIX
TMAX.C        18.5                 : BHT          - MAXIMUM RECORDED TEMPERATURE
BHTD.M        582                  : BHTDEP       - MAXIMUM RECORDED TEMPERATURE
MATR.         1                    : LOGUNIT      - NEUTRON MATRIX
RMT .C        25                   : MDTP         - TEMPERATURE OF MUD
NEUT.         1                    : NEUTRON      - NEUTRON TYPE
RESI.         0                    : RESIST       - RESISTIVITY TYPE
RMC .OHMM     0.25                 : RMC          - RESISTIVITY OF MUD CAKE
RMF .OHMM     0.25                 : RMF          - RESISTIVITY OF MUD FILTRATE
SUFT.C        15                   : SUFT         - SURFACE TEMPERATURE
~A  DEPTH     RESD     PHID     PHIN       GR
# ...
  499.000    2.910    0.305    0.364   46.476
  499.250    3.020    0.291    0.377   55.045
  499.500    3.135    0.300    0.396   60.553
  499.750    3.193    0.308    0.388   65.447
  500.000    3.253    0.293    0.393   68.506
  500.250    3.252    0.276    0.394   68.504
  500.500    3.132    0.288    0.397   56.868
  500.750    3.074    0.305    0.394   51.355
  501.000    3.016    0.318    0.402   55.026
  501.250    3.072    0.326    0.445   55.024
  501.500    3.130    0.347    0.465   50.735
  501.750    3.249    0.362    0.490   53.181
  502.000    3.372    0.284    0.431   60.525
  502.250    3.500    0.246    0.365   71.543
  502.500    3.633    0.214    0.378   79.499
  502.750    3.701    0.216    0.404   78.272
  503.000    3.632    0.244    0.422   67.861
  503.250    3.245    0.285    0.432   57.450
  503.500    3.011    0.307    0.383   43.979
  503.750    2.640    0.318    0.386   32.956
  504.000    2.543    0.312    0.403   28.668
  504.250    2.403    0.310    0.383   27.440
  504.500    2.358    0.330    0.376   27.436
  504.750    2.358    0.338    0.383   27.434
  505.000    2.358    0.341    0.381   28.044
  505.250    2.357    0.325    0.377   28.654
  505.500    2.356    0.329    0.371   29.876
  505.750    2.401    0.335    0.371   31.709
  506.000    2.539    0.321    0.383   31.707
  506.250    2.635    0.318    0.395   32.928
  506.500    2.735    0.309    0.376   34.763
  506.750    2.893    0.290    0.350   40.881
  507.000    3.002    0.290    0.343   44.552
  507.250    3.059    0.282    0.335   46.387
  507.500    3.116    0.268    0.335   49.446
  507.750    3.115    0.264    0.361   51.892
  508.000    3.115    0.273    0.377   50.664
  508.250    3.057    0.273    0.383   48.213
  508.500    2.944    0.274    0.385   47.598
  508.750    2.888    0.268    0.373   46.370
  509.000    2.888    0.280    0.360   45.143
  509.250    2.942    0.267    0.340   50.650
  509.500    2.997    0.258    0.342   54.321
  509.750    2.996    0.256    0.345   56.767
  510.000    2.940    0.259    0.373   56.765
  510.250    2.832    0.280    0.386   51.253
  510.500    2.627    0.294    0.369   43.903
  510.750    2.530    0.294    0.368   38.390
  511.000    2.437    0.299    0.365   34.713
  511.250    2.436    0.309    0.362   34.099
  511.500    2.390    0.316    0.368   33.484
  511.750    2.390    0.326    0.372   32.257
  512.000    2.390    0.331    0.369   31.029
  512.250    2.389    0.333    0.369   32.863
  512.500    2.389    0.335    0.386   34.698
  512.750    2.479    0.337    0.398   39.593
  513.000    2.671    0.341    0.411   45.099
  513.250    2.773    0.341    0.402   49.383
  513.500    2.988    0.304    0.387   61.012
  513.750    3.406    0.265    0.397   70.193
  514.000    3.602    0.243    0.391   76.925
  514.250    4.105    0.209    0.387   89.167
  514.500    4.424    0.172    0.385   97.124
  514.750    4.767    0.155    0.383  102.019
  515.000    5.333    0.127    0.395  100.792
  515.250    6.078    0.102    0.375   98.340
  515.500    6.192    0.081    0.352   97.113
  515.750    5.963    0.178    0.346  101.396
  516.000    5.852    0.205    0.349  111.801
  516.250    5.531    0.212    0.356  124.043
  516.500    5.228    0.198    0.362  131.387
  516.750    5.035    0.188    0.388  134.445
  517.000    4.849    0.190    0.402  134.443
  517.250    4.498    0.184    0.414  135.052
  517.500    4.332    0.199    0.419  136.886
  517.750    4.095    0.211    0.424  134.435
  518.000    3.798    0.227    0.422  131.983
  518.250    3.728    0.215    0.415  133.817
  518.500    3.727    0.215    0.407  137.487
  518.750    3.657    0.230    0.406  140.546
  519.000    3.330    0.238    0.405  142.992
  519.250    3.267    0.257    0.398  143.602
  519.500    3.267    0.267    0.397  142.375
  519.750    3.391    0.245    0.380  143.597
  520.000    3.519    0.217    0.372  158.287
  520.250    3.722    0.208    0.392  157.060
  520.500    3.863    0.220    0.397  148.486
  520.750    4.010    0.197    0.412  137.463
  521.000    4.162    0.199    0.426  131.338
  521.250    4.320    0.210    0.406  119.703
  521.500    4.161    0.214    0.417  113.578
  521.750    4.007    0.216    0.411  119.697
  522.000    3.787    0.232    0.409  122.756
  522.250    3.717    0.263    0.401  128.263
  522.500    3.579    0.266    0.378  131.934
  522.750    3.715    0.247    0.365  133.156
  523.000    3.714    0.241    0.377  152.745
  523.250    3.577    0.253    0.399  143.558
  523.500    3.445    0.260    0.409  136.208
  523.750    3.318    0.262    0.392  125.798
  524.000    3.195    0.266    0.382  112.939
  524.250    3.195    0.257    0.398  117.833
  524.500    3.194    0.245    0.423  121.505
  524.750    3.254    0.244    0.436  122.726
  525.000    3.253    0.204    0.387  101.908
  525.250    3.377    0.222    0.396   86.599
  525.500    3.440    0.243    0.395   93.330
  525.750    3.570    0.247    0.389   99.451
  526.000    3.706    0.262    0.403  117.202
  526.250    3.775    0.277    0.398  114.139
  526.500    3.775    0.248    0.391  103.116
  526.750    3.437    0.214    0.388   75.562
  527.000    3.071    0.226    0.384   66.376
  527.250    2.643    0.267    0.379   51.680
  527.500    2.407    0.312    0.386   46.167
  527.750    2.233    0.311    0.396   45.552
  528.000    2.191    0.315    0.383   47.386
  528.250    2.150    0.321    0.384   49.832
  528.500    2.110    0.318    0.393   51.667
  528.750    2.109    0.309    0.404   54.113
  529.000    2.109    0.286    0.411   51.048
  529.250    2.108    0.246    0.413   52.883
  529.500    2.108    0.281    0.402   52.268
  529.750    2.108    0.305    0.410   51.041
  530.000    2.107    0.338    0.410   52.874
  530.250    2.147    0.337    0.393   54.708
  530.500    2.146    0.327    0.399   56.542
  530.750    2.146    0.317    0.407   52.866
  531.000    2.106    0.315    0.412   47.354
  531.250    2.066    0.327    0.400   41.841
  531.500    2.027    0.333    0.390   39.389
  531.750    1.989    0.345    0.381   44.284
  532.000    1.952    0.348    0.393   46.118
  532.250    1.952    0.347    0.399   42.442
  532.500    1.952    0.347    0.399   39.378
  532.750    1.915    0.342    0.393   36.927
  533.000    1.915    0.347    0.393   35.087
  533.250    1.914    0.347    0.399   36.309
  533.500    1.950    0.342    0.394   36.918
  533.750    1.987    0.337    0.398   37.528
  534.000    1.986    0.342    0.383   37.526
  534.250    2.062    0.327    0.363   37.523
  534.500    2.100    0.304    0.366   41.193
  534.750    2.139    0.286    0.378   46.087
  535.000    2.179    0.303    0.382   47.922
  535.250    2.179    0.309    0.375   52.204
  535.500    2.220    0.314    0.376   54.039
  535.750    2.219    0.319    0.381   53.424
  536.000    2.261    0.304    0.385   48.524
  536.250    2.261    0.317    0.383   44.236
  536.500    2.303    0.301    0.380   47.906
  536.750    2.435    0.278    0.356   50.965
  537.000    2.528    0.251    0.349   52.798
  537.250    2.624    0.251    0.358   53.408
  537.500    2.775    0.239    0.345   53.406
  537.750    2.880    0.254    0.323   58.300
  538.000    2.934    0.244    0.312   51.563
  538.250    2.989    0.240    0.313   40.540
  538.500    3.102    0.227    0.323   35.640
  538.750    3.102    0.248    0.347   36.249
  539.000    3.101    0.266    0.365   43.593
  539.250    2.877    0.279    0.364   50.938
  539.500    2.771    0.283    0.362   57.669
  539.750    2.668    0.289    0.370   57.666
  540.000    2.618    0.296    0.353   53.378
  540.250    2.618    0.280    0.340   46.028
  540.500    2.667    0.271    0.335   39.291
  540.750    2.666    0.283    0.357   44.798
  541.000    2.666    0.293    0.357   50.918
  541.250    2.665    0.289    0.363   57.038
  541.500    2.715    0.281    0.362   57.648
  541.750    2.818    0.253    0.362   53.359
  542.000    3.273    0.220    0.369   57.030
  542.250    3.661    0.209    0.384   67.435
