~VERSION INFORMATION
 VERS.                 2.0:   CWLS LOG ASCII STANDARD -VERSION 2.0
 WRAP.                  NO:   ONE LINE PER DEPTH STEP
~WELL INFORMATION BLOCK
#MNEM.UNIT           DATA                    DESCRIPTION OF MNEMONIC
#---------    -------------------            -------------------------------
# Generated from Intellog Unique Number	CX_WELLS/WELL/3184
WELL.         CHEVRON CDN-SUP ALGAR          : Well_name    - WELL
LOC .         00/11-09-083-16W4/0            : Location     - LOCATION
UWI .         00/11-09-083-16W400            : Uwi          - UNIQUE WELL ID
ENTR.         DW                             : Entered      - ENTERED BY
SRVC.         SCHLUMBERGER                   : Scn          - SERVICE COMPANY
STRT.F        300                            : top_depth    - START DEPTH
STOP.F        889.731                        : bot_depth    - STOP DEPTH
STEP.F        0.82                           : increment    - STEP LENGTH
 NULL. -999.2500:NULL Value
~CURVE INFORMATION BLOCK
#MNEM UNIT       ERCB CURVE CODE    CURVE DESCRIPTION
#-----------   ------------------   ----------------------------------
DEPT.F        00 001 00 00         : DEPTH        - DEPTH
GR  .API      00 310 00 00         : GR           - GAMMA RAY
NPHI.V/V      00 330 00 00         : PHIN         - NEUTRON POROSITY (SANDSTONE)
DPHI.V/V      00 890 00 00         : PHID         - DENSITY POROSITY (SANDSTONE)
ILD .OHMM     00 120 00 00         : RESD         - DEEP RESISTIVITY (DIL)
~PARAMETER INFORMATION
#MNEM.UNIT           DATA             DESCRIPTION OF MNEMONIC
#---------         -----------     ------------------------------
GL  .M        526.237              : gl           - GROUND LEVEL ELEVATION
EREF.M        529.438              : kb           - ELEVATION OF DEPTH REFERENCE
DATM.M        529.438              : datum        - DATUM ELEVATION
TDD .M        271.577              : tdd          - TOTAL DEPTH DRILLER
RUN .         ONE                  : Run          - RUN NUMBER
ENG .         BILL                 : Engineer     - RECORDING ENGINEER
WIT .         JIM                  : Witness      - WITNESSED BY
MUD .         GEL                  : Mud_type     - MUD TYPE
MATR.         SANDSTONE            : Logunit      - NEUTRON MATRIX
TMAX.C        22.2222              : BHT          - MAXIMUM RECORDED TEMPERATURE
BHTD.M        271.577              : BHTDEP       - MAXIMUM RECORDED TEMPERATURE
MATR.         1                    : LOGUNIT      - NEUTRON MATRIX
RMT .C        25                   : MDTP         - TEMPERATURE OF MUD
NEUT.         1                    : NEUTRON      - NEUTRON TYPE
RESI.         0                    : RESIST       - RESISTIVITY TYPE
RMC .OHMM     0.25                 : RMC          - RESISTIVITY OF MUD CAKE
RMF .OHMM     0.25                 : RMF          - RESISTIVITY OF MUD FILTRATE
SUFT.C        4                    : SUFT         - SURFACE TEMPERATURE
~A  DEPTH       GR     PHIN     PHID     RESD
# ...
  442.717   86.877    0.472    0.268   11.004
  443.537   83.917    0.481    0.270   11.207
  444.357   82.733    0.480    0.270   11.208
  445.177   80.365    0.453    0.264   11.208
  445.997   77.996    0.439    0.266   11.415
  446.818   77.400    0.426    0.275   11.626
  447.638   77.399    0.409    0.293   11.840
  448.458   77.987    0.397    0.310   11.841
  449.278   78.574    0.391    0.297   12.282
  450.098   76.797    0.419    0.281   12.508
  450.919   72.065    0.441    0.279   12.509
  451.739   66.741    0.450    0.281   12.509
  452.559   62.600    0.466    0.294   12.283
  453.379   57.276    0.507    0.330   11.843
  454.199   56.090    0.539    0.366   11.211
  455.020   70.865    0.570    0.391   10.809
  455.840   82.093    0.608    0.423    9.866
  456.660   85.635    0.631    0.256    8.682
  457.480   87.996    0.623    0.249    7.780
  458.301   88.585    0.580    0.248    6.973
  459.121   88.580    0.541    0.245    6.136
  459.941   88.577    0.569    0.244    5.703
  460.761   87.982    0.545    0.243    5.206
  461.581   85.023    0.527    0.242    5.206
  462.402   83.248    0.502    0.242    5.302
  463.222   80.288    0.499    0.241    5.809
  464.042   77.920    0.495    0.241    6.602
  464.862   74.369    0.490    0.241    7.367
  465.682   72.593    0.486    0.242    7.926
  466.503   71.999    0.475    0.245    8.373
  467.323   71.996    0.468    0.248    8.527
  468.143   71.399    0.462    0.249    8.528
  468.963   69.032    0.458    0.252    8.685
  469.783   66.074    0.456    0.255    9.009
  470.604   61.341    0.434    0.257    9.516
  471.424   56.608    0.411    0.261   11.424
  472.244   53.649    0.389    0.270   14.226
  473.064   52.463    0.426    0.313   18.373
  473.885   50.686    0.474    0.351   20.880
  474.705   50.683    0.478    0.346   21.658
  475.525   50.680    0.428    0.322   22.058
  476.345   47.130    0.427    0.319   22.058
  477.165   44.171    0.432    0.316   22.466
  477.986   45.940    0.434    0.311   22.466
  478.806   47.710    0.450    0.305   22.467
  479.626   50.071    0.449    0.299   22.882
  480.446   51.841    0.451    0.298   22.882
  481.266   52.429    0.458    0.302   22.883
  482.087   51.834    0.463    0.308   23.306
  482.907   51.240    0.463    0.318   23.306
  483.727   50.645    0.465    0.329   23.307
  484.547   50.642    0.464    0.335   22.886
  485.367   47.090    0.463    0.327   22.886
  486.188   45.905    0.462    0.315   22.472
  487.008   48.266    0.452    0.311   22.066
  487.828   49.445    0.443    0.329   22.067
  488.648   49.442    0.433    0.327   21.668
  489.469   50.029    0.425    0.323   21.668
  490.289   50.616    0.422    0.328   21.277
  491.109   51.204    0.423    0.337   21.277
  491.929   50.610    0.443    0.331   21.278
  492.749   47.060    0.445    0.327   21.278
  493.570   47.056    0.441    0.323   20.894
  494.390   48.826    0.441    0.323   20.516
  495.210   49.414    0.440    0.324   20.517
  496.030   50.593    0.438    0.333   20.146
  496.850   52.954    0.437    0.341   20.146
  497.671   52.951    0.437    0.340   20.147
  498.491   52.355    0.435    0.334   20.148
  499.311   52.352    0.433    0.325   20.148
  500.131   53.531    0.429    0.320   20.520
  500.951   53.527    0.426    0.323   20.520
  501.772   51.750    0.426    0.327   20.521
  502.592   51.747    0.430    0.329   20.522
  503.412   54.107    0.431    0.331   20.522
  504.232   55.878    0.427    0.331   20.151
  505.052   58.830    0.456    0.331   19.428
  505.873   59.417    0.496    0.331   17.733
  506.693   57.049    0.507    0.329   15.322
  507.513   55.272    0.488    0.333   13.984
  508.333   53.495    0.461    0.346   18.394
  509.154   55.264    0.459    0.342   18.061
  509.974   56.445    0.489    0.322   16.789
  510.794   58.214    0.494    0.316   15.324
  511.614   59.393    0.504    0.315   13.484
  512.434   57.616    0.520    0.318   12.534
  513.255   55.249    0.506    0.324   13.485
  514.075   50.516    0.471    0.333   14.508
  514.895   48.740    0.444    0.346   17.101
  515.715   52.281    0.455    0.351   19.435
  516.535   55.234    0.453    0.342   20.531
  517.356   57.596    0.445    0.337   20.160
  518.176   60.548    0.433    0.333   19.795
  518.996   64.681    0.422    0.329   19.437
  519.816   65.861    0.426    0.318   18.068
  520.636   65.265    0.436    0.302   16.795
  521.457   64.079    0.455    0.292   14.779
  522.277   62.304    0.461    0.281   13.005
  523.097   64.073    0.471    0.279   11.444
  523.917   65.843    0.481    0.279   10.445
  524.738   64.657    0.487    0.279   10.070
  525.558   61.698    0.482    0.278   10.256
  526.378   60.512    0.476    0.275   10.446
  527.198   60.509    0.468    0.278   10.639
  528.018   59.913    0.474    0.286   10.639
  528.839   59.912    0.489    0.312   10.639
  529.659   60.498    0.493    0.309   10.640
  530.479   61.086    0.470    0.300   10.640
  531.299   61.673    0.462    0.299   10.836
  532.119   62.262    0.474    0.297   10.640
  532.940   62.849    0.486    0.290   10.259
  533.760   61.663    0.494    0.290   10.259
  534.580   58.113    0.505    0.298   10.449
  535.400   53.380    0.504    0.309   11.660
  536.220   51.605    0.487    0.317   13.011
  537.041   52.192    0.449    0.326   14.256
  537.861   52.188    0.432    0.334   15.620
  538.681   52.776    0.430    0.339   15.338
  539.501   54.546    0.440    0.314   13.497
  540.322   56.907    0.458    0.296   12.096
  541.142   59.267    0.481    0.292   11.040
  541.962   59.263    0.477    0.295   10.262
  542.782   59.261    0.475    0.299   11.040
  543.602   59.257    0.469    0.303   13.014
  544.423   58.663    0.458    0.304   13.255
  545.243   58.660    0.445    0.300   13.255
  546.063   59.839    0.439    0.292   12.548
  546.883   63.381    0.470    0.279   12.098
  547.703   65.151    0.488    0.268   10.646
  548.524   65.738    0.492    0.260   10.264
  549.344   68.691    0.481    0.249    9.368
  550.164   72.825    0.464    0.244    8.869
  550.984   78.732    0.469    0.240    8.708
  551.804   79.319    0.480    0.232    8.396
  552.625   80.498    0.473    0.235    8.244
  553.445   82.269    0.461    0.238    8.095
  554.265   84.630    0.452    0.240    7.805
  555.085   85.217    0.448    0.238    7.805
  555.906   84.621    0.458    0.232    7.664
  556.726   83.437    0.477    0.231    7.664
  557.546   80.478    0.494    0.260    7.665
  558.366   74.564    0.497    0.273    7.806
  559.186   69.831    0.491    0.280    7.806
  560.007   68.644    0.495    0.297    7.807
  560.827   69.823    0.512    0.303    7.807
  561.647   71.003    0.509    0.293    7.257
  562.467   72.772    0.507    0.289    6.997
  563.287   73.951    0.510    0.287    6.746
  564.108   73.948    0.503    0.285    6.624
  564.928   73.944    0.494    0.275    6.624
  565.748   72.759    0.473    0.246    6.746
  566.568   70.391    0.438    0.208    6.746
  567.388   69.205    0.409    0.193    7.127
  568.209   68.611    0.413    0.187    7.809
  569.029   67.424    0.437    0.235    8.249
  569.849   64.465    0.446    0.286    8.556
  570.669   62.097    0.448    0.320    9.038
  571.490   60.320    0.454    0.354    9.039
  572.310   58.544    0.468    0.324    9.206
  573.130   57.949    0.479    0.314    9.206
  573.950   56.762    0.479    0.309    9.549
  574.770   56.168    0.473    0.314    9.549
  575.591   56.166    0.466    0.322    9.725
  576.411   56.752    0.457    0.326    9.726
  577.231   56.748    0.458    0.330    9.726
  578.051   56.155    0.464    0.332    9.726
  578.871   53.787    0.473    0.329    9.726
  579.692   53.193    0.476    0.327    9.727
  580.512   53.780    0.480    0.326    9.551
  581.332   54.959    0.487    0.324    9.551
  582.152   57.318    0.493    0.322    9.551
  582.972   58.498    0.498    0.322    9.552
  583.793   59.677    0.498    0.322    9.379
  584.613   61.446    0.495    0.321    9.379
