~VERSION INFORMATION
 VERS.                 2.0:   CWLS LOG ASCII STANDARD -VERSION 2.0
 WRAP.                  NO:   ONE LINE PER DEPTH STEP
~WELL INFORMATION BLOCK
#MNEM.UNIT           DATA                    DESCRIPTION OF MNEMONIC
#---------    -------------------            -------------------------------
# Generated from Intellog Unique Number	CW_73_75/WELL/3528
WELL.         GULF ET AL MITSUE              : Well_name    - WELL
LOC .         00/12-04-074-04W5/0            : Location     - LOCATION
UWI .         00/12-04-074-04W5/0            : Uwi          - UNIQUE WELL ID
ENTR.         T                              : Entered      - ENTERED BY
SRVC.         SCHLUMBERGER                   : Scn          - SERVICE COMPANY
STRT.M        345                            : top_depth    - START DEPTH
STOP.M        580                            : bot_depth    - STOP DEPTH
STEP.M        0.25                           : increment    - STEP LENGTH
 NULL. -999.2500:NULL Value
~CURVE INFORMATION BLOCK
#MNEM UNIT       ERCB CURVE CODE    CURVE DESCRIPTION
#-----------   ------------------   ----------------------------------
DEPT.M        00 001 00 00         : DEPTH        - DEPTH
ILD .OHMM     00 120 00 00         : RESD         - DEEP RESISTIVITY (DIL)
DPHI.V/V      00 890 00 00         : PHID         - DENSITY POROSITY (SANDSTONE)
NPHI.V/V      00 330 00 00         : PHIN         - NEUTRON POROSITY (SANDSTONE)
GR  .API      00 310 00 00         : GR           - GAMMA RAY
~PARAMETER INFORMATION
#MNEM.UNIT           DATA             DESCRIPTION OF MNEMONIC
#---------         -----------     ------------------------------
GL  .M        600                  : gl           - GROUND LEVEL ELEVATION
EREF.M        606                  : kb           - ELEVATION OF DEPTH REFERENCE
DATM.M        606                  : datum        - DATUM ELEVATION
TDD .M        1836                 : tdd          - TOTAL DEPTH DRILLER
RUN .         ONE                  : Run          - RUN NUMBER
ENG .         BILL                 : Engineer     - RECORDING ENGINEER
WIT .         JIM                  : Witness      - WITNESSED BY
MUD .         GEL                  : Mud_type     - MUD TYPE
MATR.         SANDSTONE            : Logunit      - NEUTRON MATRIX
TMAX.C        36                   : BHT          - MAXIMUM RECORDED TEMPERATURE
BHTD.M        1836                 : BHTDEP       - MAXIMUM RECORDED TEMPERATURE
MATR.         1                    : LOGUNIT      - NEUTRON MATRIX
RMT .C        17                   : MDTP         - TEMPERATURE OF MUD
NEUT.         1                    : NEUTRON      - NEUTRON TYPE
RESI.         0                    : RESIST       - RESISTIVITY TYPE
RMC .OHMM     1.3                  : RMC          - RESISTIVITY OF MUD CAKE
RMF .OHMM     0.89                 : RMF          - RESISTIVITY OF MUD FILTRATE
SUFT.C        15                   : SUFT         - SURFACE TEMPERATURE
~A  DEPTH     RESD     PHID     PHIN       GR
# ...
  388.500    5.879    0.421    0.400   43.209
  388.750    5.876    0.431    0.397   44.390
  389.000    5.766    0.441    0.401   46.760
  389.250    5.764    0.438    0.401   49.129
  389.500    5.655    0.425    0.400   54.472
  389.750    5.347    0.404    0.401   59.226
  390.000    4.963    0.387    0.403   64.576
  390.250    4.440    0.419    0.399   69.335
  390.500    3.898    0.440    0.395   76.473
  390.750    3.487    0.427    0.403   83.612
  391.000    3.177    0.416    0.411   88.963
  391.250    2.949    0.402    0.411   94.313
  391.500    2.894    0.406    0.446   99.060
  391.750    3.058    0.415    0.472  100.245
  392.000    3.353    0.418    0.476   97.245
  392.250    3.959    0.418    0.468   93.656
  392.500    4.761    0.407    0.461   87.083
  392.750    6.167    0.394    0.448   81.703
  393.000    6.638    0.402    0.433   72.145
  393.250    6.512    0.452    0.420   61.995
  393.500    4.752    0.522    0.421   54.826
  393.750    3.404    0.495    0.417   70.907
  394.000    3.045    0.553    0.413  100.701
  394.250    3.464    0.516    0.425   99.493
  394.500    4.091    0.478    0.447   87.555
  394.750    4.742    0.428    0.483   76.809
  395.000    5.598    0.393    0.476   64.870
  395.250    6.137    0.365    0.460   54.120
  395.500    6.250    0.354    0.417   42.778
  395.750    6.364    0.397    0.375   35.609
  396.000    6.599    0.421    0.356   32.609
  396.250    6.477    0.424    0.356   30.209
  396.500    6.354    0.421    0.347   30.194
  396.750    6.121    0.418    0.339   33.756
  397.000    6.006    0.415    0.349   38.514
  397.250    5.785    0.415    0.377   45.057
  397.500    5.891    0.418    0.394   53.980
  397.750    5.888    0.421    0.418   56.942
  398.000    6.107    0.430    0.430   53.354
  398.250    6.218    0.436    0.441   47.973
  398.500    6.331    0.436    0.442   44.977
  398.750    6.447    0.433    0.434   46.751
  399.000    6.563    0.428    0.404   48.520
  399.250    6.561    0.427    0.387   49.098
  399.500    6.558    0.424    0.392   49.679
  399.750    6.555    0.422    0.410   50.267
  400.000    6.552    0.421    0.438   52.041
  400.250    6.549    0.418    0.481   52.022
  400.500    6.919    0.415    0.475   51.407
  400.750    7.177    0.407    0.449   50.795
  401.000    7.175    0.399    0.437   50.780
  401.250    6.417    0.391    0.431   51.365
  401.500    6.068    0.381    0.426   53.131
  401.750    5.530    0.377    0.423   53.719
  402.000    4.855    0.380    0.432   55.493
  402.250    4.591    0.383    0.441   57.859
  402.500    4.183    0.391    0.433   59.632
  402.750    3.742    0.398    0.418   62.002
  403.000    3.347    0.417    0.418   66.756
  403.250    3.602    0.408    0.411   71.514
  403.500    3.949    0.393    0.436   72.087
  403.750    4.251    0.401    0.482   70.880
  404.000    4.576    0.438    0.503   70.861
  404.250    4.835    0.505    0.501   70.853
  404.500    5.204    0.486    0.476   71.430
  404.750    5.601    0.472    0.432   71.415
  405.000    5.918    0.442    0.435   69.612
  405.250    6.139    0.434    0.437   67.808
  405.500    6.486    0.423    0.439   67.197
  405.750    6.605    0.432    0.439   66.589
  406.000    6.851    0.441    0.439   64.186
  406.250    6.975    0.450    0.441   59.998
  406.500    6.972    0.461    0.441   56.402
  406.750    6.968    0.466    0.432   55.198
  407.000    7.095    0.460    0.411   55.183
  407.250    7.092    0.460    0.386   58.148
  407.500    7.221    0.459    0.389   61.114
  407.750    7.219    0.460    0.415   61.691
  408.000    7.348    0.464    0.421   61.080
  408.250    7.346    0.470    0.425   59.276
  408.500    7.480    0.473    0.434   58.665
  408.750    7.477    0.473    0.442   58.050
  409.000    7.473    0.474    0.441   57.443
  409.250    7.469    0.469    0.420   57.424
  409.500    7.466    0.459    0.413   56.816
  409.750    7.327    0.455    0.410   56.797
  410.000    7.323    0.448    0.408   56.782
  410.250    7.184    0.442    0.406   56.763
  410.500    7.182    0.436    0.405   57.352
  410.750    7.047    0.437    0.411   57.929
  411.000    6.914    0.450    0.421   59.106
  411.250    6.785    0.468    0.431   57.895
  411.500    6.908    0.486    0.438   55.499
  411.750    7.033    0.497    0.442   51.907
  412.000    7.162    0.481    0.441   48.315
  412.250    7.159    0.454    0.439   45.915
  412.500    7.155    0.443    0.428   44.704
  412.750    7.152    0.427    0.418   42.900
  413.000    7.149    0.430    0.404   41.697
  413.250    7.146    0.432    0.405   42.870
  413.500    7.276    0.434    0.414   44.047
  413.750    7.272    0.437    0.428   44.032
  414.000    7.136    0.435    0.440   43.421
  414.250    7.001    0.431    0.432   45.790
  414.500    6.998    0.426    0.414   48.756
  414.750    7.125    0.417    0.419   51.722
  415.000    7.255    0.436    0.438   52.895
  415.250    7.253    0.538    0.455   52.884
  415.500    7.249    0.588    0.477   50.484
  415.750    7.381    0.573    0.497   47.488
  416.000    7.377    0.519    0.479   45.684
  416.250    7.513    0.441    0.462   43.877
  416.500    7.508    0.422    0.431   40.877
  416.750    7.504    0.428    0.399   42.054
  417.000    7.363    0.437    0.382   43.232
  417.250    7.360    0.435    0.390   40.832
  417.500    7.358    0.430    0.398   39.032
  417.750    7.353    0.430    0.399   36.628
  418.000    7.488    0.434    0.386   36.613
  418.250    7.484    0.443    0.377   37.194
  418.500    7.481    0.451    0.383   38.375
  418.750    7.339    0.456    0.396   37.760
  419.000    7.338    0.458    0.411   32.380
  419.250    7.066    0.452    0.419   29.380
  419.500    6.934    0.444    0.431   28.769
  419.750    6.804    0.439    0.437   29.353
  420.000    6.675    0.455    0.424   34.108
  420.250    6.673    0.471    0.425   37.073
  420.500    6.670    0.470    0.426   40.039
  420.750    6.667    0.467    0.422   42.409
  421.000    6.789    0.456    0.416   45.371
  421.250    6.913    0.452    0.415   46.551
  421.500    7.039    0.454    0.416   48.917
  421.750    7.301    0.454    0.415   51.883
  422.000    7.031    0.453    0.408   54.249
  422.250    6.648    0.453    0.403   56.022
  422.500    6.403    0.454    0.408   57.199
  422.750    6.401    0.456    0.429   57.188
  423.000    6.398    0.456    0.449   57.169
  423.250    6.395    0.455    0.451   57.154
  423.500    6.393    0.445    0.451   57.139
  423.750    6.272    0.436    0.448   57.120
  424.000    6.154    0.428    0.442   57.112
  424.250    5.712    0.412    0.432   57.093
  424.500    5.605    0.403    0.420   56.482
  424.750    5.813    0.398    0.420   54.675
  425.000    6.142    0.398    0.434   53.464
  425.250    6.372    0.398    0.449   53.456
  425.500    6.024    0.401    0.442   54.037
  425.750    5.489    0.414    0.440   58.195
  426.000    5.191    0.433    0.429   65.330
  426.250    5.000    0.432    0.448   67.104
  426.500    5.382    0.426    0.445   67.688
  426.750    5.901    0.429    0.444   68.269
  427.000    6.350    0.470    0.446   70.043
  427.250    6.468    0.480    0.459   71.220
  427.500    6.585    0.439    0.457   68.817
  427.750    6.704    0.359    0.455   65.224
  428.000    6.702    0.399    0.449   65.805
  428.250    6.455    0.414    0.449   68.175
  428.500    5.774    0.433    0.448   70.544
  428.750    5.359    0.430    0.444   72.914
  429.000    4.974    0.420    0.442   74.684
  429.250    4.882    0.393    0.434   77.049
  429.500    4.702    0.385    0.423   77.638
  429.750    4.700    0.365    0.428   76.430
  430.000    4.785    0.339    0.484   73.435
  430.250    4.872    0.342    0.494   69.835
  430.500    5.342    0.346    0.488   69.224
  430.750    5.750    0.346    0.483   70.397
  431.000    6.189    0.383    0.481   70.986
  431.250    6.660    0.553    0.478   70.971
  431.500    6.782    0.517    0.475   68.571
  431.750    6.780    0.440    0.464   65.575
