~VERSION INFORMATION
 VERS.                 2.0:   CWLS LOG ASCII STANDARD -VERSION 2.0
 WRAP.                  NO:   ONE LINE PER DEPTH STEP
~WELL INFORMATION BLOCK
#MNEM.UNIT           DATA                    DESCRIPTION OF MNEMONIC
#---------    -------------------            -------------------------------
# Generated from Intellog Unique Number	CW_73_75/WELL/2748
WELL.         UNEX ET AL MITSUE 12-20        : Well_name    - WELL
LOC .         00/12-20-073-05W5/0            : Location     - LOCATION
UWI .         00/12-20-073-05W5/0            : Uwi          - UNIQUE WELL ID
ENTR.         JAYE                           : Entered      - ENTERED BY
SRVC.         SCHLUMBERGER                   : Scn          - SERVICE COMPANY
DATE.         15 JAN 77                      : Date         - LOG DATE
STRT.M        365.76                         : top_depth    - START DEPTH
STOP.M        612.76                         : bot_depth    - STOP DEPTH
STEP.M        0.25                           : increment    - STEP LENGTH
 NULL. -999.2500:NULL Value
~CURVE INFORMATION BLOCK
#MNEM UNIT       ERCB CURVE CODE    CURVE DESCRIPTION
#-----------   ------------------   ----------------------------------
DEPT.M        00 001 00 00         : DEPTH        - DEPTH
DPHI.V/V      00 890 00 00         : PHID         - DENSITY POROSITY (SANDSTONE)
NPHI.V/V      00 330 00 00         : PHIN         - NEUTRON POROSITY (SANDSTONE)
GR  .API      00 310 00 00         : GR           - GAMMA RAY
CALI.MM       00 280 01 00         : CAL          - CALIPER
ILD .OHMM     00 120 00 00         : RESD         - DEEP RESISTIVITY (DIL)
~PARAMETER INFORMATION
#MNEM.UNIT           DATA             DESCRIPTION OF MNEMONIC
#---------         -----------     ------------------------------
GL  .M        577.291              : gl           - GROUND LEVEL ELEVATION
EREF.M        581.254              : kb           - ELEVATION OF DEPTH REFERENCE
DATM.M        577.291              : datum        - DATUM ELEVATION
TDD .M        1689.2               : tdd          - TOTAL DEPTH DRILLER
RUN .         ONE                  : Run          - RUN NUMBER
BASE.         EDM                  : Branch       - HOME BASE OF LOGGING UNIT
MATR.         SANDSTONE            : Logunit      - NEUTRON MATRIX
TMAX.C        51.1111              : BHT          - MAXIMUM RECORDED TEMPERATURE
BHTD.M        1688.29              : BHTDEP       - MAXIMUM RECORDED TEMPERATURE
RMT .C        17.7778              : MDTP         - TEMPERATURE OF MUD
MUDD.KG/M     0                    : MWT          - MUD DENSITY
NEUT.         1                    : NEUTRON      - NEUTRON TYPE
RESI.         0                    : RESIST       - RESISTIVITY TYPE
RM  .OHMM     0.75                 : RM           - RESISTIVITY OF MUD
RMC .OHMM     0                    : RMC          - RESISTIVITY OF MUD CAKE
RMF .OHMM     0.55                 : RMF          - RESISTIVITY OF MUD FILTRATE
SUFT.C        0                    : SUFT         - SURFACE TEMPERATURE
~A  DEPTH     PHID     PHIN       GR      CAL     RESD
# ...
  475.260    0.164    0.236   41.245  226.621    7.642
  475.510    0.102    0.144   36.480  226.254    9.145
  475.760   -0.001    0.165   42.511  227.040   10.902
  476.010    0.031    0.229   50.104  228.173   10.392
  476.260    0.084    0.266   56.747  229.875    8.640
  476.510    0.179    0.360   61.693  231.926    6.809
  476.760    0.243    0.441   64.941  234.205    5.661
  477.010    0.310    0.425   64.249  238.899    4.984
  477.260    0.303    0.396   63.966  243.480    4.364
  477.510    0.295    0.417   67.755  246.447    4.153
  477.760    0.285    0.445   67.201  248.378    4.131
  478.010    0.285    0.446   63.387  249.395    4.086
  478.260    0.270    0.427   62.356  250.757    4.094
  478.510    0.296    0.414   63.159  252.574    4.195
  478.760    0.274    0.413   64.505  253.823    4.242
  479.010    0.255    0.423   65.444  255.869    4.259
  479.260    0.282    0.422   67.469  257.346    4.323
  479.510    0.272    0.408   69.495  258.475    4.396
  479.760    0.248    0.406   72.945  260.526    4.504
  480.010    0.218    0.405   75.650  262.460    4.597
  480.260    0.244    0.403   72.718  263.128    4.719
  480.510    0.244    0.409   69.582  262.878    4.799
  480.760    0.247    0.421   67.262  262.854    4.907
  481.010    0.259    0.409   68.066  263.412    5.018
  481.260    0.263    0.422   69.548  263.968    5.113
  481.510    0.240    0.454   71.165  265.443    5.171
  481.760    0.227    0.437   74.345  267.264    5.220
  482.010    0.227    0.411   75.283  268.737    5.269
  482.260    0.215    0.422   72.692  269.869    5.339
  482.510    0.230    0.414   74.919  271.341    5.450
  482.760    0.226    0.403   79.526  274.082    5.522
  483.010    0.203    0.412   84.200  278.662    5.626
  483.260    0.208    0.428   80.725  283.126    5.743
  483.510    0.215    0.425   78.812  282.991    5.818
  483.760    0.188    0.410   82.398  288.028    5.819
  484.010    0.156    0.396   84.831  288.010    5.703
  484.260    0.170    0.418   80.268  287.186    5.600
  484.510    0.181    0.445   78.628  286.242    5.418
  484.760    0.196    0.425   80.789  285.880    5.174
  485.010    0.195    0.432   85.056  285.284    5.006
  485.260    0.187    0.439   85.314  284.344    4.870
  485.510    0.176    0.441   84.623  282.482    4.817
  485.760    0.201    0.448   84.816  281.086    4.792
  486.010    0.180    0.431   91.120  279.686    4.748
  486.260    0.194    0.448   97.966  279.665    4.723
  486.510    0.206    0.442   96.867  281.714    4.672
  486.760    0.196    0.411   89.861  284.108    4.664
  487.010    0.191    0.398   82.516  287.192    4.700
  487.260    0.183    0.410   79.720  290.048    4.718
  487.510    0.197    0.423   80.522  293.822    4.728
  487.760    0.194    0.431   84.789  296.907    4.729
  488.010    0.184    0.435   83.351  299.876    4.730
  488.260    0.177    0.413   79.808  304.110    4.739
  488.510    0.164    0.415   79.115  310.759    4.731
  488.760    0.181    0.429   80.327  315.915    4.741
  489.010    0.197    0.441   84.117  319.574    4.813
  489.260    0.205    0.451   84.852  314.380    4.921
  489.510    0.240    0.447   81.718  297.341    5.146
  489.760    0.259    0.419   76.816  284.785    5.380
  490.010    0.249    0.413   71.576  282.350    5.688
  490.260    0.245    0.426   70.206  282.445    6.069
  490.510    0.278    0.437   72.704  283.920    6.081
  490.760    0.270    0.436   74.257  287.691    5.840
  491.010    0.236    0.426   75.330  291.240    5.734
  491.260    0.201    0.432   76.066  298.810    5.609
  491.510    0.178    0.446   76.529  305.919    5.508
  491.760    0.168    0.457   76.857  310.499    5.388
  492.010    0.153    0.410   77.863  313.353    5.203
  492.260    0.161    0.396   77.580  315.859    5.099
  492.510    0.176    0.412   76.550  316.876    4.961
  492.760    0.203    0.436   76.946  315.478    4.853
  493.010    0.252    0.458   76.188  307.637    4.792
  493.260    0.279    0.463   71.354  294.511    4.846
  493.510    0.305    0.396   61.972  273.104    5.039
  493.760    0.317    0.406   55.032  272.738    5.427
  494.010    0.304    0.418   56.787  274.212    5.855
  494.260    0.297    0.403   58.743  276.262    6.020
  494.510    0.300    0.379   58.053  278.197    5.868
  494.760    0.303    0.381   55.190  279.670    5.740
  495.010    0.281    0.393   51.782  281.253    5.678
  495.260    0.286    0.391   53.671  281.814    5.669
  495.510    0.279    0.381   52.776  282.946    5.765
  495.760    0.281    0.388   49.982  284.304    5.830
  496.010    0.295    0.405   48.882  285.205    5.973
  496.260    0.293    0.416   49.142  285.641    6.119
  496.510    0.279    0.396   50.352  285.969    6.293
  496.760    0.284    0.391   51.833  286.180    6.447
  497.010    0.296    0.397   53.113  284.894    6.556
  497.260    0.301    0.409   53.236  285.219    6.606
  497.510    0.299    0.411   51.799  287.154    6.632
  497.760    0.290    0.396   50.701  284.834    6.645
  498.010    0.283    0.383   49.806  285.963    6.549
  498.260    0.277    0.390   50.949  289.391    6.490
  498.510    0.284    0.408   53.314  291.211    6.479
  498.760    0.286    0.417   53.165  291.537    6.517
  499.010    0.284    0.398   53.697  291.286    6.542
  499.260    0.280    0.393   49.000  291.263    6.543
  499.510    0.277    0.392   49.736  291.247    6.557
  499.760    0.274    0.381   51.556  290.880    6.558
  500.010    0.282    0.368   53.107  290.862    6.596
  500.260    0.287    0.376   52.960  290.491    6.634
  500.510    0.298    0.388   53.014  290.248    6.610
  500.760    0.293    0.379   53.071  289.879    6.515
  501.010    0.275    0.379   54.010  289.052    6.385
  501.260    0.293    0.391   56.918  288.807    6.258
  501.510    0.276    0.403   54.190  288.557    6.099
  501.760    0.273    0.413   54.450  287.963    6.033
  502.010    0.278    0.384   54.166  287.022    5.990
  502.260    0.283    0.395   53.679  285.618    6.002
  502.510    0.277    0.408   52.850  284.796    5.959
  502.760    0.283    0.413   51.481  283.852    5.905
  503.010    0.275    0.411   52.692  283.143    5.873
  503.260    0.282    0.408   55.057  282.781    5.831
  503.510    0.285    0.408   53.212  281.840    5.768
  503.760    0.271    0.403   51.502  281.130    5.632
  504.010    0.271    0.395   49.997  280.422    5.409
  504.260    0.274    0.406   48.423  279.827    5.291
  504.510    0.274    0.442   46.782  279.115    5.148
  504.760    0.272    0.442   45.412  278.519    5.045
  505.010    0.287    0.438   46.825  277.927    4.963
  505.260    0.298    0.420   48.511  277.215    4.855
  505.510    0.297    0.415   51.419  276.851    4.732
  505.760    0.294    0.412   53.987  276.369    4.578
  506.010    0.305    0.410   55.945  276.121    4.437
  506.260    0.296    0.429   57.766  276.103    4.293
  506.510    0.299    0.430   59.249  276.310    4.138
  506.760    0.314    0.420   61.342  276.292    4.048
  507.010    0.306    0.421   59.700  276.152    4.041
  507.260    0.281    0.416   56.293  275.792    4.064
  507.510    0.279    0.418   55.059  274.736    4.141
  507.760    0.286    0.420   55.795  271.266    4.227
  508.010    0.273    0.423   58.088  269.752    4.283
  508.260    0.286    0.426   60.659  269.155    4.300
  508.510    0.280    0.430   64.518  269.134    4.245
  508.760    0.280    0.442   66.951  268.886    4.153
  509.010    0.266    0.453   67.279  268.058    4.153
  509.260    0.260    0.441   63.599  267.465    4.327
  509.510    0.259    0.428   62.978  266.642    4.457
  509.760    0.245    0.420   64.052  265.814    4.600
  510.010    0.254    0.414   62.818  264.990    4.775
  510.260    0.263    0.396   62.535  264.509    4.901
  510.510    0.262    0.390   64.761  264.031    5.058
  510.760    0.267    0.401   66.449  263.892    5.115
  511.010    0.273    0.411   70.170  263.415    5.212
  511.260    0.266    0.418   75.931  262.821    5.301
  511.510    0.250    0.427   79.654  262.340    5.341
