~VERSION INFORMATION
 VERS.                 2.0:   CWLS LOG ASCII STANDARD -VERSION 2.0
 WRAP.                  NO:   ONE LINE PER DEPTH STEP
~WELL INFORMATION BLOCK
#MNEM.UNIT           DATA                    DESCRIPTION OF MNEMONIC
#---------    -------------------            -------------------------------
# Generated from Intellog Unique Number	CS_77_79/WELL/959
WELL.         MESA PETROLEUM (NA) CO.        : Well_name    - WELL
LOC .         00/10-22-077-11W4/0            : Location     - LOCATION
UWI .         00/10-22-077-11W4/0            : Uwi          - UNIQUE WELL ID
ENTR.         SP                             : Entered      - ENTERED BY
SRVC.         SCHLUMBERGER                   : Scn          - SERVICE COMPANY
STRT.F        900                            : top_depth    - START DEPTH
STOP.F        1689.86                        : bot_depth    - STOP DEPTH
STEP.F        0.82                           : increment    - STEP LENGTH
 NULL. -999.2500:NULL Value
~CURVE INFORMATION BLOCK
#MNEM UNIT       ERCB CURVE CODE    CURVE DESCRIPTION
#-----------   ------------------   ----------------------------------
DEPT.F        00 001 00 00         : DEPTH        - DEPTH
GR  .API      00 310 00 00         : GR           - GAMMA RAY
NPHI.V/V      00 330 00 00         : PHIN         - NEUTRON POROSITY (SANDSTONE)
DPHI.V/V      00 890 00 00         : PHID         - DENSITY POROSITY (SANDSTONE)
ILD .OHMM     00 120 00 00         : RESD         - DEEP RESISTIVITY (DIL)
~PARAMETER INFORMATION
#MNEM.UNIT           DATA             DESCRIPTION OF MNEMONIC
#---------         -----------     ------------------------------
GL  .M        687.019              : gl           - GROUND LEVEL ELEVATION
EREF.M        691.134              : kb           - ELEVATION OF DEPTH REFERENCE
DATM.M        687.019              : datum        - DATUM ELEVATION
TDD .M        544.068              : tdd          - TOTAL DEPTH DRILLER
RUN .         ONE                  : Run          - RUN NUMBER
ENG .         BILL                 : Engineer     - RECORDING ENGINEER
WIT .         JIM                  : Witness      - WITNESSED BY
MUD .         GEL                  : Mud_type     - MUD TYPE
MATR.         SANDSTONE            : Logunit      - NEUTRON MATRIX
TMAX.C        25                   : BHT          - MAXIMUM RECORDED TEMPERATURE
BHTD.M        552                  : BHTDEP       - MAXIMUM RECORDED TEMPERATURE
MATR.         1                    : LOGUNIT      - NEUTRON MATRIX
RMT .C        25                   : MDTP         - TEMPERATURE OF MUD
NEUT.         1                    : NEUTRON      - NEUTRON TYPE
RESI.         0                    : RESIST       - RESISTIVITY TYPE
RMC .OHMM     0.25                 : RMC          - RESISTIVITY OF MUD CAKE
RMF .OHMM     0.25                 : RMF          - RESISTIVITY OF MUD FILTRATE
SUFT.C        15                   : SUFT         - SURFACE TEMPERATURE
~A  DEPTH       GR     PHIN     PHID     RESD
# ...
 1470.870   96.079    0.486    0.190    4.317
 1471.690   96.077    0.500    0.204    4.236
 1472.510   94.838    0.510    0.212    4.234
 1473.330   94.833    0.517    0.212    4.231
 1474.150   94.831    0.526    0.211    4.230
 1474.970   94.827    0.538    0.204    4.553
 1475.790   91.116    0.540    0.187    5.180
 1476.610   88.642    0.524    0.147    6.465
 1477.430   82.462    0.510    0.129    8.068
 1478.250   76.280    0.491    0.102    9.525
 1479.070   75.041    0.457    0.088    9.006
 1479.890   76.890    0.383    0.114    7.763
 1480.710   79.974    0.418    0.127    6.816
 1481.530   83.060    0.435    0.158    5.985
 1482.350   89.850    0.449    0.181    5.354
 1483.170   94.168    0.481    0.186    4.969
 1483.990   94.165    0.497    0.187    5.154
 1484.810   91.689    0.499    0.181    5.651
 1485.630   90.452    0.479    0.169    6.311
 1486.450   87.976    0.449    0.152    7.049
 1487.270   84.884    0.440    0.140    8.477
 1488.090   79.940    0.422    0.118   10.386
 1488.910   75.613    0.393    0.122   12.261
 1489.730   71.286    0.347    0.147   14.475
 1490.550   67.575    0.353    0.175   16.165
 1491.370   66.954    0.364    0.228   16.768
 1492.190   66.331    0.381    0.255   16.760
 1493.010   66.328    0.389    0.251   16.751
 1493.830   66.325    0.394    0.247   17.053
 1494.650   65.701    0.399    0.246   17.366
 1495.470   65.698    0.404    0.244   18.011
 1496.290   66.313    0.406    0.231   19.385
 1497.110   66.924    0.406    0.229   21.251
 1497.930   67.540    0.406    0.231   23.299
 1498.750   69.388    0.405    0.232   24.619
 1499.570   72.472    0.406    0.235   25.067
 1500.390   76.175    0.413    0.244   25.054
 1501.210   80.495    0.424    0.254   25.506
 1502.030   80.491    0.438    0.269   26.458
 1502.850   76.781    0.456    0.281   27.950
 1503.670   74.307    0.474    0.296   31.216
 1504.490   70.596    0.468    0.300   34.221
 1505.310   68.122    0.455    0.289   32.961
 1506.140   68.118    0.451    0.288   31.166
 1506.960   70.585    0.442    0.289   30.019
 1507.780   74.905    0.433    0.280   28.910
 1508.600   76.753    0.440    0.267   28.903
 1509.420   76.132    0.446    0.257   28.885
 1510.240   74.275    0.453    0.262   29.410
 1511.060   71.801    0.450    0.260   30.503
 1511.880   74.267    0.438    0.251   29.384
 1512.700   77.970    0.423    0.244   26.284
 1513.520   83.523    0.422    0.240   24.396
 1514.340   87.842    0.424    0.239   21.819
 1515.160   89.691    0.427    0.234   19.159
 1515.980   90.922    0.424    0.231   16.825
 1516.800   94.625    0.423    0.226   14.774
 1517.620   99.562    0.424    0.215   12.733
 1518.440  105.117    0.428    0.208   11.181
 1519.260  110.671    0.434    0.205   10.969
 1520.080  111.903    0.440    0.204   10.965
 1520.900  108.194    0.443    0.202   11.164
 1521.720  103.866    0.434    0.190   11.157
 1522.540  102.010    0.433    0.168   11.152
 1523.360  100.770    0.434    0.142   11.146
 1524.180  100.149    0.433    0.129   10.935
 1525.000  100.145    0.432    0.119   10.931
 1525.820  100.140    0.432    0.126   10.725
 1526.640  100.136    0.434    0.136   10.717
 1527.460   99.515    0.433    0.144   10.715
 1528.280   97.658    0.426    0.149   10.711
 1529.100   94.567    0.420    0.156   10.904
 1529.920   90.856    0.418    0.153   10.900
 1530.740   92.088    0.421    0.157   11.098
 1531.560   92.701    0.434    0.167   11.088
 1532.380   91.462    0.448    0.185   11.084
 1533.200   90.221    0.457    0.207   11.080
 1534.020   89.601    0.458    0.196   11.281
 1534.840   89.597    0.460    0.181   11.486
 1535.660   89.592    0.463    0.170   12.134
 1536.480   88.972    0.462    0.167   13.061
 1537.300   87.115    0.455    0.167   15.420
 1538.120   84.639    0.442    0.178   16.908
 1538.940   82.784    0.403    0.192   19.596
 1539.760   79.691    0.385    0.201   23.567
 1540.580   76.599    0.368    0.209   30.520
 1541.400   73.507    0.352    0.222   38.088
 1542.220   69.181    0.325    0.244   46.662
 1543.040   62.382    0.295    0.261   56.118
 1543.860   57.438    0.255    0.290   70.035
 1544.690   48.170    0.232    0.317   84.227
 1545.510   36.431    0.183    0.330  103.187
 1546.330   30.868    0.161    0.341  121.822
 1547.150   27.157    0.198    0.361  149.245
 1547.970   25.918    0.246    0.385  151.957
 1548.790   26.532    0.269    0.394  154.717
 1549.610   27.763    0.325    0.365  154.640
 1550.430   28.378    0.362    0.340  160.369
 1551.250   28.991    0.381    0.310  166.332
 1552.070   29.605    0.397    0.319  172.538
 1552.890   29.601    0.401    0.328  185.699
 1553.710   29.597    0.394    0.330  196.200
 1554.530   27.741    0.384    0.333  207.269
 1555.350   26.501    0.382    0.334  223.080
 1556.170   26.497    0.387    0.338  244.580
 1556.990   27.111    0.390    0.336  273.194
 1557.810   27.724    0.391    0.333  340.942
 1558.630   28.337    0.392    0.329  541.190
 1559.450   28.335    0.395    0.326  754.695
 1560.270   27.096    0.396    0.324  907.632
 1561.090   25.857    0.397    0.323 1013.690
 1561.910   23.382    0.399    0.321 1031.980
 1562.730   20.907    0.402    0.320 1031.460
 1563.550   19.050    0.408    0.322 1012.050
 1564.370   17.192    0.413    0.324 1011.550
 1565.190   17.189    0.415    0.321 1030.050
 1566.010   18.421    0.419    0.318 1048.760
 1566.830   19.651    0.424    0.316 1067.550
 1567.650   22.118    0.433    0.316 1087.210
 1568.470   23.966    0.441    0.316 1106.830
 1569.290   25.199    0.438    0.314 1147.690
 1570.110   27.665    0.433    0.311 1168.830
 1570.930   29.514    0.427    0.309 1045.370
 1571.750   30.128    0.401    0.309  952.642
 1572.570   28.889    0.401    0.309  721.408
 1573.390   27.650    0.402    0.308  270.449
 1574.210   27.028    0.401    0.304  186.707
 1575.030   26.406    0.393    0.305  103.218
 1575.850   27.020    0.386    0.308   72.588
 1576.670   28.251    0.377    0.311   54.969
 1577.490   28.864    0.368    0.309   44.002
 1578.310   29.480    0.363    0.305   35.881
 1579.130   30.093    0.363    0.305   28.723
 1579.950   30.088    0.364    0.304   24.305
 1580.770   29.466    0.368    0.304   23.407
 1581.590   29.461    0.371    0.306   23.392
 1582.410   28.842    0.372    0.314   23.820
 1583.230   28.220    0.375    0.321   24.706
 1584.060   28.216    0.379    0.333   26.103
 1584.880   29.448    0.381    0.350   24.681
 1585.700   30.679    0.379    0.357   22.909
 1586.520   31.910    0.372    0.340   23.323
 1587.340   31.907    0.365    0.314   24.190
 1588.160   31.903    0.371    0.316   24.181
 1588.980   32.516    0.377    0.314   25.080
 1589.800   34.364    0.382    0.292   26.491
 1590.620   37.450    0.354    0.265   27.480
 1591.440   42.386    0.360    0.259   29.037
 1592.260   45.471    0.368    0.254   30.679
 1593.080   54.114    0.380    0.246   29.550
 1593.900   65.227    0.392    0.236   25.472
 1594.720   76.958    0.403    0.222   22.784
 1595.540   77.572    0.414    0.227   22.355
 1596.360   70.774    0.414    0.233   24.051
 1597.180   63.977    0.406    0.242   24.494
 1598.000   57.795    0.401    0.261   26.859
 1598.820   54.085    0.400    0.274   31.128
 1599.640   57.170    0.399    0.262   34.765
 1600.460   63.342    0.399    0.240   36.058
 1601.280   68.279    0.402    0.227   33.465
 1602.100   70.128    0.411    0.233   34.069
 1602.920   70.124    0.420    0.238   33.427
 1603.740   70.120    0.426    0.244   30.462
 1604.560   71.968    0.423    0.241   26.258
 1605.380   74.436    0.418    0.233   23.487
 1606.200   81.844    0.414    0.207   21.006
 1607.020   86.163    0.414    0.182   19.865
 1607.840   83.688    0.416    0.169   18.438
 1608.660   81.215    0.414    0.178   18.429
 1609.480   77.505    0.408    0.189   18.415
 1610.300   78.735    0.410    0.198   18.755
 1611.120   78.115    0.405    0.166   19.449
 1611.940   74.405    0.405    0.198   19.805
 1612.760   70.078    0.399    0.218   21.316
