~VERSION INFORMATION
 VERS.                 2.0:   CWLS LOG ASCII STANDARD -VERSION 2.0
 WRAP.                  NO:   ONE LINE PER DEPTH STEP
~WELL INFORMATION BLOCK
#MNEM.UNIT           DATA                    DESCRIPTION OF MNEMONIC
#---------    -------------------            -------------------------------
# Generated from Intellog Unique Number	CC_80_83/WELL/920
WELL.         PARAMOUNT RES.                 : Well_name    - WELL
LOC .         00/14-20-081-06W4/0            : Location     - LOCATION
UWI .         00/14-20-081-06W4/0            : Uwi          - UNIQUE WELL ID
ENTR.         TIM                            : Entered      - ENTERED BY
SRVC.         SCHLUMBERGER                   : Scn          - SERVICE COMPANY
STRT.M        65                             : top_depth    - START DEPTH
STOP.M        280                            : bot_depth    - STOP DEPTH
STEP.M        0.25                           : increment    - STEP LENGTH
 NULL. -999.2500:NULL Value
~CURVE INFORMATION BLOCK
#MNEM UNIT       ERCB CURVE CODE    CURVE DESCRIPTION
#-----------   ------------------   ----------------------------------
DEPT.M        00 001 00 00         : DEPTH        - DEPTH
GR  .API      00 310 00 00         : GR           - GAMMA RAY
NPHI.V/V      00 330 00 00         : PHIN         - NEUTRON POROSITY (SANDSTONE)
DPHI.V/V      00 890 00 00         : PHID         - DENSITY POROSITY (SANDSTONE)
ILD .OHMM     00 120 00 00         : RESD         - DEEP RESISTIVITY (DIL)
~PARAMETER INFORMATION
#MNEM.UNIT           DATA             DESCRIPTION OF MNEMONIC
#---------         -----------     ------------------------------
GL  .M        500.9                : gl           - GROUND LEVEL ELEVATION
EREF.M        504                  : kb           - ELEVATION OF DEPTH REFERENCE
DATM.M        504                  : datum        - DATUM ELEVATION
TDD .M        278                  : tdd          - TOTAL DEPTH DRILLER
RUN .         ONE                  : Run          - RUN NUMBER
ENG .         BILL                 : Engineer     - RECORDING ENGINEER
WIT .         JIM                  : Witness      - WITNESSED BY
MUD .         GEL                  : Mud_type     - MUD TYPE
MATR.         SANDSTONE            : Logunit      - NEUTRON MATRIX
TMAX.C        18                   : BHT          - MAXIMUM RECORDED TEMPERATURE
BHTD.M        278                  : BHTDEP       - MAXIMUM RECORDED TEMPERATURE
MATR.         1                    : LOGUNIT      - NEUTRON MATRIX
RMT .C        11                   : MDTP         - TEMPERATURE OF MUD
NEUT.         1                    : NEUTRON      - NEUTRON TYPE
RESI.         6                    : RESIST       - RESISTIVITY TYPE
RMC .OHMM     7                    : RMC          - RESISTIVITY OF MUD CAKE
RMF .OHMM     5                    : RMF          - RESISTIVITY OF MUD FILTRATE
SUFT.C        4                    : SUFT         - SURFACE TEMPERATURE
~A  DEPTH       GR     PHIN     PHID     RESD
# ...
  239.000   59.157    0.348    0.281    8.952
  239.250   59.648    0.348    0.277    9.100
  239.500   60.207    0.348    0.275    9.084
  239.750   59.489    0.349    0.276    9.069
  240.000   55.770    0.349    0.279    9.053
  240.250   51.470    0.349    0.286    9.038
  240.500   49.565    0.348    0.290    9.363
  240.750   48.242    0.347    0.306   10.841
  241.000   51.174    0.346    0.311   11.879
  241.250   57.152    0.346    0.306   14.812
  241.500   62.502    0.349    0.296   19.168
  241.750   62.411    0.359    0.300   24.805
  242.000   53.834    0.373    0.312   32.112
  242.250   48.279    0.380    0.325   41.554
  242.500   45.769    0.371    0.333   53.774
  242.750   42.633    0.356    0.334   65.822
  243.000   40.705    0.354    0.338   77.605
  243.250   40.055    0.354    0.343   77.506
  243.500   38.755    0.356    0.344   75.954
  243.750   37.432    0.361    0.344   73.065
  244.000   39.782    0.389    0.346   67.700
  244.250   44.505    0.400    0.351   62.729
  244.500   43.787    0.405    0.357   59.286
  244.750   43.114    0.409    0.359   51.961
  245.000   43.023    0.406    0.351   46.413
  245.250   44.769    0.401    0.312   40.697
  245.500   57.374    0.401    0.295   34.386
  245.750   60.329    0.405    0.282   25.507
  246.000   70.516    0.408    0.273   20.377
  246.250   74.657    0.412    0.267   17.867
  246.500   76.985    0.412    0.267   15.960
  246.750   78.103    0.412    0.266   15.065
  247.000   77.407    0.410    0.266   15.039
  247.250   72.480    0.412    0.293   15.872
  247.500   60.274    0.415    0.326   17.708
  247.750   57.160    0.418    0.350   19.403
  248.000   54.651    0.413    0.329   22.886
  248.250   63.652    0.400    0.303   26.012
  248.500   70.816    0.401    0.281   25.957
  248.750   71.934    0.407    0.289   25.913
  249.000   65.193    0.416    0.312   25.858
  249.250   60.824    0.427    0.317   25.361
  249.500   60.756    0.455    0.318   24.853
  249.750   60.665    0.458    0.346   23.469
  250.000   60.529    0.468    0.369   22.567
  250.250   60.461    0.459    0.377   22.940
  250.500   59.788    0.433    0.387   22.921
  250.750   58.488    0.419    0.402   23.736
  251.000   55.956    0.404    0.367   24.601
  251.250   54.028    0.396    0.326   26.438
  251.500   52.705    0.388    0.296   28.968
  251.750   52.055    0.383    0.286   31.726
  252.000   48.314    0.369    0.317   34.733
  252.250   49.432    0.364    0.320   35.983
  252.500   51.782    0.361    0.314   33.370
  252.750   58.342    0.368    0.302   28.710
  253.000   64.320    0.382    0.289   25.163
  253.250   70.879    0.391    0.287   23.762
  253.500   67.765    0.398    0.291   24.627
  253.750   60.397    0.400    0.305   29.049
  254.000   56.074    0.402    0.321   38.293
  254.250   47.496    0.396    0.329   47.771
  254.500   40.150    0.391    0.341   67.820
  254.750   41.245    0.402    0.349   87.763
  255.000   42.386    0.410    0.348   84.425
  255.250   45.295    0.406    0.323   74.026
  255.500   50.064    0.408    0.302   59.164
  255.750   59.669    0.424    0.290   44.709
  256.000   68.647    0.429    0.284   35.732
  256.250   66.138    0.428    0.282   29.637
  256.500   52.723    0.415    0.311   27.962
  256.750   49.609    0.399    0.335   28.981
  257.000   44.032    0.390    0.337   31.741
  257.250   43.941    0.383    0.324   36.767
  257.500   46.245    0.387    0.323   45.005
  257.750   46.200    0.396    0.328   61.569
  258.000   44.272    0.405    0.342   90.749
  258.250   41.136    0.408    0.351  115.278
  258.500   39.858    0.409    0.358  133.475
  258.750   39.163    0.410    0.365  138.162
  259.000   37.863    0.413    0.368  138.045
  259.250   38.377    0.414    0.375  125.559
  259.500   41.331    0.417    0.387  108.072
  259.750   48.495    0.420    0.386   81.703
  260.000   59.310    0.420    0.364   64.100
  260.250   62.846    0.418    0.338   65.132
  260.500   55.477    0.415    0.348   70.025
  260.750   51.759    0.411    0.356   73.966
  261.000   48.041    0.409    0.358   97.506
  261.250   41.276    0.406    0.363  135.888
  261.500   36.931    0.402    0.365  189.377
  261.750   34.444    0.398    0.363  185.425
  262.000   33.726    0.391    0.357  178.450
  262.250   32.985    0.388    0.353  159.397
  262.500   32.917    0.377    0.349  139.764
  262.750   33.453    0.373    0.346  124.842
  263.000   33.967    0.373    0.343  117.889
  263.250   35.690    0.379    0.342  115.429
  263.500   36.808    0.384    0.337  115.331
  263.750   36.694    0.387    0.335  115.135
  264.000   36.021    0.383    0.330  114.939
  264.250   35.931    0.381    0.330  112.636
  264.500   35.235    0.378    0.333  102.492
  264.750   34.494    0.377    0.337   93.222
  265.000   34.449    0.377    0.343   83.269
  265.250   33.753    0.378    0.340   72.982
  265.500   33.057    0.382    0.316   65.218
  265.750   39.012    0.387    0.299   57.185
  266.000   67.382    0.397    0.262   46.559
  266.250   70.292    0.404    0.235   32.669
  266.500   67.200    0.409    0.263   24.698
  266.750   62.855    0.413    0.285   20.467
  267.000   62.136    0.408    0.288   20.814
  267.250   68.719    0.407    0.280   20.788
  267.500   76.510    0.408    0.279   20.372
  267.750   77.628    0.409    0.278   19.588
  268.000   76.933    0.409    0.278   19.204
  268.250   73.192    0.409    0.286   18.819
  268.500   68.869    0.408    0.301   18.779
  268.750   63.291    0.407    0.307   18.747
  269.000   62.036    0.406    0.300   18.708
  269.250   61.318    0.405    0.287   18.692
  269.500   64.855    0.404    0.279   17.966
  269.750   68.414    0.400    0.285   17.598
  270.000   68.927    0.395    0.295   17.260
  270.250   65.814    0.392    0.308   16.604
  270.500   59.631    0.387    0.318   16.886
  270.750   57.145    0.386    0.321   17.821
  271.000   54.031    0.389    0.324   19.151
  271.250   51.476    0.396    0.325   21.368
  271.500   48.967    0.401    0.327   23.840
  271.750   46.480    0.401    0.332   27.108
  272.000   43.344    0.401    0.336   32.573
  272.250   41.439    0.403    0.338   39.888
  272.500   40.721    0.404    0.340   45.298
  272.750   41.257    0.407    0.345   45.260
  273.000   42.376    0.407    0.350   45.183
  273.250   43.494    0.406    0.354   44.259
  273.500   43.403    0.405    0.357   43.354
  273.750   43.289    0.406    0.358   41.705
  274.000   43.198    0.409    0.358   40.869
  274.250   42.480    0.409    0.359   40.051
  274.500   42.434    0.411    0.358   40.713
  274.750   42.321    0.408    0.357   40.678
  275.000   42.230    0.406    0.358   40.575
  275.250   42.139    0.404    0.368   40.540
  275.500   41.466    0.403    0.378   40.471
  275.750   41.375    0.400    0.368   40.402
  276.000   41.284    0.394    0.339   40.299
  276.250   42.403    0.389    0.303   40.265
  276.500   44.125    0.390    0.232   39.458
  276.750   46.430    0.394    0.055   36.545
  277.000   47.548    0.399    0.022   35.813
  277.250   48.666    0.401    0.020   35.752
  277.500   50.994    0.400    0.022   35.707
  277.750   52.717    0.397    0.024   36.297
  278.000   53.230    0.396    0.025   36.236
  278.250   53.162    0.395    0.025   34.232
  278.500   53.048    0.403    0.025   30.577
  278.750   52.958    0.451    0.022   26.307
  279.000   52.867    0.503    0.020   23.499
  279.250   52.776    0.511    0.018   22.190
  279.500   52.708    0.515    0.018   22.143
  279.750   52.617    0.515    0.018   22.105
  280.000   52.480    0.515    0.019   22.480
