~VERSION INFORMATION
 VERS.                 2.0:   CWLS LOG ASCII STANDARD -VERSION 2.0
 WRAP.                  NO:   ONE LINE PER DEPTH STEP
~WELL INFORMATION BLOCK
#MNEM.UNIT           DATA                    DESCRIPTION OF MNEMONIC
#---------    -------------------            -------------------------------
# Generated from Intellog Unique Number	CW_70_72/WELL/3033
NULL.         -999.25                        : NULL_VALUE
WELL.         PANTHER FOW HUNDO 11-32        : Well_name    - WELL              
LOC .         11-32-070-01W5                 : Location     - LOCATION          
UWI .         00/11-32-070-01W5/0            : Uwi          - UNIQUE WELL ID    
ENTR.         JAYE                           : Entered      - ENTERED BY        
SRVC.         SCHLUMBERGER                   : Scn          - SERVICE COMPANY   
DATE.         18 FEB 79                      : Date         - LOG DATE          
STRT.M        410                            : top_depth    - START DEPTH       
STOP.M        655                            : bot_depth    - STOP DEPTH        
STEP.M        0.25                           : increment    - STEP LENGTH       
~CURVE INFORMATION BLOCK
#MNEM UNIT       ERCB CURVE CODE    CURVE DESCRIPTION
#-----------   ------------------   ----------------------------------
DEPT.M        00 001 00 00         : DEPTH        - DEPTH                       
ILD .OHMM     00 120 00 00         : RESD         - DEEP RESISTIVITY (DIL)      
CALI.MM       00 280 01 00         : CAL          - CALIPER                     
GR  .API      00 310 00 00         : GR           - GAMMA RAY                   
NPHI.V/V      00 330 00 00         : PHIN         - NEUTRON POROSITY (SANDSTONE)
DPHI.V/V      00 890 00 00         : PHID         - DENSITY POROSITY (SANDSTONE)
~PARAMETER INFORMATION       
#MNEM.UNIT           DATA             DESCRIPTION OF MNEMONIC
#---------         -----------     ------------------------------
GL  .M        591.1                : gl           - GROUND LEVEL ELEVATION      
EREF.M        595                  : kb           - ELEVATION OF DEPTH REFERENCE
DATM.M        591.1                : datum        - DATUM ELEVATION             
TDD .M        1533                 : tdd          - TOTAL DEPTH DRILLER         
RUN .         ONE                  : Run          - RUN NUMBER                  
ENG .         GILLIS               : Engineer     - RECORDING ENGINEER          
WIT .         WETHERLEY            : Witness      - WITNESSED BY                
BASE.         EDM                  : Branch       - HOME BASE OF LOGGING UNIT   
MUD .         GEL MUD              : Mud_type     - MUD TYPE                    
MATR.         SANDSTONE            : Logunit      - NEUTRON MATRIX              
TMAX.C        42                   : BHT          - MAXIMUM RECORDED TEMPERATURE
BHTD.M        1532.5               : BHTDEP       - MAXIMUM RECORDED TEMPERATURE
RMT .C        17                   : MDTP         - TEMPERATURE OF MUD          
MUDD.KG/M     1090                 : MWT          - MUD DENSITY                 
NEUT.         1                    : NEUTRON      - NEUTRON TYPE                
RESI.         0                    : RESIST       - RESISTIVITY TYPE            
RM  .OHMM     1.41                 : RM           - RESISTIVITY OF MUD          
RMC .OHMM     0.25                 : RMC          - RESISTIVITY OF MUD CAKE     
RMF .OHMM     1.13                 : RMF          - RESISTIVITY OF MUD FILTRATE 
SUFT.C        0                    : SUFT         - SURFACE TEMPERATURE         
~A  DEPTH     RESD      CAL       GR     PHIN     PHID
# ...
  629.000    7.070  233.640   86.705    0.346    0.130
  629.250    7.438  231.700   81.685    0.333    0.141
  629.500    7.868  230.934   81.739    0.323    0.157
  629.750    8.186  232.100   82.632    0.329    0.154
  630.000    8.468  235.617   82.623    0.336    0.160
  630.250    8.680  238.923   83.257    0.325    0.151
  630.500    8.914  241.585   85.755    0.323    0.134
  630.750    9.170  240.713   87.736    0.337    0.114
  631.000    9.348  238.023   78.478    0.329    0.068
  631.250    9.421  238.224   71.340    0.310    0.041
  631.500    9.409  239.708   75.377    0.293    0.007
  631.750    9.138  240.979   82.629    0.318    0.036
  632.000    8.711  241.716   88.659    0.343    0.069
  632.250    8.167  241.913   88.778    0.372    0.099
  632.500    8.386  241.792   82.795    0.400    0.102
  632.750    9.416  240.923   75.014    0.426    0.099
  633.000   10.911  239.302   65.434    0.332    0.067
  633.250   12.480  239.076   60.479    0.320    0.040
  633.500   12.510  239.596   60.214    0.309    0.050
  633.750   10.969  244.079   71.576    0.310    0.078
  634.000    9.197  256.056   84.930    0.392    0.113
  634.250    6.797  271.888   98.412    0.474    0.227
  634.500    5.390  280.333  102.770    0.512    0.292
  634.750    4.536  259.333   99.550    0.492    0.249
  635.000    4.037  275.915   93.439    0.482    0.235
  635.250    4.319  274.507   80.776    0.470    0.226
  635.500    4.493  254.259   73.444    0.428    0.216
  635.750    4.470  228.656   66.305    0.401    0.199
  636.000    4.293  220.184   60.130    0.352    0.189
  636.250    4.131  219.848   54.147    0.378    0.216
  636.500    3.990  220.046   57.799    0.362    0.238
  636.750    3.904  219.821   60.811    0.340    0.241
  637.000    3.884  220.554   64.978    0.330    0.217
  637.250    3.952  221.613   71.457    0.325    0.188
  637.500    4.149  224.489   76.201    0.323    0.176
  637.750    4.423  227.258   79.855    0.322    0.167
  638.000    4.705  229.385   82.609    0.321    0.155
  638.250    4.904  228.730   83.886    0.322    0.139
  638.500    4.998  225.824   82.914    0.331    0.130
  638.750    5.067  222.169   76.674    0.349    0.141
  639.000    5.003  218.945   56.431    0.362    0.157
  639.250    4.841  216.573   46.465    0.287    0.177
  639.500    4.702  216.882   40.483    0.260    0.172
  639.750    4.626  217.724   45.999    0.241    0.124
  640.000    4.654  219.208   56.910    0.261    0.116
  640.250    4.824  221.976   64.611    0.274    0.157
  640.500    5.085  225.711   70.192    0.263    0.129
  640.750    5.470  232.549   75.514    0.298    0.144
  641.000    6.017  237.567   74.863    0.299    0.158
  641.250    6.895  242.585   68.623    0.293    0.109
  641.500    7.134  245.677   61.422    0.298    0.083
  641.750    7.019  248.232   69.378    0.325    0.072
  642.000    6.778  249.716   76.179    0.350    0.069
  642.250    6.355  250.774   81.374    0.375    0.066
  642.500    5.804  251.614   84.450    0.394    0.130
  642.750    5.214  251.279   81.228    0.365    0.188
  643.000    5.007  251.480   80.450    0.341    0.161
  643.250    4.927  254.250   83.010    0.329    0.142
  643.500    4.985  257.555   88.011    0.313    0.131
  643.750    5.303  259.254   93.015    0.308    0.148
  644.000    5.725  259.561   96.924    0.313    0.142
  644.250    6.299  260.081   98.844    0.321    0.128
  644.500    6.552  260.925  101.274    0.338    0.114
  644.750    6.412  261.661  103.387    0.351    0.094
  645.000    6.135  261.964  104.920    0.360    0.061
  645.250    5.859  261.739  101.893    0.355    0.088
  645.500    5.712  261.827   91.992    0.350    0.088
  645.750    5.557  261.923   87.808    0.365    0.107
  646.000    5.447  261.695   88.505    0.350    0.114
  646.250    5.126  261.574   89.974    0.333    0.110
  646.500    4.806  261.131   89.582    0.313    0.108
  646.750    4.590  261.222   79.037    0.325    0.104
  647.000    4.482  261.315   74.403    0.330    0.074
  647.250    4.468  261.625   79.213    0.335    0.063
  647.500    4.571  261.826   87.876    0.364    0.085
  647.750    4.809  260.848   94.164    0.391    0.102
  648.000    5.012  257.623   94.797    0.407    0.119
  648.250    5.195  254.287   98.193    0.394    0.042
  648.500    5.305  252.560  102.683    0.390    0.053
  648.750    4.846  251.585  101.967    0.388    0.102
  649.000    3.864  251.357   99.516    0.394    0.127
  649.250    2.578  261.299   99.574    0.409    0.212
  649.500    1.654  274.776  100.914    0.426    0.013
  649.750    1.477  283.969  105.144    0.409    0.048
  650.000    1.820  274.961  102.503    0.429    0.172
  650.250    2.324  262.848   91.639    0.443    0.152
  650.500    2.949  252.664   84.307    0.456    0.136
  650.750    3.641  244.941   71.193    0.445    0.067
  651.000    4.126  236.255   55.768    0.417    0.145
  651.250    4.497  221.252   35.910    0.328    0.168
  651.500    4.549  216.312   26.072    0.291    0.187
  651.750    4.418  215.866   25.037    0.296    0.198
  652.000    4.050  216.283   27.084    0.325    0.159
  652.250    3.598  218.088   24.248    0.373    0.142
  652.500    3.293  221.392   23.660    0.398    0.129
  652.750    3.121  223.841   22.111    0.425    0.123
  653.000    2.987  225.006   18.698    0.433    0.134
  653.250    2.961  225.315   18.689    0.453    0.137
  653.500    2.990  223.802   20.480    0.416    0.184
  653.750    3.025  218.541   22.078    0.409    0.197
  654.000    3.078  218.527   21.941    0.440    0.185
  654.250    3.108  223.649   20.519    0.420    0.150
  654.500    3.098  224.494   19.418    0.400    0.138
  654.750    3.076  222.445   18.831    0.401    0.128
  655.000    3.078  217.291   18.503    0.405    0.139
