~VERSION INFORMATION
 VERS.                 2.0:   CWLS LOG ASCII STANDARD -VERSION 2.0
 WRAP.                  NO:   ONE LINE PER DEPTH STEP
~WELL INFORMATION BLOCK
#MNEM.UNIT           DATA                    DESCRIPTION OF MNEMONIC
#---------    -------------------            -------------------------------
# Generated from Intellog Unique Number	CS_73_76/WELL/3278
WELL.         BOW VALLEY EXPLORATION         : Well_name    - WELL
LOC .         00/15-06-075-13W4/0            : Location     - LOCATION
UWI .         00/15-06-075-13W4/0            : Uwi          - UNIQUE WELL ID
ENTR.         SP                             : Entered      - ENTERED BY
SRVC.         SCHLUMBERGER                   : Scn          - SERVICE COMPANY
STRT.M        375                            : top_depth    - START DEPTH
STOP.M        615                            : bot_depth    - STOP DEPTH
STEP.M        0.25                           : increment    - STEP LENGTH
 NULL. -999.2500:NULL Value
~CURVE INFORMATION BLOCK
#MNEM UNIT       ERCB CURVE CODE    CURVE DESCRIPTION
#-----------   ------------------   ----------------------------------
DEPT.M        00 001 00 00         : DEPTH        - DEPTH
ILD .OHMM     00 120 00 00         : RESD         - DEEP RESISTIVITY (DIL)
DPHI.V/V      00 890 00 00         : PHID         - DENSITY POROSITY (LIMESTONE)
NPHI.V/V      00 330 00 00         : PHIN         - NEUTRON POROSITY (LIMESTONE)
GR  .API      00 310 00 00         : GR           - GAMMA RAY
~PARAMETER INFORMATION
#MNEM.UNIT           DATA             DESCRIPTION OF MNEMONIC
#---------         -----------     ------------------------------
GL  .M        742.4                : gl           - GROUND LEVEL ELEVATION
EREF.M        745.6                : kb           - ELEVATION OF DEPTH REFERENCE
DATM.M        742.4                : datum        - DATUM ELEVATION
TDD .M        636                  : tdd          - TOTAL DEPTH DRILLER
RUN .         ONE                  : Run          - RUN NUMBER
ENG .         BILL                 : Engineer     - RECORDING ENGINEER
WIT .         JIM                  : Witness      - WITNESSED BY
MUD .         GEL                  : Mud_type     - MUD TYPE
MATR.         LIMESTONE            : Logunit      - NEUTRON MATRIX
TMAX.C        14                   : BHT          - MAXIMUM RECORDED TEMPERATURE
BHTD.M        636                  : BHTDEP       - MAXIMUM RECORDED TEMPERATURE
MATR.         1                    : LOGUNIT      - NEUTRON MATRIX
RMT .C        25                   : MDTP         - TEMPERATURE OF MUD
NEUT.         1                    : NEUTRON      - NEUTRON TYPE
RESI.         0                    : RESIST       - RESISTIVITY TYPE
RMC .OHMM     0.25                 : RMC          - RESISTIVITY OF MUD CAKE
RMF .OHMM     0.25                 : RMF          - RESISTIVITY OF MUD FILTRATE
SUFT.C        15                   : SUFT         - SURFACE TEMPERATURE
~A  DEPTH     RESD     PHID     PHIN       GR
# ...
  418.500    4.892    0.298    0.448   94.278
  418.750    5.172    0.276    0.414   97.288
  419.000    5.467    0.247    0.409  101.504
  419.250    5.778    0.252    0.426   94.875
  419.500    6.108    0.282    0.419   92.464
  419.750    6.222    0.276    0.400   90.655
  420.000    6.338    0.258    0.394   91.256
  420.250    6.699    0.247    0.403   93.061
  420.500    6.952    0.248    0.413   93.662
  420.750    7.487    0.274    0.419   93.660
  421.000    7.626    0.271    0.431   89.441
  421.250    7.624    0.263    0.443   87.633
  421.500    7.343    0.248    0.442   84.016
  421.750    7.205    0.236    0.430   82.208
  422.000    7.070    0.230    0.429   87.627
  422.250    6.938    0.230    0.448   88.831
  422.500    6.559    0.248    0.459   89.431
  422.750    6.436    0.270    0.478   89.429
  423.000    6.315    0.286    0.489   88.223
  423.250    6.314    0.308    0.483   85.812
  423.500    6.551    0.287    0.459   81.593
  423.750    6.925    0.279    0.429   79.785
  424.000    7.321    0.291    0.416   76.771
  424.250    7.597    0.294    0.429   74.962
  424.500    8.031    0.299    0.435   71.948
  424.750    8.332    0.299    0.440   68.934
  425.000    8.647    0.283    0.431   64.113
  425.250    8.807    0.271    0.420   61.100
  425.500    9.310    0.273    0.414   58.086
  425.750   10.027    0.276    0.414   57.481
  426.000   10.405    0.280    0.401   57.480
  426.250   10.997    0.287    0.388   56.273
  426.500   11.411    0.296    0.389   55.670
  426.750   11.623    0.297    0.399   54.462
  427.000   12.060    0.285    0.404   55.064
  427.250   12.283    0.307    0.410   56.869
  427.500   12.279    0.305    0.420   58.072
  427.750   12.506    0.298    0.430   58.071
  428.000   12.736    0.309    0.441   53.852
  428.250   12.973    0.309    0.431   52.645
  428.500   12.969    0.303    0.435   54.451
  428.750   13.210    0.296    0.436   55.654
  429.000   13.205    0.308    0.427   57.459
  429.250   13.203    0.324    0.439   57.458
  429.500   13.199    0.325    0.448   60.468
  429.750   13.441    0.321    0.440   62.274
  430.000   13.438    0.315    0.450   62.272
  430.250   13.436    0.309    0.439   59.861
  430.500   13.432    0.309    0.433   58.654
  430.750   13.179    0.315    0.430   62.266
  431.000   13.176    0.322    0.428   64.072
  431.250   13.171    0.338    0.421   60.456
  431.500   13.169    0.342    0.416   53.828
  431.750   12.920    0.356    0.414   48.405
  432.000   12.917    0.348    0.421   45.391
  432.250   12.914    0.350    0.419   48.401
  432.500   12.911    0.342    0.415   49.605
  432.750   12.904    0.336    0.407   47.795
  433.000   12.901    0.335    0.401   45.384
  433.250   12.899    0.343    0.404   44.780
  433.500   12.896    0.352    0.418   45.381
  433.750   12.892    0.347    0.423   47.788
  434.000   13.130    0.355    0.422   48.991
  434.250   12.883    0.355    0.427   48.990
  434.500   13.122    0.360    0.424   48.386
  434.750   13.117    0.369    0.424   48.384
  435.000   13.114    0.373    0.424   50.792
  435.250   13.109    0.365    0.424   51.392
  435.500   13.107    0.361    0.428   51.993
  435.750   13.102    0.359    0.433   53.196
  436.000   13.100    0.365    0.423   54.399
  436.250   13.096    0.366    0.419   55.000
  436.500   13.093    0.362    0.435   56.203
  436.750   13.089    0.358    0.442   56.804
  437.000   13.084    0.353    0.436   57.405
  437.250   13.080    0.346    0.430   57.403
  437.500   13.320    0.354    0.421   57.401
  437.750   13.318    0.348    0.425   57.399
  438.000   13.314    0.349    0.413   57.398
  438.250   13.311    0.350    0.405   57.395
  438.500   13.061    0.350    0.394   57.996
  438.750   13.057    0.344    0.396   57.995
  439.000   13.055    0.352    0.411   58.596
  439.250   12.808    0.363    0.417   58.594
  439.500   12.569    0.352    0.419   58.592
  439.750   12.333    0.344    0.406   58.590
  440.000   12.331    0.349    0.400   58.589
  440.250   11.877    0.352    0.398   57.985
  440.500   11.872    0.353    0.403   57.381
  440.750   11.870    0.354    0.416   57.379
  441.000   11.864    0.366    0.423   58.582
  441.250   11.862    0.372    0.433   57.978
  441.500   11.857    0.366    0.439   56.771
  441.750   11.854    0.353    0.440   56.770
  442.000   12.074    0.355    0.430   57.370
  442.250   12.071    0.357    0.421   56.766
  442.500   12.294    0.341    0.410   54.957
  442.750   12.522    0.326    0.411   53.149
  443.000   12.754    0.301    0.387   50.737
  443.250   13.482    0.167    0.274   50.736
  443.500   13.989    0.188    0.309   54.348
  443.750   14.516    0.243    0.395   60.370
  444.000   13.982    0.289    0.428   63.381
  444.250   12.974    0.340    0.444   57.355
  444.500   12.497    0.352    0.456   54.341
  444.750   12.262    0.359    0.442   52.532
  445.000   12.489    0.351    0.435   53.735
  445.250   13.201    0.325    0.424   55.541
  445.500   13.447    0.329    0.424   56.744
  445.750   13.696    0.336    0.427   58.549
  446.000   14.210    0.342    0.444   57.343
  446.250   14.474    0.348    0.441   56.136
  446.500   14.741    0.331    0.436   55.532
  446.750   14.738    0.325    0.443   55.530
  447.000   14.732    0.334    0.445   54.927
  447.250   14.729    0.343    0.435   53.720
  447.500   14.724    0.345    0.426   53.718
  447.750   14.720    0.337    0.423   53.717
  448.000   14.717    0.336    0.433   53.112
  448.250   14.440    0.332    0.441   52.508
  448.500   14.435    0.330    0.435   51.302
  448.750   14.166    0.342    0.435   50.095
  449.000   13.900    0.348    0.440   50.696
  449.250   13.895    0.335    0.440   51.296
  449.500   13.635    0.348    0.430   51.898
  449.750   13.633    0.351    0.426   51.895
  450.000   13.375    0.341    0.432   52.496
  450.250   13.372    0.337    0.438   53.699
  450.500   13.369    0.348    0.440   54.300
  450.750   13.364    0.343    0.435   54.299
  451.000   13.359    0.334    0.430   53.694
  451.250   13.110    0.335    0.427   53.090
  451.500   13.106    0.342    0.446   53.088
  451.750   13.103    0.336    0.460   53.689
  452.000   13.099    0.345    0.451   53.688
  452.250   13.094    0.342    0.457   55.493
  452.500   13.092    0.331    0.464   54.889
  452.750   13.333    0.326    0.453   56.092
  453.000   13.580    0.322    0.457   61.511
  453.250   14.626    0.333    0.466   63.317
  453.500   15.462    0.307    0.451   64.521
  453.750   16.652    0.236    0.428   63.314
  454.000   17.279    0.198    0.347   60.902
  454.250   17.927    0.240    0.346   59.696
  454.500   18.261    0.279    0.386   84.995
  454.750   18.598    0.282    0.433   87.403
  455.000   18.943    0.274    0.451   86.799
  455.250   19.293    0.265    0.445   85.592
  455.500   18.239    0.253    0.440   86.193
  455.750   16.926    0.270    0.445   92.215
  456.000   15.707    0.279    0.458   94.623
  456.250   14.575    0.287    0.464   89.200
  456.500   14.039    0.301    0.477   80.162
  456.750   13.775    0.307    0.475   74.136
  457.000   13.516    0.319    0.458   69.316
  457.250   13.513    0.316    0.454   63.290
  457.500   13.260    0.330    0.450   65.698
  457.750   13.255    0.335    0.435   67.503
  458.000   13.008    0.337    0.440   68.706
  458.250   12.765    0.339    0.449   69.909
  458.500   12.294    0.339    0.463   65.088
  458.750   12.065    0.335    0.471   62.075
  459.000   11.838    0.333    0.474   57.856
  459.250   11.615    0.338    0.481   56.650
  459.500   11.399    0.346    0.467   56.647
  459.750   10.979    0.361    0.457   56.645
  460.000   10.773    0.364    0.466   57.246
  460.250   10.572    0.371    0.454   57.846
  460.500   10.181    0.368    0.448   59.050
  460.750   10.179    0.362    0.448   59.651
  461.000    9.988    0.357    0.448   61.456
  461.250    9.801    0.356    0.437   59.648
  461.500    9.616    0.357    0.444   58.442
  461.750    9.614    0.359    0.458   56.633
