~VERSION INFORMATION
 VERS.                 2.0:   CWLS LOG ASCII STANDARD -VERSION 2.0
 WRAP.                  NO:   ONE LINE PER DEPTH STEP
~WELL INFORMATION BLOCK
#MNEM.UNIT           DATA                    DESCRIPTION OF MNEMONIC
#---------    -------------------            -------------------------------
# Generated from Intellog Unique Number	CX_WELLS/WELL/3030
WELL.         LACANA                         : Well_name    - WELL
LOC .         00/10-03-082-13W4/0            : Location     - LOCATION
UWI .         00/10-03-082-13W400            : Uwi          - UNIQUE WELL ID
ENTR.         T                              : Entered      - ENTERED BY
SRVC.         SCHLUMBERGER                   : Scn          - SERVICE COMPANY
STRT.M        225                            : top_depth    - START DEPTH
STOP.M        457                            : bot_depth    - STOP DEPTH
STEP.M        0.25                           : increment    - STEP LENGTH
 NULL. -999.2500:NULL Value
~CURVE INFORMATION BLOCK
#MNEM UNIT       ERCB CURVE CODE    CURVE DESCRIPTION
#-----------   ------------------   ----------------------------------
DEPT.M        00 001 00 00         : DEPTH        - DEPTH
GR  .API      00 310 00 00         : GR           - GAMMA RAY
NPHI.V/V      00 330 00 00         : PHIN         - NEUTRON POROSITY (SANDSTONE)
DPHI.V/V      00 890 00 00         : PHID         - DENSITY POROSITY (SANDSTONE)
ILD .OHMM     00 120 00 00         : RESD         - DEEP RESISTIVITY (OTHER)
~PARAMETER INFORMATION
#MNEM.UNIT           DATA             DESCRIPTION OF MNEMONIC
#---------         -----------     ------------------------------
GL  .M        666.6                : gl           - GROUND LEVEL ELEVATION
EREF.M        669.8                : kb           - ELEVATION OF DEPTH REFERENCE
DATM.M        669.8                : datum        - DATUM ELEVATION
TDD .M        468                  : tdd          - TOTAL DEPTH DRILLER
RUN .         ONE                  : Run          - RUN NUMBER
ENG .         BILL                 : Engineer     - RECORDING ENGINEER
WIT .         JIM                  : Witness      - WITNESSED BY
MUD .         GEL                  : Mud_type     - MUD TYPE
MATR.         SANDSTONE            : Logunit      - NEUTRON MATRIX
TMAX.C        20                   : BHT          - MAXIMUM RECORDED TEMPERATURE
BHTD.M        468                  : BHTDEP       - MAXIMUM RECORDED TEMPERATURE
MATR.         1                    : LOGUNIT      - NEUTRON MATRIX
RMT .C        20                   : MDTP         - TEMPERATURE OF MUD
NEUT.         1                    : NEUTRON      - NEUTRON TYPE
RESI.         2.5                  : RESIST       - RESISTIVITY TYPE
RMC .OHMM     3.1                  : RMC          - RESISTIVITY OF MUD CAKE
RMF .OHMM     2.5                  : RMF          - RESISTIVITY OF MUD FILTRATE
SUFT.C        2                    : SUFT         - SURFACE TEMPERATURE
~A  DEPTH       GR     PHIN     PHID     RESD
# ...
  268.500  105.613    0.367    0.237   10.819
  268.750   96.968    0.364    0.239   11.017
  269.000   94.489    0.365    0.246   11.217
  269.250   92.628    0.374    0.253   11.211
  269.500   90.771    0.379    0.252   11.201
  269.750   85.210    0.382    0.223   11.189
  270.000   81.499    0.382    0.214   11.183
  270.250   77.786    0.381    0.206   11.175
  270.500   75.309    0.384    0.203   11.169
  270.750   71.599    0.385    0.227   11.160
  271.000   72.206    0.386    0.229   11.154
  271.250   75.892    0.390    0.239   11.142
  271.500   77.736    0.390    0.250   11.136
  271.750   78.345    0.378    0.257   11.124
  272.000   79.567    0.370    0.239   11.119
  272.250   79.560    0.369    0.241   11.111
  272.500   80.779    0.368    0.249   11.105
  272.750   80.770    0.375    0.264   10.890
  273.000   80.760    0.383    0.264   10.880
  273.250   80.750    0.390    0.251   10.668
  273.500   80.743    0.385    0.227   10.465
  273.750   81.965    0.372    0.220    9.883
  274.000   82.575    0.369    0.206    8.818
  274.250   86.263    0.370    0.196    7.867
  274.500   91.191    0.377    0.191    7.574
  274.750  105.368    0.384    0.184    6.757
  275.000  112.144    0.395    0.180    6.503
  275.250  110.281    0.401    0.177    6.140
  275.500  110.272    0.412    0.161    6.138
  275.750  112.730    0.418    0.150    6.132
  276.000  115.185    0.421    0.174    6.483
  276.250  115.790    0.421    0.178    6.856
  276.500  115.168    0.415    0.196    7.670
  276.750  112.072    0.406    0.203    7.962
  277.000  106.513    0.405    0.212    8.580
  277.250   97.251    0.405    0.221    9.600
  277.500   94.772    0.405    0.230   10.151
  277.750   93.524    0.405    0.231   10.734
  278.000   93.519    0.406    0.228   10.929
  278.250   94.124    0.408    0.226   10.128
  278.500   97.815    0.408    0.221    9.037
  278.750  100.273    0.408    0.219    8.695
  279.000  102.114    0.408    0.224    8.858
  279.250  103.338    0.408    0.248    9.190
  279.500  100.244    0.406    0.259    9.536
  279.750   95.919    0.402    0.273    9.896
  280.000   91.589    0.394    0.278   10.464
  280.250   91.577    0.391    0.284   11.067
  280.500   91.568    0.399    0.286   11.923
  280.750   89.708    0.409    0.293   13.336
  281.000   86.616    0.399    0.299   13.588
  281.250   81.055    0.386    0.311   14.636
  281.500   72.410    0.365    0.358   15.190
  281.750   62.529    0.342    0.370   16.060
  282.000   58.818    0.333    0.354   16.048
  282.250   55.108    0.349    0.340   16.040
  282.500   53.864    0.390    0.339   15.148
  282.750   52.619    0.396    0.336   14.577
  283.000   52.612    0.397    0.331   14.025
  283.250   51.985    0.397    0.325   14.018
  283.500   51.356    0.397    0.320   14.815
  283.750   51.349    0.396    0.325   15.669
  284.000   53.188    0.392    0.328   16.881
  284.250   55.026    0.385    0.332   17.523
  284.500   55.636    0.377    0.333   18.529
  284.750   56.243    0.375    0.335   19.963
  285.000   54.998    0.375    0.335   20.332
  285.250   54.373    0.376    0.336   20.704
  285.500   53.747    0.379    0.338   20.686
  285.750   54.971    0.390    0.340   20.668
  286.000   56.195    0.391    0.342   20.271
  286.250   57.414    0.381    0.341   20.257
  286.500   58.022    0.378    0.341   20.239
  286.750   58.012    0.376    0.341   20.229
  287.000   56.150    0.376    0.341   20.599
  287.250   54.909    0.378    0.341   20.973
  287.500   53.668    0.378    0.340   20.958
  287.750   53.039    0.380    0.342   21.338
  288.000   53.646    0.383    0.342   21.330
  288.250   54.873    0.384    0.342   21.312
  288.500   55.475    0.384    0.342   21.702
  288.750   55.466    0.383    0.345   21.687
  289.000   55.456    0.382    0.348   21.267
  289.250   55.449    0.382    0.350   20.848
  289.500   56.668    0.380    0.349   20.448
  289.750   57.895    0.379    0.322   20.055
  290.000   58.502    0.378    0.307   20.031
  290.250   57.878    0.379    0.308   20.020
  290.500   54.779    0.381    0.335   20.394
  290.750   53.538    0.382    0.339   20.372
  291.000   53.524    0.383    0.355   19.978
  291.250   53.517    0.383    0.352   19.961
  291.500   53.510    0.381    0.344   19.950
  291.750   52.266    0.378    0.339   19.940
  292.000   51.640    0.381    0.335   19.550
  292.250   50.397    0.387    0.339   19.168
  292.500   50.385    0.393    0.345   18.800
  292.750   53.457    0.399    0.350   18.440
  293.000   54.686    0.399    0.351   18.076
  293.250   57.139    0.399    0.351   17.723
  293.500   58.979    0.398    0.349   17.717
  293.750   60.206    0.398    0.346   17.047
  294.000   60.194    0.398    0.343   17.032
  294.250   57.717    0.398    0.338   17.026
  294.500   55.857    0.398    0.334   16.693
  294.750   54.616    0.398    0.331   16.685
  295.000   53.373    0.398    0.326   16.667
  295.250   52.744    0.399    0.321   16.658
  295.500   53.351    0.403    0.317   16.644
  295.750   53.958    0.406    0.312   16.632
  296.000   55.182    0.408    0.310   17.256
  296.250   55.787    0.410    0.314   17.912
  296.500   56.395    0.410    0.319   19.668
  296.750   55.151    0.411    0.325   22.008
  297.000   52.677    0.409    0.335   26.058
  297.250   48.349    0.409    0.343   30.853
  297.500   41.555    0.380    0.300   33.872
  297.750   39.075    0.351    0.255   31.988
  298.000   44.000    0.319    0.217   29.096
  298.250   47.687    0.314    0.180   24.076
  298.500   49.530    0.403    0.211   19.927
  298.750   50.140    0.411    0.253   17.777
  299.000   51.976    0.406    0.332   17.771
  299.250   51.969    0.410    0.329   17.099
  299.500   52.576    0.435    0.326   17.090
  299.750   52.569    0.437    0.324   17.078
  300.000   53.174    0.429    0.330   17.063
  300.250   53.162    0.417    0.338   17.045
  300.500   53.152    0.407    0.345   16.718
  300.750   53.145    0.401    0.345   16.700
  301.000   52.519    0.399    0.345   16.697
  301.250   52.507    0.396    0.345   16.374
  301.500   52.497    0.393    0.342   16.363
  301.750   52.490    0.389    0.337   16.040
  302.000   53.097    0.389    0.334   16.032
  302.250   53.704    0.393    0.330   16.015
  302.500   54.309    0.401    0.333   16.006
  302.750   54.914    0.412    0.336   15.699
  303.000   54.907    0.416    0.338   15.686
  303.250   54.892    0.412    0.335   15.675
  303.500   54.887    0.409    0.335   15.666
  303.750   54.873    0.401    0.335   15.950
  304.000   54.866    0.396    0.336   16.245
  304.250   54.854    0.404    0.338   16.855
  304.500   54.849    0.426    0.340   17.819
  304.750   55.452    0.427    0.341   19.204
  305.000   55.444    0.425    0.339   21.087
  305.250   55.435    0.414    0.329   24.959
  305.500   55.423    0.402    0.313   25.909
  305.750   54.796    0.389    0.273   27.397
  306.000   53.555    0.368    0.203   26.365
  306.250   49.843    0.200    0.084   23.525
  306.500   50.452    0.230    0.044   22.220
  306.750   53.524    0.259    0.084   19.093
  307.000   54.751    0.286    0.110   16.410
  307.250   56.587    0.310    0.134   14.369
  307.500   56.577    0.337    0.327   14.091
  307.750   57.799    0.369    0.328   13.820
  308.000   58.411    0.393    0.332   13.811
  308.250   59.018    0.409    0.337   13.801
  308.500   59.004    0.417    0.337   13.791
  308.750   59.613    0.413    0.333   13.777
  309.000   60.218    0.424    0.331   13.770
  309.250   60.830    0.439    0.330   14.017
  309.500   62.050    0.436    0.330   14.007
  309.750   62.042    0.433    0.326   13.741
  310.000   62.033    0.428    0.319   13.731
  310.250   62.640    0.422    0.320   13.463
  310.500   62.628    0.415    0.328   13.453
  310.750   62.616    0.409    0.336   13.441
  311.000   62.611    0.407    0.333   13.434
  311.250   61.982    0.406    0.326   13.425
  311.500   61.975    0.402    0.325   13.926
  311.750   61.346    0.401    0.325   13.919
