~VERSION INFORMATION
 VERS.                 2.0:   CWLS LOG ASCII STANDARD -VERSION 2.0
 WRAP.                  NO:   ONE LINE PER DEPTH STEP
~WELL INFORMATION BLOCK
#MNEM.UNIT           DATA                    DESCRIPTION OF MNEMONIC
#---------    -------------------            -------------------------------
# Generated from Intellog Unique Number	CC_80_83/WELL/2411
NULL.         -999.25                        : NULL_VALUE
WELL.         BVX ET AL HOUSE                : Well_name    - WELL
LOC .         11-27-083-15W4                 : Location     - LOCATION          
UWI .         00/11-27-083-15W400            : Uwi          - UNIQUE WELL ID    
ENTR.         DW                             : Entered      - ENTERED BY        
SRVC.         SCHLUMBERGER                   : Scn          - SERVICE COMPANY   
DATE.         09 MAR 80                      : Date         - LOG DATE
STRT.M        100                            : top_depth    - START DEPTH       
STOP.M        291.1                          : bot_depth    - STOP DEPTH        
STEP.M        0.3                            : increment    - STEP LENGTH       
~CURVE INFORMATION BLOCK
#MNEM UNIT       ERCB CURVE CODE    CURVE DESCRIPTION
#-----------   ------------------   ----------------------------------
DEPT.M        00 001 00 00         : DEPTH        - DEPTH                       
DPHI.V/V      00 890 00 00         : PHID         - DENSITY POROSITY (LIMESTONE)
NPHI.V/V      00 330 00 00         : PHIN         - NEUTRON POROSITY (LIMESTONE)
GR  .API      00 310 00 00         : GR           - GAMMA RAY                   
ILD .OHMM     00 120 00 00         : RESD         - DEEP RESISTIVITY (DIL)      
~PARAMETER INFORMATION       
#MNEM.UNIT           DATA             DESCRIPTION OF MNEMONIC
#---------         -----------     ------------------------------
GL  .M        549.8                : gl           - GROUND LEVEL ELEVATION      
EREF.M        552.8                : kb           - ELEVATION OF DEPTH REFERENCE
DATM.M        552.8                : datum        - DATUM ELEVATION             
TDD .M        290                  : tdd          - TOTAL DEPTH DRILLER         
RUN .         ONE                  : Run          - RUN NUMBER                  
ENG .         BILL                 : Engineer     - RECORDING ENGINEER          
WIT .         JIM                  : Witness      - WITNESSED BY                
MUD .         GEL                  : Mud_type     - MUD TYPE                    
MATR.         LIMESTONE            : Logunit      - NEUTRON MATRIX              
TMAX.C        20                   : BHT          - MAXIMUM RECORDED TEMPERATURE
BHTD.M        290                  : BHTDEP       - MAXIMUM RECORDED TEMPERATURE
MATR.         1                    : LOGUNIT      - NEUTRON MATRIX              
RMT .C        25                   : MDTP         - TEMPERATURE OF MUD          
NEUT.         1                    : NEUTRON      - NEUTRON TYPE                
RESI.         0                    : RESIST       - RESISTIVITY TYPE            
RMC .OHMM     0.25                 : RMC          - RESISTIVITY OF MUD CAKE     
RMF .OHMM     0.25                 : RMF          - RESISTIVITY OF MUD FILTRATE 
SUFT.C        15                   : SUFT         - SURFACE TEMPERATURE         
~A  DEPTH     PHID     PHIN       GR     RESD
# ...
  204.401    0.324    0.459   69.809    9.565
  204.701    0.320    0.445   68.566    9.931
  205.001    0.316    0.445   70.407    9.929
  205.301    0.314    0.449   73.485    9.557
  205.601    0.313    0.453   72.859    9.201
  205.901    0.303    0.453   70.383    9.200
  206.201    0.202    0.447   63.584    9.552
  206.501    0.028    0.357   58.020   11.752
  206.801    0.009    0.189   56.155   13.925
  207.101    0.021    0.207   56.767   16.813
  207.401    0.059    0.216   61.694   41.586
  207.701    0.071    0.236   64.158   49.271
  208.001    0.085    0.264   66.617   44.825
  208.301    0.185    0.319   73.397   31.312
  208.601    0.263    0.395   78.329   17.772
  208.901    0.301    0.433   83.874   11.296
  209.201    0.300    0.453   84.483    9.175
  209.501    0.287    0.448   82.623    9.002
  209.801    0.281    0.446   79.527    8.833
  210.101    0.289    0.459   78.284    9.170
  210.401    0.300    0.468   76.423   10.073
  210.701    0.295    0.474   73.945   10.861
  211.001    0.309    0.456   72.704   11.491
  211.301    0.286    0.458   75.778   11.931
  211.601    0.301    0.491   77.624   11.706
  211.901    0.302    0.501   81.936   10.852
  212.201    0.275    0.458   85.013    9.507
  212.501    0.289    0.437   85.005    8.648
  212.801    0.297    0.468   82.525    8.326
  213.101    0.303    0.463   81.283    8.324
  213.401    0.288    0.442   82.508    8.481
  213.701    0.284    0.448   86.203    8.806
  214.001    0.275    0.462   88.666    9.142
  214.301    0.264    0.454   81.865    8.969
  214.601    0.259    0.445   80.621    8.634
  214.901    0.273    0.451   81.849    8.632
  215.201    0.284    0.470   85.540    8.795
  215.501    0.290    0.463   86.152    9.305
  215.801    0.293    0.453   86.145    9.480
  216.101    0.293    0.455   84.900    9.842
  216.401    0.289    0.448   84.274    9.475
  216.701    0.283    0.441   84.883    9.297
  217.001    0.273    0.473   87.343    9.119
  217.301    0.264    0.469   91.657    9.118
  217.601    0.246    0.455   93.497    8.945
  217.901    0.228    0.445   95.343    8.777
  218.201    0.229    0.442  100.272    8.449
  218.501    0.265    0.483   95.323    8.134
  218.801    0.244    0.489   92.228    7.684
  219.101    0.252    0.479   92.839    7.539
  219.401    0.249    0.458   98.385    7.538
  219.701    0.236    0.441  100.846    8.127
  220.001    0.220    0.455   99.601    8.279
  220.301    0.234    0.492  100.209    8.123
  220.601    0.244    0.506   95.881    7.530
  220.901    0.252    0.509   94.639    7.250
  221.201    0.249    0.505  100.801    6.721
  221.501    0.263    0.517  102.028    6.594
  221.801    0.241    0.483   99.549    6.469
  222.101    0.238    0.451   97.070    6.468
  222.401    0.262    0.477   95.829    6.466
  222.701    0.264    0.494   92.728    6.344
  223.001    0.284    0.473   91.488    6.107
  223.301    0.271    0.477   89.628    6.223
  223.601    0.260    0.503   87.766    6.709
  223.901    0.283    0.478   87.143    7.511
  224.201    0.293    0.459   76.643    8.733
  224.501    0.278    0.460   77.868    9.963
  224.801    0.272    0.464   79.094   10.742
  225.101    0.265    0.465   80.320   11.153
  225.401    0.275    0.458   82.160   11.364
  225.701    0.292    0.461   84.005   10.735
  226.001    0.294    0.470   87.701   10.336
  226.301    0.283    0.476   89.542    8.555
  226.601    0.298    0.466   88.918    8.237
  226.901    0.254    0.453   93.230    8.080
  227.201    0.239    0.467   94.454    8.079
  227.501    0.271    0.479   88.274    8.076
  227.801    0.286    0.479   82.708    8.074
  228.101    0.290    0.468   82.080    8.227
  228.401    0.288    0.449   82.693    8.704
  228.701    0.266    0.428   87.005    9.037
  229.001    0.228    0.428   94.403   10.118
  229.301    0.249    0.448   93.159   11.117
  229.601    0.237    0.470   88.831   11.541
  229.901    0.259    0.464   83.880   11.111
  230.201    0.282    0.447   83.876   10.496
  230.501    0.285    0.455   86.953   10.106
  230.801    0.279    0.473   93.114    9.369
  231.101    0.274    0.468   96.193    8.686
  231.401    0.265    0.453   99.887    8.361
  231.701    0.271    0.447  101.732    8.519
  232.001    0.253    0.438   99.869    8.845
  232.301    0.243    0.438  100.478    9.182
  232.601    0.254    0.460  104.175    9.356
  232.901    0.238    0.473  109.105    9.354
  233.201    0.224    0.475  114.647    9.176
  233.501    0.219    0.475  115.260    8.348
  233.801    0.246    0.476  114.015    7.888
  234.101    0.231    0.468  103.513    6.529
  234.401    0.227    0.457   93.627    5.304
  234.701    0.231    0.438   91.766    5.107
  235.001    0.243    0.432   92.993    5.826
  235.301    0.246    0.450   99.157    8.181
  235.601    0.204    0.459  107.173    9.693
  235.901    0.230    0.483  111.486    9.510
  236.201    0.246    0.485  116.412    8.175
  236.501    0.230    0.486  115.789    7.162
  236.801    0.221    0.494  106.521    6.156
  237.101    0.221    0.474  105.895    5.927
  237.401    0.241    0.461  112.060    5.926
  237.701    0.226    0.452  113.284    6.037
  238.001    0.239    0.455  112.043    6.268
  238.301    0.234    0.480  115.736    6.631
  238.601    0.209    0.494  118.814    6.630
  238.901    0.217    0.489  118.188    6.383
  239.201    0.228    0.472  115.712    6.030
  239.501    0.215    0.452  103.974    6.029
  239.801    0.198    0.435  108.284    6.260
  240.101    0.182    0.415  109.511    6.877
  240.401    0.229    0.417  113.823    9.299
  240.701    0.230    0.420  115.668   10.812
  241.001    0.211    0.423  115.041   11.015
  241.301    0.203    0.422  113.795   10.605
  241.601    0.238    0.423  112.556   10.210
  241.901    0.213    0.425  111.929    9.828
  242.201    0.201    0.436  115.008    9.286
  242.501    0.245    0.461  114.998    8.134
  242.801    0.260    0.456  109.433    7.831
  243.101    0.255    0.441  104.487    7.540
  243.401    0.240    0.449  101.393    7.682
  243.701    0.254    0.445   99.532    7.975
  244.001    0.217    0.422   96.436    9.449
  244.301    0.202    0.413   92.109   10.579
  244.601    0.216    0.400   82.221   10.779
  244.901    0.268    0.396   84.060   10.376
  245.201    0.269    0.407   85.907   10.181
  245.501    0.240    0.424   87.750    9.801
  245.801    0.226    0.427   88.977    9.435
  246.101    0.231    0.421   92.672    9.612
  246.401    0.245    0.418   93.281    9.794
  246.701    0.229    0.417   95.125   10.169
  247.001    0.222    0.417   95.732   10.359
  247.301    0.227    0.422   92.020   10.358
  247.602    0.265    0.432   87.691    9.785
  247.902    0.281    0.443   84.595    9.421
  248.202    0.274    0.448   85.822    9.419
  248.502    0.270    0.448   87.047    9.595
  248.802    0.269    0.448   86.422    9.776
  249.102    0.250    0.449   83.324   10.148
  249.402    0.221    0.454   82.084   10.147
  249.702    0.244    0.458   82.073   10.144
  250.002    0.263    0.455   83.300    9.952
  250.302    0.260    0.448   85.144    9.582
  250.602    0.225    0.437   89.454    9.400
  250.902    0.248    0.432   90.063    9.399
  251.202    0.239    0.442   90.057    9.396
  251.502    0.216    0.427   89.427    9.218
  251.802    0.242    0.458   87.569    7.776
  252.102    0.242    0.464   86.943    7.487
  252.402    0.237    0.442   90.020    7.773
  252.702    0.235    0.424   93.715    8.703
  253.002    0.235    0.426   95.559    9.743
  253.302    0.238    0.443   94.316   10.116
  253.602    0.257    0.454   89.987   10.114
  253.902    0.248    0.469   88.123    9.736
  254.202    0.236    0.468   88.733    9.374
  254.502    0.246    0.454   90.576    8.856
  254.802    0.252    0.448   92.421    7.906
  255.102    0.246    0.440   97.968    7.329
  255.402    0.227    0.438  110.921    7.190
  255.702    0.220    0.467  106.591    7.189
  256.002    0.215    0.484  105.966    6.921
  256.302    0.223    0.496  113.362    6.297
