~VERSION INFORMATION
 VERS.                 2.0:   CWLS LOG ASCII STANDARD -VERSION 2.0
 WRAP.                  NO:   ONE LINE PER DEPTH STEP
~WELL INFORMATION BLOCK
#MNEM.UNIT           DATA                    DESCRIPTION OF MNEMONIC
#---------    -------------------            -------------------------------
# Generated from Intellog Unique Number	CW_70_72/WELL/1061
NULL.         -999.25                        : NULL_VALUE
WELL.         WINCAN ET AL GAMBLER 11-22     : Well_name    - WELL              
LOC .         11-22-071-21W4                 : Location     - LOCATION          
UWI .         00/11-22-071-21W4/0            : Uwi          - UNIQUE WELL ID    
ENTR.         JAYE                           : Entered      - ENTERED BY        
SRVC.         SCHLUMBERGER                   : Scn          - SERVICE COMPANY   
DATE.         19 MAR 83                      : Date         - LOG DATE          
STRT.M        335                            : top_depth    - START DEPTH       
STOP.M        518                            : bot_depth    - STOP DEPTH        
STEP.M        0.25                           : increment    - STEP LENGTH       
~CURVE INFORMATION BLOCK
#MNEM UNIT       ERCB CURVE CODE    CURVE DESCRIPTION
#-----------   ------------------   ----------------------------------
DEPT.M        00 001 00 00         : DEPTH        - DEPTH                       
DPHI.V/V      00 890 00 00         : PHID         - DENSITY POROSITY (SANDSTONE)
NPHI.V/V      00 330 00 00         : PHIN         - NEUTRON POROSITY (SANDSTONE)
GR  .API      00 310 00 00         : GR           - GAMMA RAY                   
CALI.MM       00 280 01 00         : CAL          - CALIPER                     
ILD .OHMM     00 120 00 00         : RESD         - DEEP RESISTIVITY (DIL)      
~PARAMETER INFORMATION       
#MNEM.UNIT           DATA             DESCRIPTION OF MNEMONIC
#---------         -----------     ------------------------------
GL  .M        600.05               : gl           - GROUND LEVEL ELEVATION      
EREF.M        603.25               : kb           - ELEVATION OF DEPTH REFERENCE
DATM.M        600.05               : datum        - DATUM ELEVATION             
TDD .M        518                  : tdd          - TOTAL DEPTH DRILLER         
RUN .         ONE                  : Run          - RUN NUMBER                  
ENG .         GAGGINO              : Engineer     - RECORDING ENGINEER          
WIT .         LYSZKIEWICZ          : Witness      - WITNESSED BY                
BASE.         EDM                  : Branch       - HOME BASE OF LOGGING UNIT   
MUD .         GEL CHEM             : Mud_type     - MUD TYPE                    
MATR.         SANDSTONE            : Logunit      - NEUTRON MATRIX              
TMAX.C        28.8                 : BHT          - MAXIMUM RECORDED TEMPERATURE
BHTD.M        517.7                : BHTDEP       - MAXIMUM RECORDED TEMPERATURE
RMT .C        16.6                 : MDTP         - TEMPERATURE OF MUD          
MUDD.KG/M     1240                 : MWT          - MUD DENSITY                 
NEUT.         1                    : NEUTRON      - NEUTRON TYPE                
RESI.         0                    : RESIST       - RESISTIVITY TYPE            
RM  .OHMM     4.02                 : RM           - RESISTIVITY OF MUD          
RMC .OHMM     0                    : RMC          - RESISTIVITY OF MUD CAKE     
RMF .OHMM     3.26                 : RMF          - RESISTIVITY OF MUD FILTRATE 
SUFT.C        0                    : SUFT         - SURFACE TEMPERATURE         
~A  DEPTH     PHID     PHIN       GR      CAL     RESD
# ...
  408.000    0.145    0.362   43.252  217.266    5.410
  408.250    0.181    0.404   46.717  217.188    4.441
  408.500    0.243    0.431   50.120  217.003    3.996
  408.750    0.281    0.449   52.016  216.821    3.825
  409.000    0.296    0.454   47.639  216.423    3.717
  409.250    0.306    0.462   46.587  215.718    3.614
  409.500    0.314    0.471   46.354  215.429    3.552
  409.750    0.323    0.480   44.359  215.350    3.517
  410.000    0.324    0.493   42.619  215.373    3.515
  410.250    0.317    0.548   45.142  215.088    3.534
  410.500    0.307    0.527   46.788  214.692    3.559
  410.750    0.297    0.465   43.667  214.197    3.579
  411.000    0.292    0.451   42.677  213.799    3.577
  411.250    0.288    0.460   42.883  213.618    3.556
  411.500    0.287    0.464   44.401  213.226    3.514
  411.750    0.290    0.454   44.478  213.036    3.441
  412.000    0.292    0.439   43.239  212.542    3.338
  412.250    0.294    0.430   45.326  211.943    3.256
  412.500    0.295    0.442   46.846  211.753    3.200
  412.750    0.295    0.446   45.981  211.153    3.170
  413.000    0.297    0.438   42.923  210.862    3.138
  413.250    0.298    0.431   41.620  210.991    3.091
  413.500    0.300    0.431   40.505  211.332    3.072
  413.750    0.305    0.434   42.653  211.670    3.071
  414.000    0.309    0.460   43.671  211.590    3.069
  414.250    0.304    0.471   38.920  211.299    3.081
  414.500    0.300    0.453   38.934  211.324    3.086
  414.750    0.304    0.465   40.831  211.456    3.096
  415.000    0.302    0.461   39.404  211.797    3.118
  415.250    0.297    0.452   37.536  211.922    3.128
  415.500    0.292    0.446   37.739  212.054    3.156
  415.750    0.287    0.436   39.322  212.289    3.168
  416.000    0.291    0.423   40.781  212.628    3.168
  416.250    0.298    0.408   41.611  212.863    3.171
  416.500    0.301    0.416   41.939  212.986    3.175
  416.750    0.299    0.400   41.891  212.908    3.180
  417.000    0.294    0.384   41.592  213.038    3.186
  417.250    0.288    0.392   41.358  213.168    3.178
  417.500    0.305    0.404   40.997  213.401    3.182
  417.750    0.323    0.415   40.633  213.530    3.169
  418.000    0.323    0.433   39.582  213.659    3.138
  418.250    0.317    0.449   38.971  213.892    3.137
  418.500    0.309    0.466   38.610  214.029    3.132
  418.750    0.304    0.473   38.748  214.155    3.148
  419.000    0.301    0.457   38.952  214.386    3.170
  419.250    0.295    0.433   39.343  214.831    3.199
  419.500    0.283    0.430   41.303  215.375    3.221
  419.750    0.280    0.437   44.267  215.924    3.226
  420.000    0.298    0.440   43.654  216.373    3.232
  420.250    0.306    0.439   41.034  216.499    3.224
  420.500    0.309    0.438   39.793  216.520    3.228
  420.750    0.311    0.436   39.809  216.547    3.227
  421.000    0.312    0.432   39.510  216.573    3.220
  421.250    0.309    0.423   38.772  216.595    3.208
  421.500    0.302    0.409   39.351  216.830    3.193
  421.750    0.288    0.412   42.191  216.959    3.180
  422.000    0.273    0.429   42.204  217.298    3.132
  422.250    0.272    0.465   40.399  217.534    3.143
  422.500    0.288    0.450   44.429  217.768    3.129
  422.750    0.276    0.422   50.279  218.213    3.175
  423.000    0.248    0.413   56.693  218.337    3.217
  423.250    0.231    0.430   64.425  218.259    3.246
  423.500    0.218    0.473   65.129  217.763    3.325
  423.750    0.232    0.469   60.877  217.266    3.489
  424.000    0.235    0.464   59.514  216.978    3.853
  424.250    0.229    0.459   59.152  216.895    4.199
  424.500    0.214    0.427   58.852  217.234    4.342
  424.750    0.205    0.418   58.492  217.573    4.406
  425.000    0.206    0.427   59.510  217.810    4.522
  425.250    0.201    0.433   61.407  217.934    4.827
  425.500    0.190    0.444   63.303  218.064    5.360
  425.750    0.165    0.396   56.795  218.088    6.123
  426.000    0.140    0.294   48.089  218.323    7.413
  426.250    0.070    0.245   40.261  218.348    8.758
  426.500    0.043    0.179   38.082  218.270   10.347
  426.750    0.037    0.174   38.536  218.192   11.885
  427.000    0.028    0.204   38.739  218.213   13.474
  427.250    0.024    0.201   37.687  218.345   13.392
  427.500    0.030    0.189   38.706  218.472   12.942
  427.750    0.047    0.203   40.037  218.708   12.229
  428.000    0.064    0.217   40.306  218.839   11.045
  428.250    0.088    0.221   40.195  218.964    9.574
  428.500    0.108    0.228   40.146  219.094    8.454
  428.750    0.129    0.250   40.411  219.121    6.939
  429.000    0.197    0.303   41.555  219.042    5.589
  429.250    0.241    0.369   43.766  218.962    4.622
  429.500    0.278    0.406   46.855  218.987    4.136
  429.750    0.270    0.415   50.698  219.224    3.944
  430.000    0.249    0.418   53.221  219.347    4.048
  430.250    0.230    0.430   55.435  219.478    4.242
  430.500    0.241    0.433   56.138  219.401    4.419
  430.750    0.227    0.425   56.782  219.317    4.518
  431.000    0.209    0.412   57.420  219.137    4.628
  431.250    0.204    0.415   58.441  219.160    4.741
  431.500    0.212    0.431   59.208  219.081    4.810
  431.750    0.207    0.450   59.599  219.002    4.890
  432.000    0.198    0.441   59.802  219.131    4.981
  432.250    0.194    0.432   60.257  219.257    5.045
  432.500    0.182    0.423   61.462  219.491    5.043
  432.750    0.177    0.416   62.733  219.620    5.031
  433.000    0.186    0.417   63.312  219.648    4.992
  433.250    0.185    0.424   63.579  219.778    4.934
  433.500    0.187    0.431   61.459  219.695    4.759
  433.750    0.192    0.433   62.542  219.093    4.565
  434.000    0.201    0.414   64.061  217.446    4.321
  434.250    0.238    0.406   55.356  216.740    3.910
  434.500    0.261    0.413   51.043  215.614    3.390
  434.750    0.287    0.403   49.677  214.905    3.215
  435.000    0.300    0.395   48.187  214.721    3.101
  435.250    0.302    0.407   47.012  214.850    3.031
  435.500    0.313    0.420   46.334  214.668    3.006
  435.750    0.303    0.431   47.479  214.586    3.039
  436.000    0.294    0.439   49.689  214.612    3.108
  436.250    0.291    0.430   50.959  214.848    3.243
  436.500    0.286    0.420   51.224  215.291    3.488
  436.750    0.278    0.421   50.926  215.420    3.992
  437.000    0.261    0.454   50.754  216.178    4.500
  437.250    0.194    0.434   50.580  216.304    5.026
  437.500    0.152    0.338   48.650  216.852    5.549
  437.750    0.162    0.298   47.976  217.193    5.548
  438.000    0.211    0.314   48.744  217.428    5.106
  438.250    0.253    0.341   49.636  217.449    4.595
  438.500    0.281    0.386   49.589  217.578    4.049
  438.750    0.283    0.411   49.477  217.504    3.590
  439.000    0.281    0.423   50.370  217.524    3.463
  439.250    0.282    0.427   52.769  217.341    3.416
  439.500    0.288    0.432   51.968  217.051    3.448
  439.750    0.292    0.433   51.984  216.658    3.519
  440.000    0.293    0.435   54.382  216.474    3.570
  440.250    0.288    0.444   55.652  216.293    3.609
  440.500    0.280    0.456   51.463  216.105    3.615
  440.750    0.269    0.453   50.599  216.129    3.593
  441.000    0.273    0.451   52.873  216.053    3.592
  441.250    0.281    0.447   57.217  215.868    3.592
  441.500    0.281    0.441   56.039  215.786    3.602
  441.750    0.273    0.433   56.056  215.499    3.615
  442.000    0.264    0.430   59.081  215.208    3.634
  442.250    0.267    0.445   60.476  214.919    3.652
  442.500    0.265    0.430   55.598  214.841    3.699
  442.750    0.245    0.403   54.609  214.969    3.783
  443.000    0.220    0.394   57.384  214.994    3.891
  443.250    0.237    0.443   61.289  215.332    3.939
  443.500    0.253    0.457   65.068  215.670    3.990
  443.750    0.265    0.432   66.776  216.851    4.018
  444.000    0.263    0.455   66.603  218.650    4.048
  444.250    0.261    0.443   62.101  220.870    4.055
