~VERSION INFORMATION
 VERS.                 2.0:   CWLS LOG ASCII STANDARD -VERSION 2.0
 WRAP.                  NO:   ONE LINE PER DEPTH STEP
~WELL INFORMATION BLOCK
#MNEM.UNIT           DATA                    DESCRIPTION OF MNEMONIC
#---------    -------------------            -------------------------------
# Generated from Intellog Unique Number	CW_73_75/WELL/1043
WELL.         ENSERCH ET AL MARTEN H 11-20   : Well_name    - WELL
LOC .         00/11-20-074-23W4/0            : Location     - LOCATION
UWI .         00/11-20-074-23W4/0            : Uwi          - UNIQUE WELL ID
ENTR.         JAYE                           : Entered      - ENTERED BY
SRVC.         SCHLUMBERGER                   : Scn          - SERVICE COMPANY
DATE.         3 MAR 76                       : Date         - LOG DATE
STRT.M        411.48                         : top_depth    - START DEPTH
STOP.M        624.73                         : bot_depth    - STOP DEPTH
STEP.M        0.25                           : increment    - STEP LENGTH
 NULL. -999.2500:NULL Value
~CURVE INFORMATION BLOCK
#MNEM UNIT       ERCB CURVE CODE    CURVE DESCRIPTION
#-----------   ------------------   ----------------------------------
DEPT.M        00 001 00 00         : DEPTH        - DEPTH
ILD .OHMM     00 120 00 00         : RESD         - DEEP RESISTIVITY (DIL)
DPHI.V/V      00 890 00 00         : PHID         - DENSITY POROSITY (SANDSTONE)
NPHI.V/V      00 330 00 00         : PHIN         - NEUTRON POROSITY (SANDSTONE)
GR  .API      00 310 00 00         : GR           - GAMMA RAY
CALI.MM       00 280 01 00         : CAL          - CALIPER
~PARAMETER INFORMATION
#MNEM.UNIT           DATA             DESCRIPTION OF MNEMONIC
#---------         -----------     ------------------------------
GL  .M        690.524              : gl           - GROUND LEVEL ELEVATION
EREF.M        694.03               : kb           - ELEVATION OF DEPTH REFERENCE
DATM.M        690.524              : datum        - DATUM ELEVATION
TDD .M        640.08               : tdd          - TOTAL DEPTH DRILLER
RUN .         ONE                  : Run          - RUN NUMBER
BASE.         EDM                  : Branch       - HOME BASE OF LOGGING UNIT
MUD .         GEL CHEM             : Mud_type     - MUD TYPE
MATR.         SANDSTONE            : Logunit      - NEUTRON MATRIX
TMAX.C        28.3333              : BHT          - MAXIMUM RECORDED TEMPERATURE
BHTD.M        640.69               : BHTDEP       - MAXIMUM RECORDED TEMPERATURE
RMT .C        13.8889              : MDTP         - TEMPERATURE OF MUD
MUDD.KG/M     0                    : MWT          - MUD DENSITY
NEUT.         1                    : NEUTRON      - NEUTRON TYPE
RESI.         0                    : RESIST       - RESISTIVITY TYPE
RM  .OHMM     2.7                  : RM           - RESISTIVITY OF MUD
RMC .OHMM     0                    : RMC          - RESISTIVITY OF MUD CAKE
RMF .OHMM     2.2                  : RMF          - RESISTIVITY OF MUD FILTRATE
SUFT.C        -17.7778             : SUFT         - SURFACE TEMPERATURE
~A  DEPTH     RESD     PHID     PHIN       GR      CAL
# ...
  557.480   16.866    0.173    0.412   99.851  155.456
  557.730   16.791    0.161    0.407  101.224  155.466
  557.980   16.791    0.168    0.402  102.272  155.365
  558.230   16.717    0.162    0.403  102.734  154.604
  558.480   16.718    0.163    0.419  102.219  153.841
  558.730   16.743    0.179    0.425  100.791  153.300
  558.980   16.768    0.170    0.427   98.713  153.199
  559.230   16.768    0.153    0.425   97.546  153.099
  559.480   16.719    0.156    0.421   98.464  153.550
  559.730   16.769    0.162    0.414  104.136  154.000
  559.980   16.794    0.171    0.408  105.249  153.569
  560.230   16.769    0.182    0.398  102.194  152.807
  560.480   16.720    0.182    0.388   98.552  151.493
  560.730   16.696    0.181    0.392   95.823  150.289
  560.980   16.646    0.162    0.394   94.916  150.520
  561.230   16.598    0.157    0.412   97.592  152.074
  561.480   16.598    0.192    0.426   98.054  153.848
  561.730   16.697    0.191    0.423   91.091  154.632
  561.980   16.797    0.177    0.407   86.081  154.421
  562.230   16.897    0.172    0.391   88.823  154.321
  562.480   17.073    0.179    0.400   91.434  154.329
  562.730   17.150    0.184    0.420   91.765  154.450
  562.980   17.125    0.173    0.414   90.924  154.460
  563.230   17.024    0.163    0.407   89.758  154.580
  563.480   16.898    0.187    0.403   89.243  154.480
  563.730   16.650    0.192    0.409   92.049  154.489
  563.980   16.284    0.188    0.407   91.273  154.498
  564.230   15.903    0.188    0.399   91.474  154.508
  564.480   16.117    0.201    0.412   95.127  154.187
  564.730   16.141    0.198    0.420   96.502  153.645
  564.980   16.261    0.183    0.419   96.442  153.434
  565.230   16.407    0.195    0.412   94.168  153.444
  565.480   16.407    0.191    0.405   93.522  154.226
  565.730   16.286    0.178    0.399   95.156  154.457
  565.980   16.335    0.189    0.398   98.615  154.246
  566.230   16.457    0.185    0.397   98.490  154.146
  566.480   16.384    0.198    0.386   94.327  153.493
  566.730   16.263    0.208    0.387   92.380  152.620
  566.980   16.120    0.198    0.407   90.822  151.529
  567.230   16.120    0.203    0.422   86.919  150.766
  567.480   16.240    0.211    0.416   82.627  150.334
  567.730   16.313    0.200    0.400   78.203  150.013
  567.980   16.217    0.180    0.386   71.696  149.912
  568.230   18.893    0.165    0.373   62.387  150.364
  568.480   23.321    0.132    0.341   61.221  151.035
  568.730   26.336    0.113    0.308   62.529  151.597
  568.980   27.049    0.099    0.290   64.749  152.488
  569.230   25.873    0.111    0.279   66.644  153.713
  569.480   24.601    0.142    0.306   70.297  154.053
  569.730   23.847    0.158    0.339   75.709  153.733
  569.980   23.082    0.170    0.353   73.957  153.190
  570.230   22.243    0.150    0.356   72.594  152.428
  570.480   21.466    0.126    0.352   73.903  151.777
  570.730   20.839    0.144    0.352   76.123  151.234
  570.980   19.815    0.150    0.350   79.321  151.354
  571.230   19.553    0.156    0.363   84.081  151.805
  571.480   19.409    0.179    0.383   93.141  152.807
  571.730   19.010    0.164    0.382   95.491  154.252
  571.980   18.510    0.159    0.380   98.428  156.026
  572.230   17.970    0.176    0.383  104.166  158.021
  572.480   17.549    0.187    0.387  106.321  159.354
  572.730   17.188    0.189    0.394  106.457  160.026
  572.980   17.011    0.174    0.409  105.095  160.367
  573.230   16.936    0.160    0.420  105.817  160.376
  573.480   17.012    0.178    0.427  108.689  160.386
  573.730   17.139    0.171    0.419  110.909  160.507
  573.980   17.344    0.163    0.410  108.766  160.406
  574.230   17.655    0.160    0.395  100.760  158.430
  574.480   18.514    0.178    0.368   97.248  153.476
  574.730   20.146    0.158    0.351   93.281  148.303
  574.980   21.762    0.161    0.343   86.513  146.328
  575.230   23.752    0.121    0.326   79.875  145.896
  575.480   24.250    0.095    0.289   83.398  146.347
  575.730   23.894    0.120    0.311   90.243  147.791
  575.980   23.613    0.153    0.342   92.138  149.345
  576.230   22.889    0.153    0.350   92.795  150.236
  576.480   22.221    0.158    0.338   94.755  150.688
  576.730   21.572    0.166    0.343   98.929  151.139
  576.980   20.695    0.173    0.353  101.866  151.810
  577.230   20.270    0.166    0.346   86.891  152.371
  577.480   21.130    0.057    0.309   73.414  153.154
  577.730   23.651    0.028    0.285   70.489  153.604
  577.980   27.269   -0.000    0.263   72.904  154.055
  578.230   30.932    0.022    0.244   71.933  154.728
  578.480   31.302    0.031    0.219   75.651  155.290
  578.730   29.763    0.062    0.229   83.083  156.071
  578.980   25.247    0.096    0.301   90.970  157.184
  579.230   22.894    0.135    0.362   91.301  158.295
  579.480   20.425    0.141    0.373   93.912  159.519
  579.730   19.107    0.162    0.384   99.519  160.301
  579.980   18.357    0.166    0.404   97.832  160.642
  580.230   18.034    0.157    0.421   95.037  160.100
  580.480   17.611    0.140    0.414   90.484  159.117
  580.730   17.404    0.121    0.386   87.102  157.693
  580.980   17.250    0.082    0.357   94.729  156.379
  581.230   17.174    0.141    0.388   96.102  155.618
  581.480   17.225    0.151    0.389   92.395  155.185
  581.730   17.073    0.131    0.382   93.053  155.196
  581.980   16.624    0.159    0.399   97.357  155.647
  582.230   16.502    0.179    0.389  100.425  156.428
  582.480   16.502    0.178    0.391  101.929  156.989
  582.730   16.724    0.162    0.394  100.762  156.338
  582.980   17.151    0.146    0.396   99.986  155.023
  583.230   17.773    0.124    0.386  101.490  154.262
  583.480   18.335    0.111    0.366  103.254  153.830
  583.730   18.692    0.137    0.375   98.375  154.392
  583.980   18.748    0.149    0.384   95.906  155.283
  584.230   18.336    0.140    0.373   96.888  156.287
  584.480   17.880    0.120    0.363  102.235  156.958
  584.730   17.384    0.108    0.358  107.842  157.299
  584.980   17.103    0.146    0.374  107.913  157.420
  585.230   16.977    0.163    0.389  103.946  157.318
  585.480   17.359    0.181    0.388  102.584  155.342
  585.730   18.723    0.176    0.376  102.525  155.352
  585.980   20.045    0.157    0.363   97.841  155.694
  586.230   20.957    0.132    0.372   88.077  155.813
  586.480   21.051    0.120    0.361   76.879  155.603
  586.730   20.619    0.104    0.280   77.667  154.288
  586.980   19.518    0.077    0.253   84.381  153.969
  587.230   16.929    0.083    0.265   96.372  156.404
  587.480   13.982    0.124    0.335  106.148  158.950
  587.730   11.463    0.131    0.354  109.410  159.071
  587.980    9.029    0.151    0.352  111.826  158.970
  588.230    8.285    0.167    0.382  112.679  160.195
  588.480    7.913    0.190    0.451  111.251  161.637
  588.730    7.972    0.219    0.484  108.261  162.860
  588.980    8.176    0.193    0.474  107.420  160.995
  589.230    8.535    0.191    0.461  108.273  158.027
  589.480    9.371    0.200    0.467  111.731  156.271
  589.730   10.365    0.185    0.480  113.821  154.959
  589.980   12.130    0.183    0.470  109.658  154.747
  590.230   15.106    0.178    0.412   96.702  154.979
  590.480   17.034    0.109    0.359   88.892  154.436
  590.730   17.418    0.089    0.335   88.963  154.335
  590.980   17.212    0.066    0.345   94.049  155.448
  591.230   16.586    0.100    0.364  101.350  156.892
  591.480   17.111    0.149    0.384   99.271  154.475
  591.730   18.238    0.125    0.391   94.848  157.904
  591.980   19.012    0.119    0.370   86.842  163.097
  592.230   19.068    0.096    0.326   86.653  158.916
  592.480   18.816    0.072    0.324   92.065  154.183
  592.730   18.733    0.137    0.356   92.591  157.392
  592.980   19.041    0.148    0.358   85.498  161.703
  593.230   20.937    0.191    0.321   71.825  160.169
  593.480   30.108    0.259    0.243   57.762  149.701
  593.730   38.682    0.295    0.203   41.093  144.968
