~VERSION INFORMATION
 VERS.                 2.0:   CWLS LOG ASCII STANDARD -VERSION 2.0
 WRAP.                  NO:   ONE LINE PER DEPTH STEP
~WELL INFORMATION BLOCK
#MNEM.UNIT           DATA                    DESCRIPTION OF MNEMONIC
#---------    -------------------            -------------------------------
# Generated from Intellog Unique Number	CX_WELLS/WELL/2829
WELL.         BANKENO THORDARY               : Well_name    - WELL
LOC .         00/10-28-081-12W4/0            : Location     - LOCATION
UWI .         00/10-28-081-12W400            : Uwi          - UNIQUE WELL ID
ENTR.         T                              : Entered      - ENTERED BY
SRVC.         SCHLUMBERGER                   : Scn          - SERVICE COMPANY
STRT.M        300                            : top_depth    - START DEPTH
STOP.M        525                            : bot_depth    - STOP DEPTH
STEP.M        0.25                           : increment    - STEP LENGTH
 NULL. -999.2500:NULL Value
~CURVE INFORMATION BLOCK
#MNEM UNIT       ERCB CURVE CODE    CURVE DESCRIPTION
#-----------   ------------------   ----------------------------------
DEPT.M        00 001 00 00         : DEPTH        - DEPTH
GR  .API      00 310 00 00         : GR           - GAMMA RAY
NPHI.V/V      00 330 00 00         : PHIN         - NEUTRON POROSITY (SANDSTONE)
DPHI.V/V      00 890 00 00         : PHID         - DENSITY POROSITY (SANDSTONE)
ILD .OHMM     00 120 00 00         : RESD         - DEEP RESISTIVITY (OTHER)
~PARAMETER INFORMATION
#MNEM.UNIT           DATA             DESCRIPTION OF MNEMONIC
#---------         -----------     ------------------------------
GL  .M        732.4                : gl           - GROUND LEVEL ELEVATION
EREF.M        750.3                : kb           - ELEVATION OF DEPTH REFERENCE
DATM.M        750.3                : datum        - DATUM ELEVATION
TDD .M        637                  : tdd          - TOTAL DEPTH DRILLER
RUN .         ONE                  : Run          - RUN NUMBER
ENG .         BILL                 : Engineer     - RECORDING ENGINEER
WIT .         JIM                  : Witness      - WITNESSED BY
MUD .         GEL                  : Mud_type     - MUD TYPE
MATR.         SANDSTONE            : Logunit      - NEUTRON MATRIX
TMAX.C        22                   : BHT          - MAXIMUM RECORDED TEMPERATURE
BHTD.M        642                  : BHTDEP       - MAXIMUM RECORDED TEMPERATURE
MATR.         1                    : LOGUNIT      - NEUTRON MATRIX
RMT .C        22                   : MDTP         - TEMPERATURE OF MUD
NEUT.         1                    : NEUTRON      - NEUTRON TYPE
RESI.         0.3                  : RESIST       - RESISTIVITY TYPE
RMC .OHMM     0.25                 : RMC          - RESISTIVITY OF MUD CAKE
RMF .OHMM     0.25                 : RMF          - RESISTIVITY OF MUD FILTRATE
SUFT.C        4                    : SUFT         - SURFACE TEMPERATURE
~A  DEPTH       GR     PHIN     PHID     RESD
  300.000   98.979    0.485    0.226    3.547
  300.250   97.803    0.483    0.231    3.689
  300.500   94.235    0.481    0.243    3.762
  300.750   93.673    0.482    0.244    4.132
  301.000   93.725    0.483    0.240    4.620
  301.250   93.755    0.485    0.238    5.164
  301.500   93.797    0.474    0.234    6.329
  301.750   92.632    0.448    0.232    9.322
  302.000   89.656    0.361    0.234   13.730
  302.250   86.088    0.300    0.240   18.443
  302.500   84.913    0.269    0.275   23.041
  302.750   80.721    0.253    0.324   23.942
  303.000   74.729    0.240    0.362   23.983
  303.250   64.515    0.238    0.391   22.747
  303.500   57.317    0.255    0.398   21.166
  303.750   57.961    0.285    0.385   18.648
  304.000   62.226    0.323    0.359   16.422
  304.250   69.516    0.361    0.332   14.475
  304.500   75.008    0.403    0.317   13.712
  304.750   75.632    0.435    0.313   13.000
  305.000   74.467    0.447    0.312   12.797
  305.250   72.095    0.399    0.308   12.585
  305.500   70.930    0.409    0.307   12.153
  305.750   73.384    0.420    0.310   11.953
  306.000   75.849    0.417    0.325   11.126
  306.250   80.103    0.391    0.327   10.352
  306.500   84.377    0.391    0.318    9.121
  306.750   86.831    0.404    0.310    8.336
  307.000   89.899    0.424    0.299    8.199
  307.250   91.751    0.417    0.281    8.523
  307.500   92.998    0.406    0.266    8.853
  307.750   89.410    0.400    0.248    9.377
  308.000   88.244    0.411    0.242    9.389
  308.250   89.492    0.439    0.325    9.238
  308.500   94.360    0.582    0.436    9.082
  308.750  101.058    0.590    0.456    8.928
  309.000  103.502    0.586    0.417    8.625
  309.250  104.750    0.570    0.376    8.640
  309.500  102.991    0.535    0.351    8.497
  309.750   98.810    0.432    0.325    8.834
  310.000   95.221    0.441    0.317    9.175
  310.250   89.229    0.443    0.311   10.264
  310.500   80.814    0.415    0.298   11.269
  310.750   76.030    0.330    0.278   12.152
  311.000   73.055    0.339    0.265   12.861
  311.250   70.683    0.351    0.277   13.365
  311.500   67.708    0.389    0.310   13.893
  311.750   67.146    0.397    0.315   13.911
  312.000   67.197    0.404    0.313   13.929
  312.250   67.842    0.393    0.308   12.966
  312.500   69.693    0.383    0.302   11.850
  312.750   73.364    0.368    0.295   11.031
  313.000   76.422    0.362    0.286   10.458
  313.250   79.469    0.376    0.280   10.877
  313.500   78.917    0.403    0.277   11.088
  313.750   73.519    0.412    0.286   11.317
  314.000   69.941    0.390    0.300   11.139
  314.250   70.595    0.372    0.309   10.946
  314.500   73.643    0.374    0.306   10.194
  314.750   77.304    0.373    0.296    9.485
  315.000   82.795    0.368    0.283    8.993
  315.250   85.239    0.375    0.250    9.518
  315.500   84.687    0.412    0.228   10.454
  315.750   84.126    0.420    0.236   10.661
  316.000   83.553    0.394    0.263   11.087
  316.250   81.785    0.388    0.275   11.521
  316.500   79.413    0.394    0.291   11.972
  316.750   77.654    0.401    0.305   12.905
  317.000   76.479    0.408    0.314   13.410
  317.250   75.314    0.398    0.320   13.934
  317.500   75.969    0.384    0.322   14.222
  317.750   77.820    0.383    0.327   14.504
  318.000   79.671    0.387    0.326   14.798
  318.250   79.712    0.401    0.324   15.383
  318.500   78.557    0.414    0.324   15.694
  318.750   76.788    0.411    0.325   16.012
  319.000   77.433    0.416    0.328   16.329
  319.250   79.888    0.423    0.331   16.357
  319.500   81.728    0.429    0.326   16.385
  319.750   86.003    0.440    0.319   16.717
  320.000   89.060    0.394    0.317   16.745
  320.250   92.721    0.378    0.312   16.774
  320.500   94.573    0.372    0.308   16.809
  320.750   95.217    0.368    0.307   16.845
  321.000   94.062    0.367    0.305   16.867
  321.250   92.304    0.373    0.310   16.903
  321.500   89.932    0.379    0.320   16.924
  321.750   87.560    0.391    0.317   16.953
  322.000   86.374    0.404    0.309   16.982
  322.250   88.839    0.414    0.306   16.709
  322.500   94.310    0.390    0.313   16.730
  322.750   96.150    0.392    0.318   16.163
  323.000   94.985    0.400    0.310   15.323
  323.250   96.836    0.392    0.297   14.797
  323.500   99.291    0.388    0.284   14.035
  323.750   98.126    0.396    0.275   13.552
  324.000   96.367    0.401    0.267   13.087
  324.250   94.588    0.391    0.255   12.182
  324.500   95.847    0.374    0.241   11.134
  324.750  100.111    0.363    0.223    9.991
  325.000  102.565    0.396    0.194    9.464
  325.250  103.813    0.418    0.166    8.338
  325.500  105.071    0.419    0.151    6.703
  325.750  107.536    0.420    0.165    6.015
  326.000  108.160    0.424    0.179    5.808
  326.250  108.804    0.433    0.210    5.613
  326.500  108.242    0.454    0.243    5.516
  326.750  109.500    0.479    0.262    5.425
  327.000  107.732    0.487    0.277    5.335
  327.250  105.370    0.485    0.274    5.347
  327.500  103.602    0.476    0.265    5.356
  327.750  106.056    0.467    0.255    5.174
  328.000  107.897    0.456    0.238    4.816
  328.250  112.172    0.446    0.226    4.564
  328.500  114.626    0.445    0.224    4.023
  328.750  116.477    0.453    0.234    3.813
  329.000  118.338    0.463    0.262    3.487
  329.250  118.962    0.479    0.272    3.365
  329.500  119.004    0.512    0.292    3.370
  329.750  117.838    0.516    0.315    3.910
  330.000  116.070    0.507    0.362    4.792
  330.250  111.888    0.488    0.413    6.094
  330.500  105.897    0.451    0.408    7.607
  330.750   96.285    0.423    0.290   10.412
  331.000   94.517    0.403    0.283   12.083
  331.250  100.591    0.405    0.286   12.108
  331.500  100.029    0.410    0.280   11.687
  331.750   97.657    0.414    0.275   10.879
  332.000   91.666    0.412    0.278   10.123
  332.250   85.674    0.403    0.285    7.562
  332.500   83.906    0.402    0.298    6.662
  332.750   89.376    0.406    0.313    6.092
  333.000   97.874    0.413    0.325    6.215
  333.250  103.948    0.425    0.316    6.947
  333.500  109.419    0.436    0.310    8.061
  333.750  111.883    0.449    0.298    9.185
  334.000  111.925    0.460    0.285    9.717
  334.250  111.363    0.444    0.271   10.284
  334.500  110.197    0.417    0.259   10.492
  334.750  107.826    0.420    0.250   10.902
  335.000  104.237    0.419    0.257   10.935
  335.250   93.419    0.416    0.267   10.944
  335.500   88.645    0.414    0.279   10.967
  335.750   86.876    0.414    0.295   10.787
  336.000   85.711    0.414    0.299   10.805
  336.250   85.149    0.414    0.269   10.434
  336.500   82.767    0.415    0.250   10.451
  336.750   77.982    0.413    0.212   10.279
  337.000   73.197    0.404    0.206   10.487
  337.250   73.238    0.392    0.236   10.505
  337.500   73.893    0.384    0.269   10.332
  337.750   75.141    0.379    0.278   10.345
  338.000   77.595    0.382    0.268   10.179
  338.250   81.880    0.389    0.266    9.829
  338.500   83.710    0.398    0.263    9.491
  338.750   86.186    0.405    0.260    9.161
  339.000   86.809    0.405    0.252    8.685
  339.250   89.284    0.396    0.247    8.095
  339.500   89.305    0.401    0.245    7.814
  339.750   91.166    0.406    0.241    8.430
  340.000   92.404    0.411    0.238    8.593
  340.250   94.265    0.417    0.236    8.933
  340.500   96.117    0.425    0.239    9.106
  340.750   96.158    0.438    0.242    9.126
  341.000   93.183    0.447    0.245    9.137
  341.250   89.604    0.459    0.247    9.153
  341.500   90.249    0.476    0.249    9.169
  341.750   90.893    0.462    0.260    9.192
  342.000   90.935    0.449    0.277    9.212
  342.250   90.373    0.445    0.278    9.219
  342.500   89.821    0.447    0.278    9.239
  342.750   90.466    0.447    0.277    9.426
  343.000   91.110    0.452    0.275    9.438
  343.250   91.151    0.459    0.272    9.462
