~VERSION INFORMATION
 VERS.                 2.0:   CWLS LOG ASCII STANDARD -VERSION 2.0
 WRAP.                  NO:   ONE LINE PER DEPTH STEP
~WELL INFORMATION BLOCK
#MNEM.UNIT           DATA                    DESCRIPTION OF MNEMONIC
#---------    -------------------            -------------------------------
# Generated from Intellog Unique Number	CS_77_79/WELL/1023
WELL.         AMOCO CANADA PETROLEUM         : Well_name    - WELL
LOC .         00/15-26-077-09W4/0            : Location     - LOCATION
UWI .         00/15-26-077-09W4/0            : Uwi          - UNIQUE WELL ID
ENTR.         SP                             : Entered      - ENTERED BY
SRVC.         SCHLUMBERGER                   : Scn          - SERVICE COMPANY
STRT.M        150                            : top_depth    - START DEPTH
STOP.M        360                            : bot_depth    - STOP DEPTH
STEP.M        0.25                           : increment    - STEP LENGTH
 NULL. -999.2500:NULL Value
~CURVE INFORMATION BLOCK
#MNEM UNIT       ERCB CURVE CODE    CURVE DESCRIPTION
#-----------   ------------------   ----------------------------------
DEPT.M        00 001 00 00         : DEPTH        - DEPTH
GR  .API      00 310 00 00         : GR           - GAMMA RAY
NPHI.V/V      00 330 00 00         : PHIN         - NEUTRON POROSITY (SANDSTONE)
DPHI.V/V      00 890 00 00         : PHID         - DENSITY POROSITY (SANDSTONE)
ILD .OHMM     00 120 00 00         : RESD         - DEEP RESISTIVITY (DIL)
~PARAMETER INFORMATION
#MNEM.UNIT           DATA             DESCRIPTION OF MNEMONIC
#---------         -----------     ------------------------------
GL  .M        578.5                : gl           - GROUND LEVEL ELEVATION
EREF.M        582.7                : kb           - ELEVATION OF DEPTH REFERENCE
DATM.M        582.7                : datum        - DATUM ELEVATION
TDD .M        358                  : tdd          - TOTAL DEPTH DRILLER
RUN .         ONE                  : Run          - RUN NUMBER
ENG .         BILL                 : Engineer     - RECORDING ENGINEER
WIT .         JIM                  : Witness      - WITNESSED BY
MUD .         GEL                  : Mud_type     - MUD TYPE
MATR.         SANDSTONE            : Logunit      - NEUTRON MATRIX
TMAX.C        19                   : BHT          - MAXIMUM RECORDED TEMPERATURE
BHTD.M        359                  : BHTDEP       - MAXIMUM RECORDED TEMPERATURE
MATR.         1                    : LOGUNIT      - NEUTRON MATRIX
RMT .C        19                   : MDTP         - TEMPERATURE OF MUD
NEUT.         1                    : NEUTRON      - NEUTRON TYPE
RESI.         3.81                 : RESIST       - RESISTIVITY TYPE
RMC .OHMM     3.14                 : RMC          - RESISTIVITY OF MUD CAKE
RMF .OHMM     3.14                 : RMF          - RESISTIVITY OF MUD FILTRATE
SUFT.C        15                   : SUFT         - SURFACE TEMPERATURE
~A  DEPTH       GR     PHIN     PHID     RESD
# ...
  193.500   59.475    0.437    0.308   16.125
  193.750   61.896    0.440    0.303   15.226
  194.000   66.787    0.442    0.290   14.924
  194.250   74.147    0.437    0.275   14.360
  194.500   83.347    0.438    0.252   13.822
  194.750   85.756    0.446    0.239   13.056
  195.000   86.967    0.450    0.230   11.883
  195.250   89.388    0.434    0.197   10.419
  195.500   91.797    0.427    0.155   10.028
  195.750   94.231    0.439    0.194    9.299
  196.000   97.886    0.447    0.206    8.618
  196.250  100.925    0.454    0.205    8.137
  196.500  102.729    0.465    0.209    7.833
  196.750  103.286    0.477    0.217    8.116
  197.000  103.855    0.476    0.230    8.891
  197.250  103.831    0.469    0.236    9.564
  197.500  101.907    0.464    0.245   11.282
  197.750   98.772    0.456    0.251   11.904
  198.000   96.883    0.442    0.243   11.886
  198.250   97.453    0.435    0.230   11.441
  198.500   99.245    0.441    0.223   11.009
  198.750  102.295    0.445    0.217   10.395
  199.000  107.803    0.453    0.216   10.002
  199.250  110.830    0.458    0.217    9.270
  199.500  111.411    0.467    0.221    8.759
  199.750  107.647    0.492    0.226    7.680
  200.000  104.524    0.502    0.232    7.668
  200.250   99.525    0.510    0.242    7.949
  200.500   97.019    0.514    0.252    9.036
  200.750   95.736    0.508    0.257   10.272
  201.000   95.070    0.506    0.241   10.838
  201.250   95.010    0.497    0.244   10.826
  201.500   94.962    0.490    0.250   10.608
  201.750   94.296    0.482    0.257   10.207
  202.000   93.643    0.468    0.262   10.192
  202.250   92.360    0.461    0.271   10.371
  202.500   92.288    0.455    0.279   10.947
  202.750   91.634    0.452    0.288   11.551
  203.000   91.562    0.451    0.293   11.538
  203.250   90.920    0.448    0.291   11.512
  203.500   90.872    0.452    0.281   11.293
  203.750   90.812    0.457    0.274   10.858
  204.000   90.752    0.463    0.270   10.845
  204.250   90.728    0.473    0.265   10.432
  204.500   90.667    0.480    0.267   10.233
  204.750   89.990    0.488    0.279   10.030
  205.000   89.348    0.478    0.285    9.828
  205.250   88.065    0.472    0.260    9.456
  205.500   86.165    0.482    0.262    9.099
  205.750   83.647    0.496    0.264    8.918
  206.000   76.808    0.514    0.271    9.773
  206.250   68.722    0.534    0.273   12.415
  206.500   60.031    0.561    0.281   16.367
  206.750   53.797    0.578    0.287   22.391
  207.000   49.440    0.437    0.295   26.423
  207.250   50.626    0.447    0.301   29.474
  207.500   51.801    0.424    0.304   32.274
  207.750   53.592    0.430    0.306   32.853
  208.000   54.803    0.434    0.306   34.030
  208.250   55.990    0.442    0.306   35.261
  208.500   56.547    0.448    0.306   35.867
  208.750   57.128    0.455    0.306   36.497
  209.000   57.080    0.459    0.306   36.416
  209.250   57.007    0.463    0.305   36.389
  209.500   56.947    0.460    0.305   36.334
  209.750   56.923    0.453    0.305   36.959
  210.000   56.875    0.451    0.305   36.890
  210.250   56.827    0.447    0.308   36.849
  210.500   56.766    0.444    0.308   36.780
  210.750   56.101    0.439    0.311   36.726
  211.000   54.201    0.434    0.312   36.657
  211.250   54.164    0.430    0.312   36.617
  211.500   55.968    0.428    0.312   37.232
  211.750   59.624    0.433    0.313   37.190
  212.000   60.193    0.441    0.315   37.135
  212.250   60.145    0.448    0.316   37.066
  212.500   60.097    0.453    0.317   37.011
  212.750   60.049    0.458    0.321   36.956
  213.000   60.001    0.459    0.322   36.887
  213.250   59.940    0.458    0.323   36.846
  213.500   58.040    0.452    0.323   36.129
  213.750   57.387    0.449    0.323   35.400
  214.000   54.869    0.444    0.323   34.686
  214.250   54.821    0.439    0.323   34.660
  214.500   54.773    0.433    0.323   33.974
  214.750   55.342    0.427    0.322   33.276
  215.000   56.516    0.420    0.322   32.629
  215.250   57.703    0.419    0.322   32.592
  215.500   59.507    0.424    0.325   31.923
  215.750   60.705    0.431    0.326   31.899
  216.000   64.361    0.440    0.329   31.255
  216.250   68.635    0.442    0.330   30.636
  216.500   77.229    0.442    0.330   30.591
  216.750   83.972    0.442    0.328   30.556
  217.000   90.715    0.444    0.326   29.951
  217.250   98.704    0.446    0.323   29.336
  217.500   96.804    0.449    0.323   29.303
  217.750   72.049    0.449    0.328   28.712
  218.000   54.703    0.462    0.333   28.122
  218.250   52.803    0.460    0.332   28.101
  218.500   54.607    0.453    0.327   28.070
  218.750   57.016    0.447    0.326   27.493
  219.000   59.437    0.444    0.326   26.959
  219.250   60.624    0.446    0.327   26.425
  219.500   61.193    0.448    0.330   26.395
  219.750   61.157    0.451    0.331   25.378
  220.000   61.726    0.458    0.332   25.360
  220.250   61.060    0.466    0.333   24.857
  220.500   59.160    0.472    0.333   24.820
  220.750   56.642    0.466    0.333   24.328
  221.000   53.507    0.456    0.333   23.829
  221.250   51.607    0.451    0.333   23.802
  221.500   50.312    0.454    0.333   23.322
  221.750   49.659    0.460    0.334   23.305
  222.000   49.586    0.465    0.334   22.826
  222.250   50.167    0.466    0.335   22.809
  222.500   51.342    0.464    0.335   22.775
  222.750   52.541    0.461    0.334   23.166
  223.000   54.344    0.459    0.334   23.132
  223.250   54.926    0.455    0.334   23.512
  223.500   55.495    0.455    0.334   23.485
  223.750   56.040    0.456    0.333   23.459
  224.000   56.621    0.459    0.332   23.398
  224.250   57.178    0.461    0.330   23.390
  224.500   57.747    0.460    0.329   23.355
  224.750   58.316    0.459    0.329   22.867
  225.000   58.886    0.464    0.329   22.841
  225.250   58.849    0.468    0.330   22.807
  225.500   58.172    0.465    0.330   22.765
  225.750   56.877    0.462    0.330   22.748
  226.000   56.853    0.459    0.330   22.706
  226.250   55.546    0.457    0.330   22.672
  226.500   54.904    0.457    0.329   22.646
  226.750   54.856    0.457    0.327   22.181
  227.000   54.796    0.463    0.327   21.758
  227.250   55.995    0.470    0.325   21.718
  227.500   56.564    0.472    0.326   21.287
  227.750   57.133    0.473    0.326   21.256
  228.000   58.319    0.474    0.327   21.224
  228.250   59.494    0.474    0.327   20.804
  228.500   60.075    0.472    0.327   20.384
  228.750   58.175    0.473    0.327   19.980
  229.000   58.127    0.473    0.327   19.965
  229.250   58.066    0.473    0.327   19.936
  229.500   58.635    0.473    0.328   19.906
  229.750   58.587    0.472    0.328   19.869
  230.000   59.156    0.467    0.328   19.832
  230.250   60.343    0.465    0.328   19.817
  230.500   61.529    0.461    0.328   19.788
  230.750   60.864    0.460    0.328   19.388
  231.000   61.433    0.458    0.328   19.004
  231.250   62.620    0.455    0.328   18.628
  231.500   62.571    0.454    0.328   18.593
  231.750   59.436    0.442    0.328   18.218
  232.000   56.919    0.424    0.330   18.204
  232.250   56.241    0.434    0.330   17.837
  232.500   58.045    0.467    0.330   17.804
  232.750   60.466    0.483    0.330   17.791
  233.000   62.270    0.478    0.331   17.758
  233.250   63.469    0.477    0.330   17.731
  233.500   64.655    0.476    0.328   17.712
  233.750   65.212    0.473    0.325   18.016
  234.000   63.917    0.471    0.322   18.325
  234.250   62.647    0.470    0.322   18.298
  234.500   60.734    0.475    0.323   17.606
  234.750   60.081    0.480    0.325   16.941
  235.000   59.427    0.481    0.325   16.001
  235.250   61.207    0.477    0.324   14.837
  235.500   62.417    0.473    0.322   14.014
  235.750   65.456    0.467    0.320   13.237
  236.000   70.347    0.461    0.318   12.048
  236.250   74.620    0.460    0.313   10.369
  236.500   77.029    0.469    0.307    8.764
  236.750   78.240    0.483    0.297    7.543
