~VERSION INFORMATION
 VERS.                 2.0:   CWLS LOG ASCII STANDARD -VERSION 2.0
 WRAP.                  NO:   ONE LINE PER DEPTH STEP
~WELL INFORMATION BLOCK
#MNEM.UNIT           DATA                    DESCRIPTION OF MNEMONIC
#---------    -------------------            -------------------------------
# Generated from Intellog Unique Number	CW_76_78/WELL/928
WELL.         CHIEFLO SUNNYDAKE DROWND 10-34 : Well_name    - WELL
LOC .         00/10-34-076-22W4/0            : Location     - LOCATION
UWI .         00/10-34-076-22W4/0            : Uwi          - UNIQUE WELL ID
ENTR.         JAYE                           : Entered      - ENTERED BY
SRVC.         SCHLUMBERGER                   : Scn          - SERVICE COMPANY
DATE.         25 MAR 75                      : Date         - LOG DATE
STRT.M        527.304                        : top_depth    - START DEPTH
STOP.M        743.804                        : bot_depth    - STOP DEPTH
STEP.M        0.25                           : increment    - STEP LENGTH
 NULL. -999.2500:NULL Value
~CURVE INFORMATION BLOCK
#MNEM UNIT       ERCB CURVE CODE    CURVE DESCRIPTION
#-----------   ------------------   ----------------------------------
DEPT.M        00 001 00 00         : DEPTH        - DEPTH
ILD .OHMM     00 120 00 00         : RESD         - DEEP RESISTIVITY (DIL)
NPHI.V/V      00 330 00 00         : PHIN         - NEUTRON POROSITY (SANDSTONE)
DPHI.V/V      00 890 00 00         : PHID         - DENSITY POROSITY (SANDSTONE)
GR  .API      00 310 00 00         : GR           - GAMMA RAY
CALI.MM       00 280 01 00         : CAL          - CALIPER
~PARAMETER INFORMATION
#MNEM.UNIT           DATA             DESCRIPTION OF MNEMONIC
#---------         -----------     ------------------------------
GL  .M        811.073              : gl           - GROUND LEVEL ELEVATION
EREF.M        814.578              : kb           - ELEVATION OF DEPTH REFERENCE
DATM.M        811.073              : datum        - DATUM ELEVATION
TDD .M        748.436              : tdd          - TOTAL DEPTH DRILLER
RUN .         ONE                  : Run          - RUN NUMBER
ENG .         BERNIISKY            : Engineer     - RECORDING ENGINEER
WIT .         BROWN                : Witness      - WITNESSED BY
BASE.         EDM                  : Branch       - HOME BASE OF LOGGING UNIT
MUD .         GEL                  : Mud_type     - MUD TYPE
MATR.         SANDSTONE            : Logunit      - NEUTRON MATRIX
TMAX.C        27.7778              : BHT          - MAXIMUM RECORDED TEMPERATURE
BHTD.M        748.894              : BHTDEP       - MAXIMUM RECORDED TEMPERATURE
RMT .C        -17.7778             : MDTP         - TEMPERATURE OF MUD
MUDD.KG/M     1188                 : MWT          - MUD DENSITY
NEUT.         1                    : NEUTRON      - NEUTRON TYPE
RESI.         0                    : RESIST       - RESISTIVITY TYPE
RM  .OHMM     3.82                 : RM           - RESISTIVITY OF MUD
RMC .OHMM     0                    : RMC          - RESISTIVITY OF MUD CAKE
RMF .OHMM     4.9                  : RMF          - RESISTIVITY OF MUD FILTRATE
SUFT.C        -17.7778             : SUFT         - SURFACE TEMPERATURE
~A  DEPTH     RESD     PHIN     PHID       GR      CAL
# ...
  563.804    6.142    0.469    0.266   79.971  168.347
  564.054    7.823    0.486    0.287   75.447  167.430
  564.304    9.397    0.482    0.317   73.797  163.715
  564.554    9.325    0.470    0.328   77.778  159.883
  564.804    8.887    0.463    0.300   81.821  156.568
  565.054    8.119    0.443    0.288   81.395  154.825
  565.304    7.350    0.432    0.279   82.568  154.731
  565.554    6.691    0.435    0.267   84.649  155.454
  565.804    5.958    0.447    0.273   84.040  157.244
  566.054    5.554    0.443    0.285   79.890  158.267
  566.304    5.501    0.439    0.278   77.152  159.112
  566.554    5.591    0.446    0.279   75.439  159.456
  566.804    5.766    0.454    0.297   74.214  159.440
  567.054    5.947    0.465    0.303   75.377  159.144
  567.304    6.077    0.470    0.305   78.264  159.137
  567.554    6.109    0.452    0.294   81.078  159.247
  567.804    6.028    0.452    0.298   84.756  159.261
  568.054    5.820    0.460    0.304   88.858  157.815
  568.304    5.485    0.464    0.305   92.286  155.650
  568.554    5.315    0.452    0.290   93.944  154.834
  568.804    5.255    0.431    0.272   89.303  155.867
  569.054    5.321    0.427    0.271   81.963  159.723
  569.304    5.538    0.437    0.274   70.894  163.142
  569.554    5.839    0.431    0.283   61.842  164.399
  569.804    6.190    0.426    0.303   59.158  164.087
  570.054    6.479    0.447    0.320   59.041  163.485
  570.304    6.572    0.461    0.328   58.314  162.783
  570.554    6.631    0.475    0.323   56.172  162.245
  570.804    6.652    0.486    0.322   53.730  161.316
  571.054    6.650    0.489    0.326   55.943  160.598
  571.304    6.648    0.486    0.329   58.697  159.902
  571.554    6.633    0.497    0.332   60.173  159.712
  571.804    6.606    0.499    0.327   59.258  159.489
  572.054    6.604    0.494    0.320   58.095  159.288
  572.304    6.687    0.446    0.335   57.612  159.401
  572.554    6.771    0.456    0.345   57.496  160.243
  572.804    6.856    0.455    0.338   57.687  162.521
  573.054    6.905    0.440    0.330   60.506  167.099
  573.304    6.928    0.439    0.334   63.259  166.473
  573.554    6.937    0.446    0.333   64.186  163.371
  573.804    6.948    0.433    0.328   63.943  159.762
  574.054    6.907    0.419    0.311   62.297  160.384
  574.304    6.892    0.403    0.285   61.385  162.178
  574.554    6.839    0.407    0.261   61.265  163.194
  574.804    6.837    0.432    0.252   60.966  164.034
  575.054    6.974    0.427    0.272   59.991  164.270
  575.304    7.192    0.424    0.315   57.791  164.050
  575.554    8.639    0.419    0.322   54.736  163.865
  575.804   10.280    0.396    0.276   51.074  163.866
  576.054   16.628    0.313    0.247   48.198  163.774
  576.304   21.654    0.276    0.181   46.983  164.916
  576.554   19.246    0.213    0.076   47.970  169.279
  576.804   13.375    0.178    0.039   49.134  170.533
  577.054    9.571    0.207    0.050   50.912  168.874
  577.304    8.200    0.320    0.075   55.201  165.979
  577.554    7.465    0.398    0.200   57.169  163.199
  577.804    6.466    0.455    0.299   56.674  161.339
  578.054    5.886    0.443    0.317   54.540  159.787
  578.304    5.735    0.440    0.321   56.810  158.058
  578.554    5.753    0.443    0.319   59.197  156.291
  578.804    5.869    0.447    0.318   60.058  154.733
  579.054    5.987    0.459    0.327   58.533  152.977
  579.304    6.220    0.449    0.330   57.864  151.950
  579.554    6.618    0.432    0.329   57.875  151.028
  579.804    7.373    0.419    0.320   56.656  150.827
  580.054    8.458    0.404    0.302   54.705  151.874
  580.304    8.580    0.373    0.266   51.766  155.503
  580.554    8.390    0.297    0.169   47.426  159.658
  580.804    7.952    0.256    0.108   45.597  165.881
  581.054    7.468    0.341    0.158   51.598  160.401
  581.304    6.975    0.427    0.294   53.317  151.082
  581.554    6.408    0.441    0.331   53.874  149.650
  581.804    5.769    0.442    0.329   55.226  151.329
  582.054    5.398    0.455    0.297   57.122  153.398
  582.304    5.526    0.473    0.306   60.249  157.229
  582.554    5.627    0.468    0.321   62.695  156.922
  582.804    5.646    0.451    0.333   65.331  153.528
  583.054    5.420    0.444    0.343   71.088  153.330
  583.304    4.576    0.444    0.339   75.741  154.995
  583.554    3.821    0.457    0.323   84.310  158.619
  583.804    3.138    0.473    0.325  100.773  162.243
  584.054    2.573    0.497    0.329  114.480  166.110
  584.304    2.316    0.549    0.318  116.202  167.345
  584.554    2.406    0.546    0.295  106.168  167.572
  584.804    2.528    0.474    0.299   87.274  166.333
  585.054    3.256    0.448    0.271   83.178  165.625
  585.304    3.798    0.436    0.281   88.266  162.921
  585.554    3.859    0.426    0.279   92.250  160.756
  585.804    3.887    0.473    0.244   94.335  166.766
  586.054    3.759    0.468    0.227   96.287  168.434
  586.304    3.609    0.457    0.229   98.376  168.038
  586.554    3.490    0.453    0.235   98.445  167.826
  586.804    3.515    0.455    0.232   95.016  168.053
  587.054    3.638    0.461    0.221   88.295  169.503
  587.304    3.936    0.485    0.216   81.017  171.702
  587.554    4.498    0.492    0.251   72.213  170.855
  587.804    5.095    0.493    0.282   64.144  166.721
  588.054    5.512    0.487    0.302   58.151  161.341
  588.304    6.095    0.454    0.321   56.263  158.871
  588.554    6.286    0.456    0.328   55.231  159.199
  588.804    6.237    0.470    0.323   53.395  159.813
  589.054    6.190    0.470    0.334   54.498  160.980
  589.304    6.154    0.456    0.336   56.953  161.487
  589.554    6.185    0.439    0.322   58.485  161.183
  589.804    6.240    0.440    0.306   58.676  160.573
  590.054    6.284    0.452    0.297   57.394  159.863
  590.304    6.433    0.450    0.298   55.258  159.374
  590.554    6.502    0.436    0.308   53.730  159.159
  590.804    6.560    0.420    0.317   52.584  158.746
  591.054    6.569    0.408    0.320   52.211  158.749
  591.304    6.591    0.412    0.297   51.605  158.663
  591.554    6.638    0.431    0.301   50.939  159.394
  591.804    6.746    0.446    0.319   50.761  161.163
  592.054    6.843    0.432    0.312   51.128  163.332
  592.304    6.841    0.438    0.316   51.565  164.183
  592.554    6.788    0.444    0.314   51.137  162.217
  592.804    6.662    0.437    0.303   51.324  161.599
  593.054    6.624    0.415    0.309   52.929  161.191
  593.304    6.573    0.416    0.323   54.461  161.415
  593.554    6.511    0.430    0.332   56.358  159.961
  593.804    6.472    0.440    0.334   59.179  156.355
  594.054    6.399    0.442    0.317   59.979  153.673
  594.304    6.349    0.432    0.316   59.312  151.598
  594.554    6.359    0.434    0.317   58.453  150.569
  594.804    6.368    0.443    0.316   57.910  150.284
  595.054    6.378    0.452    0.321   57.302  150.385
  595.304    6.434    0.462    0.330   56.754  151.018
  595.554    6.539    0.473    0.333   56.762  151.877
  595.804    6.634    0.464    0.331   56.887  152.267
  596.054    6.656    0.443    0.330   56.585  154.151
  596.304    6.605    0.432    0.318   56.531  156.638
  596.554    6.482    0.435    0.315   57.459  159.023
  596.804    6.178    0.446    0.319   58.924  160.792
  597.054    5.603    0.452    0.325   61.931  161.839
  597.304    5.185    0.456    0.325   67.499  162.477
  597.554    4.492    0.451    0.332   78.819  162.685
  597.804    4.134    0.470    0.327   88.493  164.045
  598.054    4.375    0.494    0.279   92.657  165.400
  598.304    4.707    0.513    0.258   88.137  166.534
  598.554    5.138    0.495    0.250   82.692  167.681
  598.804    5.651    0.504    0.248   82.456  167.385
  599.054    5.925    0.509    0.237   80.812  171.644
  599.304    6.133    0.485    0.261   76.223  171.857
  599.554    6.187    0.471    0.274   67.663  162.533
  599.804    6.231    0.459    0.293   60.577  159.434
  600.054    6.218    0.452    0.313   58.619  162.655
