~VERSION INFORMATION
 VERS.                 2.0:   CWLS LOG ASCII STANDARD -VERSION 2.0
 WRAP.                  NO:   ONE LINE PER DEPTH STEP
~WELL INFORMATION BLOCK
#MNEM.UNIT           DATA                    DESCRIPTION OF MNEMONIC
#---------    -------------------            -------------------------------
# Generated from Intellog Unique Number	CS_77_79/WELL/950
WELL.         AMOCO LEISMER                  : Well_name    - WELL
LOC .         00/10-12-079-08W4/0            : Location     - LOCATION
UWI .         00/10-12-079-08W4/0            : Uwi          - UNIQUE WELL ID
ENTR.         JHS                            : Entered      - ENTERED BY
SRVC.         SCHLUMBERGER                   : Scn          - SERVICE COMPANY
STRT.M        125                            : top_depth    - START DEPTH
STOP.M        350                            : bot_depth    - STOP DEPTH
STEP.M        0.25                           : increment    - STEP LENGTH
 NULL. -999.2500:NULL Value
~CURVE INFORMATION BLOCK
#MNEM UNIT       ERCB CURVE CODE    CURVE DESCRIPTION
#-----------   ------------------   ----------------------------------
DEPT.M        00 001 00 00         : DEPTH        - DEPTH
DPHI.V/V      00 890 00 00         : PHID         - DENSITY POROSITY (LIMESTONE)
NPHI.V/V      00 330 00 00         : PHIN         - NEUTRON POROSITY (LIMESTONE)
GR  .API      00 310 00 00         : GR           - GAMMA RAY
ILD .OHMM     00 120 00 00         : RESD         - DEEP RESISTIVITY (DIL)
RHOB.KG/M3    00 350 00 00         : DENS         - BULK DENSITY
~PARAMETER INFORMATION
#MNEM.UNIT           DATA             DESCRIPTION OF MNEMONIC
#---------         -----------     ------------------------------
GL  .M        568.82               : gl           - GROUND LEVEL ELEVATION
EREF.M        573                  : kb           - ELEVATION OF DEPTH REFERENCE
DATM.M        573                  : datum        - DATUM ELEVATION
TDD .M        355                  : tdd          - TOTAL DEPTH DRILLER
RUN .         ONE                  : Run          - RUN NUMBER
ENG .         BILL                 : Engineer     - RECORDING ENGINEER
WIT .         JIM                  : Witness      - WITNESSED BY
MUD .         GEL                  : Mud_type     - MUD TYPE
MATR.         LIMESTONE            : Logunit      - NEUTRON MATRIX
TMAX.C        23.5                 : BHT          - MAXIMUM RECORDED TEMPERATURE
BHTD.M        355                  : BHTDEP       - MAXIMUM RECORDED TEMPERATURE
MATR.         1                    : LOGUNIT      - NEUTRON MATRIX
RMT .C        25                   : MDTP         - TEMPERATURE OF MUD
NEUT.         1                    : NEUTRON      - NEUTRON TYPE
RESI.         0                    : RESIST       - RESISTIVITY TYPE
RMC .OHMM     0.25                 : RMC          - RESISTIVITY OF MUD CAKE
RMF .OHMM     0.25                 : RMF          - RESISTIVITY OF MUD FILTRATE
SUFT.C        15                   : SUFT         - SURFACE TEMPERATURE
~A  DEPTH     PHID     PHIN       GR     RESD     DENS
# ...
  234.500    0.293    0.523   78.751    6.367    0.000
  234.750    0.308    0.540   76.940    7.671    0.000
  235.000    0.311    0.486   81.210    8.114    0.000
  235.250    0.320    0.478   81.830    8.424    0.000
  235.500    0.305    0.495   83.669    8.587    0.000
  235.750    0.265    0.492   83.685    8.433    0.000
  236.000    0.274    0.477   81.277    7.980    0.000
  236.250    0.261    0.475   81.290    7.411    0.000
  236.500    0.252    0.481   83.127    6.883    0.000
  236.750    0.237    0.494   83.751    6.048    0.000
  237.000    0.266    0.515   83.767    5.938    0.000
  237.250    0.281    0.507   85.608    6.400    0.000
  237.500    0.279    0.504   85.626    7.025    0.000
  237.750    0.278    0.505   85.029    7.570    0.000
  238.000    0.283    0.507   83.834    8.626    0.000
  238.250    0.295    0.507   82.636    9.295    0.000
  238.500    0.300    0.500   80.828    9.831    0.000
  238.750    0.290    0.491   77.812   10.210    0.000
  239.000    0.289    0.476   77.216   10.404    0.000
  239.250    0.294    0.466   79.663   10.804    0.000
  239.500    0.297    0.483   76.034   10.809    0.000
  239.750    0.283    0.482   71.798   10.615    0.000
  240.000    0.273    0.472   69.994   10.422    0.000
  240.250    0.295    0.465   70.011   10.047    0.000
  240.500    0.301    0.463   72.455    9.334    0.000
  240.750    0.297    0.479   76.116    8.996    0.000
  241.000    0.284    0.468   80.383    8.513    0.000
  241.250    0.277    0.466   84.043    7.762    0.000
  241.500    0.258    0.491   85.275    7.344    0.000
  241.750    0.259    0.499   84.682    6.695    0.000
  242.000    0.273    0.501   85.305    6.219    0.000
  242.250    0.280    0.516   86.535    5.885    0.000
  242.500    0.273    0.499   84.732    5.569    0.000
  242.750    0.275    0.490   85.962    5.470    0.000
  243.000    0.268    0.497   87.195    5.272    0.000
  243.250    0.261    0.524   86.599    5.177    0.000
  243.500    0.259    0.536   86.616    5.084    0.000
  243.750    0.280    0.508   89.065    5.379    0.000
  244.000    0.273    0.503   92.117    5.481    0.000
  244.250    0.265    0.488   95.174    5.284    0.000
  244.500    0.285    0.485   97.004    4.907    0.000
  244.750    0.271    0.552   98.846    4.474    0.000
  245.000    0.276    0.586   97.648    4.005    0.000
  245.250    0.295    0.592   96.451    3.651    0.000
  245.500    0.308    0.581   97.679    3.268    0.000
  245.750    0.307    0.569   98.300    3.035    0.000
  246.000    0.301    0.575   98.317    3.036    0.000
  246.250    0.297    0.577   99.553    3.153    0.000
  246.500    0.298    0.559   95.316    3.659    0.000
  246.750    0.293    0.566   92.899    4.169    0.000
  247.000    0.292    0.585   92.917    4.577    0.000
  247.250    0.313    0.598   94.756    5.025    0.000
  247.500    0.324    0.545   92.948    5.619    0.000
  247.750    0.313    0.530   88.105    6.285    0.000
  248.000    0.299    0.550   83.874    7.295    0.000
  248.250    0.283    0.521   82.068    7.716    0.000
  248.500    0.289    0.494   86.333    8.161    0.000
  248.750    0.289    0.490   88.176    8.475    0.000
  249.000    0.279    0.497   87.580    8.639    0.000
  249.250    0.269    0.495   87.595    8.804    0.000
  249.500    0.291    0.507   88.827    8.807    0.000
  249.750    0.277    0.506   85.808    8.650    0.000
  250.000    0.274    0.495   85.821    8.184    0.000
  250.250    0.288    0.473   89.486    7.602    0.000
  250.500    0.269    0.481   90.714    6.931    0.000
  250.750    0.258    0.529   90.123    6.438    0.000
  251.000    0.293    0.514   90.139    6.322    0.000
  251.250    0.296    0.497   91.368    6.443    0.000
  251.500    0.274    0.502   92.600    6.690    0.000
  251.750    0.287    0.503   92.014    7.077    0.000
  252.000    0.281    0.489   88.385    7.347    0.000
  252.250    0.297    0.478   87.791    7.215    0.000
  252.500    0.271    0.484   89.636    6.955    0.000
  252.750    0.291    0.526   90.254    6.342    0.000
  253.000    0.296    0.530   92.093    5.891    0.000
  253.250    0.290    0.516   93.927    5.272    0.000
  253.500    0.298    0.500   96.371    4.631    0.000
  253.750    0.287    0.523   96.995    3.708    0.000
  254.000    0.326    0.586   98.229    2.968    0.000
  254.250    0.327    0.602   95.209    2.560    0.000
  254.500    0.317    0.614   94.615    2.249    0.000
  254.750    0.312    0.607   93.418    2.089    0.000
  255.000    0.329    0.595   94.647    2.090    0.000
  255.250    0.333    0.579   95.879    2.211    0.000
  255.500    0.312    0.571   94.682    2.382    0.000
  255.750    0.294    0.549   91.665    2.615    0.000
  256.000    0.290    0.533   89.854    3.092    0.000
  256.250    0.288    0.528   88.049    3.724    0.000
  256.500    0.281    0.516   83.815    4.570    0.000
  256.750    0.304    0.498   84.438    5.714    0.000
  257.000    0.295    0.469   84.455    6.883    0.000
  257.250    0.278    0.453   83.256    8.139    0.000
  257.500    0.231    0.424   81.452    9.273    0.000
  257.750    0.175    0.384   78.428   10.765    0.000
  258.000    0.158    0.365   74.193   11.599    0.000
  258.250    0.237    0.368   77.249   12.498    0.000
  258.500    0.352    0.359   82.123   13.980    0.000
  258.750    0.317    0.371   81.530   15.064    0.000
  259.000    0.216    0.379   73.653   16.231    0.000
  259.250    0.148    0.357   64.558   17.819    0.000
  259.500    0.068    0.305   56.072   20.302    0.000
  259.750    0.063    0.256   52.446   22.289    0.000
  260.000    0.081    0.246   50.644   21.484    0.000
  260.250    0.120    0.267   53.084   18.527    0.000
  260.500    0.155    0.327   68.890   14.292    0.000
  260.750    0.244    0.405   74.979   10.623    0.000
  261.000    0.313    0.493   78.643    8.826    0.000
  261.250    0.315    0.456   77.440    8.047    0.000
  261.500    0.313    0.441   78.067    8.052    0.000
  261.750    0.298    0.447   81.724    8.207    0.000
  262.000    0.287    0.480   85.995    8.363    0.000
  262.250    0.290    0.507   87.828    8.524    0.000
  262.500    0.298    0.498   87.853    8.852    0.000
  262.750    0.290    0.491   87.861    9.023    0.000
  263.000    0.288    0.477   90.918    9.026    0.000
  263.250    0.308    0.467   90.934    9.028    0.000
  263.500    0.287    0.464   93.985    9.033    0.000
  263.750    0.300    0.492   93.395    8.709    0.000
  264.000    0.281    0.477   91.588    8.394    0.000
  264.250    0.268    0.480   90.999    7.943    0.000
  264.500    0.274    0.480   91.621    7.516    0.000
  264.750    0.264    0.488   92.851    6.981    0.000
  265.000    0.259    0.505   93.473    6.485    0.000
  265.250    0.259    0.506   93.492    6.250    0.000
  265.500    0.247    0.510   92.290    6.139    0.000
  265.750    0.277    0.516   92.915    6.373    0.000
  266.000    0.273    0.500   94.756    6.868    0.000
  266.250    0.272    0.483   93.553    7.825    0.000
  266.500    0.281    0.467   93.572    8.590    0.000
  266.750    0.301    0.445   92.980    8.920    0.000
  267.000    0.293    0.435   89.962    8.761    0.000
  267.250    0.285    0.439   86.941    8.602    0.000
  267.500    0.281    0.450   83.314    8.140    0.000
  267.750    0.323    0.465   80.903    7.421    0.000
  268.000    0.307    0.479   83.342    6.893    0.000
  268.250    0.294    0.488   87.006    6.403    0.000
  268.500    0.282    0.506   85.202    6.059    0.000
  268.750    0.284    0.499   84.609    5.950    0.000
  269.000    0.280    0.495   86.443    6.064    0.000
  269.250    0.274    0.512   91.320    6.181    0.000
  269.500    0.261    0.529   95.586    6.183    0.000
  269.750    0.273    0.513   96.208    5.851    0.000
  270.000    0.262    0.517   90.155    5.334    0.000
  270.250    0.258    0.530   88.348    4.774    0.000
  270.500    0.268    0.497   89.578    4.689    0.000
  270.750    0.275    0.461   89.598    4.868    0.000
