~VERSION INFORMATION
 VERS.                 2.0:   CWLS LOG ASCII STANDARD -VERSION 2.0
 WRAP.                  NO:   ONE LINE PER DEPTH STEP
~WELL INFORMATION BLOCK
#MNEM.UNIT           DATA                    DESCRIPTION OF MNEMONIC
#---------    -------------------            -------------------------------
# Generated from Intellog Unique Number	CW_76_78/WELL/829
WELL.         GULF POC DROWNED 10-07         : Well_name    - WELL
LOC .         00/10-07-077-21W4/0            : Location     - LOCATION
UWI .         00/10-07-077-21W4/0            : Uwi          - UNIQUE WELL ID
ENTR.         os                             : Entered      - ENTERED BY
SRVC.         SCHLUMBERGER                   : Scn          - SERVICE COMPANY
DATE.         12 MAR 1978                    : Date         - LOG DATE
STRT.M        429.768                        : top_depth    - START DEPTH
STOP.M        637.018                        : bot_depth    - STOP DEPTH
STEP.M        0.25                           : increment    - STEP LENGTH
 NULL. -999.2500:NULL Value
~CURVE INFORMATION BLOCK
#MNEM UNIT       ERCB CURVE CODE    CURVE DESCRIPTION
#-----------   ------------------   ----------------------------------
DEPT.M        00 001 00 00         : DEPTH        - DEPTH
ILD .OHMM     00 120 00 00         : RESD         - DEEP RESISTIVITY (DIL)
NPHI.V/V      00 330 00 00         : PHIN         - NEUTRON POROSITY (SANDSTONE)
DPHI.V/V      00 890 00 00         : PHID         - DENSITY POROSITY (SANDSTONE)
GR  .API      00 310 00 00         : GR           - GAMMA RAY
CALI.MM       00 280 01 00         : CAL          - CALIPER
~PARAMETER INFORMATION
#MNEM.UNIT           DATA             DESCRIPTION OF MNEMONIC
#---------         -----------     ------------------------------
GL  .M        752.856              : gl           - GROUND LEVEL ELEVATION
EREF.M        758.342              : kb           - ELEVATION OF DEPTH REFERENCE
DATM.M        752.856              : datum        - DATUM ELEVATION
TDD .M        641.299              : tdd          - TOTAL DEPTH DRILLER
RUN .         ONE                  : Run          - RUN NUMBER
ENG .         DEROCHIER            : Engineer     - RECORDING ENGINEER
WIT .         ROZENHART            : Witness      - WITNESSED BY
BASE.         EDMONTON             : Branch       - HOME BASE OF LOGGING UNIT
MUD .         GEL CHEM             : Mud_type     - MUD TYPE
MATR.         SANDSTONE            : Logunit      - NEUTRON MATRIX
TMAX.C        22.7778              : BHT          - MAXIMUM RECORDED TEMPERATURE
BHTD.M        640.69               : BHTDEP       - MAXIMUM RECORDED TEMPERATURE
RMT .C        18.3333              : MDTP         - TEMPERATURE OF MUD
MUDD.KG/M     1092                 : MWT          - MUD DENSITY
NEUT.         1                    : NEUTRON      - NEUTRON TYPE
RESI.         0                    : RESIST       - RESISTIVITY TYPE
RM  .OHMM     5.72                 : RM           - RESISTIVITY OF MUD
RMC .OHMM     0.25                 : RMC          - RESISTIVITY OF MUD CAKE
RMF .OHMM     6.77                 : RMF          - RESISTIVITY OF MUD FILTRATE
SUFT.C        4.5                  : SUFT         - SURFACE TEMPERATURE
~A  DEPTH     RESD     PHIN     PHID       GR      CAL
  429.768    2.543    0.522    0.189  122.807  156.994
  430.018    2.553    0.524    0.196  122.120  160.584
  430.268    2.602    0.508    0.201  118.440  162.379
  430.518    2.712    0.511    0.207  114.822  163.329
  430.768    2.799    0.515    0.202  115.445  162.483
  431.018    2.890    0.503    0.187  113.199  161.426
  431.268    3.096    0.495    0.183  109.207  161.847
  431.518    3.469    0.488    0.199  104.467  162.375
  431.768    3.807    0.464    0.183  104.092  162.585
  432.018    3.967    0.443    0.155  108.957  162.585
  432.268    4.065    0.406    0.100  113.571  162.795
  432.518    4.074    0.412    0.100  125.047  164.062
  432.768    3.993    0.456    0.178  132.531  165.962
  433.018    3.737    0.466    0.160  131.969  165.433
  433.268    3.516    0.473    0.180  130.160  163.954
  433.518    3.296    0.467    0.198  123.736  162.580
  433.768    3.310    0.462    0.201  120.928  162.579
  434.018    3.132    0.481    0.214  116.999  163.952
  434.268    2.963    0.491    0.204  112.632  163.740
  434.518    2.727    0.497    0.198  109.576  165.006
  434.768    2.570    0.511    0.198  111.259  165.533
  435.018    2.352    0.530    0.200  110.697  164.265
  435.268    2.193    0.542    0.203  113.192  163.737
  435.518    2.098    0.550    0.224  115.624  163.102
  435.768    2.178    0.559    0.248  114.251  164.685
  436.018    2.431    0.573    0.257  100.405  165.635
  436.268    3.182    0.539    0.277   85.810  166.057
  436.518    4.128    0.500    0.284   78.262  164.472
  436.768    5.111    0.454    0.267   68.532  163.837
  437.018    7.922    0.438    0.268   66.598  164.787
  437.268    9.211    0.425    0.260   70.215  163.097
  437.518    9.112    0.426    0.249   75.142  163.307
  437.768    8.686    0.443    0.257   75.141  163.306
  438.018    8.341    0.451    0.255   74.704  162.461
  438.268    7.834    0.442    0.265   73.519  162.354
  438.518    7.317    0.441    0.274   80.691  163.832
  438.768    6.975    0.442    0.251   89.672  164.993
  439.018    6.786    0.449    0.224   88.736  164.042
  439.268    6.941    0.453    0.240   83.684  162.563
  439.518    7.689    0.443    0.246   79.255  162.984
  439.768    8.923    0.431    0.250   76.635  162.561
  440.018   10.033    0.437    0.239   74.888  160.342
  440.268   10.750    0.447    0.242   78.817  161.398
  440.518   10.342    0.457    0.285   84.430  161.819
  440.768    9.482    0.446    0.300   87.735  160.974
  441.018    8.222    0.436    0.285   91.601  160.867
  441.268    7.078    0.451    0.266   97.276  161.923
  441.518    6.253    0.473    0.221   98.087  161.816
  441.768    6.049    0.499    0.253   89.666  161.287
  442.018    5.324    0.466    0.275   87.670  162.237
  442.268    4.774    0.436    0.254   96.713  163.821
  442.518    4.117    0.452    0.205  111.432  164.242
  442.768    3.637    0.481    0.190  122.471  162.763
  443.018    3.611    0.486    0.196  113.240  160.967
  443.268    4.175    0.434    0.205   94.591  161.811
  443.518    5.228    0.418    0.222   91.035  161.916
  443.768    6.180    0.430    0.247   85.235  161.387
  444.018    6.808    0.453    0.270   73.696  160.330
  444.268    7.214    0.461    0.300   69.454  158.428
  444.518    8.294    0.443    0.293   65.462  162.230
  444.768    8.969    0.429    0.276   70.451  163.496
  445.018    9.556    0.422    0.274   71.324  161.595
  445.268   10.926    0.422    0.268   69.390  161.277
  445.518   10.749    0.432    0.285   68.017  161.910
  445.768   10.477    0.431    0.312   72.196  160.536
  446.018   10.006    0.413    0.290   77.247  162.753
  446.268    9.380    0.406    0.249   83.733  162.858
  446.518    8.318    0.411    0.234   93.400  162.752
  446.768    7.739    0.432    0.218   98.763  162.962
  447.018    7.419    0.445    0.212   96.518  161.272
  447.268    7.449    0.450    0.232   85.041  156.729
  447.518    7.849    0.444    0.262   79.864  155.250
  447.768    8.924    0.450    0.276   76.558  153.771
  448.018    9.758    0.438    0.292   74.125  152.714
  448.268    9.762    0.422    0.283   75.185  151.974
  448.518    9.340    0.420    0.250   82.794  151.022
  448.768    8.756    0.426    0.253   87.159  149.754
  449.018    8.178    0.438    0.245   85.599  150.493
  449.268    8.030    0.451    0.247   82.605  150.492
  449.518    8.430    0.455    0.273   80.422  150.280
  449.768    8.982    0.440    0.284   76.367  149.857
  450.018    9.606    0.439    0.302   74.808  151.018
  450.268    9.717    0.434    0.300   75.556  152.496
  450.518    9.739    0.438    0.280   78.050  154.184
  450.768    9.652    0.438    0.287   77.737  153.762
  451.018    9.513    0.445    0.293   79.359  155.450
  451.268    9.376    0.445    0.278   84.348  158.196
  451.518    8.676    0.428    0.250   90.896  159.673
  451.768    7.708    0.420    0.212  100.438  158.511
  452.018    6.696    0.425    0.199  108.671  156.503
  452.268    6.588    0.428    0.216  111.415  156.080
  452.518    6.890    0.413    0.224  108.296  157.664
  452.768    7.549    0.398    0.217  105.114  158.085
  453.018    8.472    0.408    0.207  107.048  157.451
  453.268    8.633    0.427    0.213  111.725  156.817
  453.518    8.431    0.431    0.235  108.980  159.034
  453.768    8.576    0.413    0.246  108.418  159.139
  454.018    9.003    0.420    0.228  110.289  157.765
  454.268    9.006    0.415    0.243  110.164  159.031
  454.518    9.437    0.415    0.244  104.799  161.037
  454.768    9.742    0.409    0.245  100.371  159.980
  455.018    9.674    0.394    0.236   97.501  161.775
  455.268   10.062    0.379    0.241   94.070  161.986
  455.518   10.465    0.385    0.260   91.014  161.774
  455.768   10.765    0.387    0.275   89.267  161.350
  456.018   10.930    0.385    0.287   87.583  162.722
  456.268   10.954    0.390    0.277   85.212  163.989
  456.518   10.937    0.389    0.278   86.272  162.510
  456.768   10.940    0.398    0.279   94.005  162.509
  457.018   10.507    0.405    0.264   96.250  162.191
  457.268   10.166    0.415    0.266   98.495  163.563
  457.518    9.854    0.426    0.277   97.871  163.140
  457.768    9.534    0.427    0.291   92.819  162.717
  458.018    9.223    0.405    0.290   95.251  163.350
  458.268    8.825    0.406    0.255   95.687  164.194
  458.518    8.522    0.408    0.238   98.243  163.666
  458.768    8.230    0.412    0.223  100.551  162.714
  459.018    7.977    0.416    0.234  105.353  162.502
  459.268    7.761    0.420    0.244  104.853  161.762
  459.518    7.678    0.397    0.240  102.919  161.233
  459.768    7.752    0.406    0.246  102.170  160.916
  460.018    7.798    0.419    0.229  104.228  161.126
  460.268    7.070    0.430    0.225  105.912  159.013
  460.518    5.897    0.447    0.252  101.358  159.540
  460.768    5.028    0.438    0.252  101.607  160.490
  461.018    3.731    0.452    0.214  108.779  159.645
  461.268    3.095    0.481    0.161  128.051  160.172
  461.518    2.562    0.502    0.139  135.473  161.016
  461.768    2.497    0.527    0.143  140.524  160.909
  462.018    2.535    0.539    0.154  145.015  160.698
  462.268    2.608    0.562    0.162  148.257  161.331
  462.518    2.585    0.557    0.174  149.567  161.752
  462.768    2.473    0.564    0.199  153.995  161.329
  463.018    2.397    0.564    0.183  153.557  162.067
  463.268    2.407    0.532    0.177  151.125  163.334
  463.518    2.608    0.524    0.156  151.311  162.594
  463.768    2.841    0.524    0.176  151.498  161.432
  464.018    3.219    0.508    0.199  151.747  161.747
  464.268    3.532    0.496    0.207  149.065  162.169
  464.518    4.099    0.464    0.223  141.642  162.802
  464.768    4.669    0.443    0.214  140.581  165.864
  465.018    4.929    0.448    0.203  136.277  166.391
  465.268    4.867    0.449    0.193  130.289  165.862
  465.518    4.639    0.445    0.197  130.975  165.123
  465.768    4.489    0.439    0.177  127.981  164.911
  466.018    4.765    0.438    0.176  123.677  165.438
