~VERSION INFORMATION
 VERS.                 2.0:   CWLS LOG ASCII STANDARD -VERSION 2.0
 WRAP.                  NO:   ONE LINE PER DEPTH STEP
~WELL INFORMATION BLOCK
#MNEM.UNIT           DATA                    DESCRIPTION OF MNEMONIC
#---------    -------------------            -------------------------------
# Generated from Intellog Unique Number	CS_73_76/WELL/2184
WELL.         BOW VALLEY EXPLORATION         : Well_name    - WELL
LOC .         00/10-06-074-15W4/0            : Location     - LOCATION
UWI .         00/10-06-074-15W4/0            : Uwi          - UNIQUE WELL ID
ENTR.         SP                             : Entered      - ENTERED BY
SRVC.         SCHLUMBERGER                   : Scn          - SERVICE COMPANY
STRT.M        286.512                        : top_depth    - START DEPTH
STOP.M        493.512                        : bot_depth    - STOP DEPTH
STEP.M        0.25                           : increment    - STEP LENGTH
 NULL. -999.2500:NULL Value
~CURVE INFORMATION BLOCK
#MNEM UNIT       ERCB CURVE CODE    CURVE DESCRIPTION
#-----------   ------------------   ----------------------------------
DEPT.M        00 001 00 00         : DEPTH        - DEPTH
GR  .API      00 310 00 00         : GR           - GAMMA RAY
DPHI.V/V      00 890 00 00         : PHID         - DENSITY POROSITY (SANDSTONE)
NPHI.V/V      00 330 00 00         : PHIN         - NEUTRON POROSITY (SANDSTONE)
ILD .OHMM     00 120 00 00         : RESD         - DEEP RESISTIVITY (DIL)
~PARAMETER INFORMATION
#MNEM.UNIT           DATA             DESCRIPTION OF MNEMONIC
#---------         -----------     ------------------------------
GL  .M        10                   : gl           - GROUND LEVEL ELEVATION
EREF.M        637.337              : kb           - ELEVATION OF DEPTH REFERENCE
DATM.M        10                   : datum        - DATUM ELEVATION
TDD .M        484.327              : tdd          - TOTAL DEPTH DRILLER
RUN .         ONE                  : Run          - RUN NUMBER
ENG .         BILL                 : Engineer     - RECORDING ENGINEER
WIT .         JIM                  : Witness      - WITNESSED BY
MUD .         GEL                  : Mud_type     - MUD TYPE
MATR.         SANDSTONE            : Logunit      - NEUTRON MATRIX
TMAX.C        22.2222              : BHT          - MAXIMUM RECORDED TEMPERATURE
BHTD.M        469.087              : BHTDEP       - MAXIMUM RECORDED TEMPERATURE
MATR.         1                    : LOGUNIT      - NEUTRON MATRIX
RMT .C        25                   : MDTP         - TEMPERATURE OF MUD
NEUT.         1                    : NEUTRON      - NEUTRON TYPE
RESI.         0                    : RESIST       - RESISTIVITY TYPE
RMC .OHMM     0.25                 : RMC          - RESISTIVITY OF MUD CAKE
RMF .OHMM     0.25                 : RMF          - RESISTIVITY OF MUD FILTRATE
SUFT.C        15                   : SUFT         - SURFACE TEMPERATURE
~A  DEPTH       GR     PHID     PHIN     RESD
# ...
  417.012   60.715    0.291    0.347    9.139
  417.262   58.739    0.260    0.294   10.655
  417.512   55.864    0.209    0.180   12.286
  417.762   58.767    0.055    0.170   13.476
  418.012   65.857    0.045    0.266   13.436
  418.262   70.036    0.218    0.450   12.380
  418.512   71.804    0.276    0.457   11.093
  418.762   69.981    0.290    0.457   10.181
  419.012   64.820    0.267    0.444    8.779
  419.262   59.217    0.266    0.407    7.554
  419.512   54.257    0.249    0.350    7.908
  419.762   50.308    0.202    0.312    9.422
  420.012   48.596    0.142    0.203   11.267
  420.262   48.986    0.081    0.168   13.691
  420.512   53.912    0.032    0.160   15.091
  420.762   58.725    0.021    0.191   14.028
  421.012   65.262    0.043    0.457   11.964
  421.262   68.663    0.162    0.451    9.948
  421.512   70.028    0.305    0.450    7.481
  421.762   70.573    0.299    0.447    6.584
  422.012   70.201    0.283    0.445    6.408
  422.262   70.197    0.273    0.455    6.394
  422.512   70.159    0.279    0.466    6.578
  422.762   70.826    0.294    0.483    6.642
  423.012   71.994    0.292    0.496    6.770
  423.262   73.621    0.292    0.502    6.729
  423.512   76.674    0.291    0.510    6.647
  423.762   78.249    0.282    0.496    6.341
  424.012   75.354    0.289    0.484    5.896
  424.262   71.331    0.291    0.475    5.845
  424.512   68.419    0.300    0.504    5.770
  424.762   67.919    0.293    0.527    5.839
  425.012   68.810    0.298    0.512    6.038
  425.262   70.956    0.302    0.487    6.090
  425.512   75.317    0.289    0.468    6.159
  425.762   79.334    0.289    0.464    5.958
  426.012   85.834    0.283    0.471    5.882
  426.262   88.311    0.262    0.474    5.622
  426.512   88.192    0.232    0.478    5.508
  426.762   91.845    0.226    0.494    5.510
  427.012   91.026    0.242    0.503    5.603
  427.262   87.691    0.248    0.493    5.775
  427.512   89.772    0.259    0.481    5.952
  427.762   90.712    0.267    0.471    6.130
  428.012   89.629    0.253    0.464    6.267
  428.262   88.352    0.260    0.476    6.390
  428.512   87.828    0.264    0.468    6.370
  428.762   86.839    0.269    0.463    6.521
  429.012   84.846    0.256    0.467    6.380
  429.262   84.180    0.263    0.475    6.395
  429.512   86.157    0.245    0.483    6.258
  429.762   89.011    0.249    0.501    6.154
  430.012   90.848    0.260    0.499    6.150
  430.262   89.585    0.248    0.486    6.147
  430.512   89.716    0.236    0.499    6.146
  430.762   91.451    0.224    0.489    6.146
  431.012   94.005    0.234    0.475    6.147
  431.262   94.660    0.242    0.476    6.053
  431.512   93.246    0.235    0.496    6.034
  431.762   92.697    0.239    0.498    6.031
  432.012   90.801    0.238    0.502    5.950
  432.262   88.169    0.225    0.488    5.922
  432.512   90.274    0.229    0.480    5.917
  432.762   97.126    0.234    0.482    5.856
  433.012  100.719    0.245    0.478    5.659
  433.262  102.911    0.228    0.490    5.312
  433.512  100.624    0.223    0.499    5.094
  433.762   93.685    0.222    0.486    5.019
  434.012   86.084    0.229    0.468    4.990
  434.262   82.320    0.244    0.463    5.381
  434.512   80.832    0.271    0.484    5.952
  434.762   79.619    0.296    0.489    6.417
  435.012   80.397    0.274    0.479    6.779
  435.262   80.360    0.252    0.470    6.974
  435.512   79.681    0.235    0.475    7.107
  435.762   80.547    0.258    0.467    7.097
  436.012   82.116    0.266    0.458    7.102
  436.262   83.857    0.266    0.470    6.967
  436.512   84.125    0.276    0.485    6.809
  436.762   84.190    0.291    0.494    6.609
  437.012   81.231    0.296    0.503    6.413
  437.262   79.783    0.294    0.500    6.222
  437.512   79.172    0.293    0.500    6.027
  437.762   81.102    0.295    0.502    6.005
  438.012   81.700    0.282    0.482    6.129
  438.262   80.190    0.184    0.462    6.371
  438.512   75.322    0.139    0.391    7.140
  438.762   70.403    0.117    0.351    8.053
  439.012   66.990    0.105    0.322    8.620
  439.262   76.485    0.100    0.286    8.791
  439.512   86.868    0.094    0.349    8.110
  439.762   91.701    0.062    0.450    7.036
  440.012   91.620    0.188    0.473    6.412
  440.262   89.141    0.218    0.466    6.036
  440.512   88.807    0.221    0.460    5.885
  440.762   90.925    0.212    0.461    5.889
  441.012   91.913    0.200    0.453    5.979
  441.262   93.185    0.188    0.450    6.033
  441.512   91.379    0.197    0.464    6.228
  441.762   89.225    0.218    0.475    6.524
  442.012   83.920    0.208    0.475    7.075
  442.262   77.921    0.188    0.417    7.727
  442.512   72.794    0.160    0.319    8.559
  442.762   79.085    0.102    0.280    8.809
  443.012   86.693    0.069    0.307    8.380
  443.262   94.887    0.042    0.427    7.748
  443.512   92.966    0.125    0.451    7.167
  443.762   91.601    0.171    0.464    6.732
  444.012   93.228    0.181    0.459    6.518
  444.262   98.305    0.158    0.473    6.321
  444.512  101.768    0.186    0.486    6.121
  444.762  104.217    0.205    0.500    6.074
  445.012  104.718    0.179    0.522    5.879
  445.262  105.161    0.172    0.500    5.882
  445.512  104.568    0.160    0.471    5.900
  445.762  104.010    0.169    0.446    6.082
  446.012  107.541    0.179    0.432    6.403
  446.262  110.505    0.166    0.434    6.609
  446.512  112.443    0.170    0.434    6.801
  446.762  111.396    0.168    0.427    6.943
  447.012  109.410    0.200    0.422    6.927
  447.262  106.428    0.196    0.419    6.947
  447.512  104.756    0.199    0.418    6.595
  447.762  104.857    0.202    0.433    6.545
  448.012  103.317    0.197    0.455    6.119
  448.262  100.121    0.190    0.463    5.829
  448.512   97.733    0.198    0.449    5.558
  448.762   98.009    0.209    0.433    5.556
  449.012   99.858    0.163    0.447    5.550
  449.262  101.236    0.182    0.455    5.559
  449.512  102.931    0.188    0.453    5.195
  449.762  103.029    0.185    0.470    4.854
  450.012  100.911    0.194    0.517    4.164
  450.262  100.729    0.212    0.558    3.530
  450.512   97.626    0.231    0.577    3.064
  450.762   94.508    0.250    0.560    2.758
  451.012   92.696    0.244    0.550    2.428
  451.262   99.629    0.249    0.541    2.254
  451.512  104.298    0.231    0.567    2.184
  451.762  106.275    0.226    0.576    2.166
  452.012  103.420    0.218    0.579    2.095
  452.262  101.862    0.210    0.576    2.091
  452.512  103.253    0.206    0.565    2.140
  452.762  100.069    0.233    0.558    2.230
  453.012   97.562    0.227    0.531    2.575
  453.262   96.709    0.217    0.498    2.850
  453.512   96.342    0.198    0.471    3.496
  453.762   95.707    0.189    0.458    4.055
  454.012   96.793    0.188    0.445    4.710
  454.262   98.031    0.178    0.435    5.318
  454.512  101.398    0.162    0.455    5.605
  454.762  101.022    0.167    0.467    5.326
  455.012   97.234    0.190    0.427    6.011
  455.262   83.929    0.164    0.389    6.370
  455.512   78.784    0.145    0.360    6.996
  455.762   83.705    0.100    0.354    7.298
  456.012   87.033    0.044    0.386    7.395
  456.262   92.217    0.003    0.414    6.668
  456.512   96.901    0.093    0.453    5.446
  456.762  102.520    0.147    0.486    4.556
  457.012  105.534    0.189    0.507    3.993
  457.262  108.137    0.203    0.525    3.443
  457.512  110.693    0.211    0.535    3.241
  457.762  111.218    0.196    0.529    2.995
  458.012  111.839    0.188    0.541    2.824
  458.262  110.232    0.181    0.546    2.896
  458.512  104.871    0.192    0.525    3.089
  458.762  102.018    0.200    0.483    3.531
  459.012  100.079    0.191    0.467    4.062
  459.262   98.459    0.166    0.457    4.322
  459.512   97.599    0.162    0.458    4.801
  459.762   97.203    0.169    0.463    5.090
  460.012   96.371    0.167    0.466    5.229
  460.262   97.116    0.180    0.456    5.222
