~VERSION INFORMATION
 VERS.                 2.0:   CWLS LOG ASCII STANDARD -VERSION 2.0
 WRAP.                  NO:   ONE LINE PER DEPTH STEP
~WELL INFORMATION BLOCK
#MNEM.UNIT           DATA                    DESCRIPTION OF MNEMONIC
#---------    -------------------            -------------------------------
# Generated from Intellog Unique Number	CW_73_75/WELL/927
WELL.         MANNVILLE ALGAS MARTENH 10-18  : Well_name    - WELL
LOC .         00/10-18-074-24W4/0            : Location     - LOCATION
UWI .         00/10-18-074-24W4/0            : Uwi          - UNIQUE WELL ID
ENTR.         JAYE                           : Entered      - ENTERED BY
SRVC.         SCHLUMBERGER                   : Scn          - SERVICE COMPANY
DATE.         7 DEC 80                       : Date         - LOG DATE
STRT.M        415                            : top_depth    - START DEPTH
STOP.M        645                            : bot_depth    - STOP DEPTH
STEP.M        0.25                           : increment    - STEP LENGTH
 NULL. -999.2500:NULL Value
~CURVE INFORMATION BLOCK
#MNEM UNIT       ERCB CURVE CODE    CURVE DESCRIPTION
#-----------   ------------------   ----------------------------------
DEPT.M        00 001 00 00         : DEPTH        - DEPTH
ILD .OHMM     00 120 00 00         : RESD         - DEEP RESISTIVITY (DIL)
NPHI.V/V      00 330 00 00         : PHIN         - NEUTRON POROSITY (SANDSTONE)
DPHI.V/V      00 890 00 00         : PHID         - DENSITY POROSITY (SANDSTONE)
CALI.MM       00 280 01 00         : CAL          - CALIPER
GR  .API      00 310 00 00         : GR           - GAMMA RAY
~PARAMETER INFORMATION
#MNEM.UNIT           DATA             DESCRIPTION OF MNEMONIC
#---------         -----------     ------------------------------
GL  .M        686.4                : gl           - GROUND LEVEL ELEVATION
EREF.M        689.5                : kb           - ELEVATION OF DEPTH REFERENCE
DATM.M        686.4                : datum        - DATUM ELEVATION
TDD .M        644                  : tdd          - TOTAL DEPTH DRILLER
RUN .         ONE                  : Run          - RUN NUMBER
BASE.         EDM                  : Branch       - HOME BASE OF LOGGING UNIT
MUD .         GEL CHEM             : Mud_type     - MUD TYPE
MATR.         SANDSTONE            : Logunit      - NEUTRON MATRIX
TMAX.C        33.3                 : BHT          - MAXIMUM RECORDED TEMPERATURE
BHTD.M        645.2                : BHTDEP       - MAXIMUM RECORDED TEMPERATURE
RMT .C        12.8                 : MDTP         - TEMPERATURE OF MUD
MUDD.KG/M     1190                 : MWT          - MUD DENSITY
NEUT.         1                    : NEUTRON      - NEUTRON TYPE
RESI.         0                    : RESIST       - RESISTIVITY TYPE
RM  .OHMM     3.2                  : RM           - RESISTIVITY OF MUD
RMC .OHMM     0                    : RMC          - RESISTIVITY OF MUD CAKE
RMF .OHMM     2.13                 : RMF          - RESISTIVITY OF MUD FILTRATE
SUFT.C        0                    : SUFT         - SURFACE TEMPERATURE
~A  DEPTH     RESD     PHIN     PHID      CAL       GR
# ...
  597.500    4.156    0.360    0.121  154.927  112.509
  597.750    4.005    0.368    0.127  155.085  116.648
  598.000    4.139    0.388    0.121  155.242  108.472
  598.250    4.736    0.381    0.084  154.679   94.137
  598.500    6.103    0.379    0.132  153.393   87.577
  598.750   15.023    0.306    0.191  151.998   83.381
  599.000   25.259    0.231    0.230  150.699   70.975
  599.250   39.528    0.180    0.310  149.929   56.451
  599.500   51.324    0.150    0.376  149.160   45.538
  599.750   58.171    0.136    0.381  148.178   42.712
  600.000   58.660    0.138    0.374  147.513   41.312
  600.250   55.469    0.146    0.370  146.742   40.041
  600.500   52.165    0.148    0.370  145.858   39.081
  600.750   47.590    0.151    0.370  145.186   38.308
  601.000   43.919    0.155    0.370  144.732   36.598
  601.250   40.147    0.164    0.371  144.376   38.065
  601.500   36.625    0.170    0.370  144.011   41.644
  601.750   33.986    0.173    0.368  143.449   43.794
  602.000   31.842    0.175    0.365  143.401   44.448
  602.250   29.436    0.184    0.363  143.452   45.418
  602.500   27.841    0.191    0.359  143.417   46.694
  602.750   25.114    0.200    0.349  143.887   47.849
  603.000   22.402    0.208    0.339  144.352   49.751
  603.250   18.391    0.217    0.328  144.623   50.032
  603.500   13.764    0.231    0.313  144.680   48.451
  603.750   10.147    0.238    0.291  144.636   46.492
  604.000    8.112    0.232    0.198  144.273   45.470
  604.250    6.799    0.228    0.230  144.231   47.307
  604.500    5.963    0.236    0.284  144.180   50.143
  604.750    5.189    0.242    0.317  144.133   53.101
  605.000    4.816    0.258    0.294  143.983   54.442
  605.250    4.641    0.293    0.279  144.348   56.094
  605.500    4.592    0.356    0.268  144.310   59.609
  605.750    4.630    0.371    0.263  144.569   59.955
  606.000    4.669    0.352    0.257  144.838   59.492
  606.250    4.788    0.330    0.252  145.003   59.712
  606.500    4.866    0.337    0.254  146.299   60.991
  606.750    4.999    0.356    0.260  146.871   61.958
  607.000    5.079    0.370    0.253  146.415   62.489
  607.250    5.189    0.362    0.250  145.435   62.837
  607.500    5.291    0.366    0.246  144.248   63.552
  607.750    5.357    0.357    0.242  143.784   64.707
  608.000    5.421    0.357    0.238  143.525   65.117
  608.250    5.477    0.360    0.235  143.793   66.267
  608.500    5.502    0.351    0.217  143.750   69.663
  608.750    5.537    0.341    0.198  143.914   74.984
  609.000    5.563    0.335    0.179  143.960   78.255
  609.250    5.599    0.327    0.196  144.231   76.981
  609.500    5.635    0.326    0.213  144.806   75.770
  609.750    5.757    0.335    0.227  145.074   75.995
  610.000    5.938    0.337    0.225  145.436   76.463
  610.250    6.147    0.343    0.212  145.605   77.680
  610.500    6.223    0.338    0.213  145.759   81.011
  610.750    6.146    0.327    0.224  145.509   84.280
  611.000    5.978    0.330    0.227  145.139   84.004
  611.250    5.838    0.341    0.222  145.203   85.341
  611.500    5.931    0.336    0.213  145.269   88.551
  611.750    6.072    0.324    0.198  145.532   94.308
  612.000    6.443    0.321    0.187  145.790   98.136
  612.250    7.032    0.327    0.177  146.369   95.248
  612.500    6.998    0.322    0.172  147.458   97.646
  612.750    6.757    0.283    0.161  147.418  106.762
  613.000    6.222    0.260    0.120  147.681  116.252
  613.250    5.667    0.271    0.126  147.633  129.472
  613.500    5.112    0.300    0.151  148.204  140.954
  613.750    4.780    0.303    0.168  148.472  107.646
  614.000    4.495    0.289    0.190  148.223   91.942
  614.250    4.431    0.280    0.197  146.720   79.161
  614.500    4.451    0.272    0.180  145.220   67.563
  614.750    4.487    0.257    0.168  144.558   61.190
  615.000    4.534    0.242    0.162  144.399   59.794
  615.250    4.581    0.233    0.159  144.672   85.954
  615.500    4.575    0.242    0.154  145.035   95.693
  615.750    4.597    0.255    0.152  145.198  116.005
  616.000    4.591    0.260    0.155  145.363  131.966
  616.250    4.612    0.247    0.157  145.928  140.647
  616.500    4.597    0.235    0.164  146.304  136.327
  616.750    4.576    0.260    0.161  146.671  134.058
  617.000    4.502    0.278    0.148  146.938  110.951
  617.250    4.462    0.260    0.151  147.512   97.053
  617.500    4.475    0.250    0.154  148.193   95.159
  617.750    4.478    0.270    0.156  148.872  114.415
  618.000    4.524    0.281    0.134  149.444  128.443
  618.250    4.545    0.273    0.137  149.403  139.241
  618.500    4.565    0.260    0.151  148.107  133.801
  618.750    4.569    0.260    0.160  146.819  123.944
  619.000    4.546    0.272    0.140  146.554  112.036
  619.250    4.507    0.268    0.123  146.827  105.103
  619.500    4.468    0.268    0.089  147.197  123.613
  619.750    4.412    0.281    0.119  147.566  137.955
  620.000    4.342    0.289    0.209  147.831  136.745
  620.250    4.208    0.299    0.240  147.990  130.495
  620.500    4.109    0.316    0.213  148.362  151.244
  620.750    4.058    0.349    0.195  148.619  146.302
  621.000    4.069    0.357    0.186  149.301  135.450
  621.250    4.064    0.368    0.172  150.398  141.145
  621.500    4.045    0.388    0.150  150.869  158.287
  621.750    4.024    0.400    0.138  149.372  154.092
  622.000    3.997    0.362    0.165  147.561  140.128
  622.250    3.970    0.312    0.194  146.996  129.651
  622.500    3.951    0.305    0.203  147.465  124.334
  622.750    3.931    0.323    0.175  148.865  137.930
  623.000    3.927    0.375    0.181  149.859  117.996
  623.250    3.893    0.360    0.224  149.192   84.187
  623.500    3.882    0.331    0.262  147.798   70.228
  623.750    3.877    0.315    0.246  146.404   53.528
  624.000    3.939    0.305    0.222  146.356   61.214
  624.250    4.156    0.290    0.187  147.244   93.596
  624.500    4.393    0.312    0.123  148.957  138.792
  624.750    4.714    0.337    0.102  150.676  132.544
  625.000    4.450    0.363    0.141  152.189  109.747
  625.250    3.961    0.362    0.200  151.209   81.478
  625.500    3.560    0.328    0.234  148.052   67.326
  625.750    3.194    0.305    0.263  146.136   55.669
  626.000    2.854    0.316    0.267  145.567   69.636
  626.250    2.829    0.331    0.254  145.839   90.571
  626.500    3.031    0.339    0.205  146.198   97.636
  626.750    3.271    0.334    0.172  146.771   99.973
  627.000    3.464    0.293    0.183  146.941   89.121
  627.250    3.675    0.273    0.169  147.207   90.025
  627.500    3.834    0.319    0.118  147.879  211.923
  627.750    3.844    0.371    0.082  148.978  215.814
  628.000    3.698    0.407    0.010  150.378  198.804
  628.250    3.451    0.437   -0.023  150.651  157.221
  628.500    3.288    0.415   -0.066  149.978  146.928
  628.750    3.174    0.384    0.077  149.412  138.565
  629.000    3.207    0.337    0.112  149.160  179.345
  629.250    3.326    0.312    0.103  149.834  226.657
  629.500    3.431    0.302    0.109  150.413  237.950
  629.750    3.539    0.303    0.140  150.365  249.431
  630.000    3.629    0.307    0.174  150.215  206.542
  630.250    3.695    0.331    0.173  150.276  155.007
  630.500    3.719    0.343    0.165  150.333  136.939
  630.750    3.735    0.327    0.185  150.080  116.881
  631.000    3.780    0.318    0.162  150.135   82.515
  631.250    3.826    0.323    0.143  149.569   90.323
  631.500    3.866    0.335    0.160  146.205  163.888
  631.750    3.906    0.362    0.152  146.057  180.592
  632.000    3.916    0.383    0.138  146.730  177.642
  632.250    3.918    0.374    0.163  147.203  173.196
  632.500    3.943    0.346    0.174  147.679  215.905
  632.750    3.962    0.296    0.162  147.322  232.361
  633.000    3.995    0.302    0.150  146.033  198.680
  633.250    4.028    0.330    0.139  145.358  182.105
  633.500    4.031    0.384    0.164  145.524  116.449
  633.750    4.012    0.334    0.205  145.582   84.570
