~VERSION INFORMATION
 VERS.                 2.0:   CWLS LOG ASCII STANDARD -VERSION 2.0
 WRAP.                  NO:   ONE LINE PER DEPTH STEP
~WELL INFORMATION BLOCK
#MNEM.UNIT           DATA                    DESCRIPTION OF MNEMONIC
#---------    -------------------            -------------------------------
# Generated from Intellog Unique Number	CW_70_72/WELL/1033
NULL.         -999.25                        : NULL_VALUE
WELL.         CHIEFCO ET AL SMITH 10-09      : Well_name    - WELL              
LOC .         10-09-071-26W4                 : Location     - LOCATION          
UWI .         00/10-09-071-26W4/0            : Uwi          - UNIQUE WELL ID    
ENTR.         JAYE                           : Entered      - ENTERED BY        
SRVC.         SCHLUMBERGER                   : Scn          - SERVICE COMPANY   
DATE.         7 JAN 76                       : Date         - LOG DATE          
STRT.M        432.816                        : top_depth    - START DEPTH       
STOP.M        691.816                        : bot_depth    - STOP DEPTH        
STEP.M        0.25                           : increment    - STEP LENGTH       
~CURVE INFORMATION BLOCK
#MNEM UNIT       ERCB CURVE CODE    CURVE DESCRIPTION
#-----------   ------------------   ----------------------------------
DEPT.M        00 001 00 00         : DEPTH        - DEPTH                       
DPHI.V/V      00 890 00 00         : PHID         - DENSITY POROSITY (SANDSTONE)
NPHI.V/V      00 330 00 00         : PHIN         - NEUTRON POROSITY (SANDSTONE)
GR  .API      00 310 00 00         : GR           - GAMMA RAY                   
CALI.MM       00 280 01 00         : CAL          - CALIPER                     
ILD .OHMM     00 120 00 00         : RESD         - DEEP RESISTIVITY (DLL)      
~PARAMETER INFORMATION       
#MNEM.UNIT           DATA             DESCRIPTION OF MNEMONIC
#---------         -----------     ------------------------------
GL  .M        622.365              : gl           - GROUND LEVEL ELEVATION      
EREF.M        625.45               : kb           - ELEVATION OF DEPTH REFERENCE
DATM.M        622.365              : datum        - DATUM ELEVATION             
TDD .M        708.965              : tdd          - TOTAL DEPTH DRILLER         
RUN .         ONE                  : Run          - RUN NUMBER                  
ENG .         MCDONALD             : Engineer     - RECORDING ENGINEER          
WIT .         GARDINER             : Witness      - WITNESSED BY                
BASE.         EDM                  : Branch       - HOME BASE OF LOGGING UNIT   
MUD .         GEL CHEM             : Mud_type     - MUD TYPE                    
MATR.         SANDSTONE            : Logunit      - NEUTRON MATRIX              
TMAX.C        28.3333              : BHT          - MAXIMUM RECORDED TEMPERATURE
BHTD.M        709.27               : BHTDEP       - MAXIMUM RECORDED TEMPERATURE
RMT .C        21.6667              : MDTP         - TEMPERATURE OF MUD          
MUDD.KG/M     0                    : MWT          - MUD DENSITY                 
NEUT.         1                    : NEUTRON      - NEUTRON TYPE                
RESI.         1                    : RESIST       - RESISTIVITY TYPE            
RM  .OHMM     3.34                 : RM           - RESISTIVITY OF MUD          
RMC .OHMM     2.63                 : RMC          - RESISTIVITY OF MUD CAKE     
RMF .OHMM     2.81                 : RMF          - RESISTIVITY OF MUD FILTRATE 
SUFT.C        0                    : SUFT         - SURFACE TEMPERATURE         
~A  DEPTH     PHID     PHIN       GR      CAL     RESD
  432.816    0.140    0.528  103.505  210.877    2.278
  433.066    0.145    0.544  106.423  211.496    2.261
  433.316    0.169    0.553  102.837  214.276    2.259
  433.566    0.174    0.562   90.925  214.997    2.287
  433.816    0.183    0.528   81.141  212.631    2.392
  434.066    0.201    0.453   76.097  206.251    2.603
  434.316    0.221    0.415   70.627  192.359    2.880
  434.566    0.219    0.406   66.556  180.318    3.174
  434.816    0.216    0.416   67.407  172.498    3.537
  435.066    0.242    0.419   66.618  170.029    3.913
  435.316    0.229    0.407   64.005  168.795    4.297
  435.566    0.223    0.392   60.967  168.178    4.737
  435.816    0.311    0.373   57.078  168.076    5.288
  436.066    0.314    0.356   56.045  168.180    5.829
  436.316    0.297    0.363   56.410  168.490    6.230
  436.566    0.242    0.385   55.499  168.800    6.410
  436.816    0.218    0.408   57.809  169.521    6.360
  437.066    0.196    0.428   64.009  170.346    5.690
  437.316    0.171    0.436   71.364  171.479    4.752
  437.566    0.157    0.450   78.050  174.361    4.160
  437.816    0.176    0.471   86.256  177.862    3.662
  438.066    0.172    0.498   91.422  180.847    3.318
  438.316    0.195    0.510   87.472  183.627    3.107
  438.566    0.212    0.476   86.075  185.069    3.122
  438.816    0.218    0.461   83.402  183.938    3.385
  439.066    0.288    0.449   78.540  179.204    3.821
  439.316    0.310    0.478   77.264  172.207    4.415
  439.566    0.286    0.526   79.878  170.870    4.567
  439.816    0.258    0.426   80.304  171.077    4.539
  440.066    0.238    0.403   77.448  170.769    4.496
  440.316    0.260    0.390   69.669  170.359    4.542
  440.566    0.258    0.383   68.151  169.742    4.776
  440.816    0.246    0.395   66.389  169.846    5.188
  441.066    0.220    0.404   63.715  170.053    5.596
  441.316    0.230    0.381   59.947  170.157    6.408
  441.566    0.193    0.359   56.180  171.084    7.258
  441.816    0.149    0.318   52.777  172.629    8.356
  442.066    0.102    0.272   49.252  173.556    9.709
  442.316    0.045    0.223   48.159  173.043   11.118
  442.566    0.071    0.311   50.712  170.368   12.034
  442.816    0.129    0.366   56.669  169.957   10.516
  443.066    0.191    0.404   62.687  170.576    7.963
  443.316    0.211    0.413   67.975  171.606    6.471
  443.566    0.201    0.427   74.053  172.430    5.404
  443.816    0.200    0.448   78.248  173.049    4.706
  444.066    0.175    0.474   81.469  173.770    4.031
  444.316    0.191    0.455   77.702  174.183    3.620
  444.566    0.207    0.434   77.398  174.390    3.352
  444.816    0.195    0.447   78.554  174.700    3.231
  445.066    0.193    0.424   80.621  175.010    3.258
  445.316    0.195    0.426   84.937  175.113    3.347
  445.566    0.192    0.427   89.739  176.246    3.443
  445.816    0.185    0.417   82.507  178.820    3.504
  446.066    0.180    0.427   84.270  181.909    3.371
  446.316    0.175    0.498   86.216  189.423    3.191
  446.566    0.201    0.534   84.879  196.937    2.949
  446.816    0.260    0.448   64.397  205.377    2.731
  447.066    0.293    0.421   47.745  192.410    2.525
  447.316    0.289    0.405   38.203  174.092    2.309
  447.566    0.275    0.401   36.624  170.697    2.127
  447.816    0.268    0.406   36.321  170.595    2.020
  448.066    0.267    0.396   38.813  171.111    1.943
  448.316    0.262    0.403   42.096  171.318    1.921
  448.566    0.248    0.410   43.616  171.422    1.941
  448.816    0.255    0.403   44.467  171.834    1.983
  449.066    0.270    0.385   50.728  172.247    2.066
  449.316    0.285    0.371   56.685  172.248    2.165
  449.566    0.266    0.367   61.608  172.558    2.421
  449.816    0.257    0.364   68.963  174.720    2.692
  450.066    0.226    0.363   86.164  177.603    2.821
  450.316    0.204    0.381   96.800  188.307    3.059
  450.566    0.192    0.476  102.028  196.233    3.246
  450.816    0.168    0.497  106.101  206.525    3.482
  451.066    0.139    0.494  105.129  218.876    3.596
  451.316    0.156    0.478  100.936  203.131    3.620
  451.566    0.190    0.488  102.942  203.132    3.578
  451.816    0.146    0.541  104.644  213.013    3.550
  452.066    0.181    0.530  105.010  220.733    3.549
  452.316    0.234    0.528  105.740  228.453    3.585
  452.566    0.254    0.518  105.740  212.810    3.629
  452.816    0.189    0.420  103.796  195.419    3.720
  453.066    0.197    0.385   98.023  184.716    3.862
  453.316    0.181    0.375   92.614  178.130    3.930
  453.566    0.124    0.370   88.968  173.089    4.000
  453.816    0.122    0.361   84.775  171.031    4.019
  454.066    0.145    0.355   80.825  170.209    4.017
  454.316    0.148    0.365   73.654  169.798    4.036
  454.566    0.188    0.382   67.698  169.594    4.034
  454.816    0.230    0.387   61.925  169.286    4.032
  455.066    0.229    0.361   63.019  168.978    4.030
  455.316    0.231    0.364   67.578  168.979    4.028
  455.566    0.197    0.372   69.888  169.186    4.010
  455.816    0.186    0.378   68.309  168.981    3.994
  456.066    0.198    0.371   65.149  168.982    3.912
  456.316    0.242    0.361   66.001  169.292    3.819
  456.566    0.207    0.349   69.040  171.454    3.776
  456.816    0.183    0.346   72.079  172.896    3.685
  457.066    0.173    0.355   75.058  173.926    3.630
  457.316    0.182    0.366   80.529  174.442    3.543
  457.566    0.177    0.380   86.607  174.237    3.446
  457.816    0.217    0.399   85.575  171.150    3.383
  458.066    0.211    0.382   75.851  168.990    3.320
  458.316    0.200    0.363   75.183  168.374    3.288
  458.566    0.180    0.348   77.371  170.021    3.268
  458.816    0.161    0.337   81.930  172.595    3.320
  459.066    0.113    0.331   88.252  176.301    3.478
  459.316    0.102    0.349   94.634  182.580    3.671
  459.566    0.131    0.379   96.093  190.918    3.916
  459.816    0.169    0.403   99.072  195.859    4.155
  460.066    0.123    0.413   98.708  196.477    4.290
  460.316    0.124    0.425   97.371  193.802    4.367
  460.566    0.118    0.421   95.974  190.201    4.419
  460.816    0.137    0.389   94.820  184.954    4.449
  461.066    0.159    0.358   94.031  182.073    4.470
  461.316    0.140    0.374   94.578  182.691    4.517
  461.566    0.110    0.384   95.430  184.648    4.547
  461.816    0.134    0.376   95.005  186.501    4.553
  462.066    0.158    0.386   94.641  187.120    4.542
  462.316    0.156    0.443   95.918  189.488    4.482
  462.566    0.136    0.409   96.222  200.295    4.447
  462.816    0.168    0.386   94.825  191.034    4.397
  463.066    0.142    0.418   98.837  194.019    4.347
  463.316    0.109    0.451  103.213  200.813    4.121
  463.566    0.136    0.412   97.501  204.622    3.922
  463.816    0.161    0.381   86.440  190.626    3.685
  464.066    0.141    0.376   77.810  176.425    3.345
  464.316    0.174    0.377   68.876  173.029    3.070
  464.566    0.191    0.376   66.750  171.178    2.828
  464.816    0.192    0.374   66.447  169.429    2.624
  465.066    0.209    0.385   64.928  169.122    2.421
  465.316    0.224    0.392   62.011  169.226    2.342
  465.566    0.241    0.371   65.840  169.330    2.320
  465.816    0.222    0.361   72.770  169.742    2.326
  466.066    0.199    0.381   76.721  170.464    2.351
  466.316    0.177    0.382   78.788  170.979    2.427
  466.566    0.185    0.377   76.904  171.186    2.534
  466.816    0.173    0.371   78.303  171.599    2.645
  467.066    0.180    0.369   81.403  171.497    2.716
  467.316    0.176    0.379   82.133  171.498    2.774
  467.566    0.168    0.388   76.238  171.190    2.778
  467.816    0.170    0.393   70.404  170.574    2.756
  468.066    0.177    0.381   67.183  170.369    2.700
  468.316    0.185    0.367   68.217  170.061    2.631
  468.566    0.196    0.361   70.892  169.548    2.610
  468.816    0.200    0.367   73.142  169.343    2.642
  469.066    0.203    0.370   72.291  169.138    2.713
