~VERSION INFORMATION
 VERS.                 2.0:   CWLS LOG ASCII STANDARD -VERSION 2.0
 WRAP.                  NO:   ONE LINE PER DEPTH STEP
~WELL INFORMATION BLOCK
#MNEM.UNIT           DATA                    DESCRIPTION OF MNEMONIC
#---------    -------------------            -------------------------------
# Generated from Intellog Unique Number	cxy/WELL/1154
WELL.         HB MISTEMAE                    : Well_name    - WELL
LOC .         00/10-27-079-01W5/0            : Location     - LOCATION
UWI .         00/10-27-079-01W5/0            : Uwi          - UNIQUE WELL ID
ENTR.         T                              : Entered      - ENTERED BY
SRVC.         SCHLUMBERGER                   : Scn          - SERVICE COMPANY
STRT.F        950                            : top_depth    - START DEPTH
STOP.F        1799.74                        : bot_depth    - STOP DEPTH
STEP.F        0.82                           : increment    - STEP LENGTH
 NULL. -999.2500:NULL Value
~CURVE INFORMATION BLOCK
#MNEM UNIT       ERCB CURVE CODE    CURVE DESCRIPTION
#-----------   ------------------   ----------------------------------
DEPT.F        00 001 00 00         : DEPTH        - DEPTH
CALI.IN       00 280 01 00         : CAL          - CALIPER
GR  .API      00 310 00 00         : GR           - GAMMA RAY
NPHI.V/V      00 330 00 00         : PHIN         - NEUTRON POROSITY (SANDSTONE)
ILD .OHMM     00 120 00 00         : RESD         - DEEP RESISTIVITY (DIL)
DPHI.V/V      00 890 00 00         : PHID         - DENSITY POROSITY (SANDSTONE)
~PARAMETER INFORMATION
#MNEM.UNIT           DATA             DESCRIPTION OF MNEMONIC
#---------         -----------     ------------------------------
GL  .F        1965                 : gl           - GROUND LEVEL ELEVATION
EREF.F        1978                 : kb           - ELEVATION OF DEPTH REFERENCE
DATM.F        1978                 : datum        - DATUM ELEVATION
TDD .F        1810                 : tdd          - TOTAL DEPTH DRILLER
RUN .         ONE                  : Run          - RUN NUMBER
ENG .         BILL                 : Engineer     - RECORDING ENGINEER
WIT .         JIM                  : Witness      - WITNESSED BY
MUD .         GEL                  : Mud_type     - MUD TYPE
MATR.         SANDSTONE            : Logunit      - NEUTRON MATRIX
TMAX.F        78                   : BHT          - MAXIMUM RECORDED TEMPERATURE
BHTD.F        1810                 : BHTDEP       - MAXIMUM RECORDED TEMPERATURE
MATR.         1                    : LOGUNIT      - NEUTRON MATRIX
RMT .F        77                   : MDTP         - TEMPERATURE OF MUD
NEUT.         1                    : NEUTRON      - NEUTRON TYPE
RESI.         5.67                 : RESIST       - RESISTIVITY TYPE
RMC .OHMM     5.67                 : RMC          - RESISTIVITY OF MUD CAKE
RMF .OHMM     5.67                 : RMF          - RESISTIVITY OF MUD FILTRATE
SUFT.F        4                    : SUFT         - SURFACE TEMPERATURE
~A  DEPTH      CAL       GR     PHIN     RESD     PHID
# ...
 1668.500    8.002   99.211    0.353   16.332    0.174
 1669.320    8.002   99.805    0.356   14.633    0.162
 1670.140    8.003  100.993    0.373   13.353    0.150
 1670.960    8.003  100.411    0.451   11.748    0.178
 1671.780    7.964   93.331    0.463   11.121    0.186
 1672.600    7.965   86.251    0.419   10.922    0.202
 1673.430    7.965   80.353    0.394   10.725    0.197
 1674.250    7.965   75.635    0.401   11.129    0.195
 1675.070    7.966   77.418    0.400   11.980    0.201
 1675.890    7.966   79.195    0.398   12.897    0.215
 1676.710    7.927   91.013    0.400   14.139    0.221
 1677.530    7.888   92.201    0.410   13.886    0.214
 1678.350    7.849   88.665    0.479   12.906    0.215
 1679.170    7.849   80.404    0.452   11.778    0.243
 1679.990    7.810   81.594    0.433   11.149    0.249
 1680.810    7.811   84.554    0.426   10.555    0.268
 1681.630    7.811   83.972    0.415   11.155    0.261
 1682.450    7.772   85.751    0.399   12.458    0.237
 1683.270    7.772   86.941    0.389   12.690    0.225
 1684.090    7.773   87.539    0.386   12.463    0.218
 1684.910    7.773   87.544    0.374   12.016    0.210
 1685.730    7.774   87.555    0.365   11.169    0.204
 1686.550    7.735   86.968    0.355   10.194    0.200
 1687.370    7.735   86.386    0.350    9.828    0.195
 1688.190    7.735   85.802    0.349   10.198    0.189
 1689.010    7.736   85.219    0.353   10.582    0.177
 1689.830    7.736   84.045    0.359   10.585    0.171
 1690.650    7.737   82.280    0.366   10.394    0.160
 1691.470    7.737   87.602    0.371   10.398    0.148
 1692.290    7.738   95.289    0.376    9.844    0.139
 1693.110    7.699  101.792    0.409    9.666    0.176
 1693.930    7.699  108.886    0.443    9.151    0.178
 1694.750    7.700  114.208    0.471    8.664    0.189
 1695.570    7.700  119.531    0.495    8.665    0.225
 1696.390    7.700  121.313    0.464    8.510    0.236
 1697.210    7.701  120.730    0.416    8.670    0.213
 1698.030    7.701  117.782    0.402    8.832    0.199
 1698.850    7.702  114.246    0.393    8.674    0.185
 1699.670    7.702  106.575    0.383    8.676    0.168
 1700.490    7.703  101.267    0.372    8.678    0.159
 1701.310    7.703   94.781    0.365    8.842    0.152
 1702.130    7.703   94.198    0.365    9.176    0.145
 1702.950    7.823   94.795    0.366    9.347    0.136
 1703.770    7.902   96.574    0.371    9.349    0.133
 1704.590    7.903   98.351    0.375    9.351    0.133
 1705.410    7.943  101.315    0.383    9.183    0.133
 1706.230    7.983  101.912    0.389    8.856    0.136
 1707.050    7.983  104.282    0.392    8.081    0.143
 1707.870    7.984  106.061    0.395    5.300    0.153
 1708.690    8.024  105.477    0.403    5.110    0.158
 1709.510    8.024  105.484    0.414    5.603    0.158
 1710.330    8.025  106.082    0.426    6.372    0.155
 1711.150    8.025  106.089    0.422    7.658    0.150
 1711.980    7.986  106.096    0.422    8.243    0.153
 1712.800    7.986  106.694    0.422    7.949    0.160
 1713.620    7.987  107.884    0.436    7.253    0.163
 1714.440    7.987  112.026    0.476    6.265    0.157
 1715.260    7.988  113.213    0.506    5.717    0.153
 1716.080    7.988  111.448    0.521    5.030    0.148
 1716.900    7.989  110.276    0.539    4.850    0.148
 1717.720    7.989  111.464    0.539    4.762    0.146
 1718.540    8.029  115.607    0.520    4.592    0.138
 1719.360    8.029  117.976    0.511    4.593    0.141
 1720.180    8.030  119.165    0.516    4.679    0.151
 1721.000    8.030  118.581    0.536    4.767    0.161
 1721.820    8.031  117.405    0.539    4.682    0.168
 1722.640    8.031  115.052    0.536    4.352    0.168
 1723.460    8.032  112.700    0.541    4.195    0.161
 1724.280    8.032  111.524    0.538    3.972    0.151
 1725.100    8.033  110.348    0.533    3.692    0.101
 1725.920    8.033  111.540    0.529    3.626    0.042
 1726.740    8.073  113.908    0.527    3.496    0.004
 1727.560    8.073  117.458    0.526    3.433    0.064
 1728.380    8.074  114.512    0.522    3.250    0.082
 1729.200    8.074  110.387    0.517    3.077    0.086
 1730.020    8.075  109.211    0.517    2.966    0.061
 1730.840    8.075  105.675    0.511    2.808    0.033
 1731.660    8.076  109.227    0.511    2.809    0.019
 1732.480    8.116  111.006    0.509    2.915    0.061
 1733.300    8.156  113.968    0.504    3.138    0.034
 1734.120    8.156  115.747    0.498    3.569    0.018
 1734.940    8.236  112.799    0.467    4.059    0.012
 1735.760    8.236  106.312    0.454    4.702    0.137
 1736.580    8.237  107.500    0.443    5.062    0.131
 1737.400    8.277  110.460    0.435    5.349    0.127
 1738.220    8.277  114.012    0.441    5.253    0.125
 1739.040    8.278  116.972    0.481    5.159    0.118
 1739.860    8.278  117.570    0.506    4.974    0.124
 1740.680    8.279  114.033    0.519    4.796    0.130
 1741.500    8.279  104.000    0.535    4.625    0.134
 1742.320    8.279   95.149    0.548    4.712    0.144
 1743.140    8.280   88.659    0.550    5.072    0.174
 1743.960    8.280   80.398    0.548    5.561    0.196
 1744.780    8.281   68.003    0.544    5.562    0.220
 1745.600    8.281   56.791    0.543    5.265    0.262
 1746.420    8.242   51.483    0.537    4.718    0.298
 1747.240    8.242   46.175    0.526    4.227    0.324
 1748.060    8.203   42.638    0.516    3.857    0.323
 1748.880    8.125   39.693    0.473    3.456    0.320
 1749.700    8.085   36.747    0.448    3.332    0.314
 1750.520    8.046   32.623    0.444    3.213    0.306
 1751.350    8.047   30.266    0.352    3.273    0.299
 1752.170    8.008   27.911    0.299    3.524    0.274
 1752.990    8.008   23.788    0.236    8.504    0.220
 1753.810    8.009   22.019    0.102   45.180    0.060
 1754.630    8.009   19.075    0.072   54.293    0.062
 1755.450    7.970   18.492    0.094   58.446    0.066
 1756.270    7.931   19.680    0.117   58.461    0.067
 1757.090    7.891   20.278    0.121   56.368    0.021
 1757.910    7.813   20.875    0.128   54.350   -0.005
 1758.730    7.734   21.473    0.137   47.816    0.002
 1759.550    7.695   20.893    0.148   45.261    0.008
 1760.370    7.695   20.309    0.170   39.091    0.010
 1761.190    7.696   20.315    0.189   35.672    0.022
 1762.010    7.696   20.322    0.198   34.398    0.032
 1762.830    7.736   20.919    0.195   33.781    0.030
 1763.650    7.737   22.113    0.187   33.789    0.026
 1764.470    7.777   22.117    0.177   34.427    0.020
 1765.290    7.778   22.716    0.171   34.434    0.022
 1766.110    7.817   23.315    0.171   33.816    0.022
 1766.930    7.818   23.319    0.178   31.430    0.027
 1767.750    7.818   23.920    0.185   28.680    0.080
 1768.570    7.858   25.110    0.195   26.657    0.095
 1769.390    7.859   26.297    0.219   23.887    0.103
 1770.210    7.899   27.487    0.214   24.335    0.077
 1771.030    7.899   27.490    0.203   24.790    0.066
 1771.850    7.939   28.088    0.188   25.723    0.051
 1772.670    7.979   28.687    0.194   26.209    0.042
 1773.490    7.980   28.696    0.207   26.214    0.046
 1774.310    8.020   28.113    0.230   25.745    0.071
 1775.130    8.020   28.120    0.240   25.282    0.096
 1775.950    8.060   27.536    0.248   24.378    0.105
 1776.770    8.100   27.545    0.245   23.080    0.114
 1777.590    8.101   26.961    0.238   22.663    0.121
 1778.410    8.141   26.968    0.229   22.256    0.123
 1779.230    8.141   25.796    0.218   22.263    0.100
 1780.050    8.141   24.619    0.210   23.968    0.089
 1780.870    8.142   22.856    0.206   25.796    0.078
 1781.690    8.142   21.681    0.205   27.767    0.063
 1782.510    8.143   19.917    0.202   28.289    0.060
 1783.330    8.143   18.743    0.199   27.783    0.056
 1784.150    8.144   22.293    0.193   27.791    0.065
 1784.970    8.144   32.342    0.189   27.798    0.072
 1785.790    8.145   35.304    0.185   27.805    0.072
 1786.610    8.145   35.900    0.187   27.308    0.067
 1787.430    8.146   35.908    0.190   26.815    0.059
