~VERSION INFORMATION
 VERS.                 2.0:   CWLS LOG ASCII STANDARD -VERSION 2.0
 WRAP.                  NO:   ONE LINE PER DEPTH STEP
~WELL INFORMATION BLOCK
#MNEM.UNIT           DATA                    DESCRIPTION OF MNEMONIC
#---------    -------------------            -------------------------------
# Generated from Intellog Unique Number	CS_77_79/WELL/999
WELL.         HUSKEY OIL OPERATIONS LTD      : Well_name    - WELL
LOC .         00/11-26-077-16W4/0            : Location     - LOCATION
UWI .         00/11-26-077-16W4/0            : Uwi          - UNIQUE WELL ID
ENTR.         SP                             : Entered      - ENTERED BY
SRVC.         SCHLUMBERGER                   : Scn          - SERVICE COMPANY
STRT.M        280                            : top_depth    - START DEPTH
STOP.M        480                            : bot_depth    - STOP DEPTH
STEP.M        0.25                           : increment    - STEP LENGTH
 NULL. -999.2500:NULL Value
~CURVE INFORMATION BLOCK
#MNEM UNIT       ERCB CURVE CODE    CURVE DESCRIPTION
#-----------   ------------------   ----------------------------------
DEPT.M        00 001 00 00         : DEPTH        - DEPTH
ILD .OHMM     00 120 00 00         : RESD         - DEEP RESISTIVITY (DIL)
DPHI.V/V      00 890 00 00         : PHID         - DENSITY POROSITY (LIMESTONE)
NPHI.V/V      00 330 00 00         : PHIN         - NEUTRON POROSITY (LIMESTONE)
GR  .API      00 310 00 00         : GR           - GAMMA RAY
~PARAMETER INFORMATION
#MNEM.UNIT           DATA             DESCRIPTION OF MNEMONIC
#---------         -----------     ------------------------------
GL  .M        672.11               : gl           - GROUND LEVEL ELEVATION
EREF.M        675.69               : kb           - ELEVATION OF DEPTH REFERENCE
DATM.M        672.11               : datum        - DATUM ELEVATION
TDD .M        487                  : tdd          - TOTAL DEPTH DRILLER
RUN .         ONE                  : Run          - RUN NUMBER
ENG .         BILL                 : Engineer     - RECORDING ENGINEER
WIT .         JIM                  : Witness      - WITNESSED BY
MUD .         GEL                  : Mud_type     - MUD TYPE
MATR.         LIMESTONE            : Logunit      - NEUTRON MATRIX
TMAX.C        22                   : BHT          - MAXIMUM RECORDED TEMPERATURE
BHTD.M        487                  : BHTDEP       - MAXIMUM RECORDED TEMPERATURE
MATR.         1                    : LOGUNIT      - NEUTRON MATRIX
RMT .C        25                   : MDTP         - TEMPERATURE OF MUD
NEUT.         1                    : NEUTRON      - NEUTRON TYPE
RESI.         0                    : RESIST       - RESISTIVITY TYPE
RMC .OHMM     0.25                 : RMC          - RESISTIVITY OF MUD CAKE
RMF .OHMM     0.25                 : RMF          - RESISTIVITY OF MUD FILTRATE
SUFT.C        15                   : SUFT         - SURFACE TEMPERATURE
~A  DEPTH     RESD     PHID     PHIN       GR
# ...
  454.000    6.892    0.213    0.451   91.384
  454.250    6.895    0.200    0.460   87.726
  454.500    7.162    0.196    0.474   85.287
  454.750    7.301    0.179    0.491   81.630
  455.000    7.442    0.172    0.482   82.240
  455.250    7.730    0.191    0.464   84.680
  455.500    7.880    0.201    0.470   85.900
  455.750    8.185    0.212    0.465   87.120
  456.000    8.663    0.208    0.462   88.950
  456.250    8.831    0.212    0.468   88.951
  456.500    9.172    0.210    0.470   87.732
  456.750    9.352    0.199    0.463   86.513
  457.000    9.355    0.190    0.454   84.685
  457.250    9.187    0.172    0.421   87.735
  457.500    9.022    0.177    0.410   90.784
  457.750    8.695    0.188    0.417   91.395
  458.000    8.378    0.186    0.418   92.005
  458.250    7.925    0.183    0.421   93.226
  458.500    7.497    0.179    0.434   95.665
  458.750    7.361    0.182    0.453   98.715
  459.000    6.962    0.197    0.458   99.325
  459.250    6.586    0.205    0.452   98.716
  459.500    6.348    0.194    0.448   98.717
  459.750    6.233    0.189    0.448   98.108
  460.000    6.120    0.184    0.447   96.889
  460.250    6.009    0.191    0.444   93.232
  460.500    5.792    0.197    0.441   93.842
  460.750    5.582    0.203    0.435   95.062
  461.000    5.379    0.205    0.432   95.673
  461.250    5.184    0.202    0.440   94.454
  461.500    4.996    0.196    0.449   95.065
  461.750    4.725    0.178    0.453   95.675
  462.000    3.848    0.189    0.458   93.237
  462.250    3.253    0.212    0.485   92.628
  462.500    2.750    0.219    0.521   92.629
  462.750    2.459    0.251    0.545   93.239
  463.000    2.199    0.247    0.566   93.240
  463.250    2.080    0.239    0.547   93.241
  463.500    2.120    0.259    0.567   94.461
  463.750    2.244    0.252    0.578   96.291
  464.000    2.512    0.246    0.562  102.390
  464.250    2.974    0.234    0.545  106.049
  464.500    3.726    0.230    0.526  110.318
  464.750    4.580    0.218    0.487  112.758
  465.000    5.127    0.208    0.459  118.856
  465.250    5.739    0.183    0.442  124.954
  465.500    6.189    0.166    0.432  127.394
  465.750    6.550    0.178    0.435  121.297
  466.000    6.555    0.183    0.438  113.981
  466.250    6.557    0.177    0.426  111.543
  466.500    6.684    0.184    0.418  115.202
  466.750    6.814    0.173    0.421  117.032
  467.000    6.568    0.163    0.421  117.033
  467.250    6.449    0.135    0.419  110.326
  467.500    5.987    0.113    0.422  104.839
  467.750    5.354    0.138    0.431  100.571
  468.000    5.064    0.152    0.437   96.914
  468.250    4.972    0.169    0.447   94.475
  468.500    4.792    0.195    0.459   92.647
  468.750    4.886    0.197    0.470   90.819
  469.000    4.887    0.185    0.476   91.429
  469.250    5.076    0.184    0.472   91.430
  469.500    5.272    0.186    0.460   90.821
  469.750    4.896    0.172    0.453   87.163
  470.000    4.631    0.146    0.454   86.554
  470.250    4.381    0.117    0.439   81.677
  470.500    4.222    0.099    0.421   85.946
  470.750    4.069    0.149    0.431   95.703
  471.000    3.921    0.177    0.454   99.972
  471.250    3.922    0.196    0.474  103.021
  471.500    4.074    0.196    0.487   99.364
  471.750    4.153    0.184    0.481   99.364
  472.000    4.564    0.177    0.469   99.975
  472.250    4.740    0.179    0.449  101.195
  472.500    5.016    0.149    0.437  101.806
  472.750    5.308    0.114    0.432   98.148
  473.000    6.054    0.144    0.452   78.636
  473.250    7.305    0.179    0.426   69.490
  473.500    7.876    0.194    0.390   62.174
  473.750    7.450    0.181    0.338   64.004
  474.000    5.422    0.164    0.332   71.932
  474.250    4.584    0.140    0.376   78.640
  474.500    4.023    0.184    0.404   84.738
  474.750    4.420    0.225    0.438   84.130
  475.000    4.766    0.213    0.456   82.301
  475.250    5.970    0.198    0.441   79.253
  475.500    9.016    0.214    0.431   77.424
  475.750    9.906    0.223    0.410   84.742
  476.000    9.027    0.214    0.404   87.182
  476.250    8.700    0.220    0.390   93.890
  476.500    8.867    0.191    0.385   99.988
  476.750    9.743    0.168    0.405  109.136
  477.000   10.310    0.162    0.410  103.649
  477.250   11.761    0.173    0.414   96.942
  477.500   12.447    0.187    0.421   92.674
  477.750   12.927    0.211    0.424   88.407
  478.000   12.936    0.196    0.408   85.969
  478.250   12.941    0.187    0.398   85.969
  478.500   12.707    0.180    0.391   85.361
  478.750   12.247    0.183    0.383   84.142
  479.000   12.028    0.156    0.397   82.313
  479.250   12.033    0.170    0.400   78.045
  479.500   12.267    0.184    0.389   76.217
  479.750   12.271    0.190    0.385   54.876
  480.000   12.747    0.197    0.379   54.877
