~VERSION INFORMATION
 VERS.                 2.0:   CWLS LOG ASCII STANDARD -VERSION 2.0
 WRAP.                  NO:   ONE LINE PER DEPTH STEP
~WELL INFORMATION BLOCK
#MNEM.UNIT           DATA                    DESCRIPTION OF MNEMONIC
#---------    -------------------            -------------------------------
# Generated from Intellog Unique Number	CW_79_81/WELL/2465
WELL.         10-10-080-24W4                 : Well_name    - WELL
LOC .         00/10-10-080-24W4/0            : Location     - LOCATION
UWI .         00/10-10-080-24W4/0            : Uwi          - UNIQUE WELL ID
ENTR.         MAX                            : Entered      - ENTERED BY
SRVC.         SCHLUMBERGER                   : Scn          - SERVICE COMPANY
STRT.M        200                            : top_depth    - START DEPTH
STOP.M        455                            : bot_depth    - STOP DEPTH
STEP.M        0.25                           : increment    - STEP LENGTH
 NULL. -999.2500:NULL Value
~CURVE INFORMATION BLOCK
#MNEM UNIT       ERCB CURVE CODE    CURVE DESCRIPTION
#-----------   ------------------   ----------------------------------
DEPT.M        00 001 00 00         : DEPTH        - DEPTH
ILD .OHMM     00 120 00 00         : RESD         - DEEP RESISTIVITY (DIL)
NPHI.V/V      00 330 00 00         : PHIN         - NEUTRON POROSITY (SANDSTONE)
DPHI.V/V      00 890 00 00         : PHID         - DENSITY POROSITY (SANDSTONE)
GR  .API      00 310 00 00         : GR           - GAMMA RAY
CALI.MM       00 280 01 00         : CAL          - CALIPER
~PARAMETER INFORMATION
#MNEM.UNIT           DATA             DESCRIPTION OF MNEMONIC
#---------         -----------     ------------------------------
GL  .M        558.63               : gl           - GROUND LEVEL ELEVATION
EREF.M        562.83               : kb           - ELEVATION OF DEPTH REFERENCE
DATM.M        558.63               : datum        - DATUM ELEVATION
TDD .M        456.5                : tdd          - TOTAL DEPTH DRILLER
RUN .         ONE                  : Run          - RUN NUMBER
ENG .         BILL                 : Engineer     - RECORDING ENGINEER
WIT .         JIM                  : Witness      - WITNESSED BY
MUD .         GEL                  : Mud_type     - MUD TYPE
MATR.         SANDSTONE            : Logunit      - NEUTRON MATRIX
TMAX.C        24.5                 : BHT          - MAXIMUM RECORDED TEMPERATURE
BHTD.M        456.5                : BHTDEP       - MAXIMUM RECORDED TEMPERATURE
MATR.         1                    : LOGUNIT      - NEUTRON MATRIX
RMT .C        18.5                 : MDTP         - TEMPERATURE OF MUD
NEUT.         1                    : NEUTRON      - NEUTRON TYPE
RESI.         0                    : RESIST       - RESISTIVITY TYPE
RMC .OHMM     7.95                 : RMC          - RESISTIVITY OF MUD CAKE
RMF .OHMM     5.82                 : RMF          - RESISTIVITY OF MUD FILTRATE
SUFT.C        -20                  : SUFT         - SURFACE TEMPERATURE
~A  DEPTH     RESD     PHIN     PHID       GR      CAL
# ...
  419.000   52.562    0.358    0.271   39.583  213.294
  419.250   47.389    0.365    0.266   44.583  213.294
  419.500   42.259    0.369    0.253   50.655  213.294
  419.750   37.442    0.370    0.242   55.774  214.484
  420.000   33.301    0.371    0.238   58.869  217.162
  420.250   29.728    0.378    0.241   59.425  220.404
  420.500   27.984    0.382    0.224   57.441  218.750
  420.750   26.980    0.362    0.199   55.060  215.972
  421.000   26.451    0.336    0.168   54.107  214.385
  421.250   26.072    0.310    0.148   53.988  214.187
  421.500   25.651    0.297    0.146   54.226  214.881
  421.750   24.748    0.313    0.160   54.415  215.195
  422.000   23.123    0.321    0.171   54.167  214.782
  422.250   21.161    0.330    0.182   53.929  214.385
  422.500   18.713    0.331    0.197   54.405  214.286
  422.750   16.800    0.328    0.208   54.405  214.484
  423.000   15.638    0.321    0.206   54.167  215.377
  423.250   15.122    0.320    0.191   55.258  217.427
  423.500   14.784    0.343    0.204   54.762  215.774
  423.750   14.358    0.363    0.234   50.477  213.393
  424.000   14.024    0.383    0.268   43.869  211.905
  424.250   13.824    0.387    0.285   40.059  211.310
  424.500   13.777    0.375    0.285   39.821  211.409
  424.750   13.903    0.363    0.279   39.881  212.054
  425.000   14.013    0.363    0.274   41.369  213.294
  425.250   14.431    0.364    0.268   44.464  213.690
  425.500   14.863    0.362    0.261   45.238  214.087
  425.750   15.636    0.360    0.254   45.595  214.286
  426.000   16.777    0.359    0.247   46.964  214.286
  426.250   18.064    0.359    0.233   51.041  214.286
  426.500   19.512    0.355    0.218   54.762  214.286
  426.750   21.138    0.339    0.209   56.428  213.889
  427.000   21.828    0.325    0.198   60.774  213.194
  427.250   21.914    0.313    0.176   71.489  212.599
  427.500   21.430    0.310    0.146   85.476  212.202
  427.750   19.395    0.340    0.122   94.246  211.806
  428.000   16.571    0.361    0.124  101.190  211.806
  428.250   13.230    0.369    0.136  105.238  211.806
  428.500   11.709    0.372    0.140  104.464  211.806
  428.750   10.480    0.370    0.141  101.845  211.806
  429.000    9.377    0.367    0.144  100.536  211.806
  429.250    8.621    0.371    0.152  105.258  211.723
  429.500    8.428    0.395    0.161  112.202  211.310
  429.750    8.065    0.421    0.174  106.012  211.310
  430.000    7.504    0.425    0.177   93.036  211.310
  430.250    7.085    0.410    0.169   79.942  211.508
  430.500    6.971    0.386    0.154   71.607  211.806
  430.750    7.535    0.351    0.129   71.825  211.806
  431.000    9.081    0.285    0.101   75.298  211.806
  431.250    9.837    0.303    0.096   80.535  211.806
  431.500   12.313    0.343    0.098   79.345  211.806
  431.750   15.331    0.386    0.105   76.845  211.806
  432.000   15.860    0.408    0.119   77.380  211.806
  432.250   11.274    0.379    0.154   86.012  211.806
  432.500    6.784    0.406    0.188   93.452  211.806
  432.750    6.255    0.429    0.181   97.976  212.202
  433.000    6.137    0.416    0.176  102.500  212.302
  433.250    6.295    0.413    0.188  104.167  212.302
  433.500    6.582    0.426    0.215  103.631  212.302
  433.750    6.915    0.416    0.251  104.415  212.302
  434.000    8.011    0.418    0.277  101.190  212.302
  434.250    8.866    0.481    0.312  100.476  212.302
  434.500    9.362    0.538    0.348  101.012  212.599
  434.750    9.505    0.561    0.368  103.154  212.996
  435.000    9.296    0.554    0.357  107.262  213.294
  435.250    7.835    0.542    0.289  112.252  213.376
  435.500    5.217    0.527    0.238  105.060  213.790
  435.750    5.217    0.521    0.246  104.345  213.790
  436.000    5.219    0.508    0.249  103.452  213.790
  436.250    5.372    0.511    0.224   99.168  213.591
  436.500    5.738    0.522    0.174   91.608  213.194
  436.750    6.301    0.488    0.135   87.301  212.715
  437.000    6.449    0.443    0.173  102.679  212.302
  437.250    6.403    0.457    0.160  120.534  212.302
  437.500    6.218    0.466    0.152  123.750  212.302
  437.750    5.814    0.475    0.163  116.728  212.302
  438.000    5.434    0.480    0.191  106.191  212.302
  438.250    5.564    0.461    0.221  103.373  212.384
  438.500    6.057    0.426    0.233  114.286  212.798
  438.750    6.329    0.452    0.232  122.618  213.194
  439.000    6.123    0.463    0.210  120.060  213.591
  439.250    5.665    0.462    0.177  111.846  213.988
  439.500    5.195    0.448    0.155  102.976  214.286
  439.750    4.897    0.414    0.188   98.214  214.286
  440.000    5.051    0.399    0.215   98.214  214.286
  440.250    5.550    0.395    0.221  101.071  214.286
  440.500    6.231    0.411    0.220  102.857  214.286
  440.750    6.845    0.419    0.217  102.976  214.286
  441.000    7.079    0.415    0.214  101.905  214.286
  441.250    6.661    0.426    0.214  100.744  214.286
  441.500    6.130    0.477    0.219   98.512  214.286
  441.750    6.132    0.473    0.191   88.751  213.889
  442.000    6.439    0.381    0.111   82.203  213.492
  442.250    6.855    0.317    0.080   81.964  213.492
  442.500    7.234    0.327    0.111   87.619  213.889
  442.750    7.629    0.398    0.141   94.841  214.368
  443.000    8.305    0.420    0.174   92.857  214.782
  443.250    8.804    0.382    0.188   89.286  215.179
  443.500    9.187    0.361    0.193   88.571  215.575
  443.750    9.497    0.356    0.192   89.762  215.774
  444.000    9.730    0.365    0.187   92.024  215.675
  444.250    9.744    0.393    0.183   95.436  215.195
  444.500    9.454    0.454    0.196   99.405  214.782
  444.750    9.115    0.490    0.231   89.168  215.179
  445.000    8.936    0.484    0.263   80.715  215.575
  445.250    9.195    0.441    0.286   77.024  215.575
  445.500   10.156    0.390    0.294   77.381  214.980
  445.750   12.614    0.388    0.285   75.794  213.542
  446.000   14.165    0.401    0.265   67.857  212.302
  446.250   14.800    0.411    0.256   60.953  212.302
  446.500   15.467    0.406    0.260   59.226  213.194
  446.750   15.994    0.393    0.264   58.393  214.186
  447.000   15.959    0.380    0.263   57.083  214.881
  447.250   14.588    0.374    0.254   57.887  215.195
  447.500   13.426    0.364    0.236   63.095  214.782
  447.750   11.746    0.377    0.218   64.762  213.988
  448.000   10.467    0.411    0.218   68.393  214.087
  448.250    9.639    0.422    0.214   73.035  214.286
  448.500    9.164    0.399    0.198   78.035  214.187
  448.750    8.889    0.361    0.166   83.928  213.707
  449.000    8.824    0.351    0.151   88.393  213.294
  449.250    8.826    0.378    0.145   88.869  213.690
  449.500    8.876    0.396    0.152   88.988  213.790
  449.750    8.976    0.401    0.160   88.750  213.988
  450.000    9.159    0.400    0.161   87.084  214.286
  450.250    9.563    0.411    0.142   81.300  214.368
  450.500    9.863    0.429    0.102   78.571  214.782
  450.750   10.157    0.392    0.021   77.143  214.782
  451.000   10.291    0.246    0.003   77.321  214.782
  451.250   10.180    0.149    0.009   78.274  214.583
  451.500    9.944    0.138    0.020   79.048  214.286
  451.750    9.889    0.134    0.033   78.423  214.286
  452.000    9.967    0.135    0.032   77.679  214.286
  452.250   10.116    0.136    0.027   76.250  213.889
  452.500   10.268    0.136    0.012   75.000  213.790
  452.750   10.384    0.138    0.002   73.810  213.988
  453.000   10.501    0.139    0.002   72.679  214.286
  453.250   10.834    0.138    0.009   71.528  214.286
  453.500   11.346    0.137    0.028   70.536  214.286
  453.750   12.203    0.137    0.052   70.536  213.889
  454.000   13.060    0.138    0.069   69.822  213.194
  454.250   13.562    0.140    0.084   69.345  212.599
  454.500   13.639    0.142    0.099   69.107  212.202
  454.750   13.684    0.146    0.111   68.056  211.806
  455.000   13.899    0.148    0.115   67.559  211.806
