~VERSION INFORMATION
 VERS.                 2.0:   CWLS LOG ASCII STANDARD -VERSION 2.0
 WRAP.                  NO:   ONE LINE PER DEPTH STEP
~WELL INFORMATION BLOCK
#MNEM.UNIT           DATA                    DESCRIPTION OF MNEMONIC
#---------    -------------------            -------------------------------
# Generated from Intellog Unique Number	CW_73_75/WELL/2745
WELL.         SEA-JOR ET AL BLANCHE 11-14    : Well_name    - WELL
LOC .         00/11-14-073-02W5/0            : Location     - LOCATION
UWI .         00/11-14-073-02W5/0            : Uwi          - UNIQUE WELL ID
ENTR.         JAYE                           : Entered      - ENTERED BY
SRVC.         SCHLUMBERGER                   : Scn          - SERVICE COMPANY
DATE.         2 FEB 80                       : Date         - LOG DATE
STRT.M        385                            : top_depth    - START DEPTH
STOP.M        625                            : bot_depth    - STOP DEPTH
STEP.M        0.25                           : increment    - STEP LENGTH
 NULL. -999.2500:NULL Value
~CURVE INFORMATION BLOCK
#MNEM UNIT       ERCB CURVE CODE    CURVE DESCRIPTION
#-----------   ------------------   ----------------------------------
DEPT.M        00 001 00 00         : DEPTH        - DEPTH
DPHI.V/V      00 890 00 00         : PHID         - DENSITY POROSITY (SANDSTONE)
NPHI.V/V      00 330 00 00         : PHIN         - NEUTRON POROSITY (SANDSTONE)
GR  .API      00 310 00 00         : GR           - GAMMA RAY
CALI.MM       00 280 01 00         : CAL          - CALIPER
ILD .OHMM     00 120 00 00         : RESD         - DEEP RESISTIVITY (DIL)
~PARAMETER INFORMATION
#MNEM.UNIT           DATA             DESCRIPTION OF MNEMONIC
#---------         -----------     ------------------------------
GL  .M        602                  : gl           - GROUND LEVEL ELEVATION
EREF.M        605.2                : kb           - ELEVATION OF DEPTH REFERENCE
DATM.M        602                  : datum        - DATUM ELEVATION
TDD .M        629                  : tdd          - TOTAL DEPTH DRILLER
RUN .         ONE                  : Run          - RUN NUMBER
BASE.         EDM                  : Branch       - HOME BASE OF LOGGING UNIT
MUD .         GEL                  : Mud_type     - MUD TYPE
MATR.         SANDSTONE            : Logunit      - NEUTRON MATRIX
TMAX.C        25                   : BHT          - MAXIMUM RECORDED TEMPERATURE
BHTD.M        630                  : BHTDEP       - MAXIMUM RECORDED TEMPERATURE
RMT .C        13.3                 : MDTP         - TEMPERATURE OF MUD
MUDD.KG/M     1170                 : MWT          - MUD DENSITY
NEUT.         1                    : NEUTRON      - NEUTRON TYPE
RESI.         0                    : RESIST       - RESISTIVITY TYPE
RM  .OHMM     4.9                  : RM           - RESISTIVITY OF MUD
RMC .OHMM     0                    : RMC          - RESISTIVITY OF MUD CAKE
RMF .OHMM     5.12                 : RMF          - RESISTIVITY OF MUD FILTRATE
SUFT.C        0                    : SUFT         - SURFACE TEMPERATURE
~A  DEPTH     PHID     PHIN       GR      CAL     RESD
  385.000    0.162    0.490   98.050  174.966    2.418
  385.250    0.168    0.484   95.161  174.898    2.518
  385.500    0.171    0.469   91.775  175.975    2.612
  385.750    0.175    0.457   90.805  176.726    2.714
  386.000    0.172    0.448   92.563  178.109    2.859
  386.250    0.174    0.454   93.883  179.069    3.011
  386.500    0.179    0.468   92.853  180.548    3.258
  386.750    0.194    0.465   87.734  182.140    3.566
  387.000    0.162    0.451   82.242  180.830    4.016
  387.250    0.133    0.434   77.060  175.806    4.429
  387.500    0.108    0.367   72.561  167.068    4.639
  387.750    0.113    0.377   79.334  160.702    4.694
  388.000    0.169    0.399   82.517  160.124    4.623
  388.250    0.176    0.413   83.775  161.912    4.366
  388.500    0.166    0.425   85.657  165.672    4.053
  388.750    0.162    0.424   88.403  168.074    3.656
  389.000    0.179    0.409   90.838  172.135    3.329
  389.250    0.189    0.414   89.747  178.261    3.067
  389.500    0.198    0.431   85.618  169.626    2.803
  389.750    0.207    0.447   82.295  172.349    2.902
  390.000    0.220    0.462   78.414  177.751    3.207
  390.250    0.250    0.463   74.967  182.844    3.517
  390.500    0.233    0.424   71.271  182.368    3.908
  390.750    0.222    0.404   67.887  170.428    4.031
  391.000    0.229    0.387   69.767  161.688    3.873
  391.250    0.210    0.372   76.851  168.124    3.533
  391.500    0.198    0.390   81.579  174.670    3.157
  391.750    0.208    0.430   84.638  178.831    2.799
  392.000    0.203    0.460   84.780  181.549    2.539
  392.250    0.196    0.496   83.812  183.546    2.357
  392.500    0.218    0.525   84.700  186.374    2.312
  392.750    0.241    0.547   83.731  187.339    2.445
  393.000    0.284    0.467   78.487  182.625    2.911
  393.250    0.294    0.438   72.624  169.036    3.480
  393.500    0.272    0.416   65.341  161.022    3.934
  393.750    0.251    0.390   62.263  158.579    4.381
  394.000    0.237    0.381   64.142  158.001    4.641
  394.250    0.245    0.379   64.660  158.034    4.696
  394.500    0.243    0.389   67.902  158.377    4.608
  394.750    0.234    0.401   69.163  158.727    4.644
  395.000    0.225    0.409   68.627  158.861    4.790
  395.250    0.223    0.415   65.551  159.313    4.950
  395.500    0.205    0.394   61.423  159.550    5.046
  395.750    0.171    0.370   57.295  159.496    5.116
  396.000    0.154    0.361   58.679  159.116    5.117
  396.250    0.177    0.390   61.241  158.834    4.907
  396.500    0.231    0.427   63.120  158.352    4.670
  396.750    0.230    0.424   65.000  157.769    4.327
  397.000    0.226    0.409   67.500  157.804    3.925
  397.250    0.233    0.408   70.619  158.461    3.567
  397.500    0.222    0.422   74.418  160.768    3.311
  397.750    0.196    0.441   78.343  169.889    3.218
  398.000    0.212    0.443   80.654  173.227    3.170
  398.250    0.203    0.436   75.351  177.908    3.141
  398.500    0.237    0.433   72.151  173.299    3.178
  398.750    0.208    0.428   72.796  170.964    3.290
  399.000    0.214    0.433   73.371  163.564    3.452
  399.250    0.175    0.422   75.931  161.742    3.602
  399.500    0.179    0.420   77.007  161.475    3.801
  399.750    0.203    0.414   79.196  161.717    3.913
  400.000    0.189    0.402   80.951  161.958    4.051
  400.250    0.236    0.391   75.213  161.990    4.052
  400.500    0.267    0.411   63.776  160.997    3.983
  400.750    0.279    0.388   48.871  159.692    3.939
  401.000    0.278    0.390   44.309  158.794    3.925
  401.250    0.275    0.391   46.127  158.321    3.994
  401.500    0.265    0.383   50.919  158.256    4.207
  401.750    0.251    0.375   56.020  158.080    4.364
  402.000    0.241    0.382   58.583  157.918    4.518
  402.250    0.214    0.392   60.335  157.845    4.597
  402.500    0.244    0.389   61.843  157.784    4.581
  402.750    0.240    0.375   63.291  157.603    4.461
  403.000    0.223    0.384   67.958  157.340    4.369
  403.250    0.207    0.398   70.890  157.378    4.271
  403.500    0.208    0.410   72.215  157.721    4.199
  403.750    0.221    0.428   72.668  158.166    4.184
  404.000    0.220    0.449   71.141  158.926    4.185
  404.250    0.244    0.427   68.126  160.298    4.275
  404.500    0.254    0.400   63.317  161.059    4.350
  404.750    0.260    0.389   60.924  161.095    4.461
  405.000    0.266    0.377   59.955  161.030    4.627
  405.250    0.272    0.389   59.604  160.963    4.754
  405.500    0.268    0.389   60.617  160.893    4.847
  405.750    0.249    0.375   66.584  160.825    4.857
  406.000    0.222    0.358   72.118  160.550    4.712
  406.250    0.199    0.362   78.581  160.485    4.341
  406.500    0.173    0.373   84.983  161.345    3.960
  406.750    0.133    0.400   94.668  165.721    3.398
  407.000    0.128    0.430  100.325  170.913    3.137
  407.250    0.130    0.463  104.311  177.246    3.361
  407.500    0.140    0.485  100.740  175.839    3.672
  407.750    0.166    0.414   92.772  172.572    4.042
  408.000    0.175    0.372   82.202  168.273    4.432
  408.250    0.205    0.345   65.625  165.110    4.624
  408.500    0.227    0.342   55.488  161.430    4.178
  408.750    0.250    0.348   45.041  159.811    3.820
  409.000    0.267    0.349   34.596  158.817    3.539
  409.250    0.284    0.345   30.220  157.922    3.297
  409.500    0.298    0.341   29.995  157.442    3.055
  409.750    0.296    0.337   30.759  157.686    2.924
  410.000    0.276    0.330   33.940  157.726    2.976
  410.250    0.262    0.319   39.970  157.764    3.158
  410.500    0.244    0.324   46.743  157.801    3.443
  410.750    0.230    0.334   56.489  157.842    3.697
  411.000    0.220    0.344   69.332  157.560    3.894
  411.250    0.236    0.358   73.069  157.594    4.001
  411.500    0.225    0.366   75.073  157.941    4.025
  411.750    0.221    0.373   74.289  158.083    3.980
  412.000    0.227    0.381   75.363  158.112    3.981
  412.250    0.210    0.391   80.341  158.050    4.005
  412.500    0.179    0.404   85.130  158.493    4.060
  412.750    0.156    0.415   92.833  161.422    4.147
  413.000    0.188    0.419   95.518  160.739    4.310
  413.250    0.182    0.402   94.301  159.324    4.411
  413.500    0.198    0.384   96.428  159.156    4.413
  413.750    0.176    0.396   97.876  161.980    4.414
  414.000    0.168    0.411   95.049  164.082    4.192
  414.250    0.195    0.415   95.254  164.011    3.803
  414.500    0.181    0.413   98.374  164.462    3.327
  414.750    0.162    0.430  104.341  169.146    2.904
  415.000    0.154    0.488  106.902  174.961    2.478
  415.250    0.156    0.550  108.286  176.957    2.235
  415.500    0.164    0.534  108.495  174.515    2.198
  415.750    0.155    0.514  109.074  175.897    2.419
  416.000    0.191    0.501  109.032  181.812    2.632
  416.250    0.212    0.490  102.984  177.100    3.069
  416.500    0.207    0.447  100.095  169.807    3.578
  416.750    0.193    0.402   98.013  164.578    3.886
  417.000    0.175    0.418   95.492  169.157    3.909
  417.250    0.194    0.432   89.444  176.212    3.932
  417.500    0.234    0.453   77.698  167.577    3.979
  417.750    0.261    0.414   67.438  159.148    4.072
  418.000    0.257    0.397   60.460  160.223    4.136
  418.250    0.246    0.402   61.351  160.466    4.137
  418.500    0.264    0.394   62.798  160.083    4.138
  418.750    0.254    0.382   64.366  160.118    4.131
  419.000    0.258    0.388   66.557  159.757    4.077
  419.250    0.260    0.400   68.498  159.988    3.993
  419.500    0.249    0.402   70.004  160.435    3.881
  419.750    0.237    0.407   71.141  160.994    3.794
  420.000    0.243    0.415   71.907  161.434    3.652
  420.250    0.232    0.426   72.052  162.200    3.570
  420.500    0.231    0.428   70.525  162.966    3.543
  420.750    0.267    0.418   66.770  163.298    3.572
  421.000    0.278    0.404   68.400  163.437    3.593
  421.250    0.258    0.404   69.041  162.648    3.629
