~VERSION INFORMATION
 VERS.                 2.0:   CWLS LOG ASCII STANDARD -VERSION 2.0
 WRAP.                  NO:   ONE LINE PER DEPTH STEP
~WELL INFORMATION BLOCK
#MNEM.UNIT           DATA                    DESCRIPTION OF MNEMONIC
#---------    -------------------            -------------------------------
# Generated from Intellog Unique Number	CW_73_75/WELL/1044
WELL.         PARAMOUNT ER AL RO 11-20       : Well_name    - WELL
LOC .         00/11-20-075-22W4/0            : Location     - LOCATION
UWI .         00/11-20-075-22W4/0            : Uwi          - UNIQUE WELL ID
ENTR.         JAYE                           : Entered      - ENTERED BY
SRVC.         WESTERN ATLAS                  : Scn          - SERVICE COMPANY
DATE.         22 FEB 77                      : Date         - LOG DATE
STRT.M        359.664                        : top_depth    - START DEPTH
STOP.M        612.664                        : bot_depth    - STOP DEPTH
STEP.M        0.25                           : increment    - STEP LENGTH
 NULL. -999.2500:NULL Value
~CURVE INFORMATION BLOCK
#MNEM UNIT       ERCB CURVE CODE    CURVE DESCRIPTION
#-----------   ------------------   ----------------------------------
DEPT.M        00 001 00 00         : DEPTH        - DEPTH
ILD .OHMM     00 120 00 00         : RESD         - DEEP RESISTIVITY (DIL)
NPHI.V/V      00 330 00 00         : PHIN         - NEUTRON POROSITY (SANDSTONE)
DPHI.V/V      00 890 00 00         : PHID         - DENSITY POROSITY (SANDSTONE)
GR  .API      00 310 00 00         : GR           - GAMMA RAY
CALI.MM       00 280 01 00         : CAL          - CALIPER
~PARAMETER INFORMATION
#MNEM.UNIT           DATA             DESCRIPTION OF MNEMONIC
#---------         -----------     ------------------------------
GL  .M        651.51               : gl           - GROUND LEVEL ELEVATION
EREF.M        654.558              : kb           - ELEVATION OF DEPTH REFERENCE
DATM.M        651.51               : datum        - DATUM ELEVATION
TDD .M        624.23               : tdd          - TOTAL DEPTH DRILLER
RUN .         ONE                  : Run          - RUN NUMBER
ENG .         KING                 : Engineer     - RECORDING ENGINEER
WIT .         COMMELLY             : Witness      - WITNESSED BY
BASE.         MEDICINE HAT         : Branch       - HOME BASE OF LOGGING UNIT
MUD .         GEL CHEM             : Mud_type     - MUD TYPE
MATR.         SANDSTONE            : Logunit      - NEUTRON MATRIX
TMAX.C        20.5556              : BHT          - MAXIMUM RECORDED TEMPERATURE
BHTD.M        624.84               : BHTDEP       - MAXIMUM RECORDED TEMPERATURE
RMT .C        15                   : MDTP         - TEMPERATURE OF MUD
MUDD.KG/M     1176                 : MWT          - MUD DENSITY
NEUT.         1                    : NEUTRON      - NEUTRON TYPE
RESI.         0                    : RESIST       - RESISTIVITY TYPE
RM  .OHMM     3.4                  : RM           - RESISTIVITY OF MUD
RMC .OHMM     0                    : RMC          - RESISTIVITY OF MUD CAKE
RMF .OHMM     2.4                  : RMF          - RESISTIVITY OF MUD FILTRATE
SUFT.C        -17.7778             : SUFT         - SURFACE TEMPERATURE
~A  DEPTH     RESD     PHIN     PHID       GR      CAL
# ...
  396.164    5.479    0.519    0.209  125.764  167.143
  396.414    5.511    0.429    0.213  115.033  165.652
  396.664    5.551    0.419    0.226  103.398  160.571
  396.914    5.576    0.438    0.238  116.918  159.820
  397.164    5.583    0.442    0.223  116.662  164.020
  397.414    5.617    0.479    0.233  104.734  165.898
  397.664    5.672    0.469    0.243   97.888  167.360
  397.914    5.787    0.445    0.256   95.244  163.969
  398.164    5.883    0.439    0.264  100.083  159.946
  398.414    5.973    0.439    0.274   99.529  159.296
  398.664    6.012    0.438    0.287  103.464  160.440
  398.914    6.070    0.453    0.294  101.707  168.015
  399.164    6.102    0.482    0.300  101.751  168.209
  399.414    6.125    0.468    0.287  105.687  163.869
  399.664    6.110    0.464    0.262  106.939  161.215
  399.914    6.060    0.473    0.239  110.875  161.304
  400.164    5.962    0.470    0.229  114.511  162.975
  400.414    5.751    0.440    0.228  112.759  164.118
  400.664    5.490    0.446    0.233  114.294  164.730
  400.914    5.287    0.488    0.247  108.951  164.823
  401.164    5.247    0.499    0.273   96.119  164.383
  401.414    5.319    0.457    0.294   89.877  163.207
  401.664    5.416    0.467    0.297   98.009  161.926
  401.914    5.530    0.482    0.284  108.529  161.698
  402.164    5.570    0.477    0.266  120.552  161.888
  402.414    5.407    0.474    0.256  128.085  161.874
  402.664    5.009    0.502    0.248  123.340  161.962
  402.914    4.635    0.491    0.236  121.594  162.052
  403.164    4.335    0.510    0.231  124.326  161.717
  403.414    4.131    0.521    0.233  128.267  161.490
  403.664    3.976    0.505    0.235  127.114  161.158
  403.914    3.895    0.508    0.238  130.750  161.350
  404.164    3.831    0.513    0.247  130.495  161.544
  404.414    3.806    0.507    0.255  128.744  161.741
  404.664    3.765    0.530    0.255  123.395  162.038
  404.914    3.740    0.532    0.243  121.648  162.340
  405.164    3.757    0.488    0.234  118.395  162.428
  405.414    3.796    0.467    0.238  118.444  161.357
  405.664    3.959    0.469    0.246  115.191  159.758
  405.914    4.154    0.496    0.265  104.459  158.582
  406.164    4.494    0.500    0.283   98.517  157.828
  406.414    5.030    0.481    0.292   93.467  157.389
  406.664    5.420    0.417    0.303   88.129  157.162
  406.914    5.639    0.405    0.312   86.677  156.934
  407.164    5.719    0.405    0.312   90.906  156.811
  407.414    5.768    0.390    0.316   92.453  157.004
  407.664    5.810    0.415    0.319   93.096  157.832
  407.914    5.825    0.412    0.313   90.147  159.081
  408.164    5.875    0.408    0.303   85.995  160.222
  408.414    5.913    0.424    0.298   84.553  160.734
  408.664    5.946    0.426    0.295   84.886  161.138
  408.914    5.953    0.406    0.294   83.744  161.332
  409.164    5.823    0.414    0.297   83.489  161.527
  409.414    5.588    0.439    0.301   87.120  161.719
  409.664    5.408    0.458    0.303   94.048  161.810
  409.914    5.255    0.427    0.291   97.690  162.108
  410.164    5.230    0.416    0.281   97.135  162.090
  410.414    5.287    0.438    0.268  107.961  162.077
  410.664    5.400    0.458    0.286  108.310  161.741
  410.914    5.585    0.483    0.301  104.452  161.407
  411.164    6.081    0.510    0.267  101.508  160.864
  411.414    6.730    0.500    0.267  104.845  160.426
  411.664    8.517    0.461    0.258  101.896  159.988
  411.914    9.540    0.295    0.223   93.853  161.659
  412.164    9.426    0.213    0.202   89.713  163.221
  412.414    8.930    0.117    0.112   92.745  163.838
  412.664    7.557    0.148    0.063  100.277  163.612
  412.914    6.542    0.324    0.263  102.716  161.801
  413.164    5.949    0.481    0.261  104.556  160.731
  413.414    5.340    0.460    0.260   96.225  159.868
  413.664    5.355    0.440    0.286   94.767  159.113
  413.914    5.543    0.441    0.307   93.320  158.780
  414.164    5.663    0.460    0.313   93.958  158.553
  414.414    5.753    0.476    0.311   95.199  158.430
  414.664    5.745    0.460    0.302   96.142  158.417
  414.914    5.785    0.459    0.307   99.484  157.978
  415.164    5.752    0.477    0.316   95.942  157.644
  415.414    5.697    0.477    0.324   93.885  157.519
  415.664    5.646    0.462    0.329   95.726  157.505
  415.914    5.566    0.436    0.329   99.073  157.381
  416.164    5.532    0.450    0.317  101.501  157.154
  416.414    5.434    0.466    0.311  103.341  157.350
  416.664    5.239    0.474    0.305  100.692  157.438
  416.914    5.019    0.472    0.300  105.231  157.739
  417.164    4.793    0.450    0.273  125.934  159.302
  417.414    4.556    0.462    0.231  135.269  160.974
  417.664    4.386    0.500    0.200  132.015  163.276
  417.914    4.254    0.522    0.204  125.169  166.001
  418.164    4.125    0.540    0.210  120.424  168.196
  418.414    4.052    0.536    0.213  119.571  169.340
  418.664    4.083    0.530    0.215  119.327  169.746
  418.914    4.246    0.533    0.221  120.856  170.467
  419.164    4.392    0.520    0.223  118.506  171.295
  419.414    4.579    0.501    0.204  109.271  172.332
  419.664    4.773    0.464    0.220  101.528  170.416
  419.914    4.927    0.449    0.240   91.395  167.765
  420.164    5.048    0.429    0.289   80.059  163.319
  420.414    5.138    0.430    0.313   81.301  161.403
  420.664    5.194    0.440    0.313   75.664  160.751
  420.914    5.251    0.436    0.320   78.707  160.314
  421.164    5.324    0.435    0.321   76.052  159.876
  421.414    5.372    0.447    0.315   81.783  159.651
  421.664    5.462    0.460    0.311   77.637  159.422
  421.914    5.502    0.455    0.298   78.579  159.088
  422.164    5.527    0.441    0.300   77.126  158.648
  422.414    5.511    0.430    0.308   77.470  158.631
  422.664    5.502    0.421    0.311   79.316  158.827
  422.914    5.485    0.410    0.317   78.756  158.811
  423.164    5.444    0.399    0.323   80.596  158.901
  423.414    5.419    0.401    0.326   83.938  158.568
  423.664    5.379    0.408    0.322   81.289  158.548
  423.914    5.354    0.418    0.321   80.441  159.060
  424.164    5.330    0.427    0.324   83.173  159.464
  424.414    5.296    0.392    0.327   79.925  159.975
  424.664    5.274    0.396    0.322   74.282  160.696
  424.914    5.247    0.403    0.323   82.408  161.103
  425.164    5.256    0.439    0.323   83.949  161.295
  425.414    5.279    0.436    0.316   83.993  161.593
  425.664    5.361    0.433    0.308   86.138  161.791
  425.914    5.417    0.421    0.296   81.094  161.984
  426.164    5.465    0.434    0.297   82.934  162.072
  426.414    5.457    0.461    0.299   86.276  162.057
  426.664    5.407    0.476    0.297   92.002  161.829
  426.914    5.277    0.477    0.293   99.535  161.180
  427.164    4.733    0.485    0.287  106.763  160.740
  427.414    3.928    0.497    0.277  127.472  162.516
  427.664    3.164    0.519    0.271  128.713  166.295
  427.914    2.718    0.515    0.287  126.962  169.862
  428.164    2.548    0.528    0.294  126.706  170.901
  428.414    2.595    0.549    0.273  118.070  169.511
  428.664    2.864    0.553    0.263  124.400  170.233
  428.914    3.302    0.551    0.271  127.737  171.482
  429.164    3.699    0.565    0.275  128.086  171.465
  429.414    4.170    0.546    0.271  120.343  169.971
  429.664    4.584    0.546    0.254  123.391  169.216
  429.914    5.120    0.575    0.260  125.231  169.624
  430.164    5.331    0.564    0.266  123.480  170.556
  430.414    5.282    0.551    0.259  122.022  171.378
  430.664    5.144    0.537    0.252  123.868  171.574
  430.914    5.062    0.532    0.250  124.206  171.664
  431.164    5.030    0.555    0.248  123.053  171.331
  431.414    5.013    0.562    0.242  123.995  170.996
  431.664    4.989    0.554    0.256  125.835  170.876
  431.914    4.964    0.532    0.249  121.694  171.915
  432.164    4.924    0.495    0.237  124.128  172.632
  432.414    4.891    0.489    0.222  127.171  172.197
