~VERSION INFORMATION
 VERS.                 2.0:   CWLS LOG ASCII STANDARD -VERSION 2.0
 WRAP.                  NO:   ONE LINE PER DEPTH STEP
~WELL INFORMATION BLOCK
#MNEM.UNIT           DATA                    DESCRIPTION OF MNEMONIC
#---------    -------------------            -------------------------------
# Generated from Intellog Unique Number	CS_73_76/WELL/3230
WELL.         HOME OIL COMPANY LIMITED       : Well_name    - WELL
LOC .         00/10-06-076-07W4/0            : Location     - LOCATION
UWI .         00/10-06-076-07W4/0            : Uwi          - UNIQUE WELL ID
ENTR.         SP                             : Entered      - ENTERED BY
SRVC.         SCHLUMBERGER                   : Scn          - SERVICE COMPANY
STRT.M        237.744                        : top_depth    - START DEPTH
STOP.M        459.994                        : bot_depth    - STOP DEPTH
STEP.M        0.25                           : increment    - STEP LENGTH
 NULL. -999.2500:NULL Value
~CURVE INFORMATION BLOCK
#MNEM UNIT       ERCB CURVE CODE    CURVE DESCRIPTION
#-----------   ------------------   ----------------------------------
DEPT.M        00 001 00 00         : DEPTH        - DEPTH
GR  .API      00 310 00 00         : GR           - GAMMA RAY
DPHI.V/V      00 890 00 00         : PHID         - DENSITY POROSITY (SANDSTONE)
NPHI.V/V      00 330 00 00         : PHIN         - NEUTRON POROSITY (SANDSTONE)
ILD .OHMM     00 120 00 00         : RESD         - DEEP RESISTIVITY (DIL)
~PARAMETER INFORMATION
#MNEM.UNIT           DATA             DESCRIPTION OF MNEMONIC
#---------         -----------     ------------------------------
GL  .M        647.669              : gl           - GROUND LEVEL ELEVATION
EREF.M        651.51               : kb           - ELEVATION OF DEPTH REFERENCE
DATM.M        647.669              : datum        - DATUM ELEVATION
TDD .M        488.899              : tdd          - TOTAL DEPTH DRILLER
RUN .         ONE                  : Run          - RUN NUMBER
ENG .         BILL                 : Engineer     - RECORDING ENGINEER
WIT .         JIM                  : Witness      - WITNESSED BY
MUD .         GEL                  : Mud_type     - MUD TYPE
MATR.         SANDSTONE            : Logunit      - NEUTRON MATRIX
TMAX.C        15                   : BHT          - MAXIMUM RECORDED TEMPERATURE
BHTD.M        488.899              : BHTDEP       - MAXIMUM RECORDED TEMPERATURE
MATR.         1                    : LOGUNIT      - NEUTRON MATRIX
RMT .C        25                   : MDTP         - TEMPERATURE OF MUD
NEUT.         1                    : NEUTRON      - NEUTRON TYPE
RESI.         0                    : RESIST       - RESISTIVITY TYPE
RMC .OHMM     0.25                 : RMC          - RESISTIVITY OF MUD CAKE
RMF .OHMM     0.25                 : RMF          - RESISTIVITY OF MUD FILTRATE
SUFT.C        15                   : SUFT         - SURFACE TEMPERATURE
~A  DEPTH       GR     PHID     PHIN     RESD
# ...
  324.744  102.148    0.175    0.428    6.239
  324.994  103.329    0.161    0.435    6.584
  325.244   99.001    0.163    0.440    6.629
  325.494   97.603    0.178    0.435    6.856
  325.744   96.750    0.167    0.440    6.868
  325.994   96.068    0.169    0.447    6.869
  326.244   92.599    0.169    0.432    6.695
  326.494   96.664    0.184    0.434    6.084
  326.744  102.806    0.194    0.452    5.597
  326.994  107.020    0.174    0.474    5.274
  327.244  113.635    0.161    0.505    4.847
  327.494  116.537    0.187    0.530    4.417
  327.744  119.246    0.198    0.530    3.882
  327.994  126.749    0.204    0.517    3.665
  328.244  130.671    0.199    0.513    3.492
  328.494  125.835    0.168    0.479    3.622
  328.744  108.762    0.161    0.454    3.778
  328.994  105.041    0.146    0.426    4.239
  329.244  105.810    0.150    0.447    4.521
  329.494  106.415    0.167    0.485    4.713
  329.744  106.386    0.184    0.490    4.867
  329.994  106.380    0.201    0.484    4.872
  330.244  106.401    0.196    0.498    4.713
  330.494  103.491    0.172    0.502    4.662
  330.744   99.327    0.170    0.508    4.634
  330.994   94.783    0.181    0.528    4.860
  331.244   90.836    0.185    0.500    5.140
  331.494   92.501    0.186    0.457    5.840
  331.744   93.021    0.166    0.442    6.285
  331.994   92.027    0.162    0.427    6.714
  332.244   91.711    0.176    0.437    6.992
  332.494   91.004    0.183    0.455    6.991
  332.744   91.720    0.166    0.454    7.027
  332.994   92.307    0.175    0.456    7.122
  333.244   93.302    0.185    0.458    6.981
  333.494   96.424    0.199    0.460    7.016
  333.744   98.865    0.183    0.458    7.121
  333.994   99.368    0.157    0.453    7.119
  334.244   97.532    0.166    0.458    7.117
  334.494   97.595    0.167    0.467    7.120
  334.744   98.888    0.148    0.475    7.181
  334.994   99.419    0.135    0.482    7.259
  335.244   97.839    0.148    0.467    7.396
  335.494   97.249    0.167    0.460    7.388
  335.744   97.674    0.180    0.461    7.386
  335.994   98.704    0.174    0.450    7.487
  336.244   99.859    0.182    0.441    7.564
  336.494  100.695    0.171    0.441    7.665
  336.744   99.074    0.156    0.424    7.811
  336.994   94.924    0.153    0.424    7.978
  337.244   88.910    0.130    0.419    8.665
  337.494   83.295    0.102    0.405    9.169
  337.744   78.547    0.147    0.351    9.442
  337.994   81.187    0.157    0.342    9.289
  338.244   90.975    0.152    0.377    8.944
  338.494   90.382    0.161    0.414    8.390
  338.744   94.989    0.169    0.424    7.829
  338.994  100.346    0.150    0.432    7.561
  339.244  100.581    0.151    0.450    7.243
  339.494  100.521    0.155    0.477    6.877
  339.744  101.269    0.157    0.489    6.672
  339.994  103.444    0.159    0.473    6.592
  340.244  104.524    0.157    0.457    6.444
  340.494  104.705    0.155    0.463    6.617
  340.744  103.529    0.152    0.483    6.709
  340.994  105.058    0.160    0.486    6.567
  341.244  101.954    0.185    0.484    5.807
  341.494   98.498    0.202    0.489    4.857
  341.744  102.365    0.205    0.498    4.126
  341.994  105.986    0.228    0.504    3.602
  342.244  109.079    0.197    0.515    3.255
  342.494  108.986    0.183    0.536    3.012
  342.744  103.693    0.196    0.546    2.827
  342.994   99.599    0.153    0.549    2.675
  343.244  102.203    0.166    0.532    2.729
  343.494  103.215    0.154    0.508    2.857
  343.744   98.040    0.144    0.493    3.124
  343.994   95.076    0.149    0.494    3.601
  344.244   91.111    0.140    0.476    4.209
  344.494   85.302    0.122    0.436    5.024
  344.744   82.328    0.093    0.393    6.053
  344.994   88.733    0.149    0.362    7.265
  345.244   91.196    0.194    0.337    8.096
  345.494   86.975    0.202    0.361    8.243
  345.744   82.216    0.202    0.386    7.933
  345.994   81.984    0.176    0.402    7.112
  346.244   85.571    0.185    0.415    6.838
  346.494   87.226    0.187    0.416    6.353
  346.744   84.106    0.227    0.419    6.819
  346.994   79.668    0.230    0.428    6.238
  347.244   74.022    0.233    0.414    5.861
  347.494   71.563    0.239    0.408    5.629
  347.744   70.078    0.239    0.406    5.444
  347.994   68.587    0.238    0.403    5.329
  348.244   68.015    0.242    0.399    5.341
  348.494   66.942    0.233    0.402    5.338
  348.744   66.542    0.224    0.406    5.311
  348.994   64.411    0.235    0.412    5.240
  349.244   64.091    0.247    0.409    5.239
  349.494   64.234    0.253    0.402    5.234
  349.744   63.207    0.255    0.399    5.330
  349.994   62.432    0.257    0.398    5.336
  350.244   63.283    0.254    0.397    5.338
  350.494   65.293    0.248    0.402    5.329
  350.744   67.143    0.249    0.399    5.451
  350.994   66.650    0.269    0.398    5.444
  351.244   66.504    0.274    0.411    5.550
  351.494   67.596    0.265    0.406    5.577
  351.744   67.300    0.256    0.397    5.645
  351.994   65.594    0.249    0.398    5.645
  352.244   65.475    0.246    0.405    5.644
  352.494   65.458    0.242    0.411    5.644
  352.744   65.495    0.238    0.407    5.655
  352.994   64.673    0.245    0.404    5.531
  353.244   64.188    0.249    0.392    5.454
  353.494   63.925    0.243    0.389    5.334
  353.744   63.676    0.238    0.395    5.225
  353.994   63.720    0.245    0.402    5.233
  354.244   63.547    0.249    0.407    5.231
  354.494   64.202    0.249    0.412    5.231
  354.744   65.121    0.238    0.407    5.220
  354.994   66.880    0.245    0.396    5.340
  355.244   67.175    0.248    0.393    5.329
  355.494   67.061    0.243    0.390    5.328
  355.744   68.689    0.256    0.392    5.328
  355.994   67.861    0.263    0.398    5.327
  356.244   68.054    0.258    0.402    5.330
  356.494   69.060    0.257    0.406    5.344
  356.744   69.974    0.245    0.408    5.405
  356.994   71.311    0.240    0.412    5.765
  357.244   69.466    0.240    0.406    5.858
  357.494   69.950    0.241    0.396    5.840
  357.744   70.933    0.252    0.417    6.015
  357.994   71.929    0.258    0.407    6.075
  358.244   72.277    0.255    0.393    6.194
  358.494   73.334    0.248    0.398    6.156
  358.744   73.708    0.243    0.411    6.074
  358.994   74.671    0.236    0.421    5.935
  359.244   75.571    0.247    0.431    6.079
  359.494   75.088    0.258    0.431    6.075
  359.744   72.801    0.257    0.419    5.888
  359.994   69.684    0.239    0.423    5.838
  360.244   67.703    0.245    0.429    5.640
  360.494   66.948    0.260    0.423    5.588
  360.744   66.297    0.280    0.420    5.524
  360.994   64.192    0.285    0.420    5.514
  361.244   64.136    0.270    0.427    5.673
  361.494   64.504    0.259    0.425    5.733
  361.744   63.322    0.263    0.424    5.925
  361.994   62.722    0.257    0.431    5.969
  362.244   62.626    0.249    0.428    6.175
  362.494   63.420    0.241    0.424    6.233
  362.744   61.836    0.250    0.422    6.442
  362.994   61.437    0.241    0.413    6.531
  363.244   62.214    0.242    0.408    6.679
  363.494   63.949    0.245    0.417    6.673
  363.744   66.659    0.276    0.415    6.695
  363.994   68.016    0.257    0.409    6.672
  364.244   67.395    0.253    0.415    6.531
  364.494   65.439    0.259    0.422    6.332
  364.744   63.643    0.249    0.424    6.131
  364.994   64.337    0.242    0.414    6.062
  365.244   65.337    0.256    0.426    5.947
  365.494   65.272    0.268    0.434    5.823
  365.744   62.560    0.265    0.419    5.835
  365.994   63.214    0.239    0.415    5.845
  366.244   63.175    0.243    0.402    5.716
  366.494   64.145    0.248    0.403    5.725
  366.744   65.990    0.255    0.414    5.726
  366.994   68.629    0.248    0.426    5.728
  367.244   69.723    0.258    0.427    5.837
  367.494   68.254    0.272    0.427    5.829
  367.744   66.706    0.279    0.428    5.830
  367.994   64.601    0.267    0.435    5.711
