~VERSION INFORMATION
 VERS.                 2.0:   CWLS LOG ASCII STANDARD -VERSION 2.0
 WRAP.                  NO:   ONE LINE PER DEPTH STEP
~WELL INFORMATION BLOCK
#MNEM.UNIT           DATA                    DESCRIPTION OF MNEMONIC
#---------    -------------------            -------------------------------
# Generated from Intellog Unique Number	CS_77_79/WELL/947
WELL.         CDN-SUP THORNBURY              : Well_name    - WELL
LOC .         00/10-11-078-14W4/0            : Location     - LOCATION
UWI .         00/10-11-078-14W4/0            : Uwi          - UNIQUE WELL ID
ENTR.         JHS                            : Entered      - ENTERED BY
SRVC.         SCHLUMBERGER                   : Scn          - SERVICE COMPANY
STRT.M        275                            : top_depth    - START DEPTH
STOP.M        514                            : bot_depth    - STOP DEPTH
STEP.M        0.25                           : increment    - STEP LENGTH
 NULL. -999.2500:NULL Value
~CURVE INFORMATION BLOCK
#MNEM UNIT       ERCB CURVE CODE    CURVE DESCRIPTION
#-----------   ------------------   ----------------------------------
DEPT.M        00 001 00 00         : DEPTH        - DEPTH
DPHI.V/V      00 890 00 00         : PHID         - DENSITY POROSITY (LIMESTONE)
NPHI.V/V      00 330 00 00         : PHIN         - NEUTRON POROSITY (LIMESTONE)
GR  .API      00 310 00 00         : GR           - GAMMA RAY
ILD .OHMM     00 120 00 00         : RESD         - DEEP RESISTIVITY (DIL)
~PARAMETER INFORMATION
#MNEM.UNIT           DATA             DESCRIPTION OF MNEMONIC
#---------         -----------     ------------------------------
GL  .M        682.2                : gl           - GROUND LEVEL ELEVATION
EREF.M        686.7                : kb           - ELEVATION OF DEPTH REFERENCE
DATM.M        686.7                : datum        - DATUM ELEVATION
TDD .M        635                  : tdd          - TOTAL DEPTH DRILLER
RUN .         ONE                  : Run          - RUN NUMBER
ENG .         BILL                 : Engineer     - RECORDING ENGINEER
WIT .         JIM                  : Witness      - WITNESSED BY
MUD .         GEL                  : Mud_type     - MUD TYPE
MATR.         LIMESTONE            : Logunit      - NEUTRON MATRIX
TMAX.C        21                   : BHT          - MAXIMUM RECORDED TEMPERATURE
BHTD.M        635                  : BHTDEP       - MAXIMUM RECORDED TEMPERATURE
MATR.         1                    : LOGUNIT      - NEUTRON MATRIX
RMT .C        25                   : MDTP         - TEMPERATURE OF MUD
NEUT.         1                    : NEUTRON      - NEUTRON TYPE
RESI.         0                    : RESIST       - RESISTIVITY TYPE
RMC .OHMM     0.25                 : RMC          - RESISTIVITY OF MUD CAKE
RMF .OHMM     0.25                 : RMF          - RESISTIVITY OF MUD FILTRATE
SUFT.C        15                   : SUFT         - SURFACE TEMPERATURE
~A  DEPTH     PHID     PHIN       GR     RESD
# ...
  362.000    0.302    0.469   49.607   15.587
  362.250    0.287    0.468   51.453   15.586
  362.500    0.291    0.468   52.069   15.584
  362.750    0.307    0.475   54.529   15.582
  363.000    0.297    0.463   58.219   15.580
  363.250    0.310    0.453   61.294   15.579
  363.500    0.309    0.448   63.754   15.577
  363.750    0.303    0.449   64.985   15.575
  364.000    0.300    0.457   62.527   15.573
  364.250    0.320    0.454   58.840   15.572
  364.500    0.315    0.458   61.915   15.570
  364.750    0.319    0.437   63.146   15.864
  365.000    0.314    0.427   62.532   15.861
  365.250    0.329    0.426   61.919   15.860
  365.500    0.315    0.439   60.076   15.858
  365.750    0.291    0.431   60.077   15.857
  366.000    0.318    0.441   63.152   15.855
  366.250    0.324    0.454   61.923   15.853
  366.500    0.315    0.443   62.539   15.851
  366.750    0.295    0.439   65.614   15.849
  367.000    0.299    0.438   65.615   15.847
  367.250    0.315    0.433   61.313   15.846
  367.500    0.310    0.425   63.774   15.845
  367.750    0.295    0.432   63.160   15.842
  368.000    0.311    0.448   61.318   15.841
  368.250    0.304    0.454   60.704   16.139
  368.500    0.303    0.466   60.705   16.138
  368.750    0.310    0.448   62.551   15.835
  369.000    0.309    0.415   63.781   15.833
  369.250    0.314    0.405   64.397   14.963
  369.500    0.299    0.413   64.398   15.245
  369.750    0.298    0.420   65.014   15.244
  370.000    0.288    0.448   63.786   14.957
  370.250    0.292    0.465   60.714   14.955
  370.500    0.300    0.474   61.944   14.675
  370.750    0.314    0.490   61.946   14.674
  371.000    0.309    0.483   61.947   14.951
  371.250    0.292    0.465   63.792   15.523
  371.500    0.262    0.456   65.638   16.116
  371.750    0.245    0.453   65.639   16.421
  372.000    0.288    0.447   67.484   16.113
  372.250    0.284    0.439   73.018   15.811
  372.500    0.268    0.439   77.938   14.941
  372.750    0.260    0.460   79.783   14.387
  373.000    0.255    0.448   77.940   13.854
  373.250    0.249    0.427   81.630   13.852
  373.500    0.261    0.423   83.475   14.114
  373.750    0.251    0.427   79.173   13.591
  374.000    0.246    0.442   79.789   12.604
  374.250    0.262    0.472   84.708   11.047
  374.500    0.256    0.482   89.013    9.682
  374.750    0.266    0.464   87.785    8.812
  375.000    0.247    0.448   82.868    8.327
  375.250    0.240    0.442   83.484    8.171
  375.500    0.228    0.456   83.485    7.868
  375.750    0.209    0.479   82.257    7.577
  376.000    0.175    0.488   80.414    6.395
  376.250    0.153    0.497   87.792    4.732
  376.500    0.204    0.522   95.785    3.775
  376.750    0.238    0.539  100.704    3.186
  377.000    0.217    0.538  100.091    3.068
  377.250    0.193    0.483   94.559    3.246
  377.500    0.203    0.459   92.716    4.068
  377.750    0.239    0.445   86.570    5.708
  378.000    0.233    0.437   89.030    7.020
  378.250    0.212    0.433   92.105    8.473
  378.500    0.192    0.438   93.951    8.632
  378.750    0.183    0.454   93.952    8.313
  379.000    0.176    0.442   92.724    8.005
  379.250    0.161    0.431   90.266    7.855
  379.500    0.165    0.429   89.652    7.563
  379.750    0.170    0.438   89.039    7.563
  380.000    0.194    0.443   86.581    7.705
  380.250    0.208    0.448   89.656    7.851
  380.500    0.196    0.453   93.960    7.999
  380.750    0.183    0.456   98.880    7.849
  381.000    0.172    0.462   95.808    7.558
  381.250    0.164    0.469   92.120    7.278
  381.500    0.161    0.478   93.351    7.009
  381.750    0.180    0.466   95.811    6.877
  382.000    0.174    0.476   97.042    6.622
  382.250    0.172    0.496   97.043    6.027
  382.500    0.194    0.481   96.429    5.383
  382.750    0.187    0.486   95.816    4.992
  383.000    0.197    0.481   94.588    4.898
  383.250    0.205    0.471   93.359    4.991
  383.500    0.218    0.456   90.902    5.483
  383.750    0.239    0.449   89.673    6.023
  384.000    0.245    0.474   90.904    6.493
  384.250    0.239    0.492   93.979    6.870
  384.500    0.240    0.502   98.898    6.869
  384.750    0.260    0.512  101.973    6.491
  385.000    0.250    0.492  100.745    5.797
  385.250    0.231    0.483  100.132    5.178
  385.500    0.219    0.499  103.206    4.624
  385.750    0.235    0.520  105.052    3.977
  386.000    0.235    0.539  105.668    3.552
  386.250    0.239    0.547  106.284    3.113
  386.500    0.240    0.556  107.515    2.887
  386.750    0.246    0.580  109.975    2.678
  387.000    0.237    0.560  108.132    2.578
  387.250    0.231    0.552  109.363    2.530
  387.500    0.220    0.546  109.364    2.530
  387.750    0.228    0.571  109.365    2.529
  388.000    0.242    0.592  108.751    2.482
  388.250    0.262    0.600  105.679    2.435
  388.500    0.258    0.595  103.221    2.435
  388.750    0.242    0.574  104.452    2.481
  389.000    0.246    0.556  105.682    2.576
  389.250    0.253    0.563  100.151    2.674
  389.500    0.277    0.573   95.234    2.725
  389.750    0.256    0.557  100.154    2.725
  390.000    0.246    0.553  102.614    2.776
  390.250    0.232    0.557  101.386    2.937
  390.500    0.216    0.537  102.002    3.107
  390.750    0.207    0.523  103.232    3.414
  391.000    0.230    0.501  102.619    3.821
  391.250    0.245    0.477  102.620    4.277
  391.500    0.229    0.469  102.621    4.526
  391.750    0.199    0.466   98.319    4.879
  392.000    0.196    0.467   95.861    5.260
  392.250    0.237    0.489   94.018    5.670
  392.500    0.260    0.493   89.716    5.999
  392.750    0.274    0.462   87.258    6.347
  393.000    0.289    0.451   89.104    6.842
  393.250    0.293    0.439   89.720    7.239
  393.500    0.278    0.459   85.418    7.659
  393.750    0.259    0.450   82.345    8.103
  394.000    0.247    0.449   81.117    8.256
  394.250    0.225    0.444   82.963    8.255
  394.500    0.198    0.443   86.037    8.411
  394.750    0.225    0.462   86.039    8.410
  395.000    0.234    0.472   86.040    8.252
  395.250    0.243    0.461   87.885    8.097
  395.500    0.248    0.461   89.116    7.945
  395.750    0.243    0.465   87.273    7.945
  396.000    0.241    0.449   84.815    8.405
  396.250    0.245    0.435   82.357    8.564
  396.500    0.240    0.430   87.277    8.726
  396.750    0.259    0.430   89.737    8.562
  397.000    0.240    0.434   90.353    8.401
  397.250    0.250    0.440   92.199    8.244
  397.500    0.257    0.455   92.814    7.938
  397.750    0.241    0.465   88.513    7.644
  398.000    0.242    0.477   85.440    7.224
  398.250    0.273    0.486   84.826    7.088
  398.500    0.277    0.481   83.598    6.955
  398.750    0.284    0.477   81.140    6.954
  399.000    0.291    0.481   77.453    7.086
  399.250    0.293    0.481   74.380    7.220
  399.500    0.280    0.483   76.226    7.356
  399.750    0.272    0.489   78.686    7.355
  400.000    0.266    0.455   80.206    7.353
  400.250    0.260    0.444   82.049    7.082
  400.500    0.244    0.432   80.832    6.693
  400.750    0.253    0.432   82.674    6.207
  401.000    0.241    0.459   85.130    5.441
  401.250    0.204    0.479   87.587    4.860
  401.500    0.227    0.489   87.592    4.593
  401.750    0.230    0.484   83.927    4.508
  402.000    0.229    0.478   82.095    4.508
  402.250    0.224    0.500   88.225    4.593
  402.500    0.234    0.499   88.844    4.681
  402.750    0.228    0.498   91.912    4.952
  403.000    0.231    0.506   95.593    5.047
  403.250    0.233    0.520   94.375    5.340
  403.500    0.223    0.508   92.544    5.757
  403.750    0.233    0.500   85.816    6.207
  404.000    0.245    0.466   82.762    6.568
  404.250    0.231    0.457   83.381    6.693
  404.500    0.217    0.462   87.673    6.693
  404.750    0.215    0.466   89.517    6.325
  405.000    0.212    0.456   91.359    6.092
  405.250    0.194    0.448   98.101    5.867
