~VERSION INFORMATION
 VERS.                 2.0:   CWLS LOG ASCII STANDARD -VERSION 2.0
 WRAP.                  NO:   ONE LINE PER DEPTH STEP
~WELL INFORMATION BLOCK
#MNEM.UNIT           DATA                    DESCRIPTION OF MNEMONIC
#---------    -------------------            -------------------------------
# Generated from Intellog Unique Number	CW_82_90/WELL/3036
WELL.         PAN AM UN0                     : Well_name    - WELL
LOC .         00/11-24-084-25W4/0            : Location     - LOCATION
UWI .         00/11-24-084-25W4/0            : Uwi          - UNIQUE WELL ID
ENTR.         TIM                            : Entered      - ENTERED BY
SRVC.         SCHLUMBERGER                   : Scn          - SERVICE COMPANY
DATE.         2 FEB 76                       : Date         - LOG DATE
STRT.F        1000                           : top_depth    - START DEPTH
STOP.F        1240.32                        : bot_depth    - STOP DEPTH
STEP.F        0.82                           : increment    - STEP LENGTH
 NULL. -999.2500:NULL Value
~CURVE INFORMATION BLOCK
#MNEM UNIT       ERCB CURVE CODE    CURVE DESCRIPTION
#-----------   ------------------   ----------------------------------
DEPT.F        00 001 00 00         : DEPTH        - DEPTH
GR  .API      00 310 00 00         : GR           - GAMMA RAY
NPHI.V/V      00 330 00 00         : PHIN         - NEUTRON POROSITY (SANDSTONE)
ILD .OHMM     00 120 00 00         : RESD         - DEEP RESISTIVITY (DLL)
~PARAMETER INFORMATION
#MNEM.UNIT           DATA             DESCRIPTION OF MNEMONIC
#---------         -----------     ------------------------------
GL  .F        1755                 : gl           - GROUND LEVEL ELEVATION
EREF.F        1768                 : kb           - ELEVATION OF DEPTH REFERENCE
DATM.F        1768                 : datum        - DATUM ELEVATION
TDD .F        1240                 : tdd          - TOTAL DEPTH DRILLER
BASE.         EDMONTON             : Branch       - HOME BASE OF LOGGING UNIT
MATR.         SANDSTONE            : Logunit      - NEUTRON MATRIX
TMAX.F        68                   : BHT          - MAXIMUM RECORDED TEMPERATURE
BHTD.F        1300                 : BHTDEP       - MAXIMUM RECORDED TEMPERATURE
RMT .F        58                   : MDTP         - TEMPERATURE OF MUD
MUDD.LB/G     0                    : MWT          - MUD DENSITY
NEUT.         0                    : NEUTRON      - NEUTRON TYPE
RESI.         1                    : RESIST       - RESISTIVITY TYPE
RM  .OHMM     2.78                 : RM           - RESISTIVITY OF MUD
RMC .OHMM     3.2                  : RMC          - RESISTIVITY OF MUD CAKE
RMF .OHMM     2.13                 : RMF          - RESISTIVITY OF MUD FILTRATE
SUFT.F        39.2                 : SUFT         - SURFACE TEMPERATURE
~A  DEPTH       GR     PHIN     RESD
 1000.000   78.979    0.017   14.787
 1000.820   79.347    0.019   14.980
 1001.640   74.902    0.034   15.373
 1002.460   66.589    0.138   16.779
 1003.280   54.385    0.130   18.793
 1004.100   57.677    0.121   21.212
 1004.920   79.366    0.141   21.804
 1005.740   81.208    0.297   21.393
 1006.560   78.721    0.342   20.368
 1007.380   89.289    0.329   19.141
 1008.200   88.183    0.282   17.711
 1009.020   85.672    0.249   14.857
 1009.840   88.020    0.219   13.630
 1010.660   84.036    0.297   13.418
 1011.480   79.591    0.314   14.422
 1012.300   71.255    0.308   16.840
 1013.120   73.580    0.299   18.854
 1013.940   81.247    0.289   20.257
 1014.760   89.398    0.292   20.042
 1015.580   95.591    0.346   19.014
 1016.400   94.531    0.433   18.195
 1017.220   87.646    0.482   18.186
 1018.040   83.685    0.519   18.984
 1018.860   73.898    0.557   20.596
 1019.690   81.565    0.571   21.596
 1020.510   89.692    0.574   20.977
 1021.330   89.600    0.566   20.154
 1022.150   85.132    0.517   18.724
 1022.970   86.973    0.442   17.497
 1023.790   88.838    0.391   15.864
 1024.610   89.712    0.318   14.637
 1025.430   89.620    0.261   13.812
 1026.250   85.635    0.258   14.613
 1027.070   85.543    0.205   14.803
 1027.890   86.417    0.084   14.383
 1028.710   85.311    0.112   13.969
 1029.530   83.790    0.119   13.144
 1030.350   83.698    0.122   11.916
 1031.170   84.572    0.100   11.299
 1031.990   84.963    0.078   10.066
 1032.810   85.837    0.060    9.449
 1033.630   86.711    0.055    8.421
 1034.450   88.576    0.090    8.010
 1035.270   90.901    0.144    7.593
 1036.090   88.851    0.235    7.581
 1036.910   83.439    0.264    7.563
 1037.730   83.346    0.290    7.756
 1038.550   88.066    0.361    7.750
 1039.370   86.062    0.365    8.343
 1040.190   83.528    0.301    9.141
 1041.010   86.360    0.283    9.537
 1041.830   86.244    0.262   10.741
 1042.650   84.701    0.271   12.349
 1043.470   83.157    0.276   14.363
 1044.290   79.173    0.273   15.164
 1045.110   77.607    0.275   16.975
 1045.930   79.011    0.286   20.406
 1046.750   83.270    0.292   21.201
 1047.570   87.529    0.304   20.180
 1048.390   93.262    0.321   17.534
 1049.210   94.620    0.338   14.686
 1050.030   92.086    0.301   12.243
 1050.850   91.510    0.269   11.016
 1051.670   91.417    0.239   10.801
 1052.490   92.775    0.252   11.397
 1053.310   94.133    0.279   12.395
 1054.130   93.556    0.304   12.788
 1054.950   92.013    0.356   12.779
 1055.770   94.338    0.341   12.362
 1056.590   93.762    0.330   12.144
 1057.410   91.712    0.342   11.935
 1058.230   88.718    0.329   12.329
 1059.060   91.043    0.314   13.127
 1059.880  103.568    0.313   13.115
 1060.700  106.860    0.324   13.103
 1061.520  106.768    0.344   12.888
 1062.340  110.543    0.347   12.876
 1063.160  110.934    0.349   12.864
 1063.980  112.269    0.309   12.852
 1064.800  110.748    0.284   13.042
 1065.620  106.281    0.275   14.448
 1066.440  101.836    0.274   16.870
 1067.260   96.885    0.281   19.691
 1068.080   91.957    0.298   21.099
 1068.900   87.005    0.339   22.094
 1069.720   81.087    0.330   22.291
 1070.540   80.994    0.317   22.279
 1071.360   87.694    0.302   21.254
 1072.180   90.019    0.281   20.232
 1073.000   91.837    0.271   17.381
 1073.820   90.270    0.255   15.951
 1074.640   89.257    0.237   15.331
 1075.460   87.691    0.242   15.727
 1076.280   87.091    0.280   18.349
 1077.100   86.054    0.309   20.362
 1077.920   84.511    0.304   22.781
 1078.740   75.208    0.294   26.215
 1079.560   58.628    0.291   34.711
 1080.380   49.786    0.340   38.550
 1081.200   45.364    0.351   43.602
 1082.020   50.107    0.370   42.983
 1082.840   66.478    0.384   41.148
 1083.660   74.628    0.372   27.966
 1084.480   77.920    0.340   24.916
 1085.300   76.860    0.297   21.865
 1086.120   77.251    0.270   19.625
 1086.940   72.323    0.239   19.410
 1087.760   68.316    0.233   20.209
 1088.580   68.706    0.254   21.611
 1089.400   70.571    0.368   22.413
 1090.220   70.478    0.405   22.806
 1091.040   72.296    0.407   22.388
 1091.860   73.654    0.393   21.363
 1092.680   74.552    0.370   20.136
 1093.500   76.370    0.338   18.909
 1094.320   78.165    0.359   17.681
 1095.140   79.569    0.382   16.248
 1095.960   80.490    0.377   15.429
 1096.780   78.440    0.372   14.809
 1097.600   81.732    0.403   14.190
 1098.430   85.991    0.441   13.972
 1099.250   87.855    0.432   13.966
 1100.070   85.345    0.419   13.954
 1100.890   80.877    0.409   13.736
 1101.710   80.784    0.409   13.724
 1102.530   87.968    0.407   13.307
 1103.350   91.260    0.408   12.684
 1104.170   91.167    0.416   12.678
 1104.990   85.249    0.430   12.463
 1105.810   84.166    0.442   12.851
 1106.630   85.524    0.448   12.845
 1107.450   86.882    0.444   13.035
 1108.270   83.911    0.423   13.020
 1109.090   74.608    0.409   13.008
 1109.910   69.656    0.385   12.793
 1110.730   75.873    0.383   12.376
 1111.550   83.033    0.401   12.168
 1112.370   87.269    0.414   11.750
 1113.190   86.692    0.429   11.333
 1114.010   85.172    0.429   10.713
 1114.830   80.244    0.420   10.499
 1115.650   75.293    0.420   10.892
 1116.470   67.924    0.436   11.488
 1117.290   72.206    0.449   11.273
 1118.110   83.742    0.457   11.055
 1118.930   88.461    0.447   10.641
 1119.750   86.918    0.430   10.221
 1120.570   86.341    0.416    9.807
 1121.390   89.173    0.426    9.387
 1122.210   96.310    0.453    9.172
 1123.030   94.306    0.468    8.755
 1123.850   90.345    0.469    8.543
 1124.670   88.755    0.459    8.126
 1125.490   85.785    0.444    7.911
 1126.310   77.932    0.430    7.494
 1127.130   73.487    0.420    7.280
 1127.950   71.921    0.455    7.267
 1128.770   67.960    0.484    7.458
 1129.590   60.107    0.504    8.259
 1130.410   53.682    0.499   10.880
 1131.230   51.655    0.454   41.869
 1132.050   49.145    0.436   45.905
 1132.870   44.677    0.434   45.893
 1133.690   41.706    0.452   45.277
 1134.510   41.107    0.465   43.438
 1135.330   45.389    0.451   42.214
 1136.150   52.089    0.421   39.363
 1136.980   61.667    0.406   37.531
 1137.800   59.640    0.393   35.696
 1138.620   54.228    0.388   34.465
 1139.440   46.859    0.397   33.849
 1140.260   42.875    0.412   33.432
 1141.080   46.674    0.402   34.027
 1141.900   51.900    0.390   35.028
 1142.720   47.916    0.385   37.447
 1143.540   46.349    0.385   40.473
 1144.360   45.796    0.394   44.110
 1145.180   46.164    0.404   46.326
 1146.000   45.587    0.407   47.327
 1146.820   44.528    0.402   46.302
 1147.640   43.468    0.399   44.062
 1148.460   41.441    0.409   41.822
 1149.280   40.841    0.421   38.366
 1150.100   40.265    0.433   35.316
 1150.920   40.196    0.417   34.291
 1151.740   41.070    0.388   36.507
 1152.560   42.911    0.380   42.572
 1153.380   43.786    0.387   44.588
 1154.200   43.693    0.401   46.602
 1155.020   43.600    0.413   48.413
 1155.840   43.507    0.404   49.819
 1156.660   40.950    0.388   51.025
 1157.480   38.440    0.384   72.845
 1158.300   35.953    0.397   80.803
 1159.120   34.386    0.406   90.820
 1159.940   34.777    0.417   98.778
 1160.760   35.168    0.426  106.736
 1161.580   33.624    0.433  114.695
 1162.400   31.114    0.421  126.702
 1163.220   26.623    0.396  138.709
 1164.040   23.145    0.380  152.775
 1164.860   20.151    0.353  176.928
 1165.680   19.575    0.362  221.361
 1166.500   21.416    0.369  271.832
 1167.320   28.116    0.379  269.668
 1168.140   31.409    0.391  237.138
 1168.960   34.700    0.406  166.108
 1169.780   36.565    0.414  109.284
 1170.600   39.374    0.419   70.646
 1171.420   41.215    0.419   70.506
 1172.240   41.606    0.400   80.454
 1173.060   40.523    0.393   86.457
 1173.880   39.463    0.387  106.562
 1174.700   38.403    0.384  130.716
 1175.520   38.310    0.375  154.869
 1176.350   38.218    0.390  174.974
 1177.170   37.641    0.406  191.065
