~VERSION INFORMATION
 VERS.                 2.0:   CWLS LOG ASCII STANDARD -VERSION 2.0
 WRAP.                  NO:   ONE LINE PER DEPTH STEP
~WELL INFORMATION BLOCK
#MNEM.UNIT           DATA                    DESCRIPTION OF MNEMONIC
#---------    -------------------            -------------------------------
# Generated from Intellog Unique Number	CS_71_72/WELL/916
WELL.         AEC IPIATIK PAPA               : Well_name    - WELL
LOC .         00/12-18-071-04W4/0            : Location     - LOCATION
UWI .         00/12-18-071-04W4/0            : Uwi          - UNIQUE WELL ID
ENTR.         SP                             : Entered      - ENTERED BY
SRVC.         SCHLUMBERGER                   : Scn          - SERVICE COMPANY
STRT.M        290                            : top_depth    - START DEPTH
STOP.M        520                            : bot_depth    - STOP DEPTH
STEP.M        0.25                           : increment    - STEP LENGTH
 NULL. -999.2500:NULL Value
~CURVE INFORMATION BLOCK
#MNEM UNIT       ERCB CURVE CODE    CURVE DESCRIPTION
#-----------   ------------------   ----------------------------------
DEPT.M        00 001 00 00         : DEPTH        - DEPTH
ILD .OHMM     00 120 00 00         : RESD         - DEEP RESISTIVITY (DIL)
DPHI.V/V      00 890 00 00         : PHID         - DENSITY POROSITY (LIMESTONE)
NPHI.V/V      00 330 00 00         : PHIN         - NEUTRON POROSITY (LIMESTONE)
GR  .API      00 310 00 00         : GR           - GAMMA RAY
~PARAMETER INFORMATION
#MNEM.UNIT           DATA             DESCRIPTION OF MNEMONIC
#---------         -----------     ------------------------------
GL  .M        669.95               : gl           - GROUND LEVEL ELEVATION
EREF.M        674.21               : kb           - ELEVATION OF DEPTH REFERENCE
DATM.M        669.95               : datum        - DATUM ELEVATION
TDD .M        545                  : tdd          - TOTAL DEPTH DRILLER
RUN .         ONE                  : Run          - RUN NUMBER
ENG .         BILL                 : Engineer     - RECORDING ENGINEER
WIT .         JIM                  : Witness      - WITNESSED BY
MUD .         GEL                  : Mud_type     - MUD TYPE
MATR.         LIMESTONE            : Logunit      - NEUTRON MATRIX
TMAX.C        22                   : BHT          - MAXIMUM RECORDED TEMPERATURE
BHTD.M        545                  : BHTDEP       - MAXIMUM RECORDED TEMPERATURE
MATR.         1                    : LOGUNIT      - NEUTRON MATRIX
RMT .C        25                   : MDTP         - TEMPERATURE OF MUD
NEUT.         1                    : NEUTRON      - NEUTRON TYPE
RESI.         0                    : RESIST       - RESISTIVITY TYPE
RMC .OHMM     0.25                 : RMC          - RESISTIVITY OF MUD CAKE
RMF .OHMM     0.25                 : RMF          - RESISTIVITY OF MUD FILTRATE
SUFT.C        15                   : SUFT         - SURFACE TEMPERATURE
~A  DEPTH     RESD     PHID     PHIN       GR
# ...
  333.500    7.339    0.195    0.395   74.374
  333.750    7.062    0.219    0.417   77.627
  334.000    6.974    0.219    0.445   81.065
  334.250    6.875    0.206    0.473   84.806
  334.500    6.678    0.202    0.504   88.366
  334.750    6.582    0.217    0.511   90.887
  335.000    6.465    0.230    0.509   92.864
  335.250    6.397    0.222    0.527   93.802
  335.500    6.473    0.199    0.515   93.820
  335.750    6.635    0.224    0.492   93.417
  336.000    6.866    0.256    0.478   93.014
  336.250    7.065    0.264    0.484   91.452
  336.500    7.188    0.274    0.487   88.239
  336.750    7.356    0.266    0.465   85.393
  337.000    7.470    0.256    0.453   84.320
  337.250    7.587    0.236    0.447   86.049
  337.500    7.634    0.232    0.458   88.695
  337.750    7.470    0.220    0.469   89.569
  338.000    7.042    0.207    0.473   85.750
  338.250    6.801    0.223    0.458   80.283
  338.500    6.605    0.237    0.440   75.914
  338.750    6.547    0.225    0.456   81.245
  339.000    6.517    0.220    0.475   84.442
  339.250    6.508    0.227    0.497   85.250
  339.500    6.523    0.248    0.481   83.018
  339.750    6.539    0.258    0.463   74.382
  340.000    6.543    0.265    0.455   70.316
  340.250    6.535    0.256    0.465   69.304
  340.500    6.539    0.258    0.470   71.096
  340.750    6.544    0.267    0.459   73.372
  341.000    6.536    0.275    0.453   75.222
  341.250    6.527    0.265    0.457   74.939
  341.500    6.470    0.260    0.468   71.548
  341.750    6.179    0.260    0.463   66.937
  342.000    5.813    0.252    0.446   63.300
  342.250    5.369    0.252    0.432   60.333
  342.500    4.822    0.263    0.425   56.270
  342.750    4.453    0.272    0.428   51.778
  343.000    4.214    0.298    0.433   47.535
  343.250    4.054    0.310    0.436   45.724
  343.500    3.908    0.322    0.434   43.368
  343.750    3.796    0.328    0.432   41.930
  344.000    3.721    0.335    0.438   43.169
  344.250    3.695    0.338    0.448   46.485
  344.500    3.684    0.340    0.458   50.776
  344.750    3.686    0.345    0.465   55.618
  345.000    3.695    0.333    0.430   59.973
  345.250    3.704    0.328    0.430   63.229
  345.500    3.728    0.318    0.442   64.892
  345.750    3.765    0.321    0.449   64.487
  346.000    3.838    0.326    0.438   57.434
  346.250    3.905    0.335    0.421   51.175
  346.500    3.973    0.331    0.410   47.478
  346.750    4.096    0.325    0.418   49.514
  347.000    4.168    0.322    0.422   52.590
  347.250    4.233    0.311    0.428   54.680
  347.500    4.260    0.315    0.435   57.516
  347.750    4.254    0.317    0.448   58.506
  348.000    4.248    0.320    0.456   58.777
  348.250    4.267    0.308    0.446   57.524
  348.500    4.277    0.301    0.444   57.291
  348.750    4.280    0.299    0.456   57.376
  349.000    4.259    0.297    0.456   58.189
  349.250    4.237    0.296    0.449   59.736
  349.500    4.193    0.299    0.444   62.199
  349.750    4.118    0.306    0.446   64.781
  350.000    4.068    0.305    0.449   67.062
  350.250    4.100    0.300    0.453   68.303
  350.500    4.110    0.297    0.457   68.755
  350.750    4.113    0.293    0.460   68.104
  351.000    4.107    0.286    0.465   63.373
  351.250    4.073    0.293    0.464   59.916
  351.500    4.074    0.301    0.456   60.608
  351.750    4.077    0.294    0.451   63.009
  352.000    4.117    0.296    0.464   65.234
  352.250    4.197    0.295    0.474   66.784
  352.500    4.335    0.297    0.481   67.470
  352.750    4.485    0.302    0.470   67.921
  353.000    4.702    0.291    0.468   67.271
  353.250    4.830    0.274    0.471   65.707
  353.500    4.887    0.263    0.475   62.866
  353.750    4.702    0.254    0.483   60.685
  354.000    4.383    0.269    0.493   56.198
  354.250    4.163    0.284    0.487   52.742
  354.500    3.976    0.308    0.469   49.780
  354.750    3.840    0.317    0.450   48.459
  355.000    3.827    0.316    0.442   46.170
  355.250    3.851    0.258    0.439   45.026
  355.500    3.818    0.223    0.435   43.706
  355.750    3.716    0.246    0.427   44.825
  356.000    3.642    0.273    0.422   49.422
  356.250    3.570    0.299    0.415   51.762
  356.500    3.488    0.309    0.421   52.394
  356.750    3.464    0.317    0.429   52.050
  357.000    3.465    0.322    0.421   53.110
  357.250    3.473    0.321    0.424   55.390
  357.500    3.548    0.317    0.437   58.034
  357.750    3.610    0.308    0.444   61.168
  358.000    3.707    0.299    0.448   63.385
  358.250    3.772    0.290    0.455   65.112
  358.500    3.774    0.280    0.474   67.332
  358.750    3.735    0.263    0.494   69.182
  359.000    3.850    0.246    0.512   70.361
  359.250    4.029    0.260    0.508   70.400
  359.500    4.130    0.254    0.506   69.922
  359.750    4.109    0.267    0.514   67.020
  360.000    3.838    0.292    0.538   59.901
  360.250    3.591    0.314    0.552   47.239
  360.500    3.385    0.428    0.567   42.140
  360.750    3.144    0.303    0.626   38.502
  361.000    2.997    0.310    0.525   36.332
  361.250    2.916    0.332    0.485   37.388
  361.500    2.811    0.345    0.453   40.459
  361.750    2.705    0.360    0.469   42.801
  362.000    2.671    0.371    0.466   44.905
  362.250    2.614    0.308    0.436   45.594
  362.500    2.581    0.298    0.410   45.679
  362.750    2.564    0.308    0.407   45.213
  363.000    2.537    0.326    0.412   44.861
  363.250    2.524    0.321    0.423   44.278
  363.500    2.497    0.313    0.431   45.517
  363.750    2.480    0.318    0.440   47.618
  364.000    2.473    0.326    0.464   48.611
  364.250    2.484    0.329    0.453   48.699
  364.500    2.504    0.327    0.439   48.410
  364.750    2.524    0.324    0.426   47.221
  365.000    2.545    0.317    0.427   46.267
  365.250    2.565    0.319    0.437   45.978
  365.500    2.630    0.323    0.439   46.559
  365.750    2.690    0.327    0.435   46.876
  366.000    2.743    0.321    0.430   48.001
  366.250    2.689    0.314    0.430   48.812
  366.500    2.582    0.305    0.443   49.687
  366.750    2.498    0.297    0.455   50.074
  367.000    2.519    0.293    0.465   49.791
  367.250    2.700    0.311    0.474   49.392
  367.500    2.972    0.326    0.491   50.149
  367.750    3.126    0.311    0.500   51.817
  368.000    3.272    0.206    0.471   53.181
  368.250    3.316    0.188    0.435   53.684
  368.500    3.074    0.177    0.410   54.256
  368.750    2.850    0.218    0.389   53.302
  369.000    2.656    0.246    0.424   50.831
  369.250    2.523    0.283    0.457   49.687
  369.500    2.510    0.322    0.466   47.459
  369.750    2.489    0.323    0.464   46.078
  370.000    2.467    0.325    0.477   45.368
  370.250    2.464    0.306    0.489   45.145
  370.500    2.475    0.300    0.470   45.169
  370.750    2.495    0.313    0.460   46.047
  371.000    2.529    0.305    0.470   46.918
  371.250    2.588    0.294    0.468   47.671
  371.500    2.663    0.307    0.457   49.769
  371.750    2.740    0.323    0.457   52.411
  372.000    2.809    0.339    0.465   55.117
  372.250    2.896    0.336    0.476   57.517
  372.500    2.935    0.297    0.476   59.674
  372.750    2.976    0.313    0.472   61.648
  373.000    3.017    0.318    0.481   63.379
  373.250    3.041    0.320    0.489   64.929
  373.500    3.054    0.311    0.493   65.869
  373.750    3.067    0.303    0.501   66.499
  374.000    3.076    0.293    0.508   67.195
  374.250    3.054    0.292    0.519   68.256
  374.500    3.050    0.287    0.531   69.433
  374.750    3.081    0.279    0.524   71.529
  375.000    3.175    0.274    0.512   73.620
  375.250    3.360    0.266    0.508   75.774
  375.500    3.549    0.262    0.516   77.813
  375.750    3.714    0.259    0.519   78.867
  376.000    3.772    0.258    0.509   79.988
  376.250    3.697    0.255    0.499   81.112
  376.500    3.578    0.253    0.488   81.692
  376.750    3.430    0.255    0.487   80.924
