~VERSION INFORMATION
 VERS.                 2.0:   CWLS LOG ASCII STANDARD -VERSION 2.0
 WRAP.                  NO:   ONE LINE PER DEPTH STEP
~WELL INFORMATION BLOCK
#MNEM.UNIT           DATA                    DESCRIPTION OF MNEMONIC
#---------    -------------------            -------------------------------
# Generated from Intellog Unique Number	CW_73_75/WELL/2738
WELL.         MANNVILLE ET AL FAWCETT 10-05  : Well_name    - WELL
LOC .         00/10-05-073-01W5/0            : Location     - LOCATION
UWI .         00/10-05-073-01W5/0            : Uwi          - UNIQUE WELL ID
ENTR.         JAYE                           : Entered      - ENTERED BY
SRVC.         SCHLUMBERGER                   : Scn          - SERVICE COMPANY
DATE.         20 NOV 77                      : Date         - LOG DATE
STRT.M        426.72                         : top_depth    - START DEPTH
STOP.M        685.72                         : bot_depth    - STOP DEPTH
STEP.M        0.25                           : increment    - STEP LENGTH
 NULL. -999.2500:NULL Value
~CURVE INFORMATION BLOCK
#MNEM UNIT       ERCB CURVE CODE    CURVE DESCRIPTION
#-----------   ------------------   ----------------------------------
DEPT.M        00 001 00 00         : DEPTH        - DEPTH
DPHI.V/V      00 890 00 00         : PHID         - DENSITY POROSITY (SANDSTONE)
NPHI.V/V      00 330 00 00         : PHIN         - NEUTRON POROSITY (SANDSTONE)
GR  .API      00 310 00 00         : GR           - GAMMA RAY
CALI.MM       00 280 01 00         : CAL          - CALIPER
ILD .OHMM     00 120 00 00         : RESD         - DEEP RESISTIVITY (DIL)
~PARAMETER INFORMATION
#MNEM.UNIT           DATA             DESCRIPTION OF MNEMONIC
#---------         -----------     ------------------------------
GL  .M        635.203              : gl           - GROUND LEVEL ELEVATION
EREF.M        638.251              : kb           - ELEVATION OF DEPTH REFERENCE
DATM.M        635.203              : datum        - DATUM ELEVATION
TDD .M        694.944              : tdd          - TOTAL DEPTH DRILLER
RUN .         ONE                  : Run          - RUN NUMBER
ENG .         KUBICA/RIVOLLIER     : Engineer     - RECORDING ENGINEER
WIT .         WOOLLEY              : Witness      - WITNESSED BY
BASE.         EDM                  : Branch       - HOME BASE OF LOGGING UNIT
MUD .         GEL                  : Mud_type     - MUD TYPE
MATR.         SANDSTONE            : Logunit      - NEUTRON MATRIX
TMAX.C        21.1111              : BHT          - MAXIMUM RECORDED TEMPERATURE
BHTD.M        694.944              : BHTDEP       - MAXIMUM RECORDED TEMPERATURE
RMT .C        11.1111              : MDTP         - TEMPERATURE OF MUD
MUDD.KG/M     1116                 : MWT          - MUD DENSITY
NEUT.         1                    : NEUTRON      - NEUTRON TYPE
RESI.         0                    : RESIST       - RESISTIVITY TYPE
RM  .OHMM     3.89                 : RM           - RESISTIVITY OF MUD
RMC .OHMM     0                    : RMC          - RESISTIVITY OF MUD CAKE
RMF .OHMM     5.51                 : RMF          - RESISTIVITY OF MUD FILTRATE
SUFT.C        -17.7778             : SUFT         - SURFACE TEMPERATURE
~A  DEPTH     PHID     PHIN       GR      CAL     RESD
# ...
  499.720    0.062    0.219   54.757  182.150    9.611
  499.970    0.081    0.212   57.291  182.423   10.432
  500.220    0.045    0.201   57.335  182.714   11.238
  500.470    0.039    0.176   52.579  182.789   11.877
  500.720    0.006    0.145   50.998  182.640   12.843
  500.970    0.020    0.134   50.418  182.192   13.651
  501.220    0.013    0.128   50.147  182.045   14.127
  501.470    0.012    0.133   50.750  181.697   13.650
  501.720    0.018    0.155   52.535  181.654   12.915
  501.970    0.029    0.197   55.820  181.521   11.966
  502.220    0.042    0.217   58.791  181.379   11.086
  502.470    0.059    0.239   60.331  181.028   10.154
  502.720    0.145    0.262   61.496  180.148    9.553
  502.970    0.163    0.284   62.345  178.631    8.683
  503.220    0.182    0.310   63.138  175.123    7.863
  503.470    0.206    0.350   63.927  172.123    7.066
  503.720    0.200    0.378   64.719  169.459    6.435
  503.970    0.198    0.399   66.444  167.094    5.962
  504.220    0.212    0.408   68.289  165.476    5.430
  504.470    0.242    0.411   64.092  164.390    4.964
  504.720    0.229    0.405   65.259  163.515    4.461
  504.970    0.243    0.396   63.927  162.744    3.948
  505.220    0.222    0.402   60.418  162.182    3.428
  505.470    0.230    0.414   59.029  161.936    3.099
  505.720    0.268    0.406   60.563  161.805    2.921
  505.970    0.245    0.396   61.975  161.862    2.817
  506.220    0.242    0.387   60.587  161.936    2.758
  506.470    0.263    0.388   59.941  161.904    2.747
  506.720    0.250    0.389   60.668  161.857    2.779
  506.970    0.256    0.391   61.706  161.624    2.811
  507.220    0.234    0.412   62.932  161.684    2.838
  507.470    0.229    0.399   66.904  161.558    2.870
  507.720    0.245    0.383   68.505  161.518    2.876
  507.970    0.260    0.377   67.175  161.478    2.865
  508.220    0.272    0.398   64.972  161.546    2.837
  508.470    0.263    0.408   66.945  161.427    2.816
  508.720    0.243    0.400   69.421  161.495    2.816
  508.970    0.260    0.396   71.770  161.564    2.826
  509.220    0.255    0.400   72.994  161.621    2.897
  509.470    0.238    0.406   72.226  161.801    2.970
  509.720    0.264    0.404   68.652  161.979    3.010
  509.970    0.262    0.397   70.314  161.843    3.033
  510.220    0.243    0.393   71.539  161.706    3.032
  510.470    0.244    0.398   71.584  161.677    3.009
  510.720    0.260    0.410   69.192  161.943    2.992
  510.970    0.254    0.410   68.429  161.916    2.969
  511.220    0.260    0.392   69.779  162.203    2.963
  511.470    0.269    0.377   71.501  162.272    2.935
  511.720    0.241    0.367   74.597  162.243    2.896
  511.970    0.225    0.380   78.818  162.010    2.874
  512.220    0.223    0.384   82.348  161.954    2.830
  512.470    0.242    0.412   82.452  161.807    2.730
  512.720    0.264    0.413   80.249  161.555    2.683
  512.970    0.290    0.399   77.301  161.219    2.678
  513.220    0.279    0.392   77.030  161.384    2.688
  513.470    0.273    0.403   83.493  161.564    2.719
  513.720    0.256    0.399   79.672  161.642    2.755
  513.970    0.258    0.394   77.032  161.822    2.814
  514.220    0.250    0.388   76.201  162.000    2.879
  514.470    0.242    0.383   76.117  162.068    2.945
  514.720    0.269    0.396   75.973  162.237    2.996
  514.970    0.261    0.385   76.144  162.301    3.071
  515.220    0.252    0.406   76.056  162.794    3.130
  515.470    0.249    0.416   75.172  163.397    3.227
  515.720    0.236    0.432   73.211  164.414    3.359
  515.970    0.257    0.420   68.578  166.601    3.503
  516.220    0.243    0.420   69.868  168.780    3.695
  516.470    0.237    0.410   70.968  169.801    3.773
  516.720    0.229    0.421   67.207  169.980    3.773
  516.970    0.246    0.407   67.436  169.738    3.716
  517.220    0.257    0.387   70.594  169.174    3.730
  517.470    0.256    0.401   75.062  168.188    3.868
  517.720    0.252    0.393   74.293  167.835    4.198
  517.970    0.235    0.265   69.785  169.061    4.592
  518.220    0.164    0.219   64.217  171.034    5.462
  518.470    0.125    0.143   59.649  173.954    6.737
  518.720    0.038    0.129   57.256  177.829    8.716
  518.970    0.018    0.123   55.927  180.222   11.471
  519.220    0.011    0.126   55.097  180.296   12.667
  519.470    0.009    0.139   54.515  178.044   11.062
  519.720    0.011    0.158   55.870  176.221    9.211
  519.970    0.027    0.184   58.590  174.807    7.596
  520.220    0.068    0.289   61.562  173.192    6.583
  520.470    0.121    0.331   65.281  170.941    5.587
  520.720    0.158    0.351   69.499  169.320    5.079
  520.970    0.125    0.296   72.409  170.125    4.714
  521.220    0.098    0.296   69.210  173.369    4.529
  521.470    0.115    0.342   65.138  177.024    4.460
  521.720    0.152    0.410   68.857  167.809    4.343
  521.970    0.202    0.428   72.142  165.240    4.117
  522.220    0.242    0.413   72.556  163.939    3.785
  522.470    0.251    0.400   71.413  165.069    3.520
  522.720    0.240    0.400   75.008  165.879    3.414
  522.970    0.215    0.416   80.100  165.527    3.375
  523.220    0.224    0.420   83.822  165.183    3.375
  523.470    0.233    0.419   80.060  165.355    3.447
  523.720    0.241    0.424   79.855  166.157    3.526
  523.970    0.240    0.428   83.446  166.658    3.567
  524.220    0.225    0.426   89.536  168.943    3.594
  524.470    0.209    0.410   93.378  173.863    3.635
  524.720    0.186    0.397   96.724  177.953    3.741
  524.970    0.168    0.391   99.391  174.849    3.820
  525.220    0.196    0.418  100.862  169.436    3.776
  525.470    0.226    0.429  100.466  163.807    3.573
  525.720    0.251    0.426   89.228  161.878    3.452
  525.970    0.274    0.406   82.972  161.942    3.413
  526.220    0.291    0.402   79.647  162.435    3.419
  526.470    0.287    0.413   80.938  163.140    3.446
  526.720    0.296    0.422   83.784  163.016    3.512
  526.970    0.283    0.434   84.946  162.548    3.572
  527.220    0.263    0.435   82.433  162.294    3.669
  527.470    0.264    0.427   78.736  162.063    3.790
  527.720    0.272    0.420   76.346  162.016    4.021
  527.970    0.265    0.406   73.147  162.096    4.406
  528.220    0.251    0.398   71.379  161.739    4.801
  528.470    0.246    0.396   72.171  161.717    5.122
  528.720    0.252    0.412   72.525  161.570    5.112
  528.970    0.276    0.414   71.570  161.636    4.577
  529.220    0.274    0.411   69.927  161.490    3.944
  529.470    0.276    0.417   71.214  161.356    3.551
  529.720    0.290    0.415   74.687  160.894    3.191
  529.970    0.294    0.401   78.344  161.498    2.945
  530.220    0.271    0.399   82.560  161.673    3.060
  530.470    0.230    0.399   86.907  163.967    3.246
  530.720    0.188    0.402   90.439  166.982    3.457
  530.970    0.145    0.407   94.036  169.281    3.688
  531.220    0.143    0.416   97.007  170.189    3.824
  531.470    0.178    0.427   98.416  171.741    3.973
  531.720    0.192    0.417   92.662  173.919    4.049
  531.970    0.175    0.406   97.131  174.726    4.112
  532.220    0.198    0.409   96.616  172.581    4.127
  532.470    0.209    0.412   94.036  165.900    4.135
  532.720    0.225    0.406   92.709  165.974    4.033
  532.970    0.213    0.415   93.497  167.523    3.868
  533.220    0.221    0.436   96.592  167.903    3.576
  533.470    0.242    0.424   94.141  166.497    3.314
  533.720    0.260    0.418   87.138  164.885    3.171
  533.970    0.273    0.414   81.194  164.215    3.117
  534.220    0.249    0.411   85.851  163.868    3.189
  534.470    0.238    0.429   91.256  163.948    3.269
  534.720    0.221    0.420   97.095  163.797    3.449
  534.970    0.228    0.410   98.819  164.092    3.583
  535.220    0.214    0.412  100.107  164.157    3.542
  535.470    0.227    0.430   98.029  163.817    3.409
  535.720    0.242    0.442   93.147  163.262    3.325
  535.970    0.249    0.438   94.000  162.476    3.238
