~VERSION INFORMATION
 VERS.                 2.0:   CWLS LOG ASCII STANDARD -VERSION 2.0
 WRAP.                  NO:   ONE LINE PER DEPTH STEP
~WELL INFORMATION BLOCK
#MNEM.UNIT           DATA                    DESCRIPTION OF MNEMONIC
#---------    -------------------            -------------------------------
# Generated from Intellog Unique Number	CS_67_68/WELL/810
WELL.         INTER-CITY MANFACTURING        : Well_name    - WELL
LOC .         00/10-27-068-13W4/0            : Location     - LOCATION
UWI .         00/10-27-068-13W4/0            : Uwi          - UNIQUE WELL ID
ENTR.         SP                             : Entered      - ENTERED BY
SRVC.         SCHLUMBERGER                   : Scn          - SERVICE COMPANY
STRT.M        289.56                         : top_depth    - START DEPTH
STOP.M        469.060                        : bot_depth    - STOP DEPTH
STEP.M        0.25                           : increment    - STEP LENGTH
 NULL. -999.2500:NULL Value
~CURVE INFORMATION BLOCK
#MNEM UNIT       ERCB CURVE CODE    CURVE DESCRIPTION
#-----------   ------------------   ----------------------------------
DEPT.M        00 001 00 00         : DEPTH        - DEPTH
GR  .API      00 310 00 00         : GR           - GAMMA RAY
DPHI.V/V      00 890 00 00         : PHID         - DENSITY POROSITY (SANDSTONE)
NPHI.V/V      00 330 00 00         : PHIN         - NEUTRON POROSITY (SANDSTONE)
ILD .OHMM     00 120 00 00         : RESD         - DEEP RESISTIVITY (DIL)
~PARAMETER INFORMATION
#MNEM.UNIT           DATA             DESCRIPTION OF MNEMONIC
#---------         -----------     ------------------------------
GL  .M        585.911              : gl           - GROUND LEVEL ELEVATION
EREF.M        589.188              : kb           - ELEVATION OF DEPTH REFERENCE
DATM.M        585.835              : datum        - DATUM ELEVATION
TDD .M        474.269              : tdd          - TOTAL DEPTH DRILLER
RUN .         ONE                  : Run          - RUN NUMBER
ENG .         BILL                 : Engineer     - RECORDING ENGINEER
WIT .         JIM                  : Witness      - WITNESSED BY
MUD .         GEL                  : Mud_type     - MUD TYPE
MATR.         SANDSTONE            : Logunit      - NEUTRON MATRIX
TMAX.C        18.8889              : BHT          - MAXIMUM RECORDED TEMPERATURE
BHTD.M        474.269              : BHTDEP       - MAXIMUM RECORDED TEMPERATURE
MATR.         1                    : LOGUNIT      - NEUTRON MATRIX
RMT .C        25                   : MDTP         - TEMPERATURE OF MUD
NEUT.         1                    : NEUTRON      - NEUTRON TYPE
RESI.         0                    : RESIST       - RESISTIVITY TYPE
RMC .OHMM     0.25                 : RMC          - RESISTIVITY OF MUD CAKE
RMF .OHMM     0.25                 : RMF          - RESISTIVITY OF MUD FILTRATE
SUFT.C        15                   : SUFT         - SURFACE TEMPERATURE
~A  DEPTH       GR     PHID     PHIN     RESD
# ...
  420.060  106.995    0.247    0.559    2.353
  420.310  102.451    0.232    0.553    2.645
  420.560  105.987    0.217    0.527    2.956
  420.810  105.782    0.208    0.499    3.235
  421.060  104.779    0.213    0.478    3.511
  421.310  102.830    0.219    0.460    3.884
  421.560  103.663    0.212    0.450    4.284
  421.810  105.437    0.201    0.437    4.679
  422.060  105.432    0.186    0.427    5.067
  422.310  105.112    0.167    0.415    5.416
  422.560  104.149    0.053    0.350    5.667
  422.810  100.790    0.068    0.348    5.847
  423.060   98.289    0.100    0.390    5.587
  423.310   97.013    0.137    0.386    5.162
  423.560   95.732    0.154    0.373    4.742
  423.810   96.015    0.147    0.373    4.425
  424.060   96.915    0.133    0.399    4.132
  424.310   97.650    0.153    0.419    3.977
  424.560   98.230    0.172    0.431    4.496
  424.810   96.751    0.182    0.427    5.975
  425.060   90.701    0.179    0.415    7.394
  425.310   85.847    0.159    0.384    8.669
  425.560   78.685    0.140    0.320    9.733
  425.810   64.430    0.077    0.260   10.827
  426.060   68.116    0.037    0.231    9.757
  426.310   81.331    0.027    0.252    8.346
  426.560   87.895    0.121    0.346    7.209
  426.810   93.957    0.152    0.382    6.320
  427.060   99.521    0.174    0.400    5.445
  427.310  104.951    0.182    0.407    4.884
  427.560  104.232    0.185    0.407    4.626
  427.810   99.950    0.172    0.407    4.456
  428.060   98.641    0.163    0.411    4.378
  428.310  100.774    0.152    0.418    4.273
  428.560  106.316    0.171    0.425    4.207
  428.810  110.829    0.169    0.430    4.147
  429.060  113.815    0.163    0.423    4.103
  429.310  116.063    0.186    0.418    4.091
  429.560  117.068    0.195    0.414    4.073
  429.810  115.074    0.207    0.420    4.064
  430.060  108.545    0.202    0.429    4.068
  430.310  101.706    0.195    0.434    4.117
  430.560   95.415    0.187    0.430    4.179
  430.810   90.448    0.170    0.426    4.235
  431.060   85.560    0.178    0.420    4.334
  431.310   85.788    0.191    0.420    4.438
  431.560   94.189    0.171    0.429    4.538
  431.810   95.256    0.187    0.435    4.611
  432.060   97.609    0.189    0.441    4.643
  432.310  102.411    0.167    0.441    4.671
  432.560  105.821    0.165    0.440    4.652
  432.810  107.213    0.198    0.447    4.632
  433.060  103.391    0.220    0.446    4.580
  433.310  100.992    0.221    0.432    4.498
  433.560  102.455    0.195    0.423    4.426
  433.810  104.939    0.184    0.406    4.323
  434.060  106.810    0.200    0.400    4.211
  434.310  105.619    0.188    0.393    4.133
  434.560  102.237    0.177    0.399    4.029
  434.810  100.407    0.197    0.402    3.936
  435.060  101.403    0.188    0.419    3.744
  435.310  103.432    0.163    0.425    3.329
  435.560  105.979    0.147    0.422    3.001
  435.810  108.693    0.183    0.427    2.699
  436.060  110.041    0.208    0.440    2.412
  436.310  107.819    0.208    0.459    2.220
  436.560  108.274    0.224    0.477    2.054
  436.810  112.697    0.249    0.497    1.973
  437.060  118.745    0.246    0.513    1.918
  437.310  122.580    0.236    0.529    1.906
  437.560  124.632    0.226    0.541    1.949
  437.810  126.426    0.211    0.555    2.311
  438.060  123.049    0.227    0.563    2.784
  438.310  118.643    0.216    0.562    3.443
  438.560  114.171    0.193    0.530    4.314
  438.810  109.740    0.172    0.432    5.213
  439.060  113.015    0.148    0.400    5.802
  439.310  121.792    0.122    0.373    6.128
  439.560  121.048    0.094    0.340    6.012
  439.810  118.513    0.114    0.357    5.812
  440.060  114.278    0.145    0.373    5.674
  440.310  106.842    0.165    0.390    5.558
  440.560   98.795    0.120    0.390    5.503
  440.810   92.005    0.073    0.366    5.596
  441.060   84.359    0.039    0.337    5.625
  441.310   95.573    0.060    0.331    5.375
  441.560  103.203    0.114    0.355    5.036
  441.810  106.657    0.121    0.379    4.540
  442.060  107.658    0.145    0.401    4.195
  442.310  108.691    0.171    0.413    3.877
  442.560  109.233    0.164    0.421    3.739
  442.810  106.372    0.172    0.427    3.709
  443.060  104.152    0.153    0.434    3.776
  443.310  104.082    0.116    0.440    3.923
  443.560  105.920    0.103    0.436    4.049
  443.810  108.047    0.108    0.428    4.120
  444.060  110.229    0.140    0.425    4.023
  444.310  112.795    0.163    0.424    3.778
  444.560  114.493    0.183    0.423    3.498
  444.810  112.671    0.173    0.431    3.198
  445.060  104.225    0.193    0.460    3.018
  445.310   93.341    0.209    0.477    2.983
  445.560   82.641    0.217    0.488    3.017
  445.810   75.833    0.183    0.486    3.045
  446.060   83.329    0.167    0.485    3.055
  446.310   90.262    0.181    0.481    3.094
  446.560   95.697    0.191    0.474    3.112
  446.810  100.776    0.175    0.472    3.087
  447.060  105.872    0.147    0.451    3.074
  447.310  111.530    0.140    0.425    3.007
  447.560  115.154    0.164    0.462    2.870
  447.810  114.533    0.156    0.493    2.767
  448.060  110.966    0.142    0.503    2.763
  448.310  108.073    0.143    0.486    2.846
  448.560  110.365    0.168    0.495    3.102
  448.810  114.634    0.179    0.512    3.839
  449.060  115.293    0.190    0.505    4.568
  449.310  109.086    0.174    0.500    5.526
  449.560   94.939    0.178    0.485    6.526
  449.810   84.207    0.192    0.463    7.391
  450.060   77.127    0.187    0.410    7.934
  450.310   73.198    0.171    0.368    8.340
  450.560   69.327    0.162    0.349    8.610
  450.810   66.225    0.208    0.335    8.677
  451.060   63.661    0.230    0.328    8.663
  451.310   63.170    0.225    0.321    8.574
  451.560   64.594    0.215    0.315    8.378
  451.810   66.715    0.206    0.328    8.176
  452.060   69.390    0.224    0.335    7.908
  452.310   71.135    0.236    0.347    7.670
  452.560   72.591    0.246    0.354    7.492
  452.810   73.362    0.255    0.366    7.407
  453.060   70.561    0.264    0.377    7.339
  453.310   68.454    0.233    0.378    7.187
  453.560   73.722    0.214    0.377    6.716
  453.810   84.709    0.201    0.381    6.077
  454.060   90.878    0.175    0.381    5.189
  454.310   89.499    0.150    0.386    4.644
  454.560   84.443    0.127    0.397    4.216
  454.810   79.094    0.209    0.410    3.958
  455.060   76.560    0.192    0.423    3.759
  455.310   74.123    0.184    0.435    3.675
  455.560   81.846    0.182    0.478    3.712
  455.810   89.381    0.206    0.502    4.085
  456.060   96.265    0.218    0.466    4.770
  456.310  101.690    0.209    0.441    5.548
  456.560  102.906    0.197    0.412    6.460
  456.810   98.742    0.208    0.405    7.835
  457.060   78.143    0.224    0.427    9.163
  457.310   62.965    0.247    0.444   11.065
  457.560   69.985    0.266    0.394   11.064
  457.810   82.501    0.279    0.338   10.131
  458.060   92.597    0.222    0.275    9.062
  458.310   99.544    0.177    0.326    8.051
  458.560  105.495    0.153    0.350    7.152
  458.810  112.276    0.174    0.359    6.559
  459.060  117.680    0.174    0.361    6.089
  459.310  115.232    0.167    0.368    5.756
  459.560  106.911    0.163    0.375    5.447
  459.810   99.714    0.191    0.382    5.181
  460.060   93.401    0.229    0.380    5.022
  460.310   93.356    0.227    0.359    5.107
  460.560   93.543    0.206    0.340    5.537
  460.810   92.693    0.183    0.346    5.824
  461.060   91.234    0.187    0.350    6.177
  461.310   84.205    0.198    0.349    6.447
  461.560   81.367    0.207    0.343    6.514
  461.810   78.635    0.227    0.339    6.334
  462.060   72.138    0.183    0.334    6.408
  462.310   64.394    0.163    0.330    6.904
  462.560   60.501    0.170    0.336    7.268
  462.810   59.272    0.159    0.344    7.707
  463.060   60.228    0.150    0.341    8.211
  463.310   60.730    0.141    0.325    8.474
