~VERSION INFORMATION
 VERS.                 2.0:   CWLS LOG ASCII STANDARD -VERSION 2.0
 WRAP.                  NO:   ONE LINE PER DEPTH STEP
~WELL INFORMATION BLOCK
#MNEM.UNIT           DATA                    DESCRIPTION OF MNEMONIC
#---------    -------------------            -------------------------------
# Generated from Intellog Unique Number	CW_76_78/WELL/927
WELL.         10-31-077-03W5                 : Well_name    - WELL
LOC .         00/10-31-077-03W5/0            : Location     - LOCATION
UWI .         00/10-31-077-03W5/0            : Uwi          - UNIQUE WELL ID
ENTR.         JAYE                           : Entered      - ENTERED BY
SRVC.         SCHLUMBERGER                   : Scn          - SERVICE COMPANY
DATE.         7 DEC 73                       : Date         - LOG DATE
STRT.M        362.712                        : top_depth    - START DEPTH
STOP.M        641.962                        : bot_depth    - STOP DEPTH
STEP.M        0.25                           : increment    - STEP LENGTH
 NULL. -999.2500:NULL Value
~CURVE INFORMATION BLOCK
#MNEM UNIT       ERCB CURVE CODE    CURVE DESCRIPTION
#-----------   ------------------   ----------------------------------
DEPT.M        00 001 00 00         : DEPTH        - DEPTH
GR  .API      00 310 00 00         : GR           - GAMMA RAY
CALI.MM       00 280 01 00         : CAL          - CALIPER
DPHI.V/V      00 890 00 00         : PHID         - DENSITY POROSITY (SANDSTONE)
NPHI.V/V      00 330 00 00         : PHIN         - NEUTRON POROSITY (SANDSTONE)
ILD .OHMM     00 120 00 00         : RESD         - DEEP RESISTIVITY (DLL)
~PARAMETER INFORMATION
#MNEM.UNIT           DATA             DESCRIPTION OF MNEMONIC
#---------         -----------     ------------------------------
GL  .M        680.923              : gl           - GROUND LEVEL ELEVATION
EREF.M        683.971              : kb           - ELEVATION OF DEPTH REFERENCE
DATM.M        680.923              : datum        - DATUM ELEVATION
TDD .M        649.529              : tdd          - TOTAL DEPTH DRILLER
RUN .         ONE                  : Run          - RUN NUMBER
MATR.         SANDSTONE            : Logunit      - NEUTRON MATRIX
TMAX.C        35                   : BHT          - MAXIMUM RECORDED TEMPERATURE
BHTD.M        649.529              : BHTDEP       - MAXIMUM RECORDED TEMPERATURE
RMT .C        -3.88889             : MDTP         - TEMPERATURE OF MUD
MUDD.KG/M     0                    : MWT          - MUD DENSITY
NEUT.         0                    : NEUTRON      - NEUTRON TYPE
RESI.         1                    : RESIST       - RESISTIVITY TYPE
RM  .OHMM     1.65                 : RM           - RESISTIVITY OF MUD
RMC .OHMM     0.25                 : RMC          - RESISTIVITY OF MUD CAKE
RMF .OHMM     7.25                 : RMF          - RESISTIVITY OF MUD FILTRATE
SUFT.C        4.5                  : SUFT         - SURFACE TEMPERATURE
~A  DEPTH       GR      CAL     PHID     PHIN     RESD
# ...
  435.712   43.509  161.648    0.325    0.471    8.559
  435.962   43.094  161.570    0.319    0.471    8.657
  436.212   42.805  161.809    0.306    0.470    8.774
  436.462   42.700  161.947    0.308    0.461    8.875
  436.712   43.334  162.498    0.314    0.454    8.897
  436.962   44.460  163.472    0.314    0.444    8.759
  437.212   46.388  164.017    0.288    0.431    8.179
  437.462   47.208  164.573    0.293    0.420    7.432
  437.712   48.519  165.024    0.296    0.408    6.692
  437.962   51.495  165.469    0.289    0.403    5.853
  438.212   61.497  166.541    0.275    0.426    5.309
  438.462   73.039  168.032    0.249    0.553    5.131
  438.712   86.183  169.000    0.208    0.558    5.069
  438.962   85.402  169.869    0.192    0.542    5.072
  439.212   84.370  170.521    0.179    0.503    5.168
  439.462   84.759  171.387    0.161    0.496    5.267
  439.712   87.365  172.147    0.170    0.505    5.396
  439.962   91.389  172.387    0.197    0.492    5.509
  440.212   92.640  172.419    0.189    0.502    5.685
  440.462   91.547  172.242    0.189    0.514    5.825
  440.712   90.949  172.169    0.182    0.505    5.935
  440.962   91.213  171.884    0.183    0.498    5.961
  441.212   92.094  171.918    0.171    0.492    5.762
  441.462   92.359  171.943    0.181    0.488    5.631
  441.712   90.836  171.978    0.184    0.509    5.452
  441.962   89.066  171.900    0.179    0.525    5.368
  442.212   85.388  170.887    0.186    0.529    5.480
  442.462   83.434  167.995    0.189    0.518    5.728
  442.712   82.218  166.044    0.258    0.530    6.152
  442.962   77.429  164.611    0.276    0.521    6.657
  443.212   64.753  163.287    0.268    0.507    7.243
  443.462   51.335  162.170    0.239    0.454    8.127
  443.712   48.952  160.745    0.223    0.427    8.955
  443.962   47.797  160.041    0.281    0.462    9.480
  444.212   48.309  159.234    0.309    0.509    9.872
  444.462   49.312  158.637    0.317    0.504   10.115
  444.712   50.379  158.772    0.317    0.486   10.270
  444.962   50.395  159.010    0.323    0.466   10.484
  445.212   49.242  160.189    0.326    0.448   10.684
  445.462   47.905  160.849    0.324    0.449   11.005
  445.712   46.258  161.192    0.321    0.462   11.216
  445.962   45.846  161.012    0.315    0.454   11.367
  446.212   45.739  160.728    0.303    0.440   11.312
  446.462   45.882  160.865    0.307    0.426   11.296
  446.712   46.578  161.103    0.310    0.431   11.323
  446.962   47.950  161.653    0.310    0.434   11.374
  447.212   46.675  162.000    0.309    0.433   11.380
  447.462   45.521  162.237    0.308    0.446   11.367
  447.712   46.587  162.480    0.299    0.461   11.351
  447.962   46.852  162.614    0.310    0.472   11.401
  448.212   46.131  162.327    0.327    0.482   11.429
  448.462   44.793  161.627    0.335    0.489   11.476
  448.712   44.008  161.344    0.340    0.491   11.611
  448.962   43.843  161.376    0.337    0.472   11.940
  449.212   44.846  161.301    0.321    0.438   12.548
  449.462   44.618  161.751    0.320    0.425   12.881
  449.712   44.574  162.197    0.326    0.435   13.030
  449.962   45.147  162.541    0.334    0.452   12.595
  450.212   46.520  162.884    0.331    0.461   11.976
  450.462   46.847  162.603    0.323    0.468   11.450
  450.712   46.556  161.800    0.324    0.496   10.948
  450.962   45.651  161.202    0.324    0.514   10.486
  451.212   45.113  160.918    0.332    0.520   10.248
  451.462   45.809  161.574    0.332    0.508   10.034
  451.712   46.319  161.711    0.325    0.486    9.913
  451.962   45.782  161.634    0.326    0.470    9.865
  452.212   44.754  161.456    0.322    0.462    9.872
  452.462   44.956  161.596    0.321    0.470    9.932
  452.712   45.959  161.726    0.332    0.499   10.010
  452.962   46.347  161.444    0.330    0.482   10.089
  453.212   45.811  161.265    0.324    0.472   10.150
  453.462   45.829  161.194    0.326    0.497   10.157
  453.712   46.217  161.644    0.323    0.516   10.201
  453.962   46.974  158.436    0.311    0.492   10.317
  454.212   47.300  157.215    0.321    0.477   10.362
  454.462   47.628  157.974    0.319    0.468   10.350
  454.712   47.705  159.675    0.308    0.459   10.339
  454.962   46.614  160.750    0.314    0.452   10.325
  455.212   46.262  161.403    0.324    0.431   10.295
  455.462   46.465  161.857    0.326    0.425   10.244
  455.712   46.668  162.203    0.323    0.448   10.212
  455.962   47.795  162.332    0.318    0.445   10.184
  456.212   49.477  162.152    0.312    0.438   10.135
  456.462   50.235  161.558    0.308    0.451   10.068
  456.712   49.700  161.591    0.312    0.472    9.982
  456.962   49.900  162.141    0.326    0.466    9.915
  457.212   49.551  161.966    0.325    0.453    9.886
  457.462   49.752  162.303    0.322    0.447    9.857
  457.712   51.371  162.339    0.310    0.457    9.825
  457.962   53.608  162.160    0.304    0.469    9.832
  458.212   55.598  161.770    0.308    0.479    9.839
  458.462   59.560  161.798    0.308    0.505    9.863
  458.712   62.475  161.834    0.307    0.494    9.887
  458.962   61.938  162.173    0.317    0.476    9.857
  459.212   62.819  162.108    0.315    0.452    9.739
  459.462   65.424  162.132    0.303    0.437    9.260
  459.712   66.616  162.369    0.280    0.368    8.100
  459.962   67.494  163.027    0.154    0.323    6.623
  460.212   70.409  163.893    0.115    0.300    5.128
  460.462   74.309  164.860    0.152    0.382    4.484
  460.712   77.840  165.725    0.230    0.546    4.423
  460.962   81.000  166.593    0.278    0.538    4.742
  461.212   85.147  166.937    0.279    0.547    5.196
  461.462   89.049  167.069    0.257    0.546    5.532
  461.712   91.470  167.100    0.231    0.519    5.910
  461.962   92.535  167.446    0.210    0.521    6.325
  462.212   90.581  167.785    0.215    0.510    6.636
  462.462   87.332  168.336    0.217    0.500    6.824
  462.712   85.748  168.788    0.220    0.506    6.890
  462.962   86.198  169.025    0.216    0.497    6.867
  463.212   87.326  169.057    0.222    0.488    6.836
  463.462   89.255  168.979    0.226    0.473    6.717
  463.712   91.059  169.018    0.232    0.453    6.622
  463.962   90.768  168.728    0.226    0.514    6.508
  464.212   87.951  168.135    0.227    0.535    6.418
  464.462   87.724  167.333    0.222    0.534    6.272
  464.712   90.268  168.193    0.207    0.511    6.130
  464.962   93.243  169.999    0.203    0.513    5.990
  465.212   97.760  171.490    0.195    0.506    5.768
  465.462  100.859  172.253    0.192    0.499    5.618
  465.712   99.892  172.176    0.195    0.493    5.429
  465.962   97.937  172.418    0.193    0.497    5.296
  466.212   97.154  172.552    0.217    0.508    5.262
  466.462   96.432  172.581    0.222    0.522    5.274
  466.712   95.094  172.511    0.220    0.552    5.365
  466.962   93.141  172.225    0.228    0.547    5.617
  467.212   89.892  171.836    0.239    0.527    5.980
  467.462   84.795  170.616    0.272    0.508    6.722
  467.712   80.191  168.560    0.292    0.497    7.738
  467.962   72.752  166.604    0.303    0.490    8.327
  468.212   69.812  164.342    0.300    0.512    8.783
  468.462   71.125  162.808    0.288    0.529    8.661
  468.712   71.450  162.002    0.280    0.535    8.604
  468.962   70.543  161.931    0.279    0.512    8.531
  469.212   71.426  161.854    0.278    0.497    8.490
  469.462   72.121  161.885    0.273    0.477    8.433
  469.712   72.631  162.017    0.270    0.477    8.394
  469.962   72.588  161.945    0.274    0.479    8.353
  470.212   71.989  162.184    0.290    0.478    8.253
  470.462   72.438  162.212    0.294    0.479    8.153
  470.712   73.627  162.243    0.271    0.494    8.218
  470.962   73.214  162.275    0.263    0.480    8.374
  471.212   74.710  162.202    0.276    0.464    8.578
  471.462   74.297  162.021    0.274    0.455    8.710
  471.712   75.672  161.948    0.282    0.479    8.763
  471.962   76.491  161.874    0.290    0.509    8.784
