~VERSION INFORMATION
 VERS.                 2.0:   CWLS LOG ASCII STANDARD -VERSION 2.0
 WRAP.                  NO:   ONE LINE PER DEPTH STEP
~WELL INFORMATION BLOCK
#MNEM.UNIT           DATA                    DESCRIPTION OF MNEMONIC
#---------    -------------------            -------------------------------
# Generated from Intellog Unique Number	CC_80_83/WELL/2435
NULL.         -999.25                        : NULL_VALUE
WELL.         NOVALTA NEWBY                  : Well_name    - WELL              
LOC .         13-19-083-04W4                 : Location     - LOCATION          
UWI .         00/13-19-083-04W4/0            : Uwi          - UNIQUE WELL ID    
ENTR.         DW                             : Entered      - ENTERED BY        
SRVC.         COMPUTALOG                     : Scn          - SERVICE COMPANY   
DATE.         08 JAN 84                      : Date         - LOG DATE
STRT.M        63                             : top_depth    - START DEPTH       
STOP.M        270.001                        : bot_depth    - STOP DEPTH        
STEP.M        0.3                            : increment    - STEP LENGTH       
~CURVE INFORMATION BLOCK
#MNEM UNIT       ERCB CURVE CODE    CURVE DESCRIPTION
#-----------   ------------------   ----------------------------------
DEPT.M        00 001 00 00         : DEPTH        - DEPTH                       
DPHI.V/V      00 890 00 00         : PHID         - DENSITY POROSITY (LIMESTONE)
NPHI.V/V      00 330 00 00         : PHIN         - NEUTRON POROSITY (LIMESTONE)
GR  .API      00 310 00 00         : GR           - GAMMA RAY                   
ILD .OHMM     00 120 00 00         : RESD         - DEEP RESISTIVITY (DIL)      
~PARAMETER INFORMATION       
#MNEM.UNIT           DATA             DESCRIPTION OF MNEMONIC
#---------         -----------     ------------------------------
GL  .M        464                  : gl           - GROUND LEVEL ELEVATION      
EREF.M        467                  : kb           - ELEVATION OF DEPTH REFERENCE
DATM.M        467                  : datum        - DATUM ELEVATION             
TDD .M        276                  : tdd          - TOTAL DEPTH DRILLER         
RUN .         ONE                  : Run          - RUN NUMBER                  
ENG .         BILL                 : Engineer     - RECORDING ENGINEER          
WIT .         JIM                  : Witness      - WITNESSED BY                
MUD .         GEL                  : Mud_type     - MUD TYPE                    
MATR.         LIMESTONE            : Logunit      - NEUTRON MATRIX              
TMAX.C        22                   : BHT          - MAXIMUM RECORDED TEMPERATURE
BHTD.M        275                  : BHTDEP       - MAXIMUM RECORDED TEMPERATURE
MATR.         1                    : LOGUNIT      - NEUTRON MATRIX              
RMT .C        25                   : MDTP         - TEMPERATURE OF MUD          
NEUT.         1                    : NEUTRON      - NEUTRON TYPE                
RESI.         0                    : RESIST       - RESISTIVITY TYPE            
RMC .OHMM     0.25                 : RMC          - RESISTIVITY OF MUD CAKE     
RMF .OHMM     0.25                 : RMF          - RESISTIVITY OF MUD FILTRATE 
SUFT.C        4                    : SUFT         - SURFACE TEMPERATURE         
~A  DEPTH     PHID     PHIN       GR     RESD
   63.000    0.343    0.363   54.763   16.570
   63.300    0.357    0.378   55.389   16.543
   63.600    0.366    0.398   62.746   16.210
   63.900    0.342    0.385   74.997   15.882
   64.200    0.296    0.369   89.695   15.269
   64.500    0.308    0.395   93.383   14.961
   64.800    0.295    0.403   90.341   14.934
   65.100    0.292    0.379   85.466   15.476
   65.400    0.333    0.396   79.975   16.047
   65.700    0.388    0.452   76.321   17.581
   66.000    0.370    0.442   75.113   18.221
   66.300    0.329    0.411   82.470   18.538
   66.600    0.329    0.402   97.167   18.509
   66.900    0.326    0.409  102.077   18.131
   67.200    0.314    0.403  102.707   18.107
   67.500    0.315    0.397   97.829   17.732
   67.800    0.331    0.393   86.224   17.052
   68.100    0.336    0.397   88.687   17.024
   68.400    0.321    0.421   87.481   16.999
   68.700    0.311    0.434   83.214   17.944
   69.000    0.328    0.428   72.220   18.605
   69.300    0.343    0.364   64.896   19.644
   69.600    0.345    0.371   63.695   20.739
   69.900    0.343    0.384   64.934   21.498
   70.200    0.353    0.374   68.008   20.676
   70.500    0.353    0.370   72.304   16.177
   70.800    0.345    0.370   79.050   13.645
   71.100    0.312    0.390   89.465   11.296
   71.400    0.270    0.418  101.715    9.891
   71.700    0.283    0.439  109.685    9.512
   72.000    0.294    0.428  112.150   10.044
   72.300    0.293    0.416  110.939    9.478
   72.600    0.293    0.396  109.123    8.945
   72.900    0.290    0.396  109.139    8.600
   73.200    0.282    0.408  121.387    8.427
   73.500    0.260    0.411  125.074    8.415
   73.800    0.244    0.418  123.258    8.403
   74.100    0.238    0.430  122.661    8.386
   74.400    0.236    0.425  128.796    8.855
   74.700    0.234    0.412  131.259    9.532
   75.000    0.234    0.384  130.663   10.847
   75.300    0.257    0.371  124.563   12.116
   75.600    0.277    0.390  115.404   12.552
   75.900    0.291    0.404  107.468   12.073
   76.200    0.288    0.415  102.590   11.396
   76.500    0.244    0.426  123.405   10.360
   76.800    0.238    0.434  135.655    9.774
   77.100    0.253    0.423  132.006    9.759
   77.400    0.253    0.402  131.410   10.109
   77.700    0.246    0.393  130.201   10.677
   78.000    0.278    0.403  117.986   11.275
   78.300    0.324    0.408  111.884   11.473
   78.600    0.326    0.418  107.617   11.886
   78.900    0.313    0.399  103.351   12.095
   79.200    0.316    0.389   97.250   12.302
   79.500    0.318    0.410   97.880   12.749
   79.800    0.303    0.424  100.343   13.211
   80.100    0.304    0.422   98.523   13.948
   80.400    0.322    0.389   83.860   15.289
   80.700    0.309    0.357   77.148   15.558
   81.000    0.275    0.356   88.789   16.122
   81.300    0.260    0.376   88.806   16.388
   81.600    0.276    0.372   83.314   16.672
   81.900    0.326    0.369   66.815   16.338
   82.200    0.345    0.385   58.879   16.010
   82.500    0.351    0.394   57.062   15.684
   82.800    0.343    0.391   57.078   15.951
   83.100    0.343    0.372   56.482   15.628
   83.400    0.356    0.366   54.664   15.316
   83.700    0.361    0.380   54.069   15.286
   84.000    0.364    0.370   55.311   14.974
   84.300    0.362    0.363   58.995   14.681
   84.600    0.356    0.357   63.293   14.650
   84.900    0.351    0.353   62.088   14.633
   85.200    0.352    0.381   54.765   14.605
   85.500    0.370    0.375   52.945   14.584
   85.800    0.388    0.450   50.516   14.543
   86.100    0.358    0.425   49.919   14.532
   86.400    0.328    0.399   52.384   14.499
   86.700    0.348    0.393   53.623   14.751
   87.000    0.357    0.387   54.253   14.729
   87.300    0.358    0.388   53.657   14.707
   87.600    0.359    0.377   53.061   14.676
   87.900    0.355    0.335   51.855   14.647
   88.200    0.348    0.343   52.484   14.360
   88.500    0.349    0.360   56.170   14.062
   88.800    0.355    0.375   62.302   14.043
   89.100    0.355    0.382   56.204   14.016
   89.400    0.349    0.356   55.606   13.992
   89.700    0.350    0.355   59.904   13.711
   90.000    0.336    0.378   65.426   13.186
   90.300    0.291    0.383   74.007   12.682
   90.600    0.293    0.385   77.698   12.195
   90.900    0.315    0.396   79.547   11.721
   91.200    0.310    0.406   78.339   11.484
   91.500    0.312    0.416   78.356   11.046
   91.800    0.334    0.421   78.985   10.822
   92.100    0.343    0.413   72.272   11.011
   92.400    0.339    0.406   85.745   10.989
   92.700    0.318    0.406  113.288   10.969
   93.000    0.315    0.413  121.869   10.353
   93.300    0.321    0.424   96.805   10.147
   93.600    0.326    0.400   74.802   10.127
   93.900    0.322    0.390   70.537   10.302
   94.200    0.316    0.397   68.106   10.678
   94.500    0.341    0.392   65.068   11.485
   94.800    0.355    0.381   66.307   11.682
   95.100    0.357    0.367   66.936   11.667
   95.400    0.362    0.372   65.725   11.648
   95.700    0.371    0.379   63.295   11.622
   96.000    0.359    0.373   60.254   11.391
   96.300    0.346    0.354   60.270   11.152
   96.600    0.363    0.357   58.450   11.137
   96.900    0.374    0.364   65.196   10.910
   97.200    0.374    0.368   62.156   10.888
   97.500    0.369    0.371   59.111   10.877
   97.800    0.364    0.397   60.352   10.858
   98.100    0.365    0.411   65.263   10.638
   98.400    0.374    0.442   63.443   10.232
   98.700    0.383    0.443   62.850   10.026
   99.000    0.370    0.415   67.150    9.823
   99.300    0.335    0.378   69.613    9.447
   99.600    0.321    0.387   67.183    9.247
   99.900    0.345    0.392   65.974    9.236
  100.200    0.350    0.393   67.219    9.217
  100.500    0.349    0.407   67.230    9.036
  100.800    0.339    0.416   69.692    9.022
  101.100    0.334    0.417   70.934    9.000
  101.400    0.330    0.411   67.280    8.826
  101.700    0.328    0.378   70.968    8.640
  102.000    0.374    0.365   71.594    8.469
  102.300    0.399    0.385   66.107    8.301
  102.600    0.384    0.410   67.959    7.830
  102.900    0.373    0.423   69.808    7.673
  103.200    0.386    0.397   60.037    7.660
  103.500    0.401    0.394   48.432    7.938
  103.800    0.378    0.434   58.235    8.075
  104.100    0.340    0.451   69.875    8.214
  104.400    0.356    0.408   68.056    8.046
  104.700    0.381    0.402   60.122    8.186
  105.000    0.391    0.393   52.796    8.325
  105.300    0.386    0.380   44.861    8.470
  105.600    0.375    0.392   54.053    8.296
  105.900    0.371    0.401   60.798    8.286
  106.200    0.365    0.374   58.981    7.966
  106.500    0.364    0.341   60.835    7.953
  106.800    0.363    0.353   62.686    7.790
  107.100    0.359    0.374   61.479    7.774
  107.400    0.359    0.380   62.111    7.761
  107.700    0.360    0.392   62.121    7.751
  108.000    0.311    0.398   65.809    7.732
  108.300    0.308    0.403   68.885    7.723
  108.600    0.321    0.405   67.678    7.710
  108.900    0.325    0.393   65.860    7.698
  109.200    0.324    0.389   67.099    7.830
  109.500    0.316    0.395   72.007    7.818
  109.800    0.327    0.418   73.864    7.804
  110.100    0.343    0.416   72.654    7.794
  110.400    0.333    0.410   70.836    7.632
  110.700    0.327    0.413   70.238    7.618
  111.000    0.328    0.444   75.761    7.609
  111.300    0.332    0.430   75.165    7.593
  111.600    0.328    0.377   69.679    7.579
  111.900    0.319    0.388   70.919    7.571
  112.200    0.321    0.397   73.383    7.695
  112.500    0.342    0.393   75.232    7.833
  112.800    0.348    0.420   74.639    7.671
  113.100    0.343    0.428   68.536    7.518
  113.400    0.339    0.408   64.883    7.366
  113.701    0.346    0.403   64.288    7.216
  114.001    0.341    0.413   63.080    7.070
  114.301    0.326    0.417   64.321    6.925
  114.601    0.317    0.414   69.842    6.911
  114.901    0.321    0.409   72.919    6.906
