~VERSION INFORMATION
 VERS.                 2.0:   CWLS LOG ASCII STANDARD -VERSION 2.0
 WRAP.                  NO:   ONE LINE PER DEPTH STEP
~WELL INFORMATION BLOCK
#MNEM.UNIT           DATA                    DESCRIPTION OF MNEMONIC
#---------    -------------------            -------------------------------
# Generated from Intellog Unique Number	CS_67_68/WELL/2217
WELL.         15-01-067-06W4                 : Well_name    - WELL
LOC .         00/15-01-067-06W4/0            : Location     - LOCATION
UWI .         00/15-01-067-06W4/0            : Uwi          - UNIQUE WELL ID
ENTR.         SP                             : Entered      - ENTERED BY
SRVC.         SCHLUMBERGER                   : Scn          - SERVICE COMPANY
STRT.M        315                            : top_depth    - START DEPTH
STOP.M        535                            : bot_depth    - STOP DEPTH
STEP.M        0.25                           : increment    - STEP LENGTH
 NULL. -999.2500:NULL Value
~CURVE INFORMATION BLOCK
#MNEM UNIT       ERCB CURVE CODE    CURVE DESCRIPTION
#-----------   ------------------   ----------------------------------
DEPT.M        00 001 00 00         : DEPTH        - DEPTH
ILD .OHMM     00 120 00 00         : RESD         - DEEP RESISTIVITY (DIL)
DPHI.V/V      00 890 00 00         : PHID         - DENSITY POROSITY (LIMESTONE)
NPHI.V/V      00 330 00 00         : PHIN         - NEUTRON POROSITY (LIMESTONE)
GR  .API      00 310 00 00         : GR           - GAMMA RAY
CALI.MM       00 280 01 00         : CAL          - CALIPER
~PARAMETER INFORMATION
#MNEM.UNIT           DATA             DESCRIPTION OF MNEMONIC
#---------         -----------     ------------------------------
GL  .M        647.05               : gl           - GROUND LEVEL ELEVATION
EREF.M        650.03               : kb           - ELEVATION OF DEPTH REFERENCE
DATM.M        650.03               : datum        - DATUM ELEVATION
TDD .M        542                  : tdd          - TOTAL DEPTH DRILLER
RUN .         ONE                  : Run          - RUN NUMBER
ENG .         BILL                 : Engineer     - RECORDING ENGINEER
WIT .         JIM                  : Witness      - WITNESSED BY
MUD .         GEL                  : Mud_type     - MUD TYPE
MATR.         LIMESTONE            : Logunit      - NEUTRON MATRIX
TMAX.C        18.8                 : BHT          - MAXIMUM RECORDED TEMPERATURE
BHTD.M        544                  : BHTDEP       - MAXIMUM RECORDED TEMPERATURE
MATR.         1                    : LOGUNIT      - NEUTRON MATRIX
RMT .C        25                   : MDTP         - TEMPERATURE OF MUD
NEUT.         1                    : NEUTRON      - NEUTRON TYPE
RESI.         0                    : RESIST       - RESISTIVITY TYPE
RMC .OHMM     0.25                 : RMC          - RESISTIVITY OF MUD CAKE
RMF .OHMM     0.25                 : RMF          - RESISTIVITY OF MUD FILTRATE
SUFT.C        15                   : SUFT         - SURFACE TEMPERATURE
~A  DEPTH     RESD     PHID     PHIN       GR      CAL
  315.000    3.173    0.283    0.568   91.534  211.479
  315.250    2.700    0.278    0.558   89.885  211.776
  315.500    2.542    0.277    0.561   89.759  207.506
  315.750    2.629    0.278    0.550   91.216  204.961
  316.000    2.664    0.281    0.543   91.821  205.562
  316.250    2.594    0.282    0.535   92.486  204.032
  316.500    2.522    0.273    0.527   93.152  198.544
  316.750    2.550    0.268    0.526   95.522  195.085
  317.000    2.603    0.270    0.538   98.989  195.077
  317.250    2.662    0.273    0.527  100.263  193.243
  317.500    2.743    0.276    0.533   97.701  191.815
  317.750    2.790    0.277    0.541   95.261  192.720
  318.000    2.768    0.270    0.548   93.612  195.048
  318.250    2.656    0.265    0.522   94.947  197.374
  318.500    2.616    0.263    0.516   96.890  197.570
  318.750    2.691    0.264    0.525   97.922  198.578
  319.000    2.830    0.260    0.532   98.100  200.701
  319.250    2.905    0.244    0.537   94.259  196.431
  319.500    3.039    0.230    0.523   90.662  189.928
  319.750    3.061    0.249    0.516   92.606  184.744
  320.000    3.113    0.260    0.503   94.611  183.110
  320.250    3.010    0.264    0.490   94.668  182.698
  320.500    2.860    0.254    0.481   93.566  182.589
  320.750    2.678    0.253    0.493   94.537  181.871
  321.000    2.522    0.260    0.498   95.994  181.559
  321.250    2.498    0.260    0.513   96.659  180.435
  321.500    2.502    0.273    0.554   96.411  177.891
  321.750    2.545    0.284    0.567   94.092  183.566
  322.000    2.637    0.292    0.546   92.504  187.214
  322.250    2.753    0.297    0.546   91.282  190.454
  322.500    2.923    0.298    0.561   92.739  192.679
  322.750    3.075    0.286    0.559   95.110  185.466
  323.000    3.364    0.282    0.546   96.993  171.958
  323.250    3.546    0.057    0.556   90.107  166.673
  323.500    3.633    0.000    0.585   83.221  168.391
  323.750    3.626    0.000    0.612   75.786  164.323
  324.000    3.612    0.003    0.426   69.204  159.748
  324.250    3.459    0.060    0.344   83.938  168.369
  324.500    3.263    0.199    0.394   87.953  173.335
  324.750    3.032    0.239    0.473   90.932  173.226
  325.000    2.882    0.263    0.505   91.841  174.233
  325.250    2.892    0.272    0.527   91.654  173.413
  325.500    3.329    0.260    0.531   91.467  174.014
  325.750    3.994    0.194    0.536   87.504  176.139
  326.000    5.224    0.169    0.514   78.608  177.350
  326.250    6.373    0.284    0.329   69.164  175.820
  326.500    7.093    0.315    0.305   62.643  166.474
  326.750    7.226    0.329    0.302   62.212  159.564
  327.000    6.715    0.338    0.320   63.852  158.237
  327.250    5.888    0.334    0.346   65.734  157.315
  327.500    5.441    0.324    0.366   66.401  156.699
  327.750    5.152    0.316    0.388   67.249  156.894
  328.000    4.980    0.308    0.408   68.767  157.293
  328.250    4.905    0.297    0.420   70.346  157.083
  328.500    4.850    0.310    0.432   73.021  156.670
  328.750    4.840    0.313    0.416   76.305  155.851
  329.000    4.876    0.304    0.422   79.041  154.422
  329.250    4.940    0.307    0.429   80.316  153.602
  329.500    5.100    0.314    0.431   80.798  152.986
  329.750    5.245    0.314    0.430   84.631  152.369
  330.000    5.274    0.309    0.429   89.194  152.158
  330.250    5.137    0.307    0.430   93.087  151.642
  330.500    4.947    0.311    0.435   86.384  152.346
  330.750    4.773    0.316    0.450   63.054  153.354
  331.000    4.519    0.322    0.425   42.038  154.362
  331.250    4.418    0.330    0.391   36.736  155.471
  331.500    4.368    0.334    0.385   36.731  155.870
  331.750    4.493    0.323    0.382   49.333  156.877
  332.000    4.682    0.302    0.383   61.935  157.578
  332.250    4.980    0.279    0.390   74.659  158.079
  332.500    5.449    0.281    0.406   81.537  158.173
  332.750    5.679    0.286    0.417   80.496  158.267
  333.000    5.808    0.235    0.429   79.457  158.362
  333.250    5.961    0.219    0.420   80.427  158.456
  333.500    6.017    0.249    0.419   82.980  158.650
  333.750    6.005    0.268    0.430   86.812  158.847
  334.000    5.893    0.273    0.436   91.923  159.245
  334.250    5.675    0.278    0.421   96.304  159.847
  334.500    5.304    0.289    0.414  101.050  160.752
  334.750    4.846    0.282    0.435  106.099  161.557
  335.000    4.265    0.268    0.451  109.932  162.362
  335.250    3.642    0.249    0.462  113.521  163.268
  335.500    3.404    0.238    0.500  116.074  165.088
  335.750    3.474    0.270    0.524  114.182  167.617
  336.000    3.689    0.286    0.536  107.051  168.727
  336.250    4.037    0.295    0.514  102.785  169.024
  336.500    4.326    0.299    0.493   94.924  167.900
  336.750    4.551    0.289    0.487   84.566  167.181
  337.000    4.602    0.319    0.475   62.942  166.159
  337.250    4.533    0.348    0.450   50.513  164.223
  337.500    4.349    0.356    0.423   47.342  162.490
  337.750    4.196    0.358    0.422   48.676  161.569
  338.000    4.110    0.361    0.425   49.221  160.343
  338.250    4.048    0.364    0.408   50.008  159.829
  338.500    4.040    0.369    0.407   50.308  158.805
  338.750    4.055    0.371    0.427   51.156  158.495
  339.000    4.077    0.368    0.431   52.735  158.386
  339.250    4.108    0.358    0.415   55.045  158.580
  339.500    4.185    0.353    0.409   58.025  158.877
  339.750    4.256    0.346    0.418   57.898  158.769
  340.000    4.288    0.346    0.425   56.615  158.354
  340.250    4.295    0.346    0.416   59.290  157.739
  340.500    4.295    0.345    0.426   62.087  157.427
  340.750    4.278    0.346    0.429   63.300  157.622
  341.000    4.246    0.354    0.430   61.713  158.021
  341.250    4.214    0.358    0.437   57.201  158.215
  341.500    4.205    0.357    0.436   53.055  158.311
  341.750    4.181    0.359    0.431   50.128  158.505
  342.000    4.173    0.361    0.425   49.149  158.700
  342.250    4.180    0.361    0.422   49.631  158.999
  342.500    4.149    0.356    0.418   50.054  159.194
  342.750    4.125    0.345    0.412   50.293  159.288
  343.000    4.094    0.337    0.411   50.471  159.483
  343.250    4.070    0.343    0.417   53.024  159.578
  343.500    4.070    0.352    0.427   56.734  159.773
  343.750    4.069    0.359    0.439   58.861  160.070
  344.000    4.092    0.365    0.423   60.745  160.163
  344.250    4.153    0.367    0.421   62.628  160.360
  344.500    4.361    0.355    0.425   64.329  160.453
  344.750    4.648    0.346    0.426   66.395  160.548
  345.000    4.870    0.332    0.436   69.010  160.843
  345.250    5.037    0.315    0.453   71.684  160.938
  345.500    5.229    0.287    0.432   73.447  161.135
  345.750    5.532    0.278    0.413   76.061  161.533
  346.000    5.657    0.278    0.412   78.980  162.134
  346.250    5.710    0.282    0.421   80.193  162.837
  346.500    5.720    0.284    0.414   78.727  163.236
  346.750    5.741    0.280    0.397   73.911  163.330
  347.000    5.613    0.276    0.382   75.855  163.220
  347.250    5.528    0.272    0.372   79.809  163.314
  347.500    5.384    0.283    0.390   82.180  163.205
  347.750    5.404    0.302    0.408   74.076  162.995
  348.000    5.434    0.312    0.421   69.626  162.785
  348.250    5.589    0.318    0.411   67.368  162.372
  348.500    5.824    0.311    0.395   71.991  162.363
  348.750    6.195    0.298    0.388   74.362  162.356
  349.000    6.591    0.284    0.390   76.124  162.146
  349.250    6.985    0.292    0.403   73.379  162.341
  349.500    7.515    0.298    0.426   73.253  162.840
  349.750    8.161    0.141    0.447   76.293  163.239
  350.000    8.346    0.102    0.481   73.609  163.942
  350.250    8.314    0.191    0.281   73.666  164.342
  350.500    8.097    0.271    0.335   78.838  164.333
  350.750    7.567    0.293    0.399   82.487  163.920
  351.000    7.019    0.307    0.448   83.518  163.203
  351.250    6.330    0.287    0.456   84.305  162.383
