~VERSION INFORMATION
 VERS.                 2.0:   CWLS LOG ASCII STANDARD -VERSION 2.0
 WRAP.                  NO:   ONE LINE PER DEPTH STEP
~WELL INFORMATION BLOCK
#MNEM.UNIT           DATA                    DESCRIPTION OF MNEMONIC
#---------    -------------------            -------------------------------
# Generated from Intellog Unique Number	CS_73_76/WELL/819
WELL.         NEWPORT PETROLEUMS LTD         : Well_name    - WELL
LOC .         00/10-14-073-10W4/0            : Location     - LOCATION
UWI .         00/10-14-073-10W4/0            : Uwi          - UNIQUE WELL ID
ENTR.         SP                             : Entered      - ENTERED BY
SRVC.         SCHLUMBERGER                   : Scn          - SERVICE COMPANY
STRT.M        300                            : top_depth    - START DEPTH
STOP.M        490                            : bot_depth    - STOP DEPTH
STEP.M        0.25                           : increment    - STEP LENGTH
 NULL. -999.2500:NULL Value
~CURVE INFORMATION BLOCK
#MNEM UNIT       ERCB CURVE CODE    CURVE DESCRIPTION
#-----------   ------------------   ----------------------------------
DEPT.M        00 001 00 00         : DEPTH        - DEPTH
GR  .API      00 310 00 00         : GR           - GAMMA RAY
NPHI.V/V      00 330 00 00         : PHIN         - NEUTRON POROSITY (LIMESTONE)
DPHI.V/V      00 890 00 00         : PHID         - DENSITY POROSITY (LIMESTONE)
ILD .OHMM     00 120 00 00         : RESD         - DEEP RESISTIVITY (DIL)
~PARAMETER INFORMATION
#MNEM.UNIT           DATA             DESCRIPTION OF MNEMONIC
#---------         -----------     ------------------------------
GL  .M        660.4                : gl           - GROUND LEVEL ELEVATION
EREF.M        663.8                : kb           - ELEVATION OF DEPTH REFERENCE
DATM.M        660.4                : datum        - DATUM ELEVATION
TDD .M        610                  : tdd          - TOTAL DEPTH DRILLER
RUN .         ONE                  : Run          - RUN NUMBER
ENG .         BILL                 : Engineer     - RECORDING ENGINEER
WIT .         JIM                  : Witness      - WITNESSED BY
MUD .         GEL                  : Mud_type     - MUD TYPE
MATR.         LIMESTONE            : Logunit      - NEUTRON MATRIX
TMAX.C        23.8                 : BHT          - MAXIMUM RECORDED TEMPERATURE
BHTD.M        610                  : BHTDEP       - MAXIMUM RECORDED TEMPERATURE
MATR.         1                    : LOGUNIT      - NEUTRON MATRIX
RMT .C        25                   : MDTP         - TEMPERATURE OF MUD
NEUT.         1                    : NEUTRON      - NEUTRON TYPE
RESI.         0                    : RESIST       - RESISTIVITY TYPE
RMC .OHMM     0.25                 : RMC          - RESISTIVITY OF MUD CAKE
RMF .OHMM     0.25                 : RMF          - RESISTIVITY OF MUD FILTRATE
SUFT.C        15                   : SUFT         - SURFACE TEMPERATURE
~A  DEPTH       GR     PHIN     PHID     RESD
# ...
  387.000   90.500    0.476    0.293    5.973
  387.250   91.103    0.509    0.282    3.818
  387.500   91.100    0.543    0.277    2.835
  387.750   89.284    0.562    0.272    2.536
  388.000   84.442    0.570    0.273    2.684
  388.250   79.602    0.492    0.268    3.425
  388.500   71.736    0.447    0.257    3.905
  388.750   68.105    0.434    0.269    5.269
  389.000   65.683    0.450    0.306    6.595
  389.250   61.447    0.446    0.325    8.899
  389.500   60.235    0.441    0.338    9.962
  389.750   60.837    0.458    0.330   10.347
  390.000   62.044    0.465    0.329   10.360
  390.250   62.042    0.468    0.329   10.367
  390.500   61.435    0.448    0.329   10.372
  390.750   60.223    0.380    0.207   10.377
  391.000   62.640    0.287    0.143   10.387
  391.250   65.057    0.351    0.198   10.395
  391.500   65.659    0.412    0.246   10.021
  391.750   63.843    0.423    0.291    9.660
  392.000   66.259    0.430    0.306    8.973
  392.250   69.281    0.433    0.288    8.649
  392.500   70.489    0.430    0.280    8.339
  392.750   72.905    0.447    0.288    8.189
  393.000   74.717    0.467    0.296    8.199
  393.250   76.529    0.455    0.282    8.202
  393.500   77.132    0.450    0.278    8.210
  393.750   77.130    0.451    0.277    8.064
  394.000   78.941    0.448    0.265    8.070
  394.250   78.940    0.446    0.248    7.925
  394.500   78.937    0.441    0.237    7.930
  394.750   79.539    0.439    0.244    7.790
  395.000   80.746    0.434    0.238    7.653
  395.250   80.744    0.427    0.226    7.800
  395.500   79.532    0.462    0.197    8.103
  395.750   68.643    0.355    0.148    9.072
  396.000   57.149    0.229    0.018    9.967
  396.250   49.889    0.193    0.015   10.547
  396.500   57.144    0.232    0.046   10.755
  396.750   66.819    0.315    0.103   10.367
  397.000   81.937    0.369    0.186    9.276
  397.250   83.749    0.427    0.236    8.147
  397.500   83.142    0.447    0.238    7.708
  397.750   83.140    0.461    0.240    7.293
  398.000   83.742    0.466    0.239    7.030
  398.250   84.344    0.467    0.248    6.778
  398.500   83.133    0.453    0.245    7.042
  398.750   66.195    0.453    0.181    8.033
  399.000   55.911    0.313    0.036    8.659
  399.250   49.860    0.222    0.020   10.062
  399.500   52.277    0.183    0.042   10.650
  399.750   60.742    0.215    0.083   10.266
  400.000   72.837    0.278    0.180    9.185
  400.250   86.140    0.367    0.206    7.919
  400.500   87.347    0.423    0.205    7.353
  400.750   84.925    0.433    0.206    6.704
  401.000   84.319    0.451    0.212    6.583
  401.250   84.315    0.463    0.226    6.467
  401.500   84.918    0.444    0.230    6.471
  401.750   86.126    0.438    0.221    6.476
  402.000   86.729    0.447    0.226    6.361
  402.250   86.121    0.453    0.230    6.365
  402.500   85.514    0.466    0.225    6.369
  402.750   86.721    0.478    0.217    6.375
  403.000   86.719    0.474    0.215    6.382
  403.250   86.112    0.451    0.214    6.384
  403.500   85.505    0.441    0.213    6.390
  403.750   86.106    0.455    0.206    6.393
  404.000   83.685    0.463    0.208    6.399
  404.250   85.497    0.473    0.231    6.284
  404.500   88.519    0.469    0.230    5.623
  404.750   91.541    0.455    0.214    4.757
  405.000   92.748    0.455    0.230    4.024
  405.250   93.956    0.471    0.247    2.671
  405.500   96.373    0.491    0.260    2.217
  405.750   94.556    0.529    0.261    2.059
  406.000   92.134    0.550    0.255    1.949
  406.250   90.317    0.557    0.258    2.024
  406.500   87.290    0.550    0.267    2.224
  406.750   86.079    0.558    0.266    2.733
  407.000   83.051    0.566    0.239    3.423
  407.250   82.445    0.524    0.244    3.690
  407.500   84.860    0.493    0.259    4.053
  407.750   86.068    0.472    0.249    4.537
  408.000   87.276    0.462    0.237    5.080
  408.250   87.879    0.465    0.233    5.276
  408.500   83.642    0.468    0.232    5.380
  408.750   80.616    0.471    0.242    5.384
  409.000   78.799    0.466    0.258    5.388
  409.250   82.426    0.456    0.263    5.494
  409.500   80.608    0.446    0.250    5.498
  409.750   79.396    0.441    0.239    5.605
  410.000   79.394    0.452    0.241    5.714
  410.250   78.182    0.461    0.254    5.829
  410.500   76.365    0.472    0.269    5.832
  410.750   75.758    0.462    0.282    5.834
  411.000   78.175    0.454    0.283    5.952
  411.250   79.382    0.445    0.277    5.956
  411.500   75.750    0.455    0.265    6.073
  411.750   74.539    0.450    0.255    6.192
  412.000   71.512    0.435    0.265    6.195
  412.250   68.485    0.442    0.282    6.316
  412.500   67.274    0.434    0.295    6.319
  412.750   69.691    0.427    0.303    6.445
  413.000   69.084    0.424    0.302    6.449
  413.250   67.266    0.426    0.298    6.453
  413.500   66.659    0.439    0.292    6.460
  413.750   66.657    0.446    0.288    6.463
  414.000   66.655    0.450    0.286    6.470
  414.250   70.281    0.444    0.285    6.473
  414.500   75.723    0.442    0.266    6.357
  414.750   79.349    0.459    0.263    6.245
  415.000   76.323    0.467    0.268    6.249
  415.250   75.110    0.456    0.261    6.138
  415.500   78.132    0.442    0.249    6.142
  415.750   78.734    0.445    0.244    6.149
  416.000   78.127    0.444    0.242    6.152
  416.250   75.705    0.415    0.235    6.042
  416.500   73.283    0.435    0.276    5.825
  416.750   72.072    0.468    0.371    5.721
  417.000   69.650    0.510    0.400    5.621
  417.250   68.438    0.466    0.311    5.624
  417.500   67.226    0.439    0.283    5.735
  417.750   71.457    0.422    0.272    5.738
  418.000   73.875    0.422    0.261    5.964
  418.250   69.638    0.433    0.271    6.080
  418.500   67.821    0.444    0.286    6.198
  418.750   69.632    0.445    0.300    6.201
  419.000   70.236    0.433    0.293    6.324
  419.250   70.838    0.427    0.293    6.570
  419.500   70.231    0.431    0.299    7.085
  419.750   68.415    0.447    0.303    7.498
  420.000   65.993    0.450    0.310    7.936
  420.250   64.176    0.431    0.314    7.941
  420.500   65.383    0.412    0.318    7.946
  420.750   67.800    0.431    0.320    7.519
  421.000   66.588    0.453    0.316    6.984
  421.250   63.561    0.444    0.305    6.731
  421.500   65.373    0.436    0.298    6.371
  421.750   68.395    0.451    0.290    6.375
  422.000   69.602    0.448    0.286    6.379
  422.250   68.995    0.449    0.283    6.508
  422.500   69.598    0.449    0.277    6.391
  422.750   70.200    0.427    0.276    6.515
  423.000   69.593    0.416    0.271    6.767
  423.250   67.776    0.416    0.273    6.771
  423.500   66.564    0.416    0.273    6.907
  423.750   68.376    0.416    0.271    6.911
  424.000   65.955    0.430    0.266    6.915
  424.250   67.766    0.427    0.262    7.052
  424.500   70.183    0.420    0.257    7.056
  424.750   71.391    0.409    0.253    7.194
  425.000   72.598    0.408    0.248    7.199
  425.250   77.434    0.413    0.245    7.204
  425.500   80.456    0.424    0.241    7.209
  425.750   81.059    0.434    0.246    7.214
  426.000   78.032    0.443    0.243    6.955
  426.250   78.029    0.419    0.228    5.995
  426.500   79.236    0.400    0.208    4.977
  426.750   80.444    0.438    0.226    3.908
  427.000   81.652    0.480    0.273    3.432
  427.250   79.835    0.516    0.277    3.842
  427.500   78.623    0.493    0.257    4.220
  427.750   82.249    0.456    0.247    4.551
  428.000   83.457    0.433    0.232    4.907
  428.250   82.244    0.435    0.217    5.291
  428.500   83.452    0.439    0.226    5.396
  428.750   84.659    0.447    0.230    5.300
  429.000   83.447    0.465    0.224    5.207
  429.250   83.445    0.481    0.224    5.209
  429.500   84.047    0.499    0.228    5.213
  429.750   82.835    0.497    0.229    5.416
  430.000   82.228    0.458    0.234    5.841
  430.250   81.620    0.442    0.224    6.180
