~VERSION INFORMATION
 VERS.                 2.0:   CWLS LOG ASCII STANDARD -VERSION 2.0
 WRAP.                  NO:   ONE LINE PER DEPTH STEP
~WELL INFORMATION BLOCK
#MNEM.UNIT           DATA                    DESCRIPTION OF MNEMONIC
#---------    -------------------            -------------------------------
# Generated from Intellog Unique Number	CW_70_72/WELL/2905
NULL.         -999.25                        : NULL_VALUE
WELL.         CHEVRON CALLING WEST           : Well_name    - WELL              
LOC .         10-20-070-21W4                 : Location     - LOCATION          
UWI .         00/10-20-070-21W4/0            : Uwi          - UNIQUE WELL ID    
ENTR.         MAX                            : Entered      - ENTERED BY        
SRVC.         SCHLUMBERGER                   : Scn          - SERVICE COMPANY   
DATE.         14 JAN 75                      : Date         - LOG DATE
STRT.M        420.624                        : top_depth    - START DEPTH       
STOP.M        591.374                        : bot_depth    - STOP DEPTH        
STEP.M        0.25                           : increment    - STEP LENGTH       
~CURVE INFORMATION BLOCK
#MNEM UNIT       ERCB CURVE CODE    CURVE DESCRIPTION
#-----------   ------------------   ----------------------------------
DEPT.M        00 001 00 00         : DEPTH        - DEPTH                       
ILD .OHMM     00 120 00 00         : RESD         - DEEP RESISTIVITY (DIL)      
NPHI.V/V      00 330 00 00         : PHIN         - NEUTRON POROSITY (SANDSTONE)
DPHI.V/V      00 890 00 00         : PHID         - DENSITY POROSITY (SANDSTONE)
CALI.MM       00 280 01 00         : CAL          - CALIPER                     
GR  .API      00 310 00 00         : GR           - GAMMA RAY                   
~PARAMETER INFORMATION       
#MNEM.UNIT           DATA             DESCRIPTION OF MNEMONIC
#---------         -----------     ------------------------------
GL  .M        666.719              : gl           - GROUND LEVEL ELEVATION      
EREF.M        669.036              : kb           - ELEVATION OF DEPTH REFERENCE
DATM.M        666.719              : datum        - DATUM ELEVATION             
TDD .M        588.264              : tdd          - TOTAL DEPTH DRILLER         
RUN .         ONE                  : Run          - RUN NUMBER                  
ENG .         BILL                 : Engineer     - RECORDING ENGINEER          
WIT .         JIM                  : Witness      - WITNESSED BY                
MUD .         GEL                  : Mud_type     - MUD TYPE                    
MATR.         SANDSTONE            : Logunit      - NEUTRON MATRIX              
TMAX.C        21.1111              : BHT          - MAXIMUM RECORDED TEMPERATURE
BHTD.M        588.264              : BHTDEP       - MAXIMUM RECORDED TEMPERATURE
RMT .C        15.5556              : MDTP         - TEMPERATURE OF MUD          
MUDD.KG/M     9000                 : MWT          - MUD DENSITY                 
NEUT.         1                    : NEUTRON      - NEUTRON TYPE                
RESI.         0                    : RESIST       - RESISTIVITY TYPE            
RM  .OHMM     3.5                  : RM           - RESISTIVITY OF MUD          
RMC .OHMM     4.29                 : RMC          - RESISTIVITY OF MUD CAKE     
RMF .OHMM     4.87                 : RMF          - RESISTIVITY OF MUD FILTRATE 
SUFT.C        -20.5556             : SUFT         - SURFACE TEMPERATURE         
~A  DEPTH     RESD     PHIN     PHID      CAL       GR
  420.624    2.582    0.511    0.117  221.997   92.535
  420.874    2.628    0.458    0.098  222.438   94.268
  421.124    2.773    0.489    0.059  223.887  102.164
  421.374    2.874    0.516    0.004  223.325  105.362
  421.624    2.925    0.518    0.164  224.752  105.025
  421.874    2.950    0.524    0.170  223.707  103.229
  422.124    2.975    0.523    0.164  222.641  102.608
  422.374    2.945    0.521    0.160  224.566  104.928
  422.624    2.864    0.528    0.158  225.518  106.065
  422.874    2.810    0.526    0.157  225.958  104.856
  423.124    2.885    0.530    0.163  225.893  102.758
  423.374    2.885    0.538    0.142  225.331  102.434
  423.624    2.960    0.522    0.172  222.794  105.040
  423.874    3.212    0.510    0.200  221.735  103.835
  424.124    3.647    0.489    0.179  226.140   98.212
  424.374    4.066    0.485    0.178  226.097   94.658
  424.624    4.370    0.482    0.202  226.018   89.920
  424.874    4.488    0.512    0.219  225.975   83.126
  425.124    4.566    0.546    0.330  220.944   78.389
  425.374    4.605    0.533    0.362  219.877   80.709
  425.624    4.602    0.476    0.323  221.319   85.081
  425.874    4.556    0.472    0.265  219.763   83.281
  426.124    4.554    0.459    0.206  216.714   78.837
  426.374    4.550    0.432    0.211  215.662   72.043
  426.624    4.588    0.404    0.181  215.107   65.547
  426.874    4.626    0.407    0.185  215.043   67.267
  427.124    4.580    0.432    0.187  214.481   68.710
  427.374    4.536    0.451    0.184  214.423   62.500
  427.624    4.410    0.431    0.202  214.871   62.470
  427.874    4.288    0.420    0.210  215.794   64.492
  428.124    4.169    0.413    0.195  216.248   74.151
  428.374    4.016    0.441    0.176  217.178   78.523
  428.624    3.941    0.454    0.194  218.108   85.539
  428.874    3.866    0.463    0.223  219.046   87.267
  429.124    3.863    0.467    0.197  216.494   82.530
  429.374    3.861    0.471    0.171  212.465   79.844
  429.624    3.856    0.475    0.157  208.429   80.695
  429.874    3.890    0.471    0.160  208.357   85.067
  430.124    3.887    0.467    0.230  207.810   85.910
  430.374    3.884    0.459    0.227  206.260   87.349
  430.624    3.845    0.464    0.233  206.203   89.959
  430.874    3.843    0.475    0.239  210.117   88.746
  431.124    3.840    0.472    0.226  212.540   88.997
  431.374    3.979    0.465    0.207  217.449   91.317
  431.624    4.357    0.454    0.186  216.404   95.400
  431.874    4.474    0.434    0.204  216.404   99.180
  432.124    4.311    0.424    0.199  215.266   99.436
  432.374    4.078    0.425    0.181  212.743   95.000
  432.624    3.787    0.424    0.172  212.679   88.203
  432.874    3.616    0.421    0.196  213.126   82.886
  433.124    3.452    0.420    0.227  213.566   79.906
  433.374    3.296    0.430    0.242  212.997   77.527
  433.624    3.205    0.433    0.261  211.945   76.314
  433.874    3.173    0.427    0.264  210.900   76.280
  434.124    3.142    0.422    0.239  211.816   74.778
  434.374    3.139    0.400    0.238  211.765   69.746
  434.624    3.136    0.399    0.252  211.708   65.013
  434.874    3.163    0.412    0.264  211.139   64.975
  435.124    3.190    0.412    0.260  211.089   68.755
  435.374    3.306    0.417    0.226  211.529   69.015
  435.624    3.306    0.417    0.232  212.473   69.858
  435.874    3.422    0.407    0.254  213.404   71.880
  436.124    3.548    0.410    0.249  213.339   75.660
  436.374    3.745    0.422    0.249  213.275   76.806
  436.624    3.989    0.426    0.234  213.224   79.121
  436.874    4.210    0.416    0.224  213.167   82.617
  437.124    4.244    0.403    0.221  213.110   87.282
  437.374    4.090    0.411    0.218  214.018   92.821
  437.624    3.696    0.421    0.201  214.977   93.374
  437.874    3.341    0.433    0.207  215.908   93.051
  438.124    2.992    0.456    0.203  217.350   92.123
  438.374    2.780    0.469    0.200  218.273   93.566
  438.624    2.630    0.487    0.191  219.203  101.459
  438.874    2.557    0.501    0.177  218.655  106.716
  439.124    2.553    0.515    0.150  218.598  112.850
  439.374    2.576    0.518    0.130  220.530  111.935
  439.624    2.719    0.534    0.111  224.942  111.016
  439.874    2.896    0.533    0.148  226.874  112.447
  440.124    3.113    0.541    0.167  227.307  115.644
  440.374    3.802    0.542    0.130  221.288  113.554
  440.624    4.050    0.508    0.194  218.730  111.464
  440.874    4.474    0.476    0.183  218.680  107.024
  441.124    5.033    0.454    0.185  220.604  101.405
  441.374    5.460    0.454    0.181  220.554   97.843
  441.624    5.869    0.457    0.162  220.490   93.403
  441.874    6.194    0.457    0.138  220.425   86.613
  442.124    6.190    0.479    0.111  215.899   76.589
  442.374    6.018    0.502    0.092  213.347   73.609
  442.624    5.798    0.489    0.197  213.773   74.163
  442.874    5.386    0.475    0.230  213.225   70.608
  443.124    5.003    0.470    0.255  211.179   68.514
  443.374    4.690    0.449    0.282  210.610   67.889
  443.624    4.644    0.442    0.278  214.034   67.561
  443.874    4.725    0.456    0.289  213.984   67.523
  444.124    5.079    0.461    0.286  213.429   67.200
  444.374    5.510    0.448    0.261  213.372   66.868
  444.624    6.489    0.403    0.242  214.302   65.659
  444.874    6.602    0.364    0.220  216.234   60.044
  445.124    6.602    0.353    0.166  217.669   60.888
  445.374    6.296    0.421    0.133  215.117   64.957
  445.624    5.851    0.438    0.129  212.559   64.932
  445.874    4.327    0.459    0.207  212.018   66.950
  446.124    3.947    0.482    0.238  213.446   70.143
  446.374    3.632    0.487    0.261  214.369   72.165
  446.624    3.597    0.470    0.253  214.326   77.124
  446.874    3.660    0.451    0.240  213.267   77.972
  447.124    3.793    0.455    0.250  212.705   76.763
  447.374    4.003    0.469    0.249  212.655   76.431
  447.624    4.304    0.476    0.235  213.088   81.101
  447.874    4.711    0.488    0.217  213.535   86.644
  448.124    5.064    0.473    0.205  214.458   83.383
  448.374    4.923    0.453    0.222  214.393   80.408
  448.624    4.744    0.453    0.237  214.833   77.437
  448.874    4.487    0.447    0.251  216.261   75.347
  449.124    4.019    0.434    0.231  218.705   78.540
  449.374    3.534    0.439    0.226  220.125   77.331
  449.624    3.313    0.441    0.221  217.595   71.414
  449.874    3.221    0.453    0.251  214.539   70.197
  450.124    3.188    0.454    0.275  214.979   71.057
  450.374    3.187    0.442    0.301  214.922   73.662
  450.624    3.184    0.440    0.299  214.865   77.149
  450.874    3.212    0.435    0.284  214.303   79.175
  451.124    3.329    0.426    0.250  214.743   81.785
  451.374    3.450    0.449    0.217  215.183   84.684
  451.624    3.674    0.459    0.195  216.611   88.473
  451.874    3.878    0.466    0.188  219.545   94.019
  452.124    3.946    0.471    0.181  218.975  100.741
  452.374    3.907    0.462    0.203  214.939  102.470
  452.624    3.764    0.454    0.203  214.882  103.313
  452.874    3.627    0.430    0.202  215.819  104.454
  453.124    3.591    0.436    0.195  217.254  107.063
  453.374    3.621    0.449    0.179  216.692  110.554
  453.624    3.787    0.456    0.185  216.145  105.523
  453.874    4.108    0.458    0.177  215.583   95.792
  454.124    4.538    0.453    0.193  214.026   86.359
  454.374    5.802    0.439    0.222  211.965   78.386
  454.624    7.835    0.442    0.233  211.915   76.007
  454.874    9.924    0.446    0.249  211.857   75.087
  455.124   14.949    0.423    0.242  212.802   74.751
  455.374   22.115    0.366    0.242  214.230   73.547
  455.624   24.882    0.320    0.214  215.657   69.988
  455.874   23.970    0.276    0.115  216.594   63.778
  456.124   17.404    0.229    0.080  218.022   59.342
  456.374   11.641    0.181    0.032  219.940   56.367
  456.624    7.929    0.150    0.022  220.401   54.273
  456.874    5.256    0.155    0.011  219.335   55.410
