~VERSION INFORMATION
 VERS.                 2.0:   CWLS LOG ASCII STANDARD -VERSION 2.0
 WRAP.                  NO:   ONE LINE PER DEPTH STEP
~WELL INFORMATION BLOCK
#MNEM.UNIT           DATA                    DESCRIPTION OF MNEMONIC
#---------    -------------------            -------------------------------
# Generated from Intellog Unique Number	CS_71_72/WELL/891
WELL.         CAVALIER ENERGY INC            : Well_name    - WELL
LOC .         00/11-08-072-14W4/0            : Location     - LOCATION
UWI .         00/11-08-072-14W4/0            : Uwi          - UNIQUE WELL ID
ENTR.         SP                             : Entered      - ENTERED BY
SRVC.         SCHLUMBERGER                   : Scn          - SERVICE COMPANY
STRT.M        277.368                        : top_depth    - START DEPTH
STOP.M        481.368                        : bot_depth    - STOP DEPTH
STEP.M        0.25                           : increment    - STEP LENGTH
 NULL. -999.2500:NULL Value
~CURVE INFORMATION BLOCK
#MNEM UNIT       ERCB CURVE CODE    CURVE DESCRIPTION
#-----------   ------------------   ----------------------------------
DEPT.M        00 001 00 00         : DEPTH        - DEPTH
GR  .API      00 310 00 00         : GR           - GAMMA RAY
DPHI.V/V      00 890 00 00         : PHID         - DENSITY POROSITY (SANDSTONE)
NPHI.V/V      00 330 00 00         : PHIN         - NEUTRON POROSITY (SANDSTONE)
ILD .OHMM     00 120 00 00         : RESD         - DEEP RESISTIVITY (DIL)
~PARAMETER INFORMATION
#MNEM.UNIT           DATA             DESCRIPTION OF MNEMONIC
#---------         -----------     ------------------------------
GL  .M        606.552              : gl           - GROUND LEVEL ELEVATION
EREF.M        609.6                : kb           - ELEVATION OF DEPTH REFERENCE
DATM.M        606.552              : datum        - DATUM ELEVATION
TDD .M        482.194              : tdd          - TOTAL DEPTH DRILLER
RUN .         ONE                  : Run          - RUN NUMBER
ENG .         BILL                 : Engineer     - RECORDING ENGINEER
WIT .         JIM                  : Witness      - WITNESSED BY
MUD .         GEL                  : Mud_type     - MUD TYPE
MATR.         SANDSTONE            : Logunit      - NEUTRON MATRIX
TMAX.C        23.3333              : BHT          - MAXIMUM RECORDED TEMPERATURE
BHTD.M        482.194              : BHTDEP       - MAXIMUM RECORDED TEMPERATURE
MATR.         1                    : LOGUNIT      - NEUTRON MATRIX
RMT .C        25                   : MDTP         - TEMPERATURE OF MUD
NEUT.         1                    : NEUTRON      - NEUTRON TYPE
RESI.         0                    : RESIST       - RESISTIVITY TYPE
RMC .OHMM     0.25                 : RMC          - RESISTIVITY OF MUD CAKE
RMF .OHMM     0.25                 : RMF          - RESISTIVITY OF MUD FILTRATE
SUFT.C        15                   : SUFT         - SURFACE TEMPERATURE
~A  DEPTH       GR     PHID     PHIN     RESD
# ...
  407.868   71.523    0.253    0.456    4.874
  408.118   71.954    0.292    0.454    4.873
  408.368   74.294    0.317    0.465    4.867
  408.618   75.861    0.305    0.474    4.970
  408.868   75.001    0.300    0.484    5.107
  409.118   69.658    0.291    0.493    5.145
  409.368   66.772    0.282    0.485    5.285
  409.618   70.409    0.273    0.471    5.361
  409.868   74.966    0.269    0.461    5.385
  410.118   81.819    0.265    0.452    5.434
  410.368   86.341    0.251    0.443    5.307
  410.618   91.192    0.230    0.457    5.054
  410.868   94.165    0.229    0.472    4.958
  411.118   94.598    0.219    0.502    4.863
  411.368   92.789    0.234    0.518    4.976
  411.618   94.094    0.229    0.516    5.113
  411.868   95.028    0.215    0.520    5.155
  412.118   92.651    0.209    0.506    5.303
  412.368   89.588    0.215    0.509    5.440
  412.618   88.446    0.226    0.523    5.563
  412.868   91.653    0.223    0.537    5.599
  413.118   96.683    0.223    0.539    5.592
  413.368   99.072    0.211    0.525    5.689
  413.618   99.204    0.215    0.510    5.680
  413.868   94.029    0.202    0.501    5.678
  414.118   90.356    0.192    0.512    5.660
  414.368   88.553    0.193    0.513    5.603
  414.618   88.768    0.212    0.500    5.481
  414.868   87.326    0.220    0.495    5.245
  415.118   91.746    0.200    0.507    5.052
  415.368   93.387    0.207    0.516    4.915
  415.618   93.326    0.217    0.515    4.875
  415.868   94.297    0.227    0.529    4.807
  416.118   95.686    0.238    0.532    4.720
  416.368   96.400    0.219    0.520    4.640
  416.618   97.032    0.196    0.526    4.696
  416.868   96.852    0.224    0.560    4.832
  417.118   94.796    0.213    0.572    4.959
  417.368   84.555    0.234    0.508    5.314
  417.618   80.665    0.242    0.443    5.601
  417.868   82.992    0.221    0.408    5.983
  418.118   87.376    0.154    0.417    6.480
  418.368   86.462    0.096    0.507    7.186
  418.618   75.858    0.110    0.477    7.543
  418.868   77.521    0.157    0.408    7.880
  419.118   81.215    0.188    0.416    7.358
  419.368   84.337    0.159    0.477    7.564
  419.618   85.921    0.160    0.479    7.626
  419.868   85.838    0.230    0.469    7.205
  420.118   83.615    0.256    0.464    6.900
  420.368   79.043    0.271    0.466    6.694
  420.618   77.446    0.232    0.488    6.970
  420.868   80.436    0.196    0.492    7.064
  421.118   82.595    0.230    0.480    7.139
  421.368   84.099    0.241    0.469    7.211
  421.618   83.906    0.256    0.495    7.178
  421.868   82.906    0.266    0.484    7.043
  422.118   81.900    0.231    0.474    7.161
  422.368   80.220    0.218    0.469    7.958
  422.618   67.061    0.192    0.486    9.164
  422.868   59.767    0.144    0.460   10.638
  423.118   52.690    0.099    0.374   11.419
  423.368   54.286    0.006    0.241   11.780
  423.618   60.304   -0.014    0.227   10.504
  423.868   68.325    0.003    0.279    8.564
  424.118   75.108    0.010    0.348    7.352
  424.368   79.591    0.093    0.392    6.578
  424.618   83.388    0.113    0.405    6.150
  424.868   83.175    0.156    0.413    5.948
  425.118   87.616    0.149    0.436    5.882
  425.368   90.538    0.168    0.464    5.932
  425.618   94.157    0.178    0.491    5.980
  425.868   95.745    0.178    0.482    6.185
  426.118   93.980    0.171    0.460    6.257
  426.368   93.025    0.178    0.443    6.349
  426.618   91.999    0.188    0.433    6.257
  426.868   92.698    0.189    0.451    6.105
  427.118   96.436    0.208    0.464    6.012
  427.368   96.448    0.217    0.474    6.012
  427.618   96.973    0.198    0.468    6.089
  427.868   97.718    0.217    0.459    6.127
  428.118   97.618    0.214    0.452    6.261
  428.368   95.126    0.192    0.451    6.264
  428.618   92.066    0.193    0.441    6.170
  428.868   88.158    0.167    0.436    6.179
  429.118   90.482    0.158    0.456    6.126
  429.368   88.924    0.149    0.451    5.992
  429.618   87.648    0.190    0.456    5.860
  429.868   87.296    0.198    0.462    5.737
  430.118   89.106    0.177    0.468    5.351
  430.368   89.480    0.192    0.468    4.917
  430.618   89.274    0.194    0.463    4.426
  430.868   87.548    0.218    0.481    4.118
  431.118   87.095    0.210    0.523    3.578
  431.368   88.272    0.230    0.568    3.257
  431.618   90.294    0.263    0.578    3.048
  431.868   93.918    0.258    0.583    2.924
  432.118   95.790    0.247    0.568    2.810
  432.368   99.247    0.254    0.578    2.904
  432.618   97.673    0.235    0.586    3.090
  432.868   91.921    0.221    0.557    3.397
  433.118   86.705    0.217    0.496    3.775
  433.368   84.557    0.206    0.471    4.236
  433.618   85.778    0.202    0.467    4.481
  433.868   88.345    0.197    0.486    4.887
  434.118   88.511    0.220    0.495    5.121
  434.368   86.883    0.208    0.479    5.151
  434.618   81.740    0.188    0.454    5.287
  434.868   83.180    0.153    0.434    5.602
  435.118   90.019    0.150    0.453    6.052
  435.368   90.317    0.166    0.469    6.813
  435.618   85.343    0.188    0.471    7.248
  435.868   81.467    0.187    0.446    7.785
  436.118   76.408    0.162    0.405    8.172
  436.368   75.114    0.048    0.360    8.526
  436.618   78.211    0.077    0.388    8.766
  436.868   80.417    0.095    0.413    7.187
  437.118   84.110    0.133    0.386    6.176
  437.368   88.193    0.070    0.394    5.225
  437.618   94.430    0.093    0.450    4.700
  437.868   96.137    0.184    0.510    3.995
  438.118   98.477    0.190    0.509    3.677
  438.368   97.363    0.195    0.493    3.637
  438.618   94.703    0.206    0.485    3.631
  438.868   93.727    0.213    0.490    3.807
  439.118   97.099    0.216    0.485    4.170
  439.368   98.960    0.212    0.480    4.423
  439.618  100.245    0.202    0.487    4.608
  439.868  102.106    0.190    0.483    4.491
  440.118  102.015    0.182    0.494    4.361
  440.368  101.600    0.194    0.487    4.240
  440.618   98.967    0.198    0.484    4.023
  440.868   99.057    0.194    0.492    3.980
  441.118   99.766    0.165    0.488    3.778
  441.368   99.709    0.199    0.501    3.791
  441.618  100.199    0.197    0.507    3.856
  441.868  100.527    0.192    0.506    3.899
  442.118  100.956    0.191    0.514    3.954
  442.368   99.032    0.175    0.522    4.141
  442.618   93.369    0.141    0.512    4.298
  442.868   87.583    0.101    0.461    4.356
  443.118   83.972    0.043    0.385    4.395
  443.368   89.079    0.063    0.471    4.530
  443.618   97.664    0.137    0.475    4.668
  443.868  101.507    0.173    0.499    4.674
  444.118  103.033    0.173    0.511    4.675
  444.368  100.369    0.183    0.478    4.686
  444.618   96.371    0.175    0.447    4.412
  444.868   95.816    0.144    0.466    4.104
  445.118   99.537    0.164    0.477    3.734
  445.368  101.953    0.188    0.486    3.510
  445.618  104.138    0.190    0.510    3.557
  445.868  105.374    0.201    0.533    3.673
  446.118  106.950    0.213    0.544    3.841
  446.368  101.858    0.193    0.497    4.638
  446.618   95.102    0.180    0.443    5.467
  446.868   86.196    0.164    0.395    6.215
  447.118   84.391    0.108    0.357    7.063
  447.368   87.528    0.029    0.378    7.919
  447.618   93.916    0.101    0.429    8.461
  447.868   95.377    0.125    0.451    8.715
  448.118   87.010    0.137    0.411    8.989
  448.368   82.168    0.121    0.344   10.133
  448.618   78.242    0.056    0.316   11.111
  448.868   78.966    0.064    0.368   11.885
  449.118   82.033    0.170    0.373   12.217
  449.368   88.157    0.177    0.370   11.535
  449.618   94.418    0.198    0.376   10.925
  449.868   98.778    0.173    0.394   11.234
  450.118   92.301    0.161    0.415   12.585
  450.368   82.236    0.195    0.431   13.639
  450.618   73.117    0.228    0.420   16.116
  450.868   73.435    0.250    0.411   18.830
  451.118   78.412    0.253    0.400   23.538
