~VERSION INFORMATION
 VERS.                 2.0:   CWLS LOG ASCII STANDARD -VERSION 2.0
 WRAP.                  NO:   ONE LINE PER DEPTH STEP
~WELL INFORMATION BLOCK
#MNEM.UNIT           DATA                    DESCRIPTION OF MNEMONIC
#---------    -------------------            -------------------------------
# Generated from Intellog Unique Number	CC_80_83/WELL/2379
NULL.         -999.25                        : NULL_VALUE
WELL.         GULF BOHN                      : Well_name    - WELL              
LOC .         10-27-081-07W4                 : Location     - LOCATION          
UWI .         00/10-27-081-07W4/0            : Uwi          - UNIQUE WELL ID    
ENTR.         DW                             : Entered      - ENTERED BY        
SRVC.         SCHLUMBERGER                   : Scn          - SERVICE COMPANY   
DATE.         19 FEB 79                      : Date         - LOG DATE
STRT.M        205                            : top_depth    - START DEPTH       
STOP.M        459.992                        : bot_depth    - STOP DEPTH        
STEP.M        0.3                            : increment    - STEP LENGTH       
~CURVE INFORMATION BLOCK
#MNEM UNIT       ERCB CURVE CODE    CURVE DESCRIPTION
#-----------   ------------------   ----------------------------------
DEPT.M        00 001 00 00         : DEPTH        - DEPTH                       
DPHI.V/V      00 890 00 00         : PHID         - DENSITY POROSITY (LIMESTONE)
NPHI.V/V      00 330 00 00         : PHIN         - NEUTRON POROSITY (LIMESTONE)
GR  .API      00 310 00 00         : GR           - GAMMA RAY                   
ILD .OHMM     00 120 00 00         : RESD         - DEEP RESISTIVITY (DIL)      
~PARAMETER INFORMATION       
#MNEM.UNIT           DATA             DESCRIPTION OF MNEMONIC
#---------         -----------     ------------------------------
GL  .M        656.2                : gl           - GROUND LEVEL ELEVATION      
EREF.M        659.9                : kb           - ELEVATION OF DEPTH REFERENCE
DATM.M        659.9                : datum        - DATUM ELEVATION             
TDD .M        510                  : tdd          - TOTAL DEPTH DRILLER         
RUN .         ONE                  : Run          - RUN NUMBER                  
ENG .         BILL                 : Engineer     - RECORDING ENGINEER          
WIT .         JIM                  : Witness      - WITNESSED BY                
MUD .         GEL                  : Mud_type     - MUD TYPE                    
MATR.         LIMESTONE            : Logunit      - NEUTRON MATRIX              
TMAX.C        20                   : BHT          - MAXIMUM RECORDED TEMPERATURE
BHTD.M        510                  : BHTDEP       - MAXIMUM RECORDED TEMPERATURE
MATR.         1                    : LOGUNIT      - NEUTRON MATRIX              
RMT .C        25                   : MDTP         - TEMPERATURE OF MUD          
NEUT.         1                    : NEUTRON      - NEUTRON TYPE                
RESI.         0                    : RESIST       - RESISTIVITY TYPE            
RMC .OHMM     0.25                 : RMC          - RESISTIVITY OF MUD CAKE     
RMF .OHMM     0.25                 : RMF          - RESISTIVITY OF MUD FILTRATE 
SUFT.C        4                    : SUFT         - SURFACE TEMPERATURE         
~A  DEPTH     PHID     PHIN       GR     RESD
# ...
  257.200    0.234    0.475  107.608    7.253
  257.500    0.209    0.498  107.606    6.479
  257.800    0.183    0.508   97.734    6.859
  258.100    0.214    0.509   98.349    7.832
  258.400    0.259    0.482   94.645    9.644
  258.700    0.316    0.472   84.773   12.567
  259.000    0.346    0.463   83.537   15.475
  259.300    0.343    0.466   86.002   16.077
  259.600    0.333    0.453   96.488   16.084
  259.900    0.325    0.448   97.103   15.206
  260.200    0.316    0.448   89.698   14.373
  260.500    0.306    0.446   95.248   13.588
  260.800    0.297    0.444   98.947   11.911
  261.100    0.274    0.453   97.095   11.049
  261.400    0.267    0.464   97.093   10.057
  261.700    0.286    0.467   95.857    9.874
  262.000    0.287    0.480   88.452   10.067
  262.300    0.272    0.492   77.963   10.860
  262.600    0.287    0.480   63.772   12.401
  262.900    0.311    0.456   53.283   13.894
  263.200    0.327    0.419   43.410   15.865
  263.500    0.337    0.413   43.408   16.796
  263.800    0.347    0.416   45.874   16.490
  264.100    0.340    0.418   50.807   15.884
  264.400    0.339    0.426   54.507   15.304
  264.700    0.323    0.435   61.290   15.899
  265.000    0.317    0.435   61.905   16.208
  265.300    0.311    0.419   64.371   15.323
  265.600    0.308    0.408   71.155   14.486
  265.900    0.298    0.412   76.705   13.437
  266.200    0.281    0.426   83.489   12.002
  266.500    0.286    0.431   90.273   10.324
  266.800    0.273    0.434   97.673    9.577
  267.100    0.268    0.437   97.671    9.227
  267.400    0.260    0.439   96.435    9.769
  267.700    0.268    0.444   96.434   10.149
  268.000    0.274    0.445  101.367    9.776
  268.300    0.270    0.447  107.534    8.252
  268.600    0.242    0.453  113.084    6.708
  268.900    0.218    0.477  116.783    5.991
  269.200    0.221    0.500  117.398    5.558
  269.500    0.216    0.519  114.311    5.561
  269.800    0.218    0.516  109.991    5.887
  270.100    0.239    0.491  106.905    6.980
  270.400    0.266    0.470  101.351    8.277
  270.700    0.290    0.444   97.030   10.001
  271.000    0.298    0.423   97.028   10.997
  271.300    0.279    0.421  100.111   10.796
  271.600    0.264    0.428  102.576   10.206
  271.900    0.254    0.440  108.126    9.647
  272.200    0.254    0.449  114.294    8.949
  272.500    0.244    0.455  117.993    8.147
  272.800    0.250    0.464  113.672    7.558
  273.100    0.244    0.473  112.437    7.280
  273.400    0.255    0.481  110.584    7.708
  273.700    0.264    0.490  107.498    8.008
  274.000    0.287    0.486  101.944    8.640
  274.300    0.317    0.496   96.389    9.864
  274.600    0.324    0.479   93.303   12.614
  274.900    0.302    0.463   77.261   14.678
  275.200    0.313    0.448   64.305   15.540
  275.500    0.315    0.423   65.536   15.256
  275.800    0.306    0.410   71.703   14.422
  276.100    0.274    0.411   79.721   12.641
  276.400    0.253    0.420  101.311   10.874
  276.700    0.231    0.458  107.477    9.714
  277.000    0.238    0.486  102.540    9.183
  277.300    0.248    0.520  104.389    8.681
  277.600    0.264    0.508  103.153    8.522
  277.900    0.264    0.499  101.300    8.526
  278.200    0.273    0.502   99.448    9.026
  278.500    0.302    0.504   97.595    9.738
  278.800    0.313    0.480   95.742   10.506
  279.100    0.337    0.465   93.273   11.123
  279.400    0.350    0.458   88.335    9.751
  279.700    0.336    0.455   85.866    7.212
  280.000    0.296    0.460   83.397    7.080
  280.300    0.336    0.492   74.141    7.495
  280.600    0.370    0.528   63.651    8.398
  280.900    0.395    0.574   55.630    9.958
  281.199    0.409    0.606   53.160   12.032
  281.499    0.354    0.446   54.391   14.540
  281.799    0.353    0.433   56.241   14.822
  282.099    0.354    0.430   62.407   15.400
  282.399    0.355    0.422   63.022   15.119
  282.699    0.362    0.416   62.403   14.844
  282.999    0.367    0.420   60.551   14.848
  283.299    0.365    0.438   58.081   14.854
  283.599    0.368    0.431   59.313   14.860
  283.899    0.370    0.436   66.097   14.867
  284.199    0.372    0.448   66.711   14.874
  284.499    0.360    0.467   66.093   14.882
  284.799    0.355    0.470   64.240   14.610
  285.099    0.364    0.455   63.621   14.614
  285.399    0.360    0.452   62.386   14.621
  285.699    0.358    0.457   61.767   14.907
  285.999    0.364    0.454   59.914   15.198
  286.299    0.365    0.436   56.827   15.203
  286.599    0.358    0.427   53.741   15.208
  286.899    0.353    0.431   52.505   14.932
  287.199    0.354    0.439   54.354   14.657
  287.499    0.352    0.457   57.436   14.121
  287.799    0.359    0.463   58.668   13.604
  288.099    0.368    0.453   54.964   13.106
  288.399    0.373    0.452   52.495   13.111
  288.699    0.377    0.467   51.259   12.870
  288.999    0.380    0.478   50.640   11.939
  289.299    0.391    0.494   50.021   11.286
  289.599    0.383    0.495   48.168   11.726
  289.899    0.378    0.486   47.550   12.416
  290.199    0.378    0.494   50.632   12.658
  290.499    0.373    0.477   52.481   12.903
  290.799    0.364    0.464   54.330   12.432
  291.099    0.357    0.463   53.094   12.204
  291.399    0.351    0.463   51.241   12.208
  291.699    0.349    0.462   50.005   12.447
  291.999    0.353    0.458   49.386   12.932
  292.299    0.352    0.457   49.384   12.937
  292.599    0.353    0.458   49.999   12.943
  292.899    0.362    0.457   49.380   13.196
  293.199    0.377    0.441   48.145   13.454
  293.499    0.365    0.438   46.292   13.716
  293.799    0.367    0.456   44.439   13.721
  294.099    0.379    0.459   43.203   13.987
  294.399    0.380    0.458   41.968   13.993
  294.699    0.380    0.454   42.582   14.265
  294.999    0.380    0.468   45.665   14.545
  295.299    0.372    0.483   45.663   14.829
  295.599    0.372    0.490   44.427   14.834
  295.899    0.385    0.454   43.808   15.122
  296.199    0.388    0.443   43.806   15.418
  296.499    0.363    0.441   44.421   15.136
  296.799    0.359    0.432   45.653   14.861
  297.099    0.374    0.435   48.119   14.587
  297.399    0.370    0.448   52.435   12.787
  297.699    0.353    0.435   57.985   10.591
  297.999    0.316    0.428   69.704    8.773
  298.299    0.275    0.452   80.806    8.294
  298.599    0.300    0.464   74.018    8.456
  298.899    0.322    0.463   74.016    8.459
  299.199    0.295    0.436   80.183    8.148
  299.499    0.263    0.441   93.753    7.559
  299.799    0.252    0.459   98.070    7.421
  300.099    0.235    0.461  100.535    7.285
  300.399    0.243    0.450   99.916    7.428
  300.699    0.271    0.461   94.979    7.572
  300.999    0.294    0.456   92.509    7.867
  301.299    0.282    0.445   94.358    8.020
  301.599    0.257    0.443   95.590    8.024
  301.899    0.226    0.443   94.354    7.877
  302.199    0.245    0.451   92.501    7.589
  302.499    0.269    0.463   90.032    7.592
  302.799    0.268    0.463   92.497    7.452
  303.099    0.268    0.458   93.112    7.598
  303.399    0.263    0.467   88.175    8.513
  303.699    0.262    0.509   80.770    9.905
  303.999    0.277    0.516   75.216   11.098
  304.299    0.315    0.462   75.831   11.104
  304.599    0.313    0.453   78.913    9.196
  304.899    0.299    0.453   88.165    5.848
  305.199    0.271    0.446   96.183    3.862
  305.499    0.218    0.458  108.518    2.072
  305.798    0.231    0.503  112.218    2.073
  306.098    0.237    0.526  113.450    2.412
  306.398    0.242    0.540  109.129    3.026
  306.698    0.234    0.548  108.510    4.096
  306.998    0.241    0.545  109.742    4.255
  307.298    0.250    0.569  109.740    4.023
  307.598    0.251    0.580  107.270    3.802
  307.898    0.251    0.593  106.034    3.595
  308.198    0.256    0.599  104.799    3.463
  308.498    0.271    0.587  102.946    3.464
  308.798    0.278    0.572  101.710    3.600
  309.098    0.289    0.536  101.708    3.811
