~VERSION INFORMATION
 VERS.                 2.0:   CWLS LOG ASCII STANDARD -VERSION 2.0
 WRAP.                  NO:   ONE LINE PER DEPTH STEP
~WELL INFORMATION BLOCK
#MNEM.UNIT           DATA                    DESCRIPTION OF MNEMONIC
#---------    -------------------            -------------------------------
# Generated from Intellog Unique Number	CW_70_72/WELL/1076
NULL.         -999.25                        : NULL_VALUE
WELL.         CABRE ET AK NUTSYE 16-27       : Well_name    - WELL              
LOC .         16-27-071-03W5                 : Location     - LOCATION          
UWI .         00/16-27-071-03W5/0            : Uwi          - UNIQUE WELL ID    
ENTR.         JAYE                           : Entered      - ENTERED BY        
SRVC.         COMPUTALOG                     : Scn          - SERVICE COMPANY   
DATE.         19 NOV 85                      : Date         - LOG DATE          
STRT.M        440                            : top_depth    - START DEPTH       
STOP.M        650                            : bot_depth    - STOP DEPTH        
STEP.M        0.25                           : increment    - STEP LENGTH       
~CURVE INFORMATION BLOCK
#MNEM UNIT       ERCB CURVE CODE    CURVE DESCRIPTION
#-----------   ------------------   ----------------------------------
DEPT.M        00 001 00 00         : DEPTH        - DEPTH                       
DPHI.V/V      00 890 00 00         : PHID         - DENSITY POROSITY (SANDSTONE)
NPHI.V/V      00 330 00 00         : PHIN         - NEUTRON POROSITY (SANDSTONE)
GR  .API      00 310 00 00         : GR           - GAMMA RAY                   
CALI.MM       00 280 01 00         : CAL          - CALIPER                     
ILD .OHMM     00 120 00 00         : RESD         - DEEP RESISTIVITY (DIL)      
~PARAMETER INFORMATION       
#MNEM.UNIT           DATA             DESCRIPTION OF MNEMONIC
#---------         -----------     ------------------------------
GL  .M        635.2                : gl           - GROUND LEVEL ELEVATION      
EREF.M        638.78               : kb           - ELEVATION OF DEPTH REFERENCE
DATM.M        635.2                : datum        - DATUM ELEVATION             
TDD .M        660                  : tdd          - TOTAL DEPTH DRILLER         
RUN .         ONE                  : Run          - RUN NUMBER                  
ENG .         AHLOY                : Engineer     - RECORDING ENGINEER          
WIT .         BLOTT                : Witness      - WITNESSED BY                
BASE.         EDMONTON             : Branch       - HOME BASE OF LOGGING UNIT   
MUD .         GEL CHEN             : Mud_type     - MUD TYPE                    
MATR.         SANDSTONE            : Logunit      - NEUTRON MATRIX              
TMAX.C        27                   : BHT          - MAXIMUM RECORDED TEMPERATURE
BHTD.M        659.1                : BHTDEP       - MAXIMUM RECORDED TEMPERATURE
RMT .C        16.7                 : MDTP         - TEMPERATURE OF MUD          
MUDD.KG/M     1140                 : MWT          - MUD DENSITY                 
NEUT.         1                    : NEUTRON      - NEUTRON TYPE                
RESI.         0                    : RESIST       - RESISTIVITY TYPE            
RM  .OHMM     3                    : RM           - RESISTIVITY OF MUD          
RMC .OHMM     3.7                  : RMC          - RESISTIVITY OF MUD CAKE     
RMF .OHMM     3.2                  : RMF          - RESISTIVITY OF MUD FILTRATE 
SUFT.C        0                    : SUFT         - SURFACE TEMPERATURE         
~A  DEPTH     PHID     PHIN       GR      CAL     RESD
  440.000    0.228    0.431  102.713  179.565    1.821
  440.250    0.230    0.424  100.320  178.745    1.788
  440.500    0.228    0.440   97.864  177.290    1.750
  440.750    0.231    0.455   95.662  175.519    1.769
  441.000    0.237    0.456   92.699  173.644    1.816
  441.250    0.241    0.450   95.248  172.188    1.896
  441.500    0.238    0.444   98.046  170.944    1.976
  441.750    0.228    0.452  101.796  170.440    2.079
  442.000    0.213    0.462  107.636  170.148    2.166
  442.250    0.206    0.466  107.841  171.120    2.227
  442.500    0.204    0.449  105.891  172.938    2.260
  442.750    0.202    0.438  102.993  174.125    2.333
  443.000    0.199    0.472  101.739  173.090    2.386
  443.250    0.194    0.494  101.121  171.324    2.429
  443.500    0.203    0.487  102.528  171.134    2.489
  443.750    0.196    0.466  105.329  171.260    2.520
  444.000    0.188    0.460  108.572  171.706    2.524
  444.250    0.185    0.450  110.802  171.942    2.517
  444.500    0.183    0.425  108.283  171.753    2.502
  444.750    0.180    0.413  105.384  170.721    2.485
  445.000    0.169    0.425  106.919  169.902    2.484
  445.250    0.173    0.441  107.503  170.665    2.478
  445.500    0.180    0.435  107.453  171.847    2.490
  445.750    0.184    0.428  107.023  172.925    2.531
  446.000    0.188    0.439  105.898  171.473    2.583
  446.250    0.190    0.454  102.745  168.225    2.601
  446.500    0.183    0.465  101.240  164.974    2.619
  446.750    0.175    0.469  104.610  161.092    2.658
  447.000    0.183    0.467  106.333  158.693    2.677
  447.250    0.205    0.473  106.728  157.871    2.690
  447.500    0.225    0.463  107.564  157.257    2.725
  447.750    0.212    0.463  106.882  157.072    2.845
  448.000    0.198    0.472  103.286  157.306    2.970
  448.250    0.184    0.465  107.164  157.647    3.112
  448.500    0.173    0.452  106.481  157.778    3.249
  448.750    0.166    0.437   98.643  157.691    3.335
  449.000    0.174    0.425   93.400  157.721    3.276
  449.250    0.188    0.417   88.919  157.738    3.058
  449.500    0.195    0.415   84.817  157.869    2.848
  449.750    0.199    0.416   91.227  157.999    2.724
  450.000    0.222    0.424   98.522  157.913    2.780
  450.250    0.242    0.450   90.304  155.615    2.958
  450.500    0.259    0.439   78.223  153.423    3.251
  450.750    0.274    0.420   67.789  149.329    3.540
  451.000    0.286    0.402   61.598  145.236    3.817
  451.250    0.294    0.387   60.725  145.367    4.148
  451.500    0.265    0.376   62.512  147.077    4.405
  451.750    0.191    0.362   61.449  148.685    4.303
  452.000    0.155    0.341   59.185  150.500    4.047
  452.250    0.122    0.348   63.947  152.955    3.776
  452.500    0.217    0.361   70.294  153.925    3.592
  452.750    0.235    0.375   76.641  151.733    3.495
  453.000    0.233    0.383   81.974  148.273    3.649
  453.250    0.229    0.382   83.950  145.447    3.738
  453.500    0.223    0.374   73.769  143.992    3.672
  453.750    0.207    0.368   65.740  145.387    3.574
  454.000    0.189    0.369   68.098  149.633    3.451
  454.250    0.188    0.385   84.323  154.088    3.277
  454.500    0.195    0.405   93.962  157.911    3.152
  454.750    0.199    0.415   99.548  160.572    3.009
  455.000    0.197    0.427   99.057  162.179    2.835
  455.250    0.189    0.417   91.851  160.093    2.707
  455.500    0.250    0.394   78.567  157.688    2.580
  455.750    0.272    0.367   69.463  155.600    2.563
  456.000    0.295    0.352   60.484  153.831    2.666
  456.250    0.309    0.334   65.691  152.903    2.794
  456.500    0.294    0.342   73.810  152.296    2.956
  456.750    0.257    0.355   85.919  152.214    3.158
  457.000    0.244    0.354   84.160  152.660    3.348
  457.250    0.252    0.352   73.662  152.680    3.508
  457.500    0.232    0.366   62.468  152.495    3.663
  457.750    0.193    0.380   68.308  152.517    3.788
  458.000    0.149    0.377   95.614  153.805    3.924
  458.250    0.156    0.367  104.493  155.625    4.090
  458.500    0.178    0.354   96.846  158.074    4.111
  458.750    0.201    0.339   84.891  160.315    3.955
  459.000    0.208    0.334   82.245  162.028    3.747
  459.250    0.215    0.363   90.683  163.420    3.612
  459.500    0.227    0.383   95.129  168.826    3.602
  459.750    0.245    0.395  103.311  166.844    3.697
  460.000    0.237    0.406  108.898  165.179    3.876
  460.250    0.212    0.406  103.529  165.519    4.116
  460.500    0.191    0.392   95.565  165.542    4.396
  460.750    0.190    0.381   92.033  166.412    4.512
  461.000    0.186    0.374   88.944  167.911    4.374
  461.250    0.183    0.370   84.209  169.412    4.106
  461.500    0.188    0.359   75.610  167.852    3.661
  461.750    0.155    0.346   79.613  162.703    3.238
  462.000    0.148    0.377   93.495  159.560    2.838
  462.250    0.198    0.396   81.794  155.049    2.436
  462.500    0.283    0.387   61.861  152.855    2.201
  462.750    0.313    0.371   50.794  151.927    2.027
  463.000    0.326    0.354   45.236  151.319    2.065
  463.250    0.327    0.337   45.947  151.450    2.265
  463.500    0.313    0.351   53.496  152.000    2.591
  463.750    0.288    0.351   65.668  153.182    2.880
  464.000    0.278    0.355   74.168  155.209    3.123
  464.250    0.271    0.356   84.186  157.979    3.452
  464.500    0.260    0.352   90.912  158.213    3.716
  464.750    0.236    0.344   93.713  156.865    3.857
  465.000    0.213    0.336   85.242  156.359    3.900
  465.250    0.221    0.329   79.429  157.015    3.972
  465.500    0.237    0.327   70.832  158.729    4.046
  465.750    0.244    0.329   68.123  160.125    4.090
  466.000    0.242    0.332   87.577  161.626    4.102
  466.250    0.233    0.340  105.132  163.020    4.070
  466.500    0.234    0.358  111.035  164.309    4.066
  466.750    0.250    0.383  115.419  165.284    4.079
  467.000    0.257    0.416  112.647  165.832    4.131
  467.250    0.261    0.436  111.521  166.280    4.224
  467.500    0.259    0.452  110.141  166.723    4.302
  467.750    0.239    0.425  108.955  166.853    4.365
  468.000    0.212    0.414  108.080  167.196    4.272
  468.250    0.194    0.402  106.511  167.641    4.032
  468.500    0.174    0.375  107.159  168.507    3.622
  468.750    0.164    0.410  109.704  169.694    3.169
  469.000    0.165    0.455  112.822  170.242    2.799
  469.250    0.157    0.469  114.609  171.005    2.567
  469.500    0.189    0.453  117.536  171.028    2.551
  469.750    0.217    0.439  115.396  171.050    2.684
  470.000    0.219    0.440  105.975  169.806    2.883
  470.250    0.209    0.441   95.794  161.176    2.758
  470.500    0.231    0.419   81.307  156.240    2.629
  470.750    0.269    0.398   72.140  154.787    2.562
  471.000    0.305    0.391   64.871  154.702    2.489
  471.250    0.298    0.386   61.909  154.625    2.459
  471.500    0.289    0.380   61.923  154.644    2.444
  471.750    0.291    0.365   62.570  154.458    2.446
  472.000    0.297    0.377   64.168  154.269    2.487
  472.250    0.299    0.377   59.686  154.610    2.572
  472.500    0.281    0.367   60.080  154.949    2.696
  472.750    0.229    0.374   63.324  156.026    2.874
  473.000    0.207    0.361   68.278  157.210    3.117
  473.250    0.164    0.343   73.483  158.188    3.485
  473.500    0.129    0.338   81.158  158.525    3.708
  473.750    0.152    0.348   84.910  157.494    3.727
  474.000    0.225    0.351   77.261  155.616    3.525
  474.250    0.267    0.341   67.079  153.950    3.265
  474.500    0.296    0.347   64.118  152.813    3.029
  474.750    0.305    0.362   62.548  151.152    2.865
  475.000    0.299    0.374   60.979  149.798    2.730
  475.250    0.287    0.369   58.460  148.453    2.672
  475.500    0.275    0.373   56.637  147.423    2.635
  475.750    0.284    0.391   58.046  146.387    2.653
  476.000    0.296    0.403   58.945  145.565    2.713
  476.250    0.299    0.391   60.035  144.638    2.768
