~VERSION INFORMATION
 VERS.                 2.0:   CWLS LOG ASCII STANDARD -VERSION 2.0
 WRAP.                  NO:   ONE LINE PER DEPTH STEP
~WELL INFORMATION BLOCK
#MNEM.UNIT           DATA                    DESCRIPTION OF MNEMONIC
#---------    -------------------            -------------------------------
# Generated from Intellog Unique Number	CS_73_76/WELL/3229
WELL.         DOME PETOLEUM LIMITED          : Well_name    - WELL
LOC .         00/10-04-075-07W4/0            : Location     - LOCATION
UWI .         00/10-04-075-07W4/0            : Uwi          - UNIQUE WELL ID
ENTR.         SP                             : Entered      - ENTERED BY
SRVC.         SCHLUMBERGER                   : Scn          - SERVICE COMPANY
STRT.M        265.176                        : top_depth    - START DEPTH
STOP.M        487.426                        : bot_depth    - STOP DEPTH
STEP.M        0.25                           : increment    - STEP LENGTH
 NULL. -999.2500:NULL Value
~CURVE INFORMATION BLOCK
#MNEM UNIT       ERCB CURVE CODE    CURVE DESCRIPTION
#-----------   ------------------   ----------------------------------
DEPT.M        00 001 00 00         : DEPTH        - DEPTH
GR  .API      00 310 00 00         : GR           - GAMMA RAY
DPHI.V/V      00 890 00 00         : PHID         - DENSITY POROSITY (SANDSTONE)
NPHI.V/V      00 330 00 00         : PHIN         - NEUTRON POROSITY (SANDSTONE)
ILD .OHMM     00 120 00 00         : RESD         - DEEP RESISTIVITY (DIL)
~PARAMETER INFORMATION
#MNEM.UNIT           DATA             DESCRIPTION OF MNEMONIC
#---------         -----------     ------------------------------
GL  .M        662.33               : gl           - GROUND LEVEL ELEVATION
EREF.M        665.074              : kb           - ELEVATION OF DEPTH REFERENCE
DATM.M        662.33               : datum        - DATUM ELEVATION
TDD .M        550.469              : tdd          - TOTAL DEPTH DRILLER
RUN .         ONE                  : Run          - RUN NUMBER
ENG .         BILL                 : Engineer     - RECORDING ENGINEER
WIT .         JIM                  : Witness      - WITNESSED BY
MUD .         GEL                  : Mud_type     - MUD TYPE
MATR.         SANDSTONE            : Logunit      - NEUTRON MATRIX
TMAX.C        60                   : BHT          - MAXIMUM RECORDED TEMPERATURE
BHTD.M        550.469              : BHTDEP       - MAXIMUM RECORDED TEMPERATURE
MATR.         1                    : LOGUNIT      - NEUTRON MATRIX
RMT .C        25                   : MDTP         - TEMPERATURE OF MUD
NEUT.         1                    : NEUTRON      - NEUTRON TYPE
RESI.         0                    : RESIST       - RESISTIVITY TYPE
RMC .OHMM     0.25                 : RMC          - RESISTIVITY OF MUD CAKE
RMF .OHMM     0.25                 : RMF          - RESISTIVITY OF MUD FILTRATE
SUFT.C        15                   : SUFT         - SURFACE TEMPERATURE
~A  DEPTH       GR     PHID     PHIN     RESD
# ...
  395.676   70.865    0.339    0.505    7.405
  395.926   72.419    0.334    0.508    8.001
  396.176   69.443    0.303    0.498    8.863
  396.426   62.486    0.250    0.464    9.775
  396.676   56.699    0.156    0.235   10.382
  396.926   60.697    0.085    0.213   10.340
  397.176   63.414    0.050    0.259    9.280
  397.426   66.379    0.077    0.305    8.184
  397.676   68.913    0.160    0.379    7.178
  397.926   73.032    0.242    0.451    6.539
  398.176   74.757    0.308    0.508    6.098
  398.426   76.604    0.339    0.505    5.946
  398.676   74.876    0.333    0.512    6.074
  398.926   75.148    0.343    0.530    6.066
  399.176   78.250    0.337    0.545    6.223
  399.426   78.156    0.340    0.534    6.413
  399.676   73.718    0.334    0.527    6.549
  399.926   76.400    0.322    0.512    6.688
  400.176   79.400    0.317    0.524    6.594
  400.426   80.783    0.308    0.528    6.299
  400.676   82.894    0.294    0.514    6.184
  400.926   85.636    0.276    0.508    6.077
  401.176   87.316    0.281    0.516    6.083
  401.426   87.585    0.276    0.509    6.083
  401.676   87.197    0.279    0.492    6.356
  401.926   85.849    0.283    0.474    6.855
  402.176   81.190    0.259    0.485    7.591
  402.426   72.197    0.238    0.502    8.595
  402.676   64.331    0.042    0.472    9.224
  402.926   55.870    0.032    0.224    9.536
  403.176   71.449    0.099    0.218    8.882
  403.426   85.482    0.163    0.390    7.849
  403.676   94.372    0.196    0.444    7.166
  403.926  101.446    0.210    0.478    6.514
  404.176  101.635    0.214    0.479    6.326
  404.426  104.592    0.221    0.486    6.525
  404.676  101.588    0.227    0.485    6.738
  404.926   99.806    0.232    0.485    6.812
  405.176   97.220    0.237    0.487    6.958
  405.426   94.590    0.230    0.486    6.971
  405.676   94.784    0.239    0.479    7.086
  405.926   96.684    0.242    0.469    6.934
  406.176   99.348    0.238    0.476    6.945
  406.426   99.843    0.247    0.485    6.947
  406.676   97.945    0.252    0.494    6.947
  406.926   96.706    0.251    0.501    6.947
  407.176   94.308    0.254    0.500    6.961
  407.426   91.782    0.254    0.489    6.804
  407.676   91.291    0.248    0.499    6.819
  407.926   96.451    0.259    0.498    6.682
  408.176  100.058    0.248    0.478    6.666
  408.426  105.193    0.232    0.467    6.461
  408.676  102.930    0.236    0.473    6.133
  408.926  100.853    0.225    0.475    5.941
  409.176   99.338    0.229    0.460    5.675
  409.426   98.469    0.232    0.460    5.292
  409.676   99.208    0.241    0.473    5.045
  409.926   99.150    0.239    0.493    4.614
  410.176   98.957    0.239    0.509    4.010
  410.426   97.907    0.252    0.497    3.593
  410.676   96.232    0.244    0.514    3.058
  410.926   96.164    0.261    0.552    2.716
  411.176   99.135    0.277    0.579    2.582
  411.426  100.700    0.283    0.588    2.483
  411.676   98.544    0.269    0.577    2.435
  411.926   94.538    0.266    0.569    2.437
  412.176   91.166    0.277    0.586    2.492
  412.426   93.513    0.277    0.589    2.493
  412.676   97.350    0.272    0.597    2.532
  412.926  102.126    0.266    0.596    2.606
  413.176  106.010    0.263    0.603    2.687
  413.426  106.565    0.262    0.599    2.913
  413.676  104.598    0.256    0.601    3.628
  413.926  101.587    0.249    0.583    4.535
  414.176   98.536    0.244    0.537    4.672
  414.426   96.306    0.234    0.513    4.725
  414.676   93.688    0.227    0.515    4.787
  414.926   96.809    0.224    0.523    5.098
  415.176   94.917    0.221    0.504    5.301
  415.426   91.462    0.230    0.482    5.552
  415.676   90.562    0.237    0.475    5.645
  415.926   92.964    0.226    0.466    5.337
  416.176   97.167    0.231    0.465    4.880
  416.426  101.163    0.233    0.469    4.339
  416.676  100.237    0.231    0.498    3.964
  416.926   97.038    0.230    0.534    3.700
  417.176   97.417    0.231    0.525    3.958
  417.426  100.447    0.234    0.513    4.786
  417.676   88.941    0.246    0.501    5.870
  417.926   80.282    0.271    0.485    7.755
  418.176   73.285    0.326    0.438   11.285
  418.426   70.064    0.295    0.405   16.947
  418.676   68.282    0.191    0.331   21.280
  418.926   76.309    0.301    0.338   22.902
  419.176   80.456    0.345    0.379   24.432
  419.426   81.477    0.324    0.427   25.394
  419.676   78.266    0.307    0.469   25.760
  419.926   81.008    0.314    0.507   25.817
  420.176   89.596    0.321    0.517   26.371
  420.426   95.246    0.312    0.509   26.412
  420.676   83.768    0.307    0.509   25.862
  420.926   73.449    0.312    0.514   25.416
  421.176   68.175    0.312    0.506   25.127
  421.426   62.825    0.308    0.511   24.930
  421.676   66.441    0.305    0.527   25.333
  421.926   72.549    0.327    0.508   26.085
  422.176   75.914    0.323    0.503   27.507
  422.426   71.660    0.316    0.514   28.269
  422.676   68.069    0.323    0.522   29.818
  422.926   64.476    0.303    0.522   30.692
  423.176   61.041    0.207    0.510   31.736
  423.426   60.522    0.135    0.423   30.833
  423.676   67.026    0.216    0.361   28.995
  423.926   73.706    0.297    0.440   27.396
  424.176   74.507    0.317    0.479   26.200
  424.426   70.304    0.317    0.491   25.450
  424.676   68.695    0.311    0.498   25.030
  424.926   71.721    0.296    0.503   22.905
  425.176   73.964    0.291    0.508   18.980
  425.426   80.170    0.293    0.510   15.037
  425.676   84.014    0.265    0.478   11.624
  425.926   80.105    0.239    0.463   10.131
  426.176   77.561    0.233    0.454    8.883
  426.426   77.533    0.231    0.437    8.584
  426.676   81.765    0.242    0.435    8.519
  426.926   85.241    0.246    0.436    8.750
  427.176   81.100    0.259    0.446    9.075
  427.426   79.739    0.261    0.463    9.556
  427.676   78.556    0.258    0.478    9.855
  427.926   79.603    0.257    0.470    9.979
  428.176   79.315    0.252    0.456   10.258
  428.426   71.253    0.256    0.442   10.804
  428.676   66.913    0.261    0.433   11.307
  428.926   61.366    0.266    0.438   11.063
  429.176   61.779    0.283    0.443    9.945
  429.426   66.854    0.297    0.430    8.637
  429.676   69.552    0.300    0.486    8.119
  429.926   70.737    0.289    0.503    8.286
  430.176   68.375    0.279    0.488    9.740
  430.426   66.628    0.273    0.410   12.264
  430.676   69.374    0.286    0.402   15.767
  430.926   75.877    0.293    0.404   20.794
  431.176   80.534    0.289    0.414   27.616
  431.426   83.118    0.279    0.430   28.618
  431.676   80.296    0.276    0.440   28.276
  431.926   76.725    0.288    0.435   27.953
  432.176   74.981    0.299    0.433   27.527
  432.426   73.466    0.302    0.437   26.036
  432.676   78.162    0.293    0.442   24.512
  432.926   82.648    0.283    0.431   22.303
  433.176   82.367    0.268    0.439   21.758
  433.426   58.001    0.275    0.462   23.576
  433.676   34.287    0.282    0.451   29.069
  433.926   28.709    0.297    0.429   42.550
  434.176   24.665    0.304    0.413   56.927
  434.426   29.254    0.312    0.403   44.108
  434.676   41.879    0.324    0.398   24.625
  434.926   70.219    0.377    0.455   14.532
  435.176   86.688    0.433    0.507   10.478
  435.426   88.686    0.461    0.562    9.443
  435.676   85.877    0.414    0.600    9.576
  435.926   86.939    0.311    0.461   10.125
  436.176   93.903    0.265    0.456   11.433
  436.426  100.813    0.236    0.445   14.224
  436.676  108.624    0.206    0.430   15.440
  436.926  117.168    0.242    0.428   13.096
  437.176  125.560    0.237    0.413   11.466
  437.426  119.915    0.224    0.432   10.257
  437.676  111.004    0.237    0.448   10.311
  437.926  100.739    0.256    0.451   11.080
  438.176   85.034    0.266    0.434   12.533
  438.426   77.757    0.256    0.413   15.306
  438.676   71.286    0.243    0.401   18.058
  438.926   69.096    0.251    0.369   19.716
