~VERSION INFORMATION
 VERS.                 2.0:   CWLS LOG ASCII STANDARD -VERSION 2.0
 WRAP.                  NO:   ONE LINE PER DEPTH STEP
~WELL INFORMATION BLOCK
#MNEM.UNIT           DATA                    DESCRIPTION OF MNEMONIC
#---------    -------------------            -------------------------------
# Generated from Intellog Unique Number	CN_94_101/WELL/3236
NULL.         -999.25                        : NULL_VALUE
WELL.         PACIFIC PETROLEUMS LTD.        : Well_name    - WELL              
LOC .         11-29-096-09W4/0               : Location     - LOCATION          
UWI .         00/11-29-094-21W4/0            : Uwi          - UNIQUE WELL ID    
ENTR.         JOETTE                         : Entered      - ENTERED BY        
SRVC.         SCHLUMBERGER                   : Scn          - SERVICE COMPANY   
DATE.         01 MAR 78                      : Date         - LOG DATE          
STRT.M        0                              : top_depth    - START DEPTH       
STOP.M        75                             : bot_depth    - STOP DEPTH        
STEP.M        0.25                           : increment    - STEP LENGTH       
~CURVE INFORMATION BLOCK
#MNEM UNIT       ERCB CURVE CODE    CURVE DESCRIPTION
#-----------   ------------------   ----------------------------------
DEPT.M        00 001 00 00         : DEPTH        - DEPTH                       
GR  .API      00 310 00 00         : GR           - GAMMA RAY                   
RHOB.KG/M3    00 350 00 00         : DENS         - BULK DENSITY                
NPHI.V/V      00 330 00 00         : PHIN         - NEUTRON POROSITY (SANDSTONE)
ILD .OHMM     00 120 00 00         : RESD         - DEEP RESISTIVITY (DIL)      
DPHI.V/V      00 890 00 00         : PHID         - DENSITY POROSITY (SANDSTONE)
~PARAMETER INFORMATION       
#MNEM.UNIT           DATA             DESCRIPTION OF MNEMONIC
#---------         -----------     ------------------------------
GL  .M        0                    : gl           - GROUND LEVEL ELEVATION      
EREF.M        0                    : kb           - ELEVATION OF DEPTH REFERENCE
DATM.M        0                    : datum        - DATUM ELEVATION             
TDD .M        340                  : tdd          - TOTAL DEPTH DRILLER         
RUN .         ONE                  : Run          - RUN NUMBER                  
ENG .         BILL                 : Engineer     - RECORDING ENGINEER          
WIT .         JIM                  : Witness      - WITNESSED BY                
MUD .         GEL                  : Mud_type     - MUD TYPE                    
MATR.         SANDSTONE            : Logunit      - NEUTRON MATRIX              
TMAX.C        0                    : BHT          - MAXIMUM RECORDED TEMPERATURE
BHTD.M        340                  : BHTDEP       - MAXIMUM RECORDED TEMPERATURE
RMT .C        0                    : MDTP         - TEMPERATURE OF MUD          
MUDD.KG/M     0                    : MWT          - MUD DENSITY                 
NEUT.         1                    : NEUTRON      - NEUTRON TYPE                
RESI.         0                    : RESIST       - RESISTIVITY TYPE            
RM  .OHMM     0                    : RM           - RESISTIVITY OF MUD          
RMC .OHMM     0                    : RMC          - RESISTIVITY OF MUD CAKE     
RMF .OHMM     0                    : RMF          - RESISTIVITY OF MUD FILTRATE 
SUFT.C        4                    : SUFT         - SURFACE TEMPERATURE         
~A  DEPTH       GR     DENS     PHIN     RESD     PHID
    0.000   19.293 1846.650    0.564    3.340    0.487
    0.250   10.931 1846.840    0.563    3.340    0.487
    0.500    2.581 1855.090    0.563    4.592    0.482
    0.750    2.623 1879.500    0.563    4.594    0.467
    1.000    3.166 1901.900    0.561    4.604    0.453
    1.250    4.704 1898.080    0.560    4.607    0.456
    1.500    9.696 2075.870    0.555    4.607    0.348
    1.750   15.671 2338.470    0.550    4.617    0.189
    2.000   19.192 2695.930    0.534    4.617   -0.028
    2.250   23.684 2928.250    0.508    4.573   -0.169
    2.500   31.643 2976.890    0.441    4.518   -0.198
    2.750   25.270 2985.150    0.413    4.524   -0.203
    3.000   16.908 2791.640    0.427    4.534   -0.086
    3.250   11.524 2799.880    0.462    4.536   -0.091
    3.500   13.550 2804.090    0.505    4.536   -0.093
    3.750   13.592 2802.270    0.505    4.607   -0.092
    4.000   14.135 2822.670    0.503    4.607   -0.105
    4.250   18.633 2818.850    0.503    4.677   -0.102
    4.500   15.221 2810.950    0.504    4.861   -0.098
    4.750   15.775 2831.350    0.507    4.861   -0.110
    5.000   19.285 2821.460    0.508    4.933   -0.104
    5.250   20.816 2829.700    0.511    5.003   -0.109
    5.500   24.325 2767.340    0.512    4.947   -0.071
    5.750   20.907 2775.610    0.514    4.889   -0.076
    6.000   19.967 2783.900    0.518    4.774   -0.081
    6.250   18.538 2784.090    0.518    4.720   -0.081
    6.500   17.604 2762.070    0.517    4.720   -0.068
    6.750   16.651 2750.150    0.514    4.615   -0.061
    7.000   15.717 2770.530    0.513    4.506   -0.073
    7.250   11.810 2762.660    0.511    4.506   -0.068
    7.500   18.285 2781.010    0.511    4.459   -0.079
    7.750   23.278 2773.160    0.511    4.409   -0.075
    8.000   27.782 2797.580    0.511    4.359   -0.089
    8.250   24.858 2807.860    0.512    4.310   -0.096
    8.500   25.401 2799.990    0.511    4.315   -0.091
    8.750   20.011 2808.260    0.507    4.267   -0.096
    9.000   14.627 2762.030    0.503    4.326   -0.068
    9.250   18.630 2770.330    0.509    4.387   -0.073
    9.500   20.162 2794.720    0.513    4.447   -0.088
    9.750   13.289 2794.940    0.511    4.452   -0.088
   10.000   13.343 2815.320    0.504    4.402   -0.100
   10.250   15.857 2825.630    0.497    4.354   -0.106
   10.500   20.856 2627.970    0.492    6.523    0.013
   10.750   29.803 2446.510    0.492   20.829    0.123
   11.000   35.785 2184.330    0.472   24.567    0.282
   11.250   33.855 2132.050    0.455   23.392    0.314
   11.500   37.853 2118.120    0.465   19.140    0.322
   11.750   33.946 2029.500    0.462   61.118    0.376
   12.000   12.247 2066.070    0.444  153.602    0.354
   12.250   15.268 2090.460    0.432  159.765    0.339
   12.500   21.737 2139.090    0.430  142.783    0.310
   12.750   31.680 2169.580    0.433  233.726    0.291
   13.000   24.801 2151.620    0.433  755.823    0.302
   13.250   17.433 2188.140    0.420 1206.610    0.280
   13.500   16.987 2180.260    0.415 1303.200    0.285
   13.750   15.552 2174.400    0.415 1337.900    0.288
   14.000   14.117 2158.450    0.416 1356.520    0.298
   14.250   15.161 2178.830    0.422 1392.850    0.286
   14.500   15.203 2193.150    0.419 1412.670    0.277
   14.750   10.308 2110.610    0.417 1413.970    0.327
   15.000   15.300 2163.280    0.413 1380.450    0.295
   15.250   16.337 2167.510    0.418 1218.630    0.292
   15.500   16.392 2171.740    0.416 1103.080    0.290
   15.750   15.445 2143.680    0.414 1049.960    0.307
   16.000   17.965 2145.900    0.414 1078.250    0.306
   16.250   21.487 2188.500    0.412 1179.150    0.280
   16.500   17.574 2198.780    0.410 1305.850    0.273
   16.750   17.628 2166.690    0.407 1428.270    0.293
   17.000   15.211 2168.910    0.406 1448.150    0.292
   17.250   13.764 2187.260    0.407 1431.540    0.280
   17.500   17.279 2157.210    0.412 1363.020    0.299
   17.750   19.793 2100.880    0.423 1297.580    0.333
   18.000   24.792 1957.790    0.447 1437.010    0.420
   18.250   19.396 2050.790    0.454 1804.940    0.363
   18.500   15.495 2087.340    0.445 1999.490    0.341
   18.750   12.571 2077.440    0.440 2105.460    0.347
   19.000   11.142 2103.880    0.435 2134.440    0.331
   19.250   11.191 2075.820    0.429 2137.050    0.348
   19.500   13.717 2090.190    0.433 2035.380    0.339
   19.750   15.743 2092.360    0.436 1936.780    0.338
   20.000   14.302 2110.720    0.435 1688.330    0.327
   20.250   13.862 2125.060    0.434 1777.540    0.318
   20.500   16.871 2076.800    0.439 2150.450    0.347
   20.750   20.881 2085.120    0.437 2736.140    0.342
   21.000   19.940 2085.290    0.436 3309.160    0.342
   21.250   17.511 2105.670    0.436 3313.710    0.330
   21.500   13.604 2089.740    0.438 3402.460    0.340
   21.750   17.119 2087.900    0.437 3962.320    0.341
   22.000   15.190 2134.510    0.428 4333.770    0.312
   22.250   15.244 2108.470    0.428 4393.430    0.328
   22.500   18.253 2106.650    0.428 4399.460    0.329
   22.750   19.296 2127.020    0.427 4405.510    0.317
   23.000   22.305 2151.460    0.426 4246.550    0.302
   23.250   17.904 2127.420    0.424 3942.030    0.317
   23.500   17.464 2127.610    0.424 3568.250    0.317
   23.750   22.456 2131.890    0.425 3189.450    0.314
   24.000   13.600 2113.900    0.426 2887.020    0.325
   24.250   12.171 2091.870    0.427 2613.680    0.338
   24.500   11.719 2108.240    0.428 2456.650    0.328
   24.750   17.706 2124.580    0.429 2309.410    0.318
   25.000   22.698 2110.650    0.429 2226.420    0.327
   25.250   19.786 2110.850    0.427 2173.650    0.327
   25.500   22.801 2121.130    0.425 2122.440    0.321
   25.750   19.877 2125.370    0.423 2071.820    0.318
   26.000   15.482 2117.490    0.422 2154.950    0.323
   26.250   15.036 2123.740    0.421 2326.730    0.319
   26.500   14.096 2128.000    0.421 2271.580    0.316
   26.750   12.661 2112.020    0.422 2217.390    0.326
   27.000   14.192 2136.490    0.422 2165.160    0.311
   27.250   18.190 2124.550    0.423 2169.790    0.318
   27.500   20.716 2118.690    0.423 2143.590    0.322
   27.750   14.838 2100.720    0.428 2092.140    0.333
   28.000   16.364 2084.780    0.436 2016.960    0.343
   28.250   16.912 2056.720    0.440 1896.360    0.360
   28.500   14.977 2044.810    0.442 1805.040    0.367
   28.750   13.542 1988.470    0.445 1785.150    0.401
   29.000   11.613 2105.770    0.442 1879.470    0.330
   29.250   11.662 2097.890    0.429 1679.950    0.335
   29.500   12.699 2114.210    0.427 1520.430    0.325
   29.750   13.748 2104.310    0.427 1484.610    0.331
   30.000   13.290 2116.640    0.427 1563.530    0.323
   30.250   14.828 2088.560    0.431 1646.640    0.340
   30.500   17.848 2074.630    0.431 1547.720    0.349
   30.750   18.391 2117.230    0.426 1473.190    0.323
   31.000   13.496 2105.320    0.426 1438.260    0.330
   31.250   12.549 2095.420    0.431 1613.010    0.336
   31.500   15.564 2071.400    0.435 1786.330    0.351
   31.750   15.118 2055.450    0.435 1953.500    0.360
   32.000   11.211 2110.140    0.430 2005.820    0.327
   32.250   10.765 2106.320    0.426 2059.540    0.330
   32.500   13.786 2102.460    0.424 2088.850    0.332
   32.750   14.323 2108.710    0.425 2091.400    0.328
   33.000   12.394 2096.820    0.426 2093.630    0.335
   33.250   12.442 2088.940    0.429 1993.120    0.340
   33.500   15.469 2054.810    0.431 1590.460    0.361
   33.750   17.501 2065.090    0.433 1268.960    0.354
   34.000   16.054 2030.980    0.443 1193.090    0.375
   34.250   13.630 2083.650    0.444 1443.610    0.343
   34.500   12.690 2031.370    0.427 1790.790    0.375
   34.750   11.750 2100.240    0.423 1885.410    0.333
   35.000   13.281 2080.250    0.423 1840.720    0.345
   35.250   14.325 2102.620    0.420 1819.600    0.332
   35.500   14.379 2080.640    0.419 1732.240    0.345
   35.750   12.438 2054.600    0.419 1608.030    0.361
   36.000   14.964 2038.630    0.425 1349.530    0.371
   36.250   14.512 2093.320    0.419  998.450    0.337
