~VERSION INFORMATION
 VERS.                 2.0:   CWLS LOG ASCII STANDARD -VERSION 2.0
 WRAP.                  NO:   ONE LINE PER DEPTH STEP
~WELL INFORMATION BLOCK
#MNEM.UNIT           DATA                    DESCRIPTION OF MNEMONIC
#---------    -------------------            -------------------------------
# Generated from Intellog Unique Number	CN_91_93/WELL/3077
WELL.         CANADIAN SUPERIOR OIL LTD.     : Well_name    - WELL
LOC .         00/11-36-092-21W4/0            : Location     - LOCATION
UWI .         00/11-36-092-21W4/0            : Uwi          - UNIQUE WELL ID
ENTR.         JOETTE                         : Entered      - ENTERED BY
SRVC.         SCHLUMBERGER                   : Scn          - SERVICE COMPANY
DATE.         04/10/92                       : Date         - LOG DATE
STRT.M        50                             : top_depth    - START DEPTH
STOP.M        235                            : bot_depth    - STOP DEPTH
STEP.M        0.25                           : increment    - STEP LENGTH
 NULL. -999.2500:NULL Value
~CURVE INFORMATION BLOCK
#MNEM UNIT       ERCB CURVE CODE    CURVE DESCRIPTION
#-----------   ------------------   ----------------------------------
DEPT.M        00 001 00 00         : DEPTH        - DEPTH
CALI.MM       00 280 01 00         : CAL          - CALIPER
GR  .API      00 310 00 00         : GR           - GAMMA RAY
NPHI.V/V      00 330 00 00         : PHIN         - NEUTRON POROSITY (SANDSTONE)
ILD .OHMM     00 120 00 00         : RESD         - DEEP RESISTIVITY (DIL)
DPHI.V/V      00 890 00 00         : PHID         - DENSITY POROSITY (SANDSTONE)
~PARAMETER INFORMATION
#MNEM.UNIT           DATA             DESCRIPTION OF MNEMONIC
#---------         -----------     ------------------------------
GL  .M        535.4                : gl           - GROUND LEVEL ELEVATION
EREF.M        539.2                : kb           - ELEVATION OF DEPTH REFERENCE
DATM.M        539.2                : datum        - DATUM ELEVATION
TDD .M        238.8                : tdd          - TOTAL DEPTH DRILLER
RUN .         ONE                  : Run          - RUN NUMBER
ENG .         BILL                 : Engineer     - RECORDING ENGINEER
WIT .         JIM                  : Witness      - WITNESSED BY
MUD .         GEL                  : Mud_type     - MUD TYPE
MATR.         SANDSTONE            : Logunit      - NEUTRON MATRIX
TMAX.C        20                   : BHT          - MAXIMUM RECORDED TEMPERATURE
BHTD.M        238.8                : BHTDEP       - MAXIMUM RECORDED TEMPERATURE
RMT .C        15                   : MDTP         - TEMPERATURE OF MUD
MUDD.KG/M     1100                 : MWT          - MUD DENSITY
NEUT.         1                    : NEUTRON      - NEUTRON TYPE
RESI.         0                    : RESIST       - RESISTIVITY TYPE
RM  .OHMM     5.68                 : RM           - RESISTIVITY OF MUD
RMC .OHMM     5.68                 : RMC          - RESISTIVITY OF MUD CAKE
RMF .OHMM     5.29                 : RMF          - RESISTIVITY OF MUD FILTRATE
SUFT.C        4                    : SUFT         - SURFACE TEMPERATURE
~A  DEPTH      CAL       GR     PHIN     RESD     PHID
# ...
  123.000  265.323   86.615    0.448    5.736    0.153
  123.250  265.355   91.501    0.454    5.842    0.162
  123.500  267.449   92.716    0.465    5.947    0.185
  123.750  268.508   93.926    0.476    5.943    0.185
  124.000  268.541   95.131    0.490    5.937    0.181
  124.250  268.565   96.346    0.500    6.046    0.190
  124.500  267.595   96.937    0.505    6.041    0.193
  124.750  266.585   96.304    0.505    6.034    0.192
  125.000  264.572   96.281    0.505    5.918    0.189
  125.250  264.597   96.271    0.507    5.694    0.188
  125.500  262.584   96.867    0.507    5.582    0.188
  125.750  262.625   97.463    0.508    5.474    0.191
  126.000  263.692   98.054    0.508    5.469    0.196
  126.250  264.735   97.425    0.509    5.465    0.199
  126.500  266.829   93.716    0.510    5.458    0.200
  126.750  268.914   94.926    0.506    5.455    0.183
  127.000  268.947   97.365    0.496    5.450    0.167
  127.250  260.774   98.575    0.483    5.446    0.163
  127.500  259.772   96.094    0.496    5.442    0.177
  127.750  259.821   96.080    0.535    5.541    0.195
  128.000  258.819   96.062    0.507    5.637    0.199
  128.250  258.859   96.043    0.493    5.634    0.200
  128.500  259.926   92.339    0.500    5.631    0.205
  128.750  260.977   89.863    0.507    5.731    0.216
  129.000  263.063   89.840    0.519    5.727    0.227
  129.250  264.114   89.821    0.524    5.614    0.238
  129.500  265.173   88.574    0.491    5.403    0.249
  129.750  263.161   87.331    0.490    5.297    0.256
  130.000  259.087   86.084    0.494    5.293    0.256
  130.250  257.066   81.756    0.479    5.595    0.251
  130.500  256.072   79.899    0.461    5.698    0.238
  130.750  261.237   79.876    0.446    5.912    0.219
  131.000  265.384   80.471    0.438    6.248    0.208
  131.250  266.451   82.296    0.441    6.362    0.204
  131.500  265.457   83.506    0.452    6.475    0.214
  131.750  262.402   85.330    0.504    6.472    0.227
  132.000  258.328   87.154    0.517    6.464    0.241
  132.250  256.307   88.364    0.525    6.458    0.231
  132.500  258.409   88.346    0.525    6.331    0.210
  132.750  260.495   88.332    0.530    6.211    0.221
  133.000  260.527   87.084    0.536    5.648    0.241
  133.250  260.568   84.609    0.540    5.042    0.246
  133.500  260.584   80.904    0.548    4.761    0.212
  133.750  260.633   76.581    0.458    4.668    0.187
  134.000  259.631   79.019    0.422    4.752    0.147
  134.250  259.679   83.301    0.431    4.932    0.167
  134.500  259.695   85.125    0.469    5.412    0.195
  134.750  258.709   85.716    0.498    5.616    0.201
  135.000  257.723   84.469    0.500    6.164    0.206
  135.250  256.721   83.840    0.501    6.513    0.202
  135.500  256.762   83.822    0.459    6.757    0.177
  135.750  256.794   85.032    0.442    6.880    0.158
  136.000  258.880   86.856    0.434    6.873    0.153
  136.250  258.912   92.366    0.447    6.867    0.182
  136.500  258.945   92.338    0.460    6.992    0.196
  136.750  258.986   91.715    0.461    6.987    0.208
  137.000  259.026   90.467    0.467    6.850    0.208
  137.250  259.042   87.373    0.475    6.592    0.208
  137.500  258.048   87.973    0.483    6.586    0.210
  137.750  258.081   89.173    0.490    6.581    0.216
  138.000  259.156   87.922    0.486    6.575    0.219
  138.250  260.215   86.679    0.484    6.569    0.218
  138.500  261.274   86.051    0.480    6.688    0.213
  138.750  262.333   86.642    0.476    6.937    0.211
  139.000  261.339   89.085    0.471    7.061    0.204
  139.250  260.345   89.681    0.468    7.327    0.198
  139.500  259.351   87.205    0.464    7.460    0.193
  139.750  258.373   82.272    0.459    7.739    0.192
  140.000  258.389   78.563    0.458    7.881    0.187
  140.250  257.411   76.706    0.464    8.174    0.182
  140.500  257.444   79.759    0.449    8.324    0.187
  140.750  257.468   84.035    0.448    8.632    0.195
  141.000  257.517   84.631    0.441    8.628    0.204
  141.250  258.568   83.998    0.429    8.949    0.216
  141.500  258.600   83.365    0.444    9.282    0.221
  141.750  258.649   83.956    0.491    9.276    0.226
  142.000  258.673   85.781    0.482    9.444    0.225
  142.250  259.724   86.990    0.477    8.919    0.223
  142.500  260.783   91.277    0.502    8.264    0.224
  142.750  262.877   94.944    0.508    7.517    0.225
  143.000  261.875   96.768    0.520    6.837    0.228
  143.250  259.862   95.516    0.522    6.580    0.218
  143.500  257.850   93.036    0.505    5.984    0.190
  143.750  257.874   91.183    0.487    5.546    0.157
  144.000  256.896   89.322    0.488    5.140    0.114
  144.250  256.912   92.370    0.517    4.946    0.108
  144.500  257.980   97.270    0.529    4.943    0.142
  144.750  259.039   98.481    0.538    5.031    0.166
  145.000  261.132   98.462    0.535    5.120    0.201
  145.250  262.191   97.829    0.528    5.116    0.216
  145.500  262.232   95.344    0.517    5.113    0.221
  145.750  262.273   93.482    0.509    5.205    0.223
  146.000  261.270   92.235    0.511    5.200    0.227
  146.250  261.295   91.602    0.504    5.197    0.232
  146.500  259.290   90.359    0.498    5.193    0.239
  146.750  259.307   89.112    0.508    5.286    0.246
  147.000  259.339   86.636    0.516    5.282    0.243
  147.250  259.388   90.304    0.526    5.378    0.233
  147.500  259.412   92.128    0.522    5.374    0.214
  147.750  256.373   92.724    0.516    5.471    0.209
  148.000  254.360   91.472    0.525    5.465    0.196
  148.250  254.385   90.843    0.534    5.460    0.172
  148.500  254.425   90.820    0.487    5.353    0.148
  148.750  256.511   92.030    0.490    5.250    0.142
  149.000  257.570   93.240    0.491    5.147    0.160
  149.250  256.584   93.836    0.495    5.144    0.181
  149.500  256.600   94.422    0.513    5.334    0.191
  149.750  255.606   95.027    0.520    5.330    0.193
  150.000  255.647   95.618    0.527    5.528    0.194
  150.250  255.703   95.599    0.519    5.524    0.195
  150.500  255.728   93.738    0.510    5.626    0.197
  150.750  255.752   91.267    0.517    5.729    0.195
  151.000  255.777   88.177    0.515    5.941    0.147
  151.250  255.817   85.701    0.461    6.164    0.116
  151.500  256.876   84.453    0.424    6.277    0.112
  151.750  256.909   87.502    0.426    6.634    0.113
  152.000  255.915   88.093    0.436    6.881    0.123
  152.250  255.955   88.688    0.464    7.007    0.155
  152.500  255.996   90.513    0.493    7.000    0.183
  152.750  257.055   89.880    0.477    6.865    0.202
  153.000  257.079   88.637    0.444    6.605    0.218
  153.250  258.146   86.161    0.436    6.356    0.210
  153.500  258.171   88.595    0.458    6.232    0.208
  153.750  258.219   92.267    0.482    5.887    0.212
  154.000  258.244   95.315    0.474    5.664    0.219
  154.250  257.258   95.296    0.471    5.659    0.221
  154.500  256.264   94.045    0.498    5.871    0.221
  154.750  256.288   92.807    0.502    5.867    0.221
  155.000  257.347   90.331    0.464    5.538    0.221
  155.250  258.422   87.241    0.443    5.229    0.219
  155.500  258.455   84.141    0.457    5.129    0.214
  155.750  257.461   82.899    0.502    5.124    0.210
  156.000  256.467   80.418    0.509    5.841    0.204
  156.250  255.472   78.557    0.490    6.908    0.198
  156.500  256.540   76.695    0.460    7.170    0.185
  156.750  257.599   75.453    0.443    7.300    0.152
  157.000  257.639   77.891    0.423    7.432    0.064
  157.250  257.656   82.173    0.394    7.426    0.037
  157.500  257.704   88.297    0.346    7.144    0.052
  157.750  257.737   93.807    0.384    6.747    0.107
  158.000  256.734   95.631    0.491    6.494    0.171
  158.250  256.767   96.841    0.504    6.016    0.170
  158.500  255.773   98.051    0.517    5.900    0.173
  158.750  255.805   99.261    0.527    5.785    0.178
  159.000  255.838   99.243    0.523    5.672    0.170
  159.250  255.887   99.224    0.521    5.666    0.156
