~VERSION INFORMATION
 VERS.                 2.0:   CWLS LOG ASCII STANDARD -VERSION 2.0
 WRAP.                  NO:   ONE LINE PER DEPTH STEP
~WELL INFORMATION BLOCK
#MNEM.UNIT           DATA                    DESCRIPTION OF MNEMONIC
#---------    -------------------            -------------------------------
# Generated from Intellog Unique Number	CW_70_72/WELL/1042
NULL.         -999.25                        : NULL_VALUE
WELL.         MIKAS AMOCO MEYER              : Well_name    - WELL              
LOC .         10-26-071-25W4                 : Location     - LOCATION          
UWI .         00/10-26-071-25W4/0            : Uwi          - UNIQUE WELL ID    
ENTR.         JAYE                           : Entered      - ENTERED BY        
SRVC.         SCHLUMBERGER                   : Scn          - SERVICE COMPANY   
DATE.         4 MAR 73                       : Date         - LOG DATE          
STRT.M        374.904                        : top_depth    - START DEPTH       
STOP.M        609.654                        : bot_depth    - STOP DEPTH        
STEP.M        0.25                           : increment    - STEP LENGTH       
~CURVE INFORMATION BLOCK
#MNEM UNIT       ERCB CURVE CODE    CURVE DESCRIPTION
#-----------   ------------------   ----------------------------------
DEPT.M        00 001 00 00         : DEPTH        - DEPTH                       
DPHI.V/V      00 890 00 00         : PHID         - DENSITY POROSITY (SANDSTONE)
NPHI.V/V      00 330 00 00         : PHIN         - NEUTRON POROSITY (SANDSTONE)
GR  .API      00 310 00 00         : GR           - GAMMA RAY                   
CALI.MM       00 280 01 00         : CAL          - CALIPER                     
ILD .OHMM     00 120 00 00         : RESD         - DEEP RESISTIVITY (DIL)      
~PARAMETER INFORMATION       
#MNEM.UNIT           DATA             DESCRIPTION OF MNEMONIC
#---------         -----------     ------------------------------
GL  .M        589.94               : gl           - GROUND LEVEL ELEVATION      
EREF.M        593.75               : kb           - ELEVATION OF DEPTH REFERENCE
DATM.M        589.94               : datum        - DATUM ELEVATION             
TDD .M        667.817              : tdd          - TOTAL DEPTH DRILLER         
RUN .         ONE                  : Run          - RUN NUMBER                  
BASE.         EDM                  : Branch       - HOME BASE OF LOGGING UNIT   
MUD .         GEL CHEM             : Mud_type     - MUD TYPE                    
MATR.         SANDSTONE            : Logunit      - NEUTRON MATRIX              
TMAX.C        28.3333              : BHT          - MAXIMUM RECORDED TEMPERATURE
BHTD.M        667.817              : BHTDEP       - MAXIMUM RECORDED TEMPERATURE
RMT .C        17.7778              : MDTP         - TEMPERATURE OF MUD          
MUDD.KG/M     0                    : MWT          - MUD DENSITY                 
NEUT.         1                    : NEUTRON      - NEUTRON TYPE                
RESI.         0                    : RESIST       - RESISTIVITY TYPE            
RM  .OHMM     3.6                  : RM           - RESISTIVITY OF MUD          
RMC .OHMM     0                    : RMC          - RESISTIVITY OF MUD CAKE     
RMF .OHMM     0                    : RMF          - RESISTIVITY OF MUD FILTRATE 
SUFT.C        0                    : SUFT         - SURFACE TEMPERATURE         
~A  DEPTH     PHID     PHIN       GR      CAL     RESD
# ...
  447.904    0.262    0.518   47.001  151.243    4.747
  448.154    0.259    0.502   47.806  151.474    4.597
  448.404    0.245    0.494   49.275  151.401    4.395
  448.654    0.228    0.481   51.411  148.666    4.140
  448.904    0.219    0.481   53.853  148.997    3.886
  449.154    0.203    0.496   54.535  151.597    3.841
  449.404    0.194    0.501   52.373  153.467    3.953
  449.654    0.203    0.486   53.058  154.519    4.144
  449.904    0.207    0.458   55.740  154.552    4.303
  450.154    0.193    0.472   55.391  153.351    4.462
  450.404    0.174    0.504   52.503  151.333    4.542
  450.654    0.196    0.494   53.369  149.110    4.580
  450.904    0.211    0.464   55.019  147.599    4.576
  451.154    0.179    0.450   56.612  146.908    4.556
  451.404    0.165    0.460   58.324  147.560    4.544
  451.654    0.166    0.485   60.400  149.331    4.516
  451.904    0.163    0.495   62.474  150.787    4.497
  452.154    0.169    0.474   64.914  154.507    4.468
  452.404    0.197    0.461   67.898  159.976    4.336
  452.654    0.223    0.466   72.032  162.564    4.152
  452.904    0.240    0.471   79.556  163.827    3.904
  453.154    0.232    0.466   84.353  164.265    3.726
  453.404    0.221    0.477   89.032  164.906    3.583
  453.654    0.230    0.489   93.650  165.870    3.527
  453.904    0.232    0.471   99.177  166.304    3.480
  454.154    0.219    0.453   99.196  166.646    3.439
  454.404    0.234    0.427   91.947  166.875    3.423
  454.654    0.225    0.416   79.374  166.694    3.452
  454.904    0.211    0.440   72.552  166.727    3.586
  455.154    0.220    0.465   69.362  166.553    3.780
  455.404    0.208    0.468   69.198  165.875    3.897
  455.654    0.214    0.489   71.758  165.385    3.888
  455.904    0.250    0.520   77.162  165.209    3.793
  456.154    0.241    0.506   77.243  165.234    3.632
  456.404    0.262    0.483   75.744  165.160    3.335
  456.654    0.266    0.485   72.916  164.994    3.148
  456.904    0.259    0.495   73.843  165.118    3.010
  457.154    0.228    0.505   76.706  162.173    2.969
  457.404    0.235    0.483   78.781  149.390    2.945
  457.654    0.217    0.456   79.342  150.959    3.008
  457.904    0.189    0.402   79.361  154.174    3.153
  458.154    0.158    0.351   80.108  156.041    3.361
  458.404    0.109    0.301   81.334  158.118    3.757
  458.654    0.108    0.319   83.228  160.918    4.547
  458.904    0.153    0.371   85.546  162.892    5.574
  459.154    0.182    0.432   88.527  163.334    6.635
  459.404    0.225    0.458   91.753  162.647    7.970
  459.654    0.203    0.432   87.598  162.061    7.440
  459.904    0.155    0.391   84.160  161.167    6.382
  460.154    0.135    0.404   80.244  160.584    5.699
  460.404    0.137    0.431   79.294  160.921    5.118
  460.654    0.181    0.516   82.399  161.784    4.769
  460.904    0.204    0.515   86.229  162.524    4.493
  461.154    0.220    0.496   92.844  163.579    4.271
  461.404    0.214    0.482   96.856  164.836    4.061
  461.654    0.211    0.500   98.813  165.781    3.934
  461.904    0.212    0.512   99.071  167.352    3.838
  462.154    0.209    0.520   97.878  168.506    3.793
  462.404    0.193    0.518   96.625  169.361    3.817
  462.654    0.184    0.513   96.884  169.492    3.886
  462.904    0.186    0.522   99.992  169.319    3.970
  463.154    0.182    0.517  101.642  168.935    4.040
  463.404    0.162    0.493  101.660  168.668    4.120
  463.654    0.175    0.505  101.010  168.689    4.170
  463.904    0.182    0.490  101.877  168.726    4.238
  464.154    0.193    0.471  103.407  168.745    4.272
  464.404    0.198    0.449  103.422  168.985    4.278
  464.654    0.192    0.473  100.777  168.911    4.250
  464.904    0.191    0.452   98.255  168.842    4.217
  465.154    0.187    0.457   97.301  168.047    4.229
  465.404    0.171    0.443   97.137  167.662    4.273
  465.654    0.174    0.466   97.578  166.364    4.309
  465.904    0.185    0.483   98.685  165.367    4.362
  466.154    0.186    0.466  100.463  164.070    4.408
  466.404    0.172    0.475  102.112  163.270    4.437
  466.654    0.142    0.534  104.671  163.199    4.466
  466.904    0.153    0.552  110.016  162.928    4.479
  467.154    0.170    0.537  112.393  163.672    4.484
  467.404    0.168    0.529  111.745  165.133    4.472
  467.654    0.158    0.540  111.096  166.907    4.454
  467.904    0.169    0.518  107.906  166.014    4.458
  468.154    0.173    0.535  105.261  162.251    4.462
  468.404    0.162    0.561   86.996  160.948    4.468
  468.654    0.164    0.550   67.522  160.873    4.456
  468.904    0.157    0.536   55.735  161.116    4.252
  469.154    0.176    0.533   52.787  161.761    3.883
  469.404    0.246    0.556   55.831  162.190    3.435
  469.654    0.283    0.471   59.603  163.043    3.007
  469.904    0.286    0.445   62.587  163.584    2.715
  470.154    0.282    0.444   65.935  163.719    2.429
  470.404    0.278    0.449   69.099  163.749    2.445
  470.654    0.277    0.462   72.325  163.778    2.592
  470.904    0.270    0.488   74.945  163.815    2.757
  471.154    0.258    0.481   77.140  163.837    3.022
  471.404    0.321    0.542   80.486  163.864    3.256
  471.654    0.356    0.591   84.015  164.002    3.509
  471.904    0.408    0.617   84.155  164.129    3.844
  472.154    0.344    0.637   83.749  163.952    4.181
  472.404    0.312    0.611   83.768  163.888    4.505
  472.654    0.322    0.568   84.390  163.910    4.882
  472.904    0.269    0.484   85.374  163.836    5.212
  473.154    0.241    0.453   87.025  163.763    4.947
  473.404    0.218    0.450   89.283  163.904    4.282
  473.654    0.215    0.467   92.328  164.134    3.652
  473.904    0.217    0.469   95.613  164.364    3.280
  474.154    0.226    0.449   85.220  164.707    2.989
  474.404    0.243    0.453   78.579  165.039    2.900
  474.654    0.234    0.455   72.542  165.170    2.930
  474.904    0.230    0.444   66.022  165.613    3.004
  475.154    0.225    0.425   67.979  165.439    3.144
  475.404    0.214    0.413   69.327  164.338    3.247
  475.654    0.206    0.427   69.285  162.932    3.416
  475.904    0.219    0.445   67.970  160.193    3.555
  476.154    0.220    0.446   71.739  155.818    3.469
  476.404    0.206    0.427   83.198  153.696    3.453
  476.654    0.186    0.390   91.750  153.824    3.660
  476.904    0.154    0.361   96.974  156.118    3.908
  477.154    0.118    0.370  100.988  158.807    4.297
  477.404    0.114    0.408   98.643  163.349    4.708
  477.654    0.151    0.327   94.786  166.963    5.303
  477.904    0.121    0.305   93.717  169.558    5.929
  478.154    0.100    0.343   93.915  171.233    6.413
  478.404    0.182    0.423   94.840  171.765    5.510
  478.654    0.213    0.465   94.616  172.312    4.760
  478.904    0.192    0.438   94.636  172.339    3.870
  479.154    0.202    0.450   95.073  171.965    3.419
  479.404    0.190    0.431   97.635  171.990    3.455
  479.654    0.174    0.384  100.979  171.710    3.662
  479.904    0.159    0.352  101.483  171.329    3.938
  480.154    0.140    0.379  100.895  170.439    4.143
  480.404    0.140    0.442  104.725  169.645    4.132
  480.654    0.207    0.462  107.891  168.346    4.003
  480.904    0.229    0.477  119.410  167.457    3.806
  481.154    0.201    0.493  125.601  166.561    3.713
  481.404    0.167    0.487  136.696  165.971    3.703
  481.654    0.190    0.479  153.603  165.598    3.755
  481.904    0.209    0.479  158.946  165.317    3.838
  482.154    0.205    0.469  152.426  165.039    3.898
  482.404    0.182    0.447  128.836  164.963    3.974
  482.654    0.170    0.446  119.229  164.892    4.151
  482.904    0.173    0.453  107.443  164.919    4.335
  483.154    0.160    0.440  108.369  165.158    4.545
  483.404    0.149    0.481  112.138  165.189    4.558
  483.654    0.146    0.469  114.820  165.213    4.471
  483.904    0.155    0.457  110.176  165.249    4.291
  484.154    0.174    0.448   98.873  165.376    3.976
