~VERSION INFORMATION
 VERS.                 2.0:   CWLS LOG ASCII STANDARD -VERSION 2.0
 WRAP.                  NO:   ONE LINE PER DEPTH STEP
~WELL INFORMATION BLOCK
#MNEM.UNIT           DATA                    DESCRIPTION OF MNEMONIC
#---------    -------------------            -------------------------------
# Generated from Intellog Unique Number	CW_70_72/WELL/3027
NULL.         -999.25                        : NULL_VALUE
WELL.         MANNVILLE ET AL DECBENE        : Well_name    - WELL              
LOC .         11-07-070-01W5                 : Location     - LOCATION          
UWI .         00/11-07-070-01W5/0            : Uwi          - UNIQUE WELL ID    
ENTR.         JAYE                           : Entered      - ENTERED BY        
SRVC.         SCHLUMBERGER                   : Scn          - SERVICE COMPANY   
DATE.         11 JAN 85                      : Date         - LOG DATE          
STRT.M        425                            : top_depth    - START DEPTH       
STOP.M        630                            : bot_depth    - STOP DEPTH        
STEP.M        0.25                           : increment    - STEP LENGTH       
~CURVE INFORMATION BLOCK
#MNEM UNIT       ERCB CURVE CODE    CURVE DESCRIPTION
#-----------   ------------------   ----------------------------------
DEPT.M        00 001 00 00         : DEPTH        - DEPTH                       
ILD .OHMM     00 120 00 00         : RESD         - DEEP RESISTIVITY (DIL)      
CALI.MM       00 280 01 00         : CAL          - CALIPER                     
GR  .API      00 310 00 00         : GR           - GAMMA RAY                   
NPHI.V/V      00 330 00 00         : PHIN         - NEUTRON POROSITY (SANDSTONE)
DPHI.V/V      00 890 00 00         : PHID         - DENSITY POROSITY (SANDSTONE)
~PARAMETER INFORMATION       
#MNEM.UNIT           DATA             DESCRIPTION OF MNEMONIC
#---------         -----------     ------------------------------
GL  .M        583                  : gl           - GROUND LEVEL ELEVATION      
EREF.M        586                  : kb           - ELEVATION OF DEPTH REFERENCE
DATM.M        583                  : datum        - DATUM ELEVATION             
TDD .M        642                  : tdd          - TOTAL DEPTH DRILLER         
RUN .         ONE                  : Run          - RUN NUMBER                  
ENG .         HOWARD               : Engineer     - RECORDING ENGINEER          
WIT .         KRYWICKI             : Witness      - WITNESSED BY                
BASE.         EDM                  : Branch       - HOME BASE OF LOGGING UNIT   
MUD .         GEL CHEM             : Mud_type     - MUD TYPE                    
MATR.         SANDSTONE            : Logunit      - NEUTRON MATRIX              
TMAX.C        30                   : BHT          - MAXIMUM RECORDED TEMPERATURE
BHTD.M        642                  : BHTDEP       - MAXIMUM RECORDED TEMPERATURE
RMT .C        17                   : MDTP         - TEMPERATURE OF MUD          
MUDD.KG/M     1160                 : MWT          - MUD DENSITY                 
NEUT.         1                    : NEUTRON      - NEUTRON TYPE                
RESI.         0                    : RESIST       - RESISTIVITY TYPE            
RM  .OHMM     4.92                 : RM           - RESISTIVITY OF MUD          
RMC .OHMM     0.25                 : RMC          - RESISTIVITY OF MUD CAKE     
RMF .OHMM     5.72                 : RMF          - RESISTIVITY OF MUD FILTRATE 
SUFT.C        10                   : SUFT         - SURFACE TEMPERATURE         
~A  DEPTH     RESD      CAL       GR     PHIN     PHID
  425.000    2.294  204.084  110.368    0.481    0.229
  425.250    2.311  200.761  108.063    0.487    0.242
  425.500    2.341  194.953  103.585    0.480    0.233
  425.750    2.354  194.115  103.081    0.481    0.209
  426.000    2.358  200.314  106.925    0.503    0.195
  426.250    2.345  199.476  107.726    0.503    0.195
  426.500    2.301  199.567  107.284    0.496    0.202
  426.750    2.258  206.594  105.228    0.479    0.208
  427.000    2.224  210.827  104.725    0.463    0.212
  427.250    2.212  204.813  109.252    0.496    0.217
  427.500    2.216  194.865  109.244    0.506    0.225
  427.750    2.224  184.502  107.313    0.514    0.226
  428.000    2.257  185.319  106.437    0.481    0.211
  428.250    2.286  197.418  108.045    0.460    0.197
  428.500    2.338  201.443  104.932    0.445    0.190
  428.750    2.400  201.019  100.890    0.443    0.194
  429.000    2.431  199.042   96.348    0.468    0.208
  429.250    2.431  194.786   93.051    0.494    0.230
  429.500    2.381  189.807   88.819    0.519    0.265
  429.750    2.280  183.585   83.596    0.524    0.279
  430.000    2.229  176.327   78.000    0.475    0.234
  430.250    2.204  169.898   75.882    0.451    0.212
  430.500    2.212  162.745   77.923    0.432    0.223
  430.750    2.241  156.213   75.992    0.413    0.243
  431.000    2.318  153.508   73.253    0.400    0.254
  431.250    2.470  152.462   69.706    0.393    0.242
  431.500    2.631  151.521   65.414    0.384    0.210
  431.750    2.830  150.578   71.618    0.374    0.155
  432.000    3.090  150.874   81.114    0.350    0.117
  432.250    3.431  151.797   85.579    0.350    0.165
  432.500    3.574  154.479   89.237    0.375    0.223
  432.750    3.501  161.818   94.944    0.388    0.246
  433.000    3.248  168.224   99.472    0.407    0.260
  433.250    3.065  172.662  103.378    0.426    0.225
  433.500    2.963  174.515  102.191    0.439    0.199
  433.750    2.886  174.194   99.514    0.423    0.208
  434.000    2.816  167.040  105.159    0.396    0.238
  434.250    2.738  170.033  111.611    0.408    0.249
  434.500    2.717  179.026  101.544    0.466    0.246
  434.750    2.722  173.735   90.667    0.467    0.200
  435.000    2.884  165.547   84.637    0.397    0.163
  435.250    3.096  158.288   80.531    0.361    0.186
  435.500    3.202  154.966   80.897    0.343    0.224
  435.750    3.305  152.988   85.238    0.344    0.226
  436.000    3.336  152.564   96.535    0.345    0.238
  436.250    3.286  154.415  103.795    0.340    0.313
  436.500    3.194  168.587  110.558    0.387    0.368
  436.750    3.123  178.720  102.663    0.417    0.380
  437.000    3.065  165.873   97.750    0.410    0.273
  437.250    3.036  158.408   96.564    0.385    0.249
  437.500    3.013  162.846  104.818    0.371    0.240
  437.750    2.984  167.287  114.251    0.357    0.246
  438.000    3.012  171.625  120.270    0.389    0.236
  438.250    3.074  169.441  111.195    0.450    0.207
  438.500    3.179  165.600  107.959    0.415    0.186
  438.750    3.369  163.620  110.499    0.405    0.172
  439.000    3.610  162.366  109.746    0.406    0.161
  439.250    3.963  161.839  106.572    0.402    0.151
  439.500    4.191  161.310  102.529    0.390    0.145
  439.750    4.294  160.366   98.733    0.395    0.155
  440.000    4.214  158.906   94.503    0.409    0.187
  440.250    4.021  157.033   82.510    0.422    0.210
  440.500    3.815  154.536   73.746    0.416    0.226
  440.750    3.494  153.078   59.950    0.398    0.242
  441.000    3.169  151.614   55.286    0.374    0.254
  441.250    2.913  151.916   81.427    0.391    0.256
  441.500    2.673  156.666   96.947    0.387    0.252
  441.750    2.498  164.729  113.338    0.350    0.225
  442.000    2.340  173.000  113.890    0.448    0.226
  442.250    2.275  174.129   99.785    0.491    0.295
  442.500    2.216  168.528   82.450    0.486    0.346
  442.750    2.253  161.580   51.326    0.469    0.367
  443.000    2.383  155.566   46.165    0.412    0.308
  443.250    2.414  152.241   57.275    0.342    0.288
  443.500    2.169  151.088   48.635    0.326    0.280
  443.750    1.924  151.079   41.797    0.325    0.290
  444.000    1.759  151.070   37.567    0.323    0.293
  444.250    1.614  151.472   39.669    0.319    0.282
  444.500    1.503  151.876   42.521    0.322    0.288
  444.750    1.431  152.590   47.919    0.329    0.299
  445.000    1.363  153.096   53.316    0.343    0.310
  445.250    1.335  153.602   58.899    0.348    0.307
  445.500    1.333  154.316   64.482    0.340    0.286
  445.750    1.347  154.201   58.637    0.340    0.278
  446.000    1.373  154.397   64.965    0.361    0.286
  446.250    1.430  154.386   92.598    0.348    0.276
  446.500    1.544  155.100  103.273    0.330    0.242
  446.750    1.714  157.573  105.131    0.338    0.212
  447.000    2.025  157.353  103.074    0.359    0.192
  447.250    2.378  155.273  100.335    0.372    0.188
  447.500    2.645  152.468  101.818    0.359    0.172
  447.750    2.931  152.767  106.780    0.342    0.205
  448.000    3.164  160.002  112.115    0.352    0.234
  448.250    3.365  168.064  119.127    0.381    0.218
  448.500    3.500  170.227  109.803    0.389    0.185
  448.750    3.708  166.386  108.120    0.367    0.175
  449.000    3.936  162.337  114.884    0.336    0.193
  449.250    4.101  162.223  108.604    0.344    0.214
  449.500    4.025  166.247  100.710    0.458    0.199
  449.750    3.665  168.619  107.783    0.508    0.154
  450.000    3.120  176.372  121.813    0.515    0.170
  450.250    2.661  197.479  115.782    0.512    0.225
  450.500    2.374  190.427   88.323    0.503    0.240
  450.750    2.257  178.410   69.124    0.458    0.242
  451.000    2.290  163.492   61.603    0.417    0.256
  451.250    2.382  155.303   60.292    0.384    0.271
  451.500    2.404  152.600   61.092    0.395    0.285
  451.750    2.359  150.723   60.589    0.420    0.298
  452.000    2.209  149.988   58.471    0.406    0.294
  452.250    2.100  149.254   57.159    0.386    0.291
  452.500    2.030  148.623   61.252    0.381    0.284
  452.750    2.011  148.818   68.698    0.384    0.262
  453.000    2.015  149.634   76.580    0.379    0.238
  453.250    2.056  151.693   86.200    0.370    0.256
  453.500    2.203  156.444   93.026    0.376    0.282
  453.750    2.433  168.026   94.820    0.410    0.297
  454.000    2.651  171.327   90.590    0.478    0.306
  454.250    2.894  165.210   80.957    0.509    0.278
  454.500    3.113  158.886   80.329    0.393    0.265
  454.750    3.354  154.319   78.893    0.378    0.261
  455.000    3.456  152.340   74.602    0.379    0.265
  455.250    3.353  151.397   75.464    0.386    0.268
  455.500    3.242  151.281   75.458    0.380    0.273
  455.750    3.182  151.374   74.581    0.385    0.269
  456.000    3.122  151.882   73.705    0.399    0.259
  456.250    3.052  151.976   72.145    0.400    0.254
  456.500    2.984  152.171   71.021    0.395    0.255
  456.750    2.891  152.053   70.703    0.388    0.260
  457.000    2.805  152.351   72.747    0.378    0.257
  457.250    2.753  152.757   77.211    0.369    0.244
  457.500    2.752  152.746   81.864    0.376    0.237
  457.750    2.825  152.321   84.404    0.396    0.232
  458.000    2.921  152.312   82.906    0.413    0.226
  458.250    3.044  152.713   73.645    0.402    0.221
  458.500    3.148  153.011   70.346    0.381    0.201
  458.750    3.159  153.107   69.966    0.391    0.236
  459.000    3.009  152.680   69.029    0.414    0.262
  459.250    2.755  152.874   65.420    0.429    0.260
  459.500    2.600  152.969   65.599    0.387    0.258
  459.750    2.494  153.787   72.114    0.369    0.264
  460.000    2.508  154.393   78.940    0.359    0.259
  460.250    2.489  155.001   83.281    0.366    0.248
  460.500    2.493  155.203   80.417    0.379    0.243
  460.750    2.545  155.295   76.063    0.391    0.257
  461.000    2.564  154.971   70.280    0.403    0.271
  461.250    2.516  154.545   67.539    0.395    0.290
