~VERSION INFORMATION
 VERS.                 2.0:   CWLS LOG ASCII STANDARD -VERSION 2.0
 WRAP.                  NO:   ONE LINE PER DEPTH STEP
~WELL INFORMATION BLOCK
#MNEM.UNIT           DATA                    DESCRIPTION OF MNEMONIC
#---------    -------------------            -------------------------------
# Generated from Intellog Unique Number	CN_91_93/WELL/1170
WELL.         MIAMI OIL PRODUCERS            : Well_name    - WELL
LOC .         00/11-29-091-19W4/0            : Location     - LOCATION
UWI .         00/11-29-091-19W4/0            : Uwi          - UNIQUE WELL ID
ENTR.         JOETTE                         : Entered      - ENTERED BY
SRVC.         SCHLUMBERGER                   : Scn          - SERVICE COMPANY
DATE.         01/15/92                       : Date         - LOG DATE
STRT.F        650                            : top_depth    - START DEPTH
STOP.F        900.164                        : bot_depth    - STOP DEPTH
STEP.F        0.82                           : increment    - STEP LENGTH
 NULL. -999.2500:NULL Value
~CURVE INFORMATION BLOCK
#MNEM UNIT       ERCB CURVE CODE    CURVE DESCRIPTION
#-----------   ------------------   ----------------------------------
DEPT.F        00 001 00 00         : DEPTH        - DEPTH
GR  .API      00 310 00 00         : GR           - GAMMA RAY
CALI.IN       00 280 01 00         : CAL          - CALIPER
NPHI.V/V      00 330 00 00         : PHIN         - NEUTRON POROSITY (SANDSTONE)
DPHI.V/V      00 890 00 00         : PHID         - DENSITY POROSITY (SANDSTONE)
ILD .OHMM     00 120 00 00         : RESD         - DEEP RESISTIVITY (DIL)
~PARAMETER INFORMATION
#MNEM.UNIT           DATA             DESCRIPTION OF MNEMONIC
#---------         -----------     ------------------------------
GL  .F        1710                 : gl           - GROUND LEVEL ELEVATION
EREF.F        1721                 : kb           - ELEVATION OF DEPTH REFERENCE
DATM.F        1710                 : datum        - DATUM ELEVATION
TDD .F        1044                 : tdd          - TOTAL DEPTH DRILLER
RUN .         ONE                  : Run          - RUN NUMBER
ENG .         BILL                 : Engineer     - RECORDING ENGINEER
WIT .         JIM                  : Witness      - WITNESSED BY
MUD .         GEL                  : Mud_type     - MUD TYPE
MATR.         SANDSTONE            : Logunit      - NEUTRON MATRIX
TMAX.F        47                   : BHT          - MAXIMUM RECORDED TEMPERATURE
BHTD.F        1044                 : BHTDEP       - MAXIMUM RECORDED TEMPERATURE
RMT .F        47                   : MDTP         - TEMPERATURE OF MUD
MUDD.LB/G     9.8                  : MWT          - MUD DENSITY
NEUT.         1                    : NEUTRON      - NEUTRON TYPE
RESI.         0                    : RESIST       - RESISTIVITY TYPE
RM  .OHMM     7.42                 : RM           - RESISTIVITY OF MUD
RMC .OHMM     7.42                 : RMC          - RESISTIVITY OF MUD CAKE
RMF .OHMM     7.42                 : RMF          - RESISTIVITY OF MUD FILTRATE
SUFT.F        39.2                 : SUFT         - SURFACE TEMPERATURE
~A  DEPTH       GR      CAL     PHIN     PHID     RESD
  650.000   90.902    6.698    0.310    0.180   18.506
  650.820   90.406    6.625    0.302    0.159   17.736
  651.640   89.319    6.731    0.301    0.146   17.303
  652.461   91.188    6.757    0.310    0.163   17.040
  653.281   91.874    6.665    0.313    0.171   17.081
  654.101   87.241    6.771    0.319    0.157   17.284
  654.921   82.607    6.521    0.301    0.157   17.479
  655.741   78.565    6.507    0.285    0.086   17.676
  656.562   81.320    6.731    0.276    0.073   18.048
  657.382   85.269    6.699    0.265    0.090   18.765
  658.202   83.296    6.710    0.265    0.127   19.161
  659.022   79.253    6.692    0.276    0.142   19.376
  659.843   78.474    6.738    0.286    0.178   19.436
  660.663   77.091    6.824    0.284    0.199   19.827
  661.483   71.559    6.791    0.274    0.192   20.429
  662.303   70.189    6.877    0.273    0.170   21.622
  663.123   68.806    6.765    0.278    0.153   24.169
  663.944   66.537    6.693    0.284    0.108   27.752
  664.764   63.370    6.800    0.283    0.101   34.270
  665.584   60.533    6.785    0.276    0.115   38.644
  666.404   57.661    6.772    0.283    0.119   42.052
  667.224   55.688    6.799    0.289    0.084   42.525
  668.045   59.034    6.824    0.285    0.043   43.030
  668.865   61.825    6.831    0.286    0.024   42.747
  669.685   68.730    6.760    0.287    0.070   42.083
  670.505   69.404    6.686    0.292    0.106   37.176
  671.325   72.172    6.715    0.305    0.124   32.222
  672.146   76.700    6.779    0.309    0.138   26.952
  672.966   81.536    6.824    0.315    0.143   22.537
  673.786   88.158    6.811    0.349    0.132   18.851
  674.606   86.775    6.759    0.320    0.116   15.768
  675.427   91.316    6.765    0.304    0.074   14.052
  676.247   99.994    6.892    0.320    0.088   13.338
  677.067  100.113    6.963    0.361    0.125   13.492
  677.887   96.945    7.045    0.361    0.150   13.772
  678.707   93.199    7.050    0.329    0.129   14.066
  679.528   91.816    6.996    0.337    0.116   14.105
  680.348   95.470    6.926    0.350    0.146   13.877
  681.168   96.464    6.951    0.405    0.135   13.786
  681.988   94.774    6.977    0.402    0.116   13.454
  682.808   90.141    6.965    0.356    0.104   13.737
  683.629   90.236    6.931    0.361    0.105   13.767
  684.449   93.311    6.958    0.397    0.086   13.314
  685.269   93.394    6.958    0.386    0.142   13.107
  686.089   93.797    6.971    0.350    0.118   13.262
  686.909   95.961    7.018    0.350    0.103   13.053
  687.730   96.364    7.024    0.387    0.117   12.734
  688.550   95.584    7.030    0.376    0.123   12.315
  689.370   95.100    7.019    0.374    0.096   12.341
  690.190   98.151    7.019    0.393    0.092   12.372
  691.010   89.947    7.050    0.382    0.130   12.632
  691.831   81.471    7.077    0.355    0.158   12.891
  692.651   78.008    7.043    0.336    0.133   13.525
  693.471   95.873    6.990    0.323    0.153   14.190
  694.291  106.927    6.958    0.365    0.124   13.723
  695.112  106.431    6.985    0.404    0.112   13.263
  695.932  104.482    6.972    0.431    0.140   12.704
  696.752  101.621    6.958    0.438    0.131   12.065
  697.572   93.429    7.024    0.405    0.108   11.665
  698.392   91.148    7.032    0.376    0.090   11.383
  699.213   94.199    7.037    0.377    0.093   11.302
  700.033  103.185    7.024    0.379    0.110   11.336
  700.853  105.077    7.032    0.376    0.148   11.360
  701.673  104.877    7.039    0.377    0.169   11.705
  702.493  102.904    7.065    0.370    0.170   12.385
  703.314  101.509    7.131    0.346    0.174   13.352
  704.134  101.912    7.136    0.313    0.162   14.653
  704.954  102.007    7.103    0.319    0.138   16.090
  705.774   98.568    7.111    0.327    0.111   15.697
  706.594   95.708    7.098    0.274    0.078   14.904
  707.415   96.087    7.084    0.286    0.015   13.643
  708.235  100.923    7.150    0.304    0.029   12.162
  709.055  109.022    7.117    0.328    0.071   11.645
  709.875  110.902    7.144    0.339    0.151   11.060
  710.696  116.330    7.071    0.330    0.145   10.593
  711.516  114.048    7.038    0.319    0.129   10.245
  712.336  109.722    7.026    0.335    0.116    9.995
  713.156  108.931    6.994    0.361    0.114    9.669
  713.976  108.731    7.078    0.403    0.132    9.778
  714.797  108.826    7.164    0.454    0.142    9.978
  715.617  103.613    7.111    0.470    0.134   10.096
  716.437   98.672    6.979    0.365    0.110   10.033
  717.257   98.768    6.868    0.375    0.109    9.791
  718.077  108.037    7.053    0.399    0.150    9.549
  718.898  111.395    6.999    0.403    0.159    9.316
  719.718  108.843    6.946    0.398    0.157    9.339
  720.538  105.084    6.935    0.403    0.161    9.530
  721.358   97.802    7.039    0.405    0.147   10.370
  722.178   93.440    7.007    0.414    0.137   11.072
  722.999   80.224    6.857    0.415    0.120   12.489
  723.819   63.449    6.744    0.331    0.094   13.835
  724.639   49.925    6.671    0.310    0.153   14.643
  725.459   38.777    6.777    0.312    0.210   15.358
  726.280   29.107    6.744    0.329    0.271   16.865
  727.100   26.543    6.710    0.357    0.280   18.670
  727.920   26.945    6.777    0.387    0.290   21.836
  728.740   24.984    6.822    0.386    0.289   26.006
  729.560   28.035    6.789    0.387    0.292   29.861
  730.381   31.393    6.718    0.380    0.278   42.249
  731.201   30.625    6.685    0.389    0.271   61.403
  732.021   31.584    6.672    0.385    0.273   94.251
  732.841   33.169    6.678    0.373    0.262  118.512
  733.661   31.207    6.646    0.353    0.259  142.468
  734.482   33.962    6.612    0.371    0.257  154.939
  735.302   34.365    6.580    0.381    0.261  164.037
  736.122   31.800    6.549    0.379    0.290  172.052
  736.942   33.965    6.534    0.357    0.288  180.459
  737.762   35.242    6.540    0.385    0.286  187.571
  738.583   34.155    6.548    0.401    0.290  198.586
  739.403   33.068    6.575    0.418    0.290  212.160
  740.223   33.495    6.581    0.440    0.294  224.550
  741.043   31.805    6.606    0.455    0.278  244.206
  741.864   28.637    6.594    0.455    0.263  268.080
  742.684   29.619    6.581    0.434    0.256  294.197
  743.504   28.840    6.588    0.424    0.265  297.599
  744.324   27.162    6.615    0.422    0.247  292.976
  745.144   28.439    6.621    0.423    0.239  254.094
  745.965   25.875    6.627    0.439    0.238  178.898
  746.785   28.051    6.614    0.407    0.234  153.757
  747.605   31.409    6.621    0.405    0.261  140.794
  748.425   33.573    6.628    0.378    0.271  134.894
  749.245   36.648    6.655    0.395    0.282  128.036
  750.066   40.881    6.655    0.419    0.269  119.384
  750.886   41.579    6.666    0.439    0.262  106.390
  751.706   39.901    6.694    0.466    0.255   92.243
  752.526   41.474    6.701    0.432    0.254   78.565
  753.346   44.254    6.701    0.418    0.261   69.383
  754.167   43.167    6.714    0.441    0.264   61.813
  754.987   44.468    6.700    0.469    0.246   47.658
  755.807   46.620    6.700    0.484    0.227   36.733
  756.627   47.602    6.694    0.460    0.200   28.579
  757.448   48.596    6.700    0.453    0.207   24.334
  758.268   51.363    6.700    0.438    0.217   20.533
  759.088   54.426    6.714    0.397    0.200   17.025
  759.908   57.773    6.741    0.357    0.177   14.757
  760.728   63.200    6.767    0.341    0.164   12.455
  761.549   67.740    6.793    0.341    0.164   11.100
  762.369   67.847    6.819    0.351    0.159    9.799
  763.189   66.761    6.983    0.367    0.181    8.422
  764.009   67.151    7.187    0.439    0.217    7.929
  764.829   67.862    6.878    0.472    0.250    8.464
  765.650   65.864    6.747    0.496    0.254   10.264
  766.470   61.834    6.755    0.428    0.187   14.133
  767.290   58.974    6.755    0.348    0.150   19.810
  768.110   56.988    6.767    0.286    0.134   26.299
  768.930   57.687    6.832    0.289    0.166   33.673
