~VERSION INFORMATION
 VERS.                 2.0:   CWLS LOG ASCII STANDARD -VERSION 2.0
 WRAP.                  NO:   ONE LINE PER DEPTH STEP
~WELL INFORMATION BLOCK
#MNEM.UNIT           DATA                    DESCRIPTION OF MNEMONIC
#---------    -------------------            -------------------------------
# Generated from Intellog Unique Number	CS_77_79/WELL/991
WELL.         HOME OIL COMPANY LIMITED       : Well_name    - WELL
LOC .         00/11-07-077-06W4/0            : Location     - LOCATION
UWI .         00/11-07-077-06W4/0            : Uwi          - UNIQUE WELL ID
ENTR.         SP                             : Entered      - ENTERED BY
SRVC.         SCHLUMBERGER                   : Scn          - SERVICE COMPANY
STRT.M        140.208                        : top_depth    - START DEPTH
STOP.M        368.458                        : bot_depth    - STOP DEPTH
STEP.M        0.25                           : increment    - STEP LENGTH
 NULL. -999.2500:NULL Value
~CURVE INFORMATION BLOCK
#MNEM UNIT       ERCB CURVE CODE    CURVE DESCRIPTION
#-----------   ------------------   ----------------------------------
DEPT.M        00 001 00 00         : DEPTH        - DEPTH
GR  .API      00 310 00 00         : GR           - GAMMA RAY
DPHI.V/V      00 890 00 00         : PHID         - DENSITY POROSITY (SANDSTONE)
NPHI.V/V      00 330 00 00         : PHIN         - NEUTRON POROSITY (SANDSTONE)
ILD .OHMM     00 120 00 00         : RESD         - DEEP RESISTIVITY (DIL)
~PARAMETER INFORMATION
#MNEM.UNIT           DATA             DESCRIPTION OF MNEMONIC
#---------         -----------     ------------------------------
GL  .M        561.96               : gl           - GROUND LEVEL ELEVATION
EREF.M        565.8                : kb           - ELEVATION OF DEPTH REFERENCE
DATM.M        561.96               : datum        - DATUM ELEVATION
TDD .M        372.466              : tdd          - TOTAL DEPTH DRILLER
RUN .         ONE                  : Run          - RUN NUMBER
ENG .         BILL                 : Engineer     - RECORDING ENGINEER
WIT .         JIM                  : Witness      - WITNESSED BY
MUD .         GEL                  : Mud_type     - MUD TYPE
MATR.         SANDSTONE            : Logunit      - NEUTRON MATRIX
TMAX.C        15.5556              : BHT          - MAXIMUM RECORDED TEMPERATURE
BHTD.M        372.466              : BHTDEP       - MAXIMUM RECORDED TEMPERATURE
MATR.         1                    : LOGUNIT      - NEUTRON MATRIX
RMT .C        25                   : MDTP         - TEMPERATURE OF MUD
NEUT.         1                    : NEUTRON      - NEUTRON TYPE
RESI.         0                    : RESIST       - RESISTIVITY TYPE
RMC .OHMM     0.25                 : RMC          - RESISTIVITY OF MUD CAKE
RMF .OHMM     0.25                 : RMF          - RESISTIVITY OF MUD FILTRATE
SUFT.C        15                   : SUFT         - SURFACE TEMPERATURE
~A  DEPTH       GR     PHID     PHIN     RESD
# ...
  183.708   94.276    0.236    0.441   11.529
  183.958   97.522    0.224    0.438   10.637
  184.208   99.472    0.233    0.441    9.373
  184.458  103.052    0.220    0.458    8.687
  184.708  105.701    0.210    0.479    7.807
  184.958  105.815    0.205    0.487    7.504
  185.208  104.395    0.217    0.477    8.453
  185.458  103.981    0.223    0.458    9.327
  185.708  101.877    0.237    0.431   10.356
  185.958   98.467    0.230    0.420   10.722
  186.208  101.129    0.203    0.426   10.745
  186.458  104.617    0.211    0.434    9.823
  186.708  109.627    0.243    0.447    9.165
  186.958  116.281    0.250    0.463    8.488
  187.208  115.978    0.265    0.472    7.825
  187.458  112.092    0.257    0.485    7.382
  187.708  107.855    0.231    0.492    7.226
  187.958  105.475    0.223    0.495    7.612
  188.208  103.242    0.240    0.492    8.231
  188.458  101.342    0.260    0.487    8.900
  188.708   98.651    0.262    0.490    9.617
  188.958  100.516    0.251    0.495   10.237
  189.208  103.115    0.259    0.492   10.666
  189.458  106.328    0.278    0.483   11.359
  189.708  103.870    0.286    0.435   11.898
  189.958  100.185    0.283    0.430   12.272
  190.208   98.287    0.276    0.430   12.381
  190.458   96.615    0.265    0.432   12.410
  190.708   97.308    0.261    0.436   12.150
  190.958   99.545    0.259    0.422   11.940
  191.208  101.209    0.250    0.416   11.418
  191.458  103.255    0.247    0.423   11.211
  191.708  102.034    0.241    0.444   10.874
  191.958   99.974    0.238    0.456   11.189
  192.208   98.610    0.243    0.461   11.808
  192.458   93.949    0.268    0.450   12.578
  192.708   89.106    0.285    0.453   12.732
  192.958   84.952    0.281    0.460   12.557
  193.208   80.433    0.276    0.466   11.331
  193.458   77.709    0.294    0.459    9.503
  193.708   83.501    0.284    0.471    7.937
  193.958   88.861    0.273    0.496    6.958
  194.208   92.523    0.252    0.536    5.920
  194.458   96.989    0.234    0.520    5.599
  194.708   97.924    0.232    0.491    6.617
  194.958   90.619    0.257    0.448    8.338
  195.208   82.515    0.272    0.421   10.336
  195.458   76.525    0.289    0.409   11.768
  195.708   77.532    0.292    0.399   12.451
  195.958   79.812    0.280    0.425   11.727
  196.208   84.229    0.270    0.441   10.650
  196.458   86.366    0.285    0.452   11.773
  196.708   80.058    0.298    0.475   12.426
  196.958   72.407    0.325    0.501   13.204
  197.208   67.693    0.356    0.476   13.601
  197.458   66.067    0.313    0.432   13.315
  197.708   66.126    0.287    0.409   12.567
  197.958   64.893    0.285    0.407   11.985
  198.208   64.339    0.260    0.417   11.687
  198.458   67.889    0.249    0.422   12.241
  198.708   69.601    0.254    0.422   12.794
  198.958   65.465    0.264    0.428   13.591
  199.208   61.964    0.291    0.421   14.425
  199.458   62.925    0.318    0.434   14.856
  199.708   64.385    0.341    0.454   15.338
  199.958   63.421    0.343    0.450   15.489
  200.208   64.417    0.359    0.460   15.785
  200.458   66.088    0.353    0.461   15.708
  200.708   66.979    0.353    0.449   15.204
  200.958   68.968    0.358    0.461   15.027
  201.208   65.385    0.363    0.454   14.889
  201.458   64.718    0.366    0.465   14.399
  201.708   63.302    0.356    0.457   14.280
  201.958   63.426    0.358    0.446   13.860
  202.208   64.936    0.358    0.441   13.679
  202.458   66.984    0.346    0.443   13.374
  202.708   67.530    0.366    0.461   13.116
  202.958   67.601    0.370    0.464   12.939
  203.208   66.845    0.368    0.447   12.811
  203.458   66.918    0.359    0.436   12.652
  203.708   65.630    0.338    0.434   12.658
  203.958   65.655    0.335    0.446   12.719
  204.208   66.803    0.355    0.459   12.883
  204.458   67.887    0.377    0.446   13.160
  204.708   65.802    0.376    0.461   13.176
  204.958   63.309    0.368    0.462   13.382
  205.208   63.404    0.359    0.459   13.376
  205.458   61.974    0.375    0.460   13.370
  205.708   60.577    0.389    0.457   13.579
  205.958   58.426    0.382    0.444   13.619
  206.208   59.171    0.373    0.434   13.627
  206.458   60.808    0.362    0.439   13.628
  206.708   60.058    0.357    0.458   13.629
  206.958   58.493    0.362    0.469   13.630
  207.208   55.696    0.364    0.455   13.630
  207.458   57.160    0.372    0.448   13.631
  207.708   62.283    0.378    0.454   13.632
  207.958   65.424    0.374    0.460   13.633
  208.208   66.256    0.359    0.467   13.633
  208.458   65.706    0.353    0.473   13.634
  208.708   64.665    0.355    0.464   13.635
  208.958   64.377    0.375    0.450   13.636
  209.208   64.791    0.382    0.445   13.637
  209.458   65.776    0.374    0.458   13.637
  209.708   66.755    0.363    0.470   13.638
  209.958   66.650    0.359    0.478   13.637
  210.208   65.926    0.357    0.481   13.623
  210.458   63.701    0.343    0.483   13.883
  210.708   65.340    0.330    0.485   13.862
  210.958   67.549    0.331    0.484   14.180
  211.208   66.848    0.343    0.479   14.135
  211.458   64.987    0.360    0.477   14.452
  211.708   62.475    0.356    0.475   14.451
  211.958   62.470    0.346    0.470   14.700
  212.208   63.392    0.345    0.466   14.689
  212.458   63.650    0.360    0.462   14.687
  212.708   63.110    0.360    0.453   14.892
  212.958   62.446    0.353    0.447   14.958
  213.208   61.878    0.345    0.444   14.965
  213.458   62.473    0.351    0.447   14.793
  213.708   65.114    0.344    0.452   14.729
  213.958   65.942    0.336    0.457   14.208
  214.208   67.588    0.329    0.461   13.697
  214.458   68.453    0.334    0.467   12.282
  214.708   68.398    0.331    0.469   11.619
  214.958   68.485    0.313    0.462   10.627
  215.208   71.653    0.298    0.454   10.160
  215.458   75.672    0.284    0.443    9.581
  215.708   78.290    0.276    0.446    8.989
  215.958   80.354    0.271    0.443    8.457
  216.208   82.578    0.276    0.446    8.247
  216.458   83.304    0.270    0.459    8.122
  216.708   83.872    0.269    0.448    8.004
  216.958   84.612    0.272    0.437    7.918
  217.208   85.205    0.269    0.430    7.873
  217.458   84.620    0.273    0.422    7.729
  217.708   83.607    0.267    0.447    7.649
  217.958   82.723    0.263    0.461    7.580
  218.208   85.226    0.253    0.473    7.590
  218.458   89.062    0.248    0.462    7.426
  218.708   88.467    0.241    0.437    7.440
  218.958   87.716    0.245    0.450    7.442
  219.208   89.690    0.249    0.448    7.445
  219.458   90.376    0.235    0.446    7.442
  219.708   90.359    0.245    0.435    7.592
  219.958   91.423    0.241    0.423    7.585
  220.208   93.333    0.229    0.422    7.573
  220.458   93.280    0.240    0.420    7.649
  220.708   94.037    0.247    0.419    7.545
  220.958   95.495    0.248    0.427    7.201
  221.208   97.277    0.251    0.435    6.824
  221.458   97.486    0.257    0.440    6.030
  221.708   97.498    0.236    0.450    5.733
  221.958   97.669    0.216    0.467    5.050
  222.208   98.690    0.231    0.480    4.688
  222.458   99.188    0.238    0.493    4.270
  222.708  100.852    0.245    0.505    4.110
  222.958  102.791    0.235    0.507    3.984
  223.208  103.763    0.215    0.497    3.865
  223.458  104.741    0.205    0.493    3.748
  223.708  105.760    0.215    0.491    3.698
  223.958  106.087    0.227    0.480    3.699
  224.208  106.354    0.231    0.496    3.700
  224.458  106.473    0.218    0.508    3.700
  224.708  104.942    0.229    0.518    3.700
  224.958  102.670    0.240    0.533    3.700
  225.208  101.305    0.239    0.537    3.699
  225.458  100.261    0.232    0.528    3.678
  225.708  101.562    0.238    0.519    3.633
  225.958  103.538    0.247    0.512    3.594
  226.208  104.465    0.240    0.513    3.484
  226.458  102.828    0.242    0.531    3.381
  226.708  101.440    0.240    0.541    3.311
  226.958  101.510    0.239    0.552    3.320
