~VERSION INFORMATION
 VERS.                 2.0:   CWLS LOG ASCII STANDARD -VERSION 2.0
 WRAP.                  NO:   ONE LINE PER DEPTH STEP
~WELL INFORMATION BLOCK
#MNEM.UNIT           DATA                    DESCRIPTION OF MNEMONIC
#---------    -------------------            -------------------------------
# Generated from Intellog Unique Number	CW_73_75/WELL/2746
WELL.         GAO ET AL KELLY                : Well_name    - WELL
LOC .         00/11-21-073-19W4/0            : Location     - LOCATION
UWI .         00/11-21-073-19W4/0            : Uwi          - UNIQUE WELL ID
ENTR.         JAYE                           : Entered      - ENTERED BY
SRVC.         SCHLUMBERGER                   : Scn          - SERVICE COMPANY
DATE.         20 JAN 77                      : Date         - LOG DATE
STRT.M        350.52                         : top_depth    - START DEPTH
STOP.M        585.27                         : bot_depth    - STOP DEPTH
STEP.M        0.25                           : increment    - STEP LENGTH
 NULL. -999.2500:NULL Value
~CURVE INFORMATION BLOCK
#MNEM UNIT       ERCB CURVE CODE    CURVE DESCRIPTION
#-----------   ------------------   ----------------------------------
DEPT.M        00 001 00 00         : DEPTH        - DEPTH
ILD .OHMM     00 120 00 00         : RESD         - DEEP RESISTIVITY (DIL)
NPHI.V/V      00 330 00 00         : PHIN         - NEUTRON POROSITY (SANDSTONE)
DPHI.V/V      00 890 00 00         : PHID         - DENSITY POROSITY (SANDSTONE)
GR  .API      00 310 00 00         : GR           - GAMMA RAY
CALI.MM       00 280 01 00         : CAL          - CALIPER
~PARAMETER INFORMATION
#MNEM.UNIT           DATA             DESCRIPTION OF MNEMONIC
#---------         -----------     ------------------------------
GL  .M        654.71               : gl           - GROUND LEVEL ELEVATION
EREF.M        658.368              : kb           - ELEVATION OF DEPTH REFERENCE
DATM.M        654.71               : datum        - DATUM ELEVATION
TDD .M        620.268              : tdd          - TOTAL DEPTH DRILLER
RUN .         ONE                  : Run          - RUN NUMBER
MATR.         SANDSTONE            : Logunit      - NEUTRON MATRIX
TMAX.C        30                   : BHT          - MAXIMUM RECORDED TEMPERATURE
BHTD.M        620.268              : BHTDEP       - MAXIMUM RECORDED TEMPERATURE
RMT .C        15.5556              : MDTP         - TEMPERATURE OF MUD
MUDD.KG/M     0                    : MWT          - MUD DENSITY
NEUT.         1                    : NEUTRON      - NEUTRON TYPE
RESI.         0                    : RESIST       - RESISTIVITY TYPE
RM  .OHMM     8.1                  : RM           - RESISTIVITY OF MUD
RMC .OHMM     9.2                  : RMC          - RESISTIVITY OF MUD CAKE
RMF .OHMM     6.3                  : RMF          - RESISTIVITY OF MUD FILTRATE
SUFT.C        -17.7778             : SUFT         - SURFACE TEMPERATURE
~A  DEPTH     RESD     PHIN     PHID       GR      CAL
# ...
  496.520    6.314    0.426    0.342   80.089  159.742
  496.770    6.322    0.425    0.333   81.001  160.155
  497.020    6.342    0.429    0.326   79.787  160.464
  497.270    6.338    0.435    0.319   80.941  161.391
  497.520    6.275    0.434    0.321   85.923  162.111
  497.770    6.227    0.434    0.310   88.172  162.627
  498.020    6.212    0.436    0.326   84.648  162.525
  498.270    6.196    0.443    0.313   81.429  162.320
  498.520    6.205    0.449    0.317   79.546  161.909
  498.770    6.235    0.448    0.300   81.855  161.704
  499.020    6.276    0.438    0.308   84.529  161.499
  499.270    6.308    0.429    0.320   83.922  161.088
  499.520    6.304    0.421    0.326   82.160  160.781
  499.770    6.346    0.419    0.327   83.923  160.679
  500.020    6.343    0.419    0.321   85.928  160.576
  500.270    6.339    0.420    0.319   88.237  160.474
  500.520    6.336    0.421    0.319   89.817  160.372
  500.770    6.332    0.407    0.313   92.855  160.476
  501.020    6.328    0.410    0.315   96.380  160.374
  501.270    6.348    0.419    0.312   97.474  160.169
  501.520    6.333    0.430    0.308   97.899  159.758
  501.770    6.259    0.446    0.309   96.563  159.450
  502.020    6.187    0.454    0.313   99.237  159.451
  502.270    6.027    0.458    0.297  105.434  159.452
  502.520    5.776    0.455    0.284  109.566  159.658
  502.770    5.494    0.460    0.285  109.262  160.174
  503.020    5.274    0.470    0.291  109.749  161.203
  503.270    4.944    0.484    0.286  112.423  162.438
  503.520    4.686    0.482    0.307  116.676  164.497
  503.770    4.328    0.470    0.247  126.944  169.333
  504.020    4.027    0.479    0.233  137.394  174.477
  504.270    3.768    0.493    0.218  142.619  180.033
  504.520    3.618    0.492    0.223  143.470  185.281
  504.770    3.531    0.487    0.219  146.994  188.573
  505.020    3.496    0.503    0.215  146.508  184.254
  505.270    3.507    0.515    0.235  143.654  184.049
  505.520    3.537    0.520    0.227  143.654  188.164
  505.770    3.620    0.519    0.231  141.710  191.046
  506.020    3.719    0.519    0.225  138.673  189.915
  506.270    3.876    0.514    0.223  142.015  188.784
  506.520    3.997    0.500    0.220  144.749  187.962
  506.770    4.121    0.489    0.202  146.573  186.934
  507.020    4.240    0.482    0.214  148.274  187.963
  507.270    4.308    0.486    0.219  150.522  187.656
  507.520    4.418    0.486    0.233  149.612  186.216
  507.770    4.521    0.484    0.237  146.878  185.908
  508.020    4.628    0.492    0.223  142.930  189.407
  508.270    4.797    0.486    0.191  137.645  193.317
  508.520    4.982    0.474    0.190  137.220  196.815
  508.770    5.203    0.476    0.221  136.734  187.454
  509.020    5.374    0.467    0.223  136.309  180.460
  509.270    5.551    0.464    0.210  137.829  179.946
  509.520    5.639    0.454    0.209  139.834  183.856
  509.770    5.657    0.472    0.219  138.012  187.972
  510.020    5.685    0.482    0.205  134.428  183.446
  510.270    5.692    0.478    0.203  131.938  179.744
  510.520    5.616    0.470    0.192  133.153  177.172
  510.770    5.541    0.462    0.177  136.738  175.322
  511.020    5.558    0.455    0.183  142.145  174.088
  511.270    5.647    0.450    0.194  147.067  175.426
  511.520    5.791    0.457    0.174  149.862  176.661
  511.770    6.003    0.458    0.198  149.923  177.485
  512.020    6.212    0.456    0.195  146.765  176.663
  512.270    6.300    0.452    0.202  144.031  173.680
  512.520    6.273    0.442    0.219  141.480  169.463
  512.770    6.044    0.434    0.213  140.934  171.933
  513.020    5.824    0.438    0.195  142.696  174.094
  513.270    5.939    0.454    0.179  146.828  174.506
  513.520    6.685    0.469    0.193  140.996  171.730
  513.770    7.525    0.456    0.167  134.374  168.027
  514.020    8.933    0.456    0.150  123.318  164.530
  514.270   10.939    0.446    0.167  113.294  161.959
  514.520   15.452    0.416    0.136  100.171  160.211
  514.770   19.880    0.362    0.083  101.448  160.212
  515.020   18.533    0.258    0.062  102.056  161.138
  515.270   15.767    0.233    0.058  101.388  161.859
  515.520   13.194    0.226    0.053  102.360  161.963
  515.770   11.793    0.248    0.056  106.553  162.684
  516.020   10.834    0.279    0.086  113.540  163.713
  516.270    9.954    0.402    0.131  111.596  164.846
  516.520    9.144    0.421    0.142  115.667  166.390
  516.770    8.354    0.387    0.126  127.089  166.905
  517.020    8.006    0.362    0.142  133.712  167.626
  517.270    7.657    0.392    0.184  140.031  168.244
  517.520    7.446    0.413    0.214  139.606  168.965
  517.770    7.346    0.416    0.204  139.728  169.788
  518.020    7.288    0.421    0.182  140.944  170.509
  518.270    7.257    0.430    0.197  143.556  171.333
  518.520    7.239    0.432    0.198  148.053  172.877
  518.770    7.249    0.429    0.167  148.478  174.215
  519.020    7.338    0.427    0.145  144.591  174.319
  519.270    7.454    0.430    0.158  141.675  173.497
  519.520    7.589    0.422    0.178  144.470  172.263
  519.770    7.781    0.422    0.176  144.774  170.824
  520.020    7.993    0.429    0.177  141.312  169.796
  520.270    8.120    0.431    0.178  138.092  169.076
  520.520    8.161    0.431    0.140  138.640  168.666
  520.770    8.216    0.420    0.125  144.108  168.358
  521.020    8.227    0.424    0.131  151.095  167.947
  521.270    8.191    0.437    0.161  151.946  167.639
  521.520    8.111    0.427    0.177  147.390  167.331
  521.770    7.989    0.407    0.186  144.899  167.229
  522.020    7.826    0.393    0.182  143.260  167.950
  522.270    7.567    0.397    0.159  140.648  168.774
  522.520    7.318    0.399    0.165  145.873  169.083
  522.770    7.089    0.402    0.171  147.210  169.393
  523.020    6.780    0.406    0.172  149.155  169.599
  523.270    6.642    0.419    0.159  146.421  169.806
  523.520    6.662    0.430    0.157  139.496  170.835
  523.770    6.831    0.420    0.193  136.155  171.248
  524.020    6.940    0.393    0.151  137.978  171.969
  524.270    6.988    0.400    0.130  140.591  172.689
  524.520    6.958    0.411    0.178  138.890  173.205
  524.770    5.930    0.409    0.188  140.652  174.337
  525.020    4.899    0.404    0.196  142.658  174.955
  525.270    3.528    0.412    0.189  142.719  175.573
  525.520    2.963    0.438    0.158  142.841  175.471
  525.770    2.430    0.458    0.191  145.028  177.427
  526.020    2.041    0.484    0.197  144.604  183.086
  526.270    1.862    0.556    0.219  140.837  188.744
  526.520    1.810    0.576    0.258  137.193  197.181
  526.770    1.849    0.573    0.240  140.474  194.507
  527.020    2.163    0.560    0.223  144.119  189.467
  527.270    2.768    0.548    0.189  146.550  183.707
  527.520    3.568    0.554    0.202  147.037  180.827
  527.770    4.516    0.564    0.204  143.210  178.976
  528.020    5.490    0.538    0.210  136.284  173.010
  528.270    5.838    0.459    0.167  131.121  170.130
  528.520    5.394    0.401    0.120  126.018  177.950
  528.770    5.254    0.388    0.143  138.108  183.300
  529.020    5.368    0.426    0.174  143.151  182.581
  529.270    5.846    0.431    0.176  146.918  180.215
  529.520    6.617    0.432    0.156  152.265  177.130
  529.770    7.435    0.447    0.161  152.630  172.810
  530.020    8.891    0.423    0.141  144.793  169.416
  530.270   10.027    0.363    0.124  135.316  166.947
  530.520   10.763    0.335    0.109  131.003  170.652
  530.770   11.055    0.373    0.147  130.761  174.253
  531.020   10.869    0.389    0.115  121.648  170.756
  531.270   10.282    0.323    0.080  112.536  168.391
  531.520    9.656    0.323    0.074  121.406  166.643
  531.770    8.474    0.347    0.108  133.800  166.747
  532.020    7.065    0.364    0.132  136.352  167.570
  532.270    5.956    0.375    0.141  143.340  169.011
  532.520    5.472    0.394    0.164  146.135  169.938
  532.770    5.252    0.406    0.161  146.135  170.556
