~VERSION INFORMATION
 VERS.                 2.0:   CWLS LOG ASCII STANDARD -VERSION 2.0
 WRAP.                  NO:   ONE LINE PER DEPTH STEP
~WELL INFORMATION BLOCK
#MNEM.UNIT           DATA                    DESCRIPTION OF MNEMONIC
#---------    -------------------            -------------------------------
# Generated from Intellog Unique Number	CW_70_72/WELL/1040
NULL.         -999.25                        : NULL_VALUE
WELL.         BRASCAN AMOCO MEYER 10-18      : Well_name    - WELL              
LOC .         10-18-071-25W4                 : Location     - LOCATION          
UWI .         00/10-18-071-25W4/0            : Uwi          - UNIQUE WELL ID    
ENTR.         JAYE                           : Entered      - ENTERED BY        
SRVC.         SCHLUMBERGER                   : Scn          - SERVICE COMPANY   
DATE.         25 NOV 73                      : Date         - LOG DATE          
STRT.M        435.864                        : top_depth    - START DEPTH       
STOP.M        646.114                        : bot_depth    - STOP DEPTH        
STEP.M        0.25                           : increment    - STEP LENGTH       
~CURVE INFORMATION BLOCK
#MNEM UNIT       ERCB CURVE CODE    CURVE DESCRIPTION
#-----------   ------------------   ----------------------------------
DEPT.M        00 001 00 00         : DEPTH        - DEPTH                       
DPHI.V/V      00 890 00 00         : PHID         - DENSITY POROSITY (SANDSTONE)
NPHI.V/V      00 330 00 00         : PHIN         - NEUTRON POROSITY (SANDSTONE)
GR  .API      00 310 00 00         : GR           - GAMMA RAY                   
CALI.MM       00 280 01 00         : CAL          - CALIPER                     
ILD .OHMM     00 120 00 00         : RESD         - DEEP RESISTIVITY (DIL)      
~PARAMETER INFORMATION       
#MNEM.UNIT           DATA             DESCRIPTION OF MNEMONIC
#---------         -----------     ------------------------------
GL  .M        609.905              : gl           - GROUND LEVEL ELEVATION      
EREF.M        612.953              : kb           - ELEVATION OF DEPTH REFERENCE
DATM.M        609.905              : datum        - DATUM ELEVATION             
TDD .M        644.652              : tdd          - TOTAL DEPTH DRILLER         
RUN .         ONE                  : Run          - RUN NUMBER                  
MATR.         SANDSTONE            : Logunit      - NEUTRON MATRIX              
TMAX.C        28.8889              : BHT          - MAXIMUM RECORDED TEMPERATURE
BHTD.M        645.566              : BHTDEP       - MAXIMUM RECORDED TEMPERATURE
RMT .C        20                   : MDTP         - TEMPERATURE OF MUD          
MUDD.KG/M     0                    : MWT          - MUD DENSITY                 
NEUT.         1                    : NEUTRON      - NEUTRON TYPE                
RESI.         0                    : RESIST       - RESISTIVITY TYPE            
RM  .OHMM     2.72                 : RM           - RESISTIVITY OF MUD          
RMC .OHMM     0                    : RMC          - RESISTIVITY OF MUD CAKE     
RMF .OHMM     2.56                 : RMF          - RESISTIVITY OF MUD FILTRATE 
SUFT.C        0                    : SUFT         - SURFACE TEMPERATURE         
~A  DEPTH     PHID     PHIN       GR      CAL     RESD
# ...
  472.364    0.195    0.480   72.730  163.951    4.434
  472.614    0.192    0.486   70.143  165.421    4.715
  472.864    0.206    0.493   68.829  163.504    5.089
  473.114    0.228    0.473   68.121  159.329    5.178
  473.364    0.281    0.453   62.808  155.464    4.995
  473.614    0.295    0.353   56.161  153.138    4.628
  473.864    0.287    0.362   59.334  152.353    4.311
  474.114    0.284    0.365   59.291  152.591    3.971
  474.364    0.280    0.362   59.736  153.238    3.546
  474.614    0.275    0.368   60.482  154.500    3.178
  474.864    0.267    0.387   63.471  154.944    2.961
  475.114    0.269    0.413   63.853  154.873    2.925
  475.364    0.265    0.424   60.055  154.806    3.026
  475.614    0.258    0.422   59.288  154.633    3.278
  475.864    0.237    0.404   59.852  153.536    3.623
  476.114    0.220    0.379   58.780  148.643    4.155
  476.364    0.200    0.344   55.589  151.242    4.729
  476.614    0.176    0.315   53.427  156.407    4.957
  476.864    0.151    0.290   52.538  157.366    4.861
  477.114    0.131    0.273   51.042  157.810    4.655
  477.364    0.166    0.293   52.456  157.435    4.280
  477.614    0.207    0.398   56.352  157.877    3.872
  477.864    0.240    0.426   59.769  158.111    3.522
  478.114    0.248    0.445   60.452  157.221    3.360
  478.364    0.243    0.452   58.411  152.533    3.241
  478.614    0.264    0.449   59.036  149.692    3.179
  478.864    0.279    0.427   56.935  155.476    3.205
  479.114    0.279    0.408   57.745  158.178    3.279
  479.364    0.270    0.398   58.370  157.900    3.380
  479.614    0.260    0.404   57.602  157.320    3.503
  479.864    0.268    0.411   56.407  156.734    3.691
  480.114    0.277    0.417   55.881  156.256    3.854
  480.364    0.274    0.420   58.386  156.084    4.016
  480.614    0.266    0.427   56.709  154.577    4.079
  480.864    0.276    0.442   54.001  155.740    4.038
  481.114    0.287    0.444   52.688  157.104    3.909
  481.364    0.294    0.431   53.798  156.932    3.785
  481.614    0.292    0.416   52.726  149.473    3.658
  481.864    0.284    0.420   52.928  146.121    3.549
  482.114    0.273    0.411   55.371  146.050    3.474
  482.364    0.267    0.400   54.784  146.600    3.414
  482.614    0.263    0.385   53.410  147.862    3.397
  482.864    0.263    0.398   53.732  151.593    3.375
  483.114    0.269    0.416   55.266  156.958    3.378
  483.364    0.282    0.427   57.772  156.272    3.412
  483.614    0.290    0.436   59.184  145.326    3.465
  483.864    0.288    0.435   57.629  144.229    3.494
  484.114    0.282    0.419   55.770  149.804    3.452
  484.364    0.285    0.420   56.093  154.765    3.281
  484.614    0.285    0.442   55.929  155.720    3.102
  484.864    0.284    0.453   55.223  155.138    2.922
  485.114    0.281    0.437   53.365  154.045    2.793
  485.364    0.272    0.411   48.594  151.922    2.724
  485.614    0.281    0.398   49.645  151.851    2.691
  485.864    0.283    0.411   52.453  155.270    2.709
  486.114    0.282    0.423   54.835  155.919    2.746
  486.364    0.278    0.440   56.128  155.956    2.814
  486.614    0.269    0.453   56.390  154.856    2.939
  486.864    0.261    0.468   56.712  149.555    3.079
  487.114    0.247    0.452   56.307  146.818    3.257
  487.364    0.227    0.423   55.296  147.260    3.527
  487.614    0.211    0.361   52.951  150.272    3.935
  487.864    0.193    0.338   52.365  152.865    4.397
  488.114    0.173    0.330   56.566  155.260    5.080
  488.364    0.146    0.352   59.980  155.908    6.066
  488.614    0.148    0.387   57.515  155.948    7.085
  488.864    0.141    0.367   54.324  156.077    8.306
  489.114    0.130    0.335   51.493  156.012    9.471
  489.364    0.129    0.291   51.270  156.043   10.782
  489.614    0.120    0.263   54.684  156.075   10.594
  489.864    0.105    0.279   53.733  155.799    7.587
  490.114    0.107    0.303   56.663  155.527    6.248
  490.364    0.134    0.306   62.440  154.530    5.338
  490.614    0.163    0.326   68.157  152.821    4.445
  490.864    0.188    0.367   73.812  148.955    3.777
  491.114    0.222    0.405   77.105  147.242    3.404
  491.364    0.223    0.414   79.245  146.145    3.407
  491.614    0.212    0.413   80.657  146.493    3.570
  491.864    0.195    0.408   79.586  148.882    3.838
  492.114    0.175    0.413   86.029  153.329    4.165
  492.364    0.173    0.434   84.898  158.285    4.382
  492.614    0.176    0.432   82.251  161.498    4.507
  492.864    0.180    0.425   80.634  162.869    4.595
  493.114    0.181    0.424   78.775  163.105    4.710
  493.364    0.180    0.445   75.402  162.732    4.838
  493.614    0.183    0.449   80.511  162.249    4.921
  493.864    0.175    0.443   82.047  161.664    4.998
  494.114    0.164    0.432   85.883  160.776    5.067
  494.364    0.158    0.425   86.872  164.298    5.204
  494.614    0.167    0.437   90.892  167.408    5.275
  494.864    0.184    0.437   86.063  166.420    5.319
  495.114    0.181    0.420   87.962  165.833    5.304
  495.364    0.167    0.416   90.406  164.839    5.240
  495.614    0.156    0.434   90.971  163.748    5.159
  495.864    0.146    0.433   92.021  162.650    5.125
  496.114    0.154    0.423   95.554  163.198    5.073
  496.364    0.146    0.406   93.030  164.359    5.002
  496.614    0.156    0.403   90.503  165.209    4.997
  496.864    0.154    0.414   90.523  164.322    5.001
  497.114    0.147    0.426   93.571  161.478    4.987
  497.364    0.139    0.435   95.470  160.485    4.946
  497.614    0.132    0.438   95.307  161.756    4.958
  497.864    0.131    0.418   99.388  163.733    4.981
  498.114    0.144    0.402  103.166  164.998    5.023
  498.364    0.140    0.420  100.882  165.339    5.044
  498.614    0.144    0.420   99.932  165.268    5.095
  498.864    0.158    0.416   96.193  164.380    5.063
  499.114    0.157    0.411   95.304  160.717    5.048
  499.364    0.148    0.402   97.506  158.598    5.024
  499.614    0.140    0.392   98.555  160.783    4.954
  499.864    0.143    0.426   94.999  167.282    4.886
  500.114    0.142    0.428   94.111  169.882    4.714
  500.364    0.154    0.427   93.280  168.169    4.505
  500.614    0.192    0.431   91.422  170.769    4.159
  500.864    0.211    0.435   84.472  158.794    3.768
  501.114    0.223    0.455   85.460  154.106    3.459
  501.364    0.233    0.475   86.874  153.525    3.430
  501.614    0.247    0.456   83.742  153.664    3.568
  501.864    0.278    0.467   75.216  153.795    3.959
  502.114    0.283    0.477   75.175  154.136    4.264
  502.364    0.282    0.461   79.498  154.683    4.560
  502.614    0.275    0.448   79.033  164.467    4.840
  502.864    0.280    0.550   72.809  162.753    5.195
  503.114    0.280    0.528   72.830  159.605    5.276
  503.364    0.261    0.470   78.000  162.408    4.997
  503.614    0.235    0.438   83.898  166.854    4.153
  503.864    0.241    0.405   74.403  162.063    3.291
  504.114    0.262    0.409   67.937  154.195    2.822
  504.364    0.280    0.443   61.474  153.408    2.492
  504.614    0.288    0.449   57.918  160.422    2.305
  504.864    0.276    0.438   54.847  160.246    2.223
  505.114    0.267    0.419   53.047  152.377    2.201
  505.364    0.265    0.408   52.096  149.642    2.207
  505.614    0.266    0.409   55.328  152.650    2.237
  505.864    0.263    0.409   61.166  154.327    2.401
  506.114    0.254    0.402   63.670  153.230    2.544
  506.364    0.248    0.399   64.780  151.108    2.776
  506.614    0.235    0.397   68.012  150.319    3.018
  506.864    0.214    0.384   69.607  152.814    3.318
  507.114    0.198    0.348   67.263  152.953    3.567
  507.364    0.187    0.325   65.162  153.603    3.906
  507.614    0.194    0.370   64.939  154.352    4.139
  507.864    0.212    0.402   64.292  148.946    4.037
  508.114    0.229    0.400   63.280  149.389    3.672
  508.364    0.234    0.395   62.512  153.525    3.303
  508.614    0.241    0.430   63.078  156.535    3.386
