~VERSION INFORMATION
 VERS.                 2.0:   CWLS LOG ASCII STANDARD -VERSION 2.0
 WRAP.                  NO:   ONE LINE PER DEPTH STEP
~WELL INFORMATION BLOCK
#MNEM.UNIT           DATA                    DESCRIPTION OF MNEMONIC
#---------    -------------------            -------------------------------
# Generated from Intellog Unique Number	CX_WELLS/WELL/3030
WELL.         LACANA                         : Well_name    - WELL
LOC .         00/10-03-082-13W4/0            : Location     - LOCATION
UWI .         00/10-03-082-13W400            : Uwi          - UNIQUE WELL ID
ENTR.         T                              : Entered      - ENTERED BY
SRVC.         SCHLUMBERGER                   : Scn          - SERVICE COMPANY
STRT.M        225                            : top_depth    - START DEPTH
STOP.M        457                            : bot_depth    - STOP DEPTH
STEP.M        0.25                           : increment    - STEP LENGTH
 NULL. -999.2500:NULL Value
~CURVE INFORMATION BLOCK
#MNEM UNIT       ERCB CURVE CODE    CURVE DESCRIPTION
#-----------   ------------------   ----------------------------------
DEPT.M        00 001 00 00         : DEPTH        - DEPTH
GR  .API      00 310 00 00         : GR           - GAMMA RAY
NPHI.V/V      00 330 00 00         : PHIN         - NEUTRON POROSITY (SANDSTONE)
DPHI.V/V      00 890 00 00         : PHID         - DENSITY POROSITY (SANDSTONE)
ILD .OHMM     00 120 00 00         : RESD         - DEEP RESISTIVITY (OTHER)
~PARAMETER INFORMATION
#MNEM.UNIT           DATA             DESCRIPTION OF MNEMONIC
#---------         -----------     ------------------------------
GL  .M        666.6                : gl           - GROUND LEVEL ELEVATION
EREF.M        669.8                : kb           - ELEVATION OF DEPTH REFERENCE
DATM.M        669.8                : datum        - DATUM ELEVATION
TDD .M        468                  : tdd          - TOTAL DEPTH DRILLER
RUN .         ONE                  : Run          - RUN NUMBER
ENG .         BILL                 : Engineer     - RECORDING ENGINEER
WIT .         JIM                  : Witness      - WITNESSED BY
MUD .         GEL                  : Mud_type     - MUD TYPE
MATR.         SANDSTONE            : Logunit      - NEUTRON MATRIX
TMAX.C        20                   : BHT          - MAXIMUM RECORDED TEMPERATURE
BHTD.M        468                  : BHTDEP       - MAXIMUM RECORDED TEMPERATURE
MATR.         1                    : LOGUNIT      - NEUTRON MATRIX
RMT .C        20                   : MDTP         - TEMPERATURE OF MUD
NEUT.         1                    : NEUTRON      - NEUTRON TYPE
RESI.         2.5                  : RESIST       - RESISTIVITY TYPE
RMC .OHMM     3.1                  : RMC          - RESISTIVITY OF MUD CAKE
RMF .OHMM     2.5                  : RMF          - RESISTIVITY OF MUD FILTRATE
SUFT.C        2                    : SUFT         - SURFACE TEMPERATURE
~A  DEPTH       GR     PHIN     PHID     RESD
  225.000   99.309    0.452    0.219    3.601
  225.250  101.765    0.444    0.216    3.532
  225.500  102.372    0.433    0.219    3.398
  225.750  102.982    0.433    0.220    3.333
  226.000  102.972    0.437    0.220    3.269
  226.250   99.876    0.443    0.231    3.145
  226.500   98.016    0.449    0.236    3.084
  226.750   98.001    0.451    0.230    3.024
  227.000   97.992    0.454    0.231    2.966
  227.250   98.601    0.457    0.234    2.908
  227.500   99.211    0.458    0.237    2.906
  227.750   99.818    0.459    0.241    2.851
  228.000   99.192    0.464    0.243    2.849
  228.250   98.565    0.472    0.247    2.846
  228.500  101.021    0.490    0.246    2.844
  228.750  102.862    0.512    0.245    2.842
  229.000  104.086    0.515    0.247    2.840
  229.250  105.310    0.517    0.255    2.838
  229.500  105.300    0.517    0.258    2.890
  229.750  104.674    0.510    0.256    2.943
  230.000  101.580    0.499    0.234    2.997
  230.250   98.484    0.468    0.222    2.995
  230.500   97.855    0.468    0.218    2.993
  230.750  100.315    0.482    0.213    2.934
  231.000  101.537    0.487    0.209    2.932
  231.250  101.527    0.484    0.203    2.875
  231.500  101.518    0.463    0.203    2.873
  231.750  101.506    0.449    0.211    2.871
  232.000  101.501    0.447    0.217    2.923
  232.250  101.491    0.446    0.212    2.921
  232.500  101.482    0.446    0.211    3.031
  232.750  101.470    0.447    0.211    3.087
  233.000  101.460    0.449    0.210    3.144
  233.250  101.448    0.451    0.210    3.261
  233.500  102.058    0.454    0.213    3.260
  233.750  102.663    0.454    0.217    3.318
  234.000  103.272    0.454    0.221    3.380
  234.250  103.260    0.451    0.224    3.377
  234.500  103.251    0.450    0.213    3.312
  234.750  103.239    0.450    0.199    3.309
  235.000  103.231    0.453    0.199    3.308
  235.250  102.605    0.457    0.206    3.304
  235.500   97.663    0.455    0.218    3.366
  235.750   99.499    0.442    0.227    3.427
  236.000   98.873    0.433    0.228    3.488
  236.250   98.863    0.443    0.223    3.621
  236.500   96.389    0.451    0.221    3.687
  236.750   93.295    0.447    0.218    3.899
  237.000   89.584    0.438    0.219    4.617
  237.250   88.341    0.433    0.221    5.465
  237.500   88.946    0.427    0.222    6.002
  237.750   88.939    0.425    0.221    6.715
  238.000   88.924    0.421    0.220    7.102
  238.250   88.298    0.421    0.220    7.653
  238.500   87.671    0.422    0.220    7.793
  238.750   87.664    0.423    0.221    8.086
  239.000   87.655    0.423    0.226    8.233
  239.250   86.407    0.411    0.229    8.382
  239.500   86.402    0.403    0.231    8.534
  239.750   85.773    0.392    0.236    8.531
  240.000   85.766    0.386    0.226    8.525
  240.250   85.137    0.383    0.215    8.518
  240.500   85.125    0.381    0.214    8.512
  240.750   85.113    0.380    0.212    8.346
  241.000   85.108    0.378    0.210    8.343
  241.250   86.330    0.377    0.209    8.180
  241.500   86.937    0.377    0.207    8.020
  241.750   86.930    0.376    0.194    8.014
  242.000   86.304    0.374    0.198    8.009
  242.250   85.675    0.370    0.204    8.003
  242.500   85.665    0.370    0.185    7.997
  242.750   83.805    0.370    0.136    7.992
  243.000   80.090    0.370    0.191    8.138
  243.250   79.463    0.370    0.220    8.132
  243.500   80.075    0.372    0.228    8.281
  243.750   80.680    0.377    0.224    8.274
  244.000   80.673    0.386    0.223    8.268
  244.250   80.663    0.392    0.227    8.264
  244.500   80.037    0.386    0.231    8.257
  244.750   79.406    0.377    0.230    8.252
  245.000   78.777    0.375    0.228    8.090
  245.250   78.772    0.371    0.218    8.087
  245.500   78.763    0.369    0.213    8.078
  245.750   79.987    0.370    0.207    8.076
  246.000   83.056    0.375    0.203    8.069
  246.250   84.285    0.380    0.205    7.912
  246.500   87.972    0.384    0.210    7.613
  246.750   88.584    0.391    0.211    7.189
  247.000   89.189    0.396    0.210    6.917
  247.250   90.413    0.403    0.210    6.915
  247.500   92.251    0.399    0.211    6.910
  247.750   92.242    0.391    0.211    7.037
  248.000   91.001    0.396    0.210    7.300
  248.250   89.757    0.401    0.210    7.433
  248.500   91.598    0.404    0.217    7.429
  248.750   92.820    0.404    0.221    7.564
  249.000   89.729    0.400    0.227    7.558
  249.250   86.018    0.390    0.222    7.553
  249.500   87.854    0.384    0.227    7.548
  249.750   89.698    0.382    0.234    7.544
  250.000   89.683    0.377    0.231    7.538
  250.250   89.059    0.372    0.223    7.531
  250.500   88.435    0.376    0.212    7.527
  250.750   88.425    0.383    0.198    7.527
  251.000   89.033    0.388    0.184    7.513
  251.250   88.404    0.392    0.176    7.509
  251.500   88.397    0.395    0.183    7.647
  251.750   87.770    0.398    0.194    7.788
  252.000   88.375    0.394    0.190    7.783
  252.250   89.597    0.393    0.189    7.924
  252.500   90.821    0.393    0.188    7.917
  252.750   92.045    0.394    0.189    7.914
  253.000   92.650    0.395    0.192    8.058
  253.250   92.028    0.397    0.197    8.358
  253.500   91.399    0.397    0.204    8.514
  253.750   90.156    0.394    0.223    9.173
  254.000   88.296    0.393    0.250    9.702
  254.250   87.050    0.389    0.263   10.854
  254.500   88.277    0.388    0.267   11.920
  254.750   85.800    0.387    0.269   13.088
  255.000   77.155    0.382    0.279   14.103
  255.250   66.042    0.375    0.290   14.088
  255.500   51.229    0.359    0.291   13.563
  255.750   41.967    0.359    0.274   12.328
  256.000   57.378    0.360    0.260   12.323
  256.250   64.765    0.360    0.256   12.083
  256.500   65.373    0.358    0.249   12.076
  256.750   72.767    0.368    0.239   12.068
  257.000   83.244    0.374    0.269   12.059
  257.250   81.379    0.382    0.283   12.051
  257.500   79.521    0.380    0.292   11.813
  257.750   79.509    0.375    0.299   11.809
  258.000   81.355    0.369    0.293   11.363
  258.250   85.663    0.376    0.272   10.730
  258.500   89.971    0.385    0.267    9.757
  258.750   94.896    0.390    0.261    9.216
  259.000  103.520    0.393    0.244    8.381
  259.250  107.828    0.397    0.192    7.622
  259.500  110.283    0.406    0.180    6.930
  259.750  111.510    0.409    0.199    6.423
  260.000  113.968    0.419    0.189    6.181
  260.250  115.809    0.435    0.159    6.174
  260.500  115.799    0.441    0.131    6.171
  260.750  116.404    0.438    0.121    6.053
  261.000  115.777    0.405    0.156    6.047
  261.250  114.534    0.402    0.142    5.931
  261.500  113.905    0.405    0.123    5.707
  261.750  116.363    0.408    0.150    5.288
  262.000  118.204    0.412    0.168    4.809
  262.250  119.428    0.438    0.176    4.542
  262.500  120.035    0.460    0.196    4.209
  262.750  121.262    0.467    0.203    4.367
  263.000  123.098    0.474    0.207    4.796
  263.250  123.710    0.477    0.219    5.469
  263.500  124.931    0.472    0.228    6.119
  263.750  123.071    0.449    0.236    7.110
  264.000  116.277    0.443    0.239    7.956
  264.250  110.099    0.426    0.248    9.418
  264.500  101.454    0.409    0.253   10.341
  264.750   95.276    0.389    0.243   10.731
  265.000   97.733    0.381    0.237   10.723
  265.250  100.186    0.376    0.241   10.716
  265.500  100.182    0.376    0.244   10.309
  265.750   96.471    0.377    0.248    9.922
  266.000   90.291    0.382    0.247    9.195
  266.250   87.197    0.390    0.214    8.850
  266.500   90.272    0.397    0.186    8.843
  266.750  101.365    0.392    0.185    8.838
  267.000  112.456    0.383    0.212    8.830
  267.250  114.299    0.370    0.221    9.336
  267.500  116.757    0.357    0.234    9.872
  267.750  116.742    0.358    0.239   10.246
  268.000  115.501    0.365    0.243   10.431
  268.250  113.027    0.370    0.245   10.624
