~VERSION INFORMATION
 VERS.                 2.0:   CWLS LOG ASCII STANDARD -VERSION 2.0
 WRAP.                  NO:   ONE LINE PER DEPTH STEP
~WELL INFORMATION BLOCK
#MNEM.UNIT           DATA                    DESCRIPTION OF MNEMONIC
#---------    -------------------            -------------------------------
# Generated from Intellog Unique Number	CS_73_76/WELL/3250
WELL.         CANADIAN SUPERIOR OIL          : Well_name    - WELL
LOC .         00/10-30-076-14W4/0            : Location     - LOCATION
UWI .         00/10-30-076-14W4/0            : Uwi          - UNIQUE WELL ID
ENTR.         SP                             : Entered      - ENTERED BY
SRVC.         SCHLUMBERGER                   : Scn          - SERVICE COMPANY
STRT.M        298.704                        : top_depth    - START DEPTH
STOP.M        526.954                        : bot_depth    - STOP DEPTH
STEP.M        0.25                           : increment    - STEP LENGTH
 NULL. -999.2500:NULL Value
~CURVE INFORMATION BLOCK
#MNEM UNIT       ERCB CURVE CODE    CURVE DESCRIPTION
#-----------   ------------------   ----------------------------------
DEPT.M        00 001 00 00         : DEPTH        - DEPTH
GR  .API      00 310 00 00         : GR           - GAMMA RAY
DPHI.V/V      00 890 00 00         : PHID         - DENSITY POROSITY (SANDSTONE)
NPHI.V/V      00 330 00 00         : PHIN         - NEUTRON POROSITY (SANDSTONE)
ILD .OHMM     00 120 00 00         : RESD         - DEEP RESISTIVITY (DIL)
~PARAMETER INFORMATION
#MNEM.UNIT           DATA             DESCRIPTION OF MNEMONIC
#---------         -----------     ------------------------------
GL  .M        681.076              : gl           - GROUND LEVEL ELEVATION
EREF.M        682.752              : kb           - ELEVATION OF DEPTH REFERENCE
DATM.M        681.076              : datum        - DATUM ELEVATION
TDD .M        549.25               : tdd          - TOTAL DEPTH DRILLER
RUN .         ONE                  : Run          - RUN NUMBER
ENG .         BILL                 : Engineer     - RECORDING ENGINEER
WIT .         JIM                  : Witness      - WITNESSED BY
MUD .         GEL                  : Mud_type     - MUD TYPE
MATR.         SANDSTONE            : Logunit      - NEUTRON MATRIX
TMAX.C        24.4444              : BHT          - MAXIMUM RECORDED TEMPERATURE
BHTD.M        549.25               : BHTDEP       - MAXIMUM RECORDED TEMPERATURE
MATR.         1                    : LOGUNIT      - NEUTRON MATRIX
RMT .C        25                   : MDTP         - TEMPERATURE OF MUD
NEUT.         1                    : NEUTRON      - NEUTRON TYPE
RESI.         0                    : RESIST       - RESISTIVITY TYPE
RMC .OHMM     0.25                 : RMC          - RESISTIVITY OF MUD CAKE
RMF .OHMM     0.25                 : RMF          - RESISTIVITY OF MUD FILTRATE
SUFT.C        15                   : SUFT         - SURFACE TEMPERATURE
~A  DEPTH       GR     PHID     PHIN     RESD
  298.704   97.018    0.263    0.533    3.076
  298.954   92.130    0.269    0.560    3.077
  299.204   91.072    0.269    0.578    3.083
  299.454   93.285    0.269    0.586    3.243
  299.704   95.050    0.279    0.594    3.380
  299.954   94.385    0.286    0.585    3.512
  300.204   94.969    0.274    0.563    3.565
  300.454   95.778    0.270    0.565    3.564
  300.704   95.716    0.260    0.559    3.563
  300.954   94.299    0.246    0.572    3.561
  301.204   92.986    0.238    0.563    3.538
  301.454   95.787    0.250    0.582    3.499
  301.704   97.794    0.244    0.603    3.451
  301.954   97.902    0.248    0.597    3.430
  302.204   96.920    0.255    0.575    3.496
  302.454   95.627    0.235    0.574    3.560
  302.704   95.901    0.225    0.563    3.882
  302.954   97.372    0.230    0.551    4.329
  303.204   99.100    0.234    0.552    4.756
  303.454   98.486    0.223    0.556    5.252
  303.704   95.475    0.229    0.563    6.107
  303.954   92.116    0.262    0.558    7.085
  304.204   86.475    0.285    0.527    8.218
  304.454   83.510    0.286    0.504    8.866
  304.704   80.785    0.291    0.494    9.121
  304.954   78.319    0.305    0.495    9.110
  305.204   78.927    0.285    0.446    8.993
  305.454   84.098    0.297    0.443    8.912
  305.704   85.935    0.290    0.438    8.631
  305.954   88.936    0.270    0.429    8.473
  306.204   90.246    0.253    0.424    8.074
  306.454   92.274    0.245    0.439    7.857
  306.704   93.748    0.239    0.451    7.975
  306.954   93.473    0.234    0.457    8.486
  307.204   88.977    0.251    0.467    8.819
  307.454   83.823    0.275    0.462    9.714
  307.704   77.367    0.299    0.462   10.380
  307.954   69.403    0.324    0.469   10.692
  308.204   65.303    0.344    0.473   10.699
  308.454   66.262    0.336    0.459   10.181
  308.704   69.150    0.324    0.452    9.414
  308.954   73.971    0.318    0.464    8.407
  309.204   82.760    0.311    0.470    7.465
  309.454   90.857    0.284    0.467    7.009
  309.704  101.301    0.250    0.461    6.935
  309.954  100.942    0.243    0.473    7.486
  310.204   93.809    0.268    0.482    8.509
  310.454   87.228    0.299    0.484    9.470
  310.704   79.609    0.332    0.497    9.742
  310.954   73.424    0.348    0.475    9.993
  311.204   73.952    0.336    0.461    9.977
  311.454   76.254    0.324    0.465    9.976
  311.704   79.379    0.331    0.451    9.973
  311.954   82.194    0.328    0.456    9.982
  312.204   83.690    0.318    0.462    9.782
  312.454   87.354    0.294    0.462    9.826
  312.704   88.675    0.304    0.454    9.980
  312.954   89.647    0.311    0.446    9.975
  313.204   90.653    0.301    0.454    9.974
  313.454   92.676    0.309    0.459    9.973
  313.704   92.042    0.315    0.459    9.973
  313.954   88.658    0.316    0.460    9.972
  314.204   86.618    0.325    0.464    9.972
  314.454   88.696    0.326    0.464    9.971
  314.704   89.277    0.310    0.474    9.971
  314.954   87.869    0.300    0.476    9.970
  315.204   81.961    0.292    0.459    9.970
  315.454   74.249    0.300    0.461    9.970
  315.704   68.046    0.298    0.446    9.969
  315.954   59.739    0.308    0.436    9.969
  316.204   50.821    0.314    0.439    9.969
  316.454   42.787    0.322    0.435    9.973
  316.704   37.862    0.334    0.428    9.982
  316.954   35.831    0.337    0.418   10.159
  317.204   35.609    0.338    0.411   10.097
  317.454   36.222    0.340    0.400    9.779
  317.704   37.926    0.331    0.392    9.499
  317.954   44.131    0.316    0.386    8.947
  318.204   52.628    0.304    0.382    8.156
  318.454   57.816    0.284    0.386    7.601
  318.704   75.058    0.242    0.410    6.909
  318.954   95.044    0.216    0.426    6.213
  319.204  101.888    0.192    0.445    5.681
  319.454  104.849    0.207    0.463    5.205
  319.704  108.298    0.215    0.485    4.992
  319.954  111.285    0.198    0.494    4.717
  320.204  111.758    0.204    0.512    4.681
  320.454  113.705    0.186    0.537    4.680
  320.704  115.560    0.200    0.552    4.675
  320.954  115.814    0.199    0.568    4.766
  321.204  116.374    0.198    0.579    4.919
  321.454  115.158    0.203    0.562    4.942
  321.704  115.734    0.185    0.543    4.949
  321.954  114.820    0.161    0.533    4.816
  322.204  113.361    0.133    0.532    4.444
  322.454  113.861    0.128    0.541    4.006
  322.704  116.458    0.197    0.570    3.640
  322.954  116.096    0.209    0.582    3.390
  323.204  113.607    0.223    0.580    3.582
  323.454  112.974    0.213    0.566    4.146
  323.704  116.379    0.193    0.558    5.049
  323.954  118.297    0.224    0.551    5.713
  324.204  112.482    0.261    0.553    6.833
  324.454  109.729    0.270    0.535    7.960
  324.704  109.303    0.271    0.481    8.563
  324.954  108.758    0.246    0.459    8.914
  325.204  104.574    0.241    0.475    8.918
  325.454  101.230    0.248    0.479    8.662
  325.704   98.614    0.252    0.481    8.412
  325.954   94.056    0.269    0.480    8.028
  326.204   90.673    0.277    0.467    7.714
  326.454   95.643    0.292    0.459    7.406
  326.704  102.296    0.283    0.460    7.494
  326.954  106.619    0.228    0.475    7.954
  327.204  110.821    0.196    0.485    8.275
  327.454  109.630    0.210    0.495    8.830
  327.704  105.288    0.235    0.500    9.445
  327.954  101.978    0.260    0.462    9.736
  328.204  100.626    0.255    0.453    9.963
  328.454  105.057    0.247    0.440    9.689
  328.704  104.233    0.257    0.445    9.406
  328.954  105.109    0.270    0.457    9.009
  329.204  106.039    0.272    0.467    8.405
  329.454  105.033    0.260    0.475    8.036
  329.704  105.134    0.242    0.481    7.751
  329.954  107.807    0.248    0.489    7.831
  330.204  110.056    0.261    0.495    7.812
  330.454  113.884    0.266    0.496    8.034
  330.704  116.658    0.269    0.485    8.116
  330.954  111.973    0.280    0.480    8.721
  331.204  102.911    0.282    0.480    9.317
  331.454   96.273    0.264    0.480    9.900
  331.704   88.041    0.289    0.484   10.512
  331.954   77.631    0.313    0.495   11.150
  332.204   71.328    0.333    0.489   11.471
  332.454   66.742    0.330    0.477   11.745
  332.704   62.846    0.348    0.463   11.721
  332.954   60.307    0.356    0.459   11.337
  333.204   58.485    0.360    0.456   11.234
  333.454   58.203    0.355    0.468   11.098
  333.704   56.794    0.349    0.485   10.849
  333.954   55.620    0.337    0.488   11.039
  334.204   55.193    0.337    0.488   11.281
  334.454   55.192    0.329    0.479   11.289
  334.704   55.207    0.327    0.473   11.290
  334.954   54.654    0.336    0.488   11.503
  335.204   54.873    0.344    0.492   11.274
  335.454   55.125    0.347    0.492   11.298
  335.704   55.636    0.345    0.494   11.326
  335.954   55.852    0.344    0.491   10.650
  336.204   57.542    0.343    0.490    9.720
  336.454   59.299    0.339    0.485    8.477
  336.704   62.620    0.330    0.484    7.363
  336.954   69.856    0.317    0.487    6.391
  337.204   76.595    0.314    0.474    5.648
  337.454   84.997    0.312    0.465    5.305
  337.704   94.399    0.289    0.484    5.684
  337.954   97.721    0.273    0.517    6.045
  338.204   97.190    0.272    0.533    6.236
  338.454   98.134    0.279    0.526    6.038
  338.704  100.437    0.291    0.515    5.925
  338.954  102.673    0.277    0.499    5.814
  339.204  102.677    0.260    0.487    6.195
  339.454  101.965    0.245    0.492    6.549
  339.704  101.388    0.254    0.502    7.133
  339.954   95.400    0.259    0.509    7.947
  340.204   90.898    0.274    0.497    8.854
  340.454   84.224    0.285    0.480    9.367
  340.704   79.936    0.291    0.456    9.745
  340.954   70.905    0.286    0.454    9.917
  341.204   65.465    0.288    0.462    9.576
  341.454   56.255    0.295    0.445    9.557
  341.704   66.311    0.275    0.424    9.785
  341.954   72.144    0.251    0.433   10.415
