~VERSION INFORMATION
 VERS.                 2.0:   CWLS LOG ASCII STANDARD -VERSION 2.0
 WRAP.                  NO:   ONE LINE PER DEPTH STEP
~WELL INFORMATION BLOCK
#MNEM.UNIT           DATA                    DESCRIPTION OF MNEMONIC
#---------    -------------------            -------------------------------
# Generated from Intellog Unique Number	CW_73_75/WELL/994
LOC .         00/10-27-075-01W5/0            : Location     - LOCATION
UWI .         00/10-27-075-01W5/0            : Uwi          - UNIQUE WELL ID
ENTR.         JAYE                           : Entered      - ENTERED BY
SRVC.         SCHLUMBERGER                   : Scn          - SERVICE COMPANY
DATE.         5 JAN 76                       : Date         - LOG DATE
STRT.M        548.64                         : top_depth    - START DEPTH
STOP.M        749.89                         : bot_depth    - STOP DEPTH
STEP.M        0.25                           : increment    - STEP LENGTH
 NULL. -999.2500:NULL Value
~CURVE INFORMATION BLOCK
#MNEM UNIT       ERCB CURVE CODE    CURVE DESCRIPTION
#-----------   ------------------   ----------------------------------
DEPT.M        00 001 00 00         : DEPTH        - DEPTH
ILD .OHMM     00 120 00 00         : RESD         - DEEP RESISTIVITY (DIL)
NPHI.V/V      00 330 00 00         : PHIN         - NEUTRON POROSITY (SANDSTONE)
DPHI.V/V      00 890 00 00         : PHID         - DENSITY POROSITY (SANDSTONE)
GR  .API      00 310 00 00         : GR           - GAMMA RAY
CALI.MM       00 280 01 00         : CAL          - CALIPER
~PARAMETER INFORMATION
#MNEM.UNIT           DATA             DESCRIPTION OF MNEMONIC
#---------         -----------     ------------------------------
GL  .M        826.465              : gl           - GROUND LEVEL ELEVATION
EREF.M        830.58               : kb           - ELEVATION OF DEPTH REFERENCE
DATM.M        826.465              : datum        - DATUM ELEVATION
TDD .M        0                    : tdd          - TOTAL DEPTH DRILLER
RUN .         ONE                  : Run          - RUN NUMBER
MATR.         SANDSTONE            : Logunit      - NEUTRON MATRIX
TMAX.C        -17.7778             : BHT          - MAXIMUM RECORDED TEMPERATURE
BHTD.M        0                    : BHTDEP       - MAXIMUM RECORDED TEMPERATURE
RMT .C        -17.7778             : MDTP         - TEMPERATURE OF MUD
MUDD.KG/M     0                    : MWT          - MUD DENSITY
NEUT.         1                    : NEUTRON      - NEUTRON TYPE
RESI.         0                    : RESIST       - RESISTIVITY TYPE
RM  .OHMM     0                    : RM           - RESISTIVITY OF MUD
RMC .OHMM     0                    : RMC          - RESISTIVITY OF MUD CAKE
RMF .OHMM     0                    : RMF          - RESISTIVITY OF MUD FILTRATE
SUFT.C        -17.7778             : SUFT         - SURFACE TEMPERATURE
~A  DEPTH     RESD     PHIN     PHID       GR      CAL
# ...
  621.640    6.511    0.393    0.113   77.500  225.171
  621.890    6.484    0.402    0.126   80.268  227.376
  622.140    6.446    0.418    0.116   78.713  230.928
  622.390    6.455    0.392    0.102   74.484  234.789
  622.640    6.477    0.382    0.108   76.338  232.266
  622.890    6.545    0.387    0.119   80.382  227.676
  623.140    6.627    0.404    0.110   82.663  226.808
  623.390    6.635    0.403    0.113   82.517  227.466
  623.640    6.585    0.395    0.118   82.238  228.344
  623.890    6.594    0.390    0.110   82.263  228.913
  624.140    6.603    0.400    0.108   81.807  229.162
  624.390    6.783    0.405    0.116   80.132  229.314
  624.640    7.364    0.397    0.084   75.172  229.572
  624.890    8.112    0.339    0.079   65.467  229.102
  625.140    8.663    0.299    0.034   58.926  228.229
  625.390    8.753    0.276   -0.003   65.953  227.969
  625.640    8.101    0.340    0.024   72.855  228.013
  625.890    7.160    0.362    0.111   75.745  228.682
  626.140    6.342    0.399    0.117   76.627  229.868
  626.390    5.901    0.396    0.087   78.600  231.458
  626.640    5.717    0.417    0.089   82.097  235.218
  626.890    6.038    0.430    0.115   84.560  240.628
  627.140    6.700    0.380    0.144   79.905  232.432
  627.390    7.328    0.343    0.078   70.505  227.535
  627.640    7.669    0.386    0.087   74.063  225.629
  627.890    7.750    0.422    0.081   77.317  222.904
  628.140    7.566    0.397    0.101   75.823  220.885
  628.390    7.368    0.385    0.137   70.499  216.503
  628.640    7.076    0.384    0.131   69.190  214.081
  628.890    6.970    0.397    0.125   70.374  217.334
  629.140    6.927    0.409    0.140   72.106  220.573
  629.390    6.749    0.403    0.120   73.839  225.559
  629.640    6.431    0.395    0.127   71.374  226.540
  629.890    6.061    0.404    0.134   72.316  226.071
  630.140    5.873    0.398    0.129   74.964  224.684
  630.390    5.838    0.381    0.122   77.307  223.490
  630.640    6.338    0.406    0.138   77.879  222.412
  630.890    7.312    0.419    0.112   73.956  221.428
  631.140    8.417    0.387    0.134   69.846  220.147
  631.390    9.795    0.358    0.136   63.550  219.570
  631.640   11.132    0.342    0.132   58.285  219.412
  631.890   11.650    0.351    0.130   54.482  218.538
  632.140   11.732    0.370    0.158   53.902  217.140
  632.390   11.660    0.386    0.200   54.114  215.337
  632.640   11.033    0.400    0.192   54.447  213.846
  632.890    9.987    0.413    0.219   55.270  213.479
  633.140    8.844    0.427    0.250   59.372  213.322
  633.390    8.214    0.441    0.253   57.883  213.681
  633.640    8.078    0.457    0.247   54.746  215.076
  633.890    8.043    0.417    0.230   52.099  216.559
  634.140    8.010    0.393    0.212   52.068  218.367
  634.390    7.704    0.413    0.224   54.285  219.853
  634.640    7.156    0.431    0.253   55.718  221.860
  634.890    6.958    0.444    0.258   56.840  223.762
  635.140    7.540    0.424    0.240   59.243  225.770
  635.390    8.586    0.390    0.194   60.182  237.046
  635.640    9.510    0.366    0.161   55.528  241.629
  635.890   11.674    0.341    0.114   50.811  225.196
  636.140   12.443    0.310    0.063   50.535  220.814
  636.390   11.163    0.322    0.068   52.390  220.045
  636.640    9.939    0.353    0.118   56.923  219.682
  636.890    8.867    0.382    0.149   59.991  220.140
  637.140    8.237    0.411    0.183   61.663  221.324
  637.390    7.951    0.430    0.201   61.571  259.176
  637.640    7.832    0.419    0.171   61.480  241.715
  637.890    7.688    0.398    0.168   61.391  223.224
  638.140    7.462    0.412    0.190   60.867  218.324
  638.390    7.243    0.424    0.219   58.525  218.066
  638.640    7.017    0.496    0.276   57.518  223.060
  638.890    6.710    0.479    0.262   59.861  239.488
  639.140    6.130    0.429    0.197   63.481  227.075
  639.390    5.272    0.427    0.168   65.153  223.414
  639.640    5.212    0.496    0.148   67.431  228.099
  639.890    5.849    0.503    0.157   69.529  235.565
  640.140    6.371    0.418    0.179   70.287  238.190
  640.390    6.841    0.318    0.107   64.111  220.416
  640.640    6.929    0.320    0.101   65.298  218.200
  640.890    6.675    0.352    0.131   69.340  220.211
  641.140    6.373    0.401    0.106   75.153  223.966
  641.390    5.952    0.414    0.108   77.732  229.989
  641.640    5.601    0.402    0.148   75.389  231.796
  641.890    5.496    0.384    0.180   72.620  231.842
  642.140    5.493    0.411    0.110   75.329  231.375
  642.390    5.511    0.418    0.155   77.668  230.914
  642.640    5.569    0.421    0.146   80.010  230.755
  642.890    5.650    0.442    0.147   81.498  230.495
  643.140    5.731    0.422    0.149   79.397  229.936
  643.390    5.791    0.410    0.111   78.879  229.670
  643.640    5.864    0.418    0.122   78.365  229.514
  643.890    5.873    0.414    0.138   78.391  229.046
  644.140    5.868    0.423    0.106   75.681  229.193
  644.390    5.804    0.437    0.116   77.657  229.347
  644.640    5.684    0.411    0.126   79.025  230.116
  644.890    5.517    0.400    0.124   78.323  231.815
  645.140    5.134    0.399    0.123   81.213  233.615
  645.390    4.821    0.407    0.142   82.335  235.723
  645.640    4.511    0.410    0.160   82.915  238.554
  645.890    4.299    0.415    0.157   83.429  240.870
  646.140    4.227    0.421    0.174   82.669  242.773
  646.390    4.327    0.439    0.168   81.480  243.543
  646.640    4.646    0.451    0.200   79.137  245.244
  646.890    5.418    0.465    0.235   75.393  248.076
  647.140    6.410    0.466    0.265   71.041  246.885
  647.390    7.699    0.420    0.153   67.055  233.749
  647.640    8.465    0.359    0.132   64.653  218.964
  647.890    8.841    0.321    0.083   66.085  217.267
  648.140    7.962    0.316    0.073   69.394  217.524
  648.390    7.102    0.359    0.066   73.805  217.875
  648.640    6.405    0.404    0.103   76.511  218.234
  648.890    5.950    0.391    0.156   78.790  219.731
  649.140    5.588    0.408    0.138   78.879  221.941
  649.390    5.247    0.425    0.136   73.191  226.520
  649.640    5.019    0.425    0.133   70.664  230.074
  649.890    4.944    0.399    0.167   73.251  230.230
  650.140    5.118    0.422    0.083   76.625  232.130
  650.390    5.505    0.443    0.171   79.876  236.506
  650.640    6.131    0.455    0.185   79.177  237.385
  650.890    7.020    0.445    0.235   74.342  237.324
  651.140    7.977    0.407    0.186   69.987  226.455
  651.390    8.885    0.373    0.157   64.604  223.520
  651.640    9.418    0.359    0.120   62.746  223.462
  651.890    8.978    0.363    0.130   64.541  223.827
  652.140    8.367    0.383    0.126   64.448  221.814
  652.390    7.844    0.391    0.137   62.528  221.139
  652.640    7.518    0.377    0.149   63.840  223.765
  652.890    7.417    0.382    0.140   66.118  225.150
  653.140    7.347    0.399    0.129   69.066  225.612
  653.390    7.438    0.415    0.152   70.918  225.667
  653.640    7.503    0.429    0.153   71.799  225.919
  653.890    7.433    0.416    0.132   71.953  225.864
  654.140    7.266    0.368    0.132   67.721  220.968
  654.390    7.157    0.373    0.085   65.256  215.045
  654.640    7.142    0.407    0.110   69.302  216.228
  654.890    7.137    0.424    0.145   70.001  221.014
  655.140    7.135    0.387    0.144   70.820  227.554
  655.390    7.147    0.368    0.102   73.099  229.045
  655.640    7.129    0.383    0.098   74.531  228.274
  655.890    7.127    0.393    0.127   74.924  226.986
  656.140    7.098    0.392    0.117   75.377  226.208
  656.390    7.041    0.381    0.112   74.617  225.949
  656.640    6.948    0.366    0.105   73.976  228.055
  656.890    6.794    0.363    0.101   74.613  243.042
  657.140    6.595    0.384    0.091   75.676  242.990
  657.390    6.308    0.406    0.129   75.948  233.876
  657.640    5.979    0.386    0.150   75.431  230.312
  657.890    5.977    0.393    0.122   75.033  228.304
