~VERSION INFORMATION
 VERS.                 2.0:   CWLS LOG ASCII STANDARD -VERSION 2.0
 WRAP.                  NO:   ONE LINE PER DEPTH STEP
~WELL INFORMATION BLOCK
#MNEM.UNIT           DATA                    DESCRIPTION OF MNEMONIC
#---------    -------------------            -------------------------------
# Generated from Intellog Unique Number	CW_70_72/WELL/1054
NULL.         -999.25                        : NULL_VALUE
WELL.         AMOCO WINTERSHALL CALL 11-06   : Well_name    - WELL              
LOC .         11-06-072-19W4                 : Location     - LOCATION          
UWI .         00/11-06-072-19W4/0            : Uwi          - UNIQUE WELL ID    
ENTR.         JAYE                           : Entered      - ENTERED BY        
SRVC.         SCHLUMBERGER                   : Scn          - SERVICE COMPANY   
DATE.         11 MAR 78                      : Date         - LOG DATE          
STRT.M        310.896                        : top_depth    - START DEPTH       
STOP.M        487.646                        : bot_depth    - STOP DEPTH        
STEP.M        0.25                           : increment    - STEP LENGTH       
~CURVE INFORMATION BLOCK
#MNEM UNIT       ERCB CURVE CODE    CURVE DESCRIPTION
#-----------   ------------------   ----------------------------------
DEPT.M        00 001 00 00         : DEPTH        - DEPTH                       
DPHI.V/V      00 890 00 00         : PHID         - DENSITY POROSITY (SANDSTONE)
NPHI.V/V      00 330 00 00         : PHIN         - NEUTRON POROSITY (SANDSTONE)
GR  .API      00 310 00 00         : GR           - GAMMA RAY                   
CALI.MM       00 280 01 00         : CAL          - CALIPER                     
ILD .OHMM     00 120 00 00         : RESD         - DEEP RESISTIVITY (DIL)      
~PARAMETER INFORMATION       
#MNEM.UNIT           DATA             DESCRIPTION OF MNEMONIC
#---------         -----------     ------------------------------
GL  .M        592.684              : gl           - GROUND LEVEL ELEVATION      
EREF.M        595.884              : kb           - ELEVATION OF DEPTH REFERENCE
DATM.M        592.684              : datum        - DATUM ELEVATION             
TDD .M        502.92               : tdd          - TOTAL DEPTH DRILLER         
RUN .         ONE                  : Run          - RUN NUMBER                  
MATR.         SANDSTONE            : Logunit      - NEUTRON MATRIX              
TMAX.C        23.3333              : BHT          - MAXIMUM RECORDED TEMPERATURE
BHTD.M        503.834              : BHTDEP       - MAXIMUM RECORDED TEMPERATURE
RMT .C        23.3333              : MDTP         - TEMPERATURE OF MUD          
MUDD.KG/M     0                    : MWT          - MUD DENSITY                 
NEUT.         1                    : NEUTRON      - NEUTRON TYPE                
RESI.         0                    : RESIST       - RESISTIVITY TYPE            
RM  .OHMM     2.4                  : RM           - RESISTIVITY OF MUD          
RMC .OHMM     0                    : RMC          - RESISTIVITY OF MUD CAKE     
RMF .OHMM     2.45                 : RMF          - RESISTIVITY OF MUD FILTRATE 
SUFT.C        -17.7778             : SUFT         - SURFACE TEMPERATURE         
~A  DEPTH     PHID     PHIN       GR      CAL     RESD
# ...
  420.396    0.162    0.434   99.722  193.523    5.741
  420.646    0.145    0.434   96.816  192.603    5.795
  420.896    0.149    0.435   95.961  198.830    5.804
  421.146    0.137    0.431   98.522  200.747    5.761
  421.396    0.129    0.422  102.075  200.349    5.674
  421.646    0.157    0.417  106.438  198.903    5.589
  421.896    0.178    0.423  103.221  199.135    5.506
  422.146    0.149    0.420  103.487  201.263    5.453
  422.396    0.154    0.424  104.119  202.128    5.411
  422.646    0.162    0.421  103.884  200.888    5.350
  422.896    0.172    0.456  100.234  199.654    5.320
  423.146    0.178    0.461  101.925  199.569    5.289
  423.396    0.178    0.454  102.622  199.699    5.239
  423.646    0.163    0.439  100.338  199.828    5.170
  423.896    0.146    0.432   94.513  199.429    5.121
  424.146    0.158    0.440   94.155  195.035    5.120
  424.396    0.165    0.452   95.224  186.749    5.207
  424.646    0.172    0.446   91.263  176.571    5.376
  424.896    0.184    0.416   87.738  155.349    5.677
  425.146    0.203    0.384   88.558  169.150    5.948
  425.396    0.217    0.373   90.995  184.846    6.423
  425.646    0.233    0.367   92.189  190.760    6.910
  425.896    0.228    0.370   87.730  190.152    7.242
  426.146    0.195    0.378   81.284  191.333    6.948
  426.396    0.157    0.386   75.087  192.620    7.910
  426.646    0.147    0.360   68.580  194.850    8.429
  426.896    0.161    0.306   64.307  196.452    8.431
  427.146    0.184    0.312   65.129  195.529    8.301
  427.396    0.207    0.332   66.696  191.135    7.817
  427.646    0.233    0.347   69.879  188.532    7.472
  427.896    0.251    0.360   73.867  190.973    7.417
  428.146    0.290    0.369   72.950  196.993    7.627
  428.396    0.307    0.375   71.722  197.332    7.741
  428.646    0.311    0.385   71.486  194.303    7.596
  428.896    0.318    0.392   72.371  192.647    7.247
  429.146    0.316    0.400   72.135  194.775    6.849
  429.396    0.303    0.413   71.592  196.900    6.485
  429.646    0.303    0.430   71.730  197.763    5.916
  429.896    0.306    0.417   72.240  197.893    5.404
  430.146    0.297    0.421   72.377  197.811    4.874
  430.396    0.285    0.412   71.461  197.523    4.562
  430.646    0.285    0.386   70.045  198.070    4.378
  430.896    0.288    0.386   67.512  198.729    4.427
  431.146    0.287    0.388   64.855  199.381    4.562
  431.396    0.260    0.382   64.499  199.512    4.780
  431.646    0.128    0.369   64.138  199.848    5.201
  431.896    0.108    0.342   62.785  199.869    6.056
  432.146    0.096    0.320   61.434  200.105    6.816
  432.396    0.071    0.292   62.130  200.232    7.541
  432.646    0.081    0.267   60.405  199.943    8.472
  432.896    0.105    0.293   59.549  199.229    9.131
  433.146    0.130    0.308   62.731  197.780    9.497
  433.396    0.157    0.322   63.055  196.544    8.487
  433.646    0.200    0.323   63.443  195.939    7.314
  433.896    0.251    0.336   64.141  195.852    6.211
  434.146    0.328    0.388   64.961  195.875    5.205
  434.396    0.316    0.417   67.832  195.797    4.330
  434.646    0.297    0.455   70.082  195.923    3.768
  434.896    0.288    0.476   69.475  195.841    3.353
  435.146    0.296    0.492   69.365  195.762    3.140
  435.396    0.295    0.496   70.497  195.890    3.052
  435.646    0.290    0.493   69.144  196.336    3.001
  435.896    0.264    0.490   71.208  196.462    3.001
  436.146    0.272    0.481   74.949  196.592    3.034
  436.396    0.284    0.471   71.484  196.830    3.179
  436.646    0.272    0.462   68.206  196.954    3.467
  436.896    0.273    0.452   67.724  197.298    3.701
  437.146    0.266    0.452   66.619  197.740    4.088
  437.396    0.245    0.441   63.528  197.656    4.205
  437.646    0.223    0.420   63.481  197.787    4.064
  437.896    0.253    0.391   64.923  197.814    3.742
  438.146    0.279    0.434   67.234  197.833    3.516
  438.396    0.289    0.456   70.851  197.961    3.286
  438.646    0.281    0.458   66.392  198.092    3.141
  438.896    0.287    0.448   65.288  198.429    3.037
  439.146    0.282    0.442   65.054  197.400    2.975
  439.396    0.289    0.441   67.180  195.741    2.940
  439.646    0.292    0.441   67.691  194.609    2.918
  439.896    0.275    0.436   66.961  193.899    2.907
  440.146    0.273    0.431   66.786  193.817    2.907
  440.396    0.275    0.426   67.298  193.733    2.923
  440.646    0.266    0.422   67.871  193.862    2.967
  440.896    0.250    0.431   68.692  194.306    3.000
  441.146    0.225    0.442   70.073  192.857    3.057
  441.396    0.236    0.434   72.013  191.303    3.179
  441.646    0.243    0.419   75.631  196.374    3.382
  441.896    0.181    0.410   78.996  190.615    3.707
  442.146    0.132    0.396   90.315  194.215    3.937
  442.396    0.124    0.401   98.962  201.915    3.981
  442.646    0.157    0.435  107.424  207.303    3.870
  442.896    0.180    0.465  112.471  208.171    3.699
  443.146    0.163    0.484  111.490  208.403    3.549
  443.396    0.160    0.494  113.056  207.691    3.411
  443.646    0.158    0.502  113.816  206.663    3.310
  443.896    0.147    0.506  114.140  206.159    3.242
  444.146    0.136    0.490  115.335  207.236    3.205
  444.396    0.144    0.495  116.032  208.414    3.158
  444.646    0.153    0.483  116.977  208.966    3.139
  444.896    0.172    0.464  120.780  208.568    3.134
  445.146    0.156    0.471  125.701  205.646    3.139
  445.396    0.161    0.487  123.354  202.519    3.295
  445.646    0.179    0.498  120.387  201.171    3.660
  445.896    0.162    0.496  115.370  201.620    4.151
  446.146    0.137    0.471  110.913  202.690    4.671
  446.396    0.109    0.443  105.709  204.714    4.923
  446.646    0.081    0.431  101.126  205.368    5.120
  446.896    0.064    0.427  103.066  205.390    5.198
  447.146    0.087    0.438  108.049  205.415    5.237
  447.396    0.095    0.425  113.341  207.332    5.255
  447.646    0.115    0.425  114.908  207.883    5.255
  447.896    0.119    0.435  109.520  207.694    5.263
  448.146    0.109    0.448  106.863  205.616    5.313
  448.396    0.097    0.439  104.826  202.798    5.433
  448.646    0.061    0.425  103.846  200.192    5.577
  448.896    0.089    0.406  105.164  198.220    5.747
  449.146    0.096    0.418  105.738  197.505    5.833
  449.396    0.102    0.427  104.696  198.056    5.888
  449.646    0.125    0.419  108.251  199.236    5.943
  449.896    0.114    0.374  114.537  201.680    5.910
  450.146    0.101    0.376  119.582  203.384    5.821
  450.396    0.094    0.385  120.716  205.091    5.679
  450.646    0.110    0.394  118.368  205.011    5.470
  450.896    0.125    0.406  114.593  204.507    5.377
  451.146    0.103    0.415  106.842  203.059    5.572
  451.396    0.105    0.393  101.329  201.084    6.096
  451.646    0.109    0.370   90.474  199.530    6.900
  451.896    0.120    0.348   87.070  198.502    7.883
  452.146    0.141    0.327   80.811  198.001   10.330
  452.396    0.111    0.310   74.117  197.918   14.953
  452.646    0.000    0.283   72.827  198.257   18.280
  452.896    0.015    0.268   75.451  199.018   20.883
  453.146    0.003    0.257   79.006  199.672   20.572
  453.396    0.051    0.277   82.373  200.010   15.963
  453.646    0.081    0.301   86.671  198.982   13.054
  453.896    0.089    0.336   93.084  196.904   11.087
  454.146    0.084    0.361   99.247  194.614    9.016
  454.396    0.122    0.387  103.981  192.321    7.514
  454.646    0.111    0.399  104.305  190.136    6.441
  454.896    0.086    0.410  101.774  188.164    5.647
  455.146    0.101    0.424  101.227  184.609    5.479
  455.396    0.130    0.436  101.988  187.053    5.624
  455.646    0.118    0.438  103.741  191.074    5.817
  455.896    0.116    0.427  105.618  189.519    6.042
  456.146    0.106    0.423  106.066  191.226    6.132
  456.396    0.095    0.412  107.323  195.772    6.141
  456.646    0.119    0.403  110.443  199.371    6.005
