~VERSION INFORMATION
 VERS.                 2.0:   CWLS LOG ASCII STANDARD -VERSION 2.0
 WRAP.                  NO:   ONE LINE PER DEPTH STEP
~WELL INFORMATION BLOCK
#MNEM.UNIT           DATA                    DESCRIPTION OF MNEMONIC
#---------    -------------------            -------------------------------
# Generated from Intellog Unique Number	CS_73_76/WELL/3229
WELL.         DOME PETOLEUM LIMITED          : Well_name    - WELL
LOC .         00/10-04-075-07W4/0            : Location     - LOCATION
UWI .         00/10-04-075-07W4/0            : Uwi          - UNIQUE WELL ID
ENTR.         SP                             : Entered      - ENTERED BY
SRVC.         SCHLUMBERGER                   : Scn          - SERVICE COMPANY
STRT.M        265.176                        : top_depth    - START DEPTH
STOP.M        487.426                        : bot_depth    - STOP DEPTH
STEP.M        0.25                           : increment    - STEP LENGTH
 NULL. -999.2500:NULL Value
~CURVE INFORMATION BLOCK
#MNEM UNIT       ERCB CURVE CODE    CURVE DESCRIPTION
#-----------   ------------------   ----------------------------------
DEPT.M        00 001 00 00         : DEPTH        - DEPTH
GR  .API      00 310 00 00         : GR           - GAMMA RAY
DPHI.V/V      00 890 00 00         : PHID         - DENSITY POROSITY (SANDSTONE)
NPHI.V/V      00 330 00 00         : PHIN         - NEUTRON POROSITY (SANDSTONE)
ILD .OHMM     00 120 00 00         : RESD         - DEEP RESISTIVITY (DIL)
~PARAMETER INFORMATION
#MNEM.UNIT           DATA             DESCRIPTION OF MNEMONIC
#---------         -----------     ------------------------------
GL  .M        662.33               : gl           - GROUND LEVEL ELEVATION
EREF.M        665.074              : kb           - ELEVATION OF DEPTH REFERENCE
DATM.M        662.33               : datum        - DATUM ELEVATION
TDD .M        550.469              : tdd          - TOTAL DEPTH DRILLER
RUN .         ONE                  : Run          - RUN NUMBER
ENG .         BILL                 : Engineer     - RECORDING ENGINEER
WIT .         JIM                  : Witness      - WITNESSED BY
MUD .         GEL                  : Mud_type     - MUD TYPE
MATR.         SANDSTONE            : Logunit      - NEUTRON MATRIX
TMAX.C        60                   : BHT          - MAXIMUM RECORDED TEMPERATURE
BHTD.M        550.469              : BHTDEP       - MAXIMUM RECORDED TEMPERATURE
MATR.         1                    : LOGUNIT      - NEUTRON MATRIX
RMT .C        25                   : MDTP         - TEMPERATURE OF MUD
NEUT.         1                    : NEUTRON      - NEUTRON TYPE
RESI.         0                    : RESIST       - RESISTIVITY TYPE
RMC .OHMM     0.25                 : RMC          - RESISTIVITY OF MUD CAKE
RMF .OHMM     0.25                 : RMF          - RESISTIVITY OF MUD FILTRATE
SUFT.C        15                   : SUFT         - SURFACE TEMPERATURE
~A  DEPTH       GR     PHID     PHIN     RESD
  265.176  107.491    0.234    0.528    4.388
  265.426  112.513    0.238    0.525    4.534
  265.676  110.042    0.233    0.513    4.559
  265.926  109.310    0.236    0.535    4.480
  266.176  109.568    0.232    0.544    4.342
  266.426  111.445    0.246    0.552    4.200
  266.676  112.340    0.249    0.565    4.009
  266.926  112.988    0.263    0.577    3.919
  267.176  113.659    0.253    0.594    3.930
  267.426  114.678    0.248    0.573    4.048
  267.676  114.591    0.242    0.562    4.234
  267.926  113.562    0.236    0.547    4.400
  268.176  111.712    0.240    0.554    4.470
  268.426  110.630    0.234    0.560    4.574
  268.676  112.889    0.236    0.568    4.480
  268.926  117.263    0.241    0.576    4.386
  269.176  118.184    0.233    0.568    4.375
  269.426  114.925    0.231    0.555    4.317
  269.676  115.231    0.246    0.540    4.269
  269.926  113.840    0.254    0.546    4.318
  270.176  109.809    0.243    0.556    4.530
  270.426  107.812    0.254    0.552    4.843
  270.676  110.014    0.250    0.556    5.566
  270.926  111.055    0.235    0.569    7.130
  271.176  111.264    0.231    0.566    9.834
  271.426  109.333    0.219    0.506   13.537
  271.676  106.663    0.231    0.479   17.790
  271.926  105.602    0.285    0.463   22.595
  272.176  103.902    0.291    0.474   27.477
  272.426  108.024    0.303    0.482   26.737
  272.676  113.984    0.288    0.472   25.336
  272.926  116.368    0.277    0.466   24.217
  273.176  118.245    0.264    0.450   23.254
  273.426  118.499    0.243    0.437   22.859
  273.676  119.965    0.225    0.429   23.154
  273.926  119.871    0.234    0.440   24.870
  274.176  114.580    0.232    0.449   28.189
  274.426  107.294    0.244    0.442   32.310
  274.676   98.909    0.246    0.448   36.541
  274.926   85.983    0.241    0.457   40.042
  275.176   68.349    0.282    0.433   42.259
  275.426   62.601    0.296    0.427   41.220
  275.676   61.919    0.283    0.446   36.117
  275.926   63.703    0.245    0.389   33.253
  276.176   68.584    0.135    0.392   29.908
  276.426   74.511    0.261    0.413   27.312
  276.676   82.563    0.289    0.417   24.800
  276.926   89.121    0.265    0.406   23.680
  277.176   95.630    0.233    0.414   23.010
  277.426  102.097    0.225    0.427   22.392
  277.676  100.230    0.221    0.435   22.893
  277.926  100.038    0.250    0.437   24.160
  278.176  101.064    0.245    0.435   26.662
  278.426  102.057    0.235    0.435   29.679
  278.676  100.443    0.228    0.437   31.950
  278.926   91.032    0.247    0.445   33.286
  279.176   83.712    0.274    0.453   30.307
  279.426   78.882    0.293    0.462   23.196
  279.676   85.703    0.307    0.472   19.041
  279.926  105.634    0.303    0.429   16.073
  280.176  113.254    0.292    0.427   14.023
  280.426  116.701    0.248    0.475   13.841
  280.676  113.680    0.249    0.543   15.796
  280.926  111.348    0.269    0.557   18.294
  281.176  103.411    0.276    0.514   21.609
  281.426   92.534    0.264    0.487   28.150
  281.676   71.944    0.256    0.487   33.706
  281.926   55.241    0.284    0.452   39.908
  282.176   55.304    0.303    0.423   44.231
  282.426   60.010    0.308    0.423   42.012
  282.676   63.057    0.301    0.419   37.823
  282.926   65.372    0.293    0.426   33.359
  283.176   70.141    0.287    0.420   30.893
  283.426   75.405    0.279    0.405   31.297
  283.676   83.195    0.248    0.392   33.034
  283.926   84.422    0.214    0.399   33.320
  284.176   77.628    0.231    0.403   30.720
  284.426   78.406    0.243    0.405   28.029
  284.676   80.260    0.235    0.415   25.717
  284.926   80.161    0.253    0.418   23.231
  285.176   81.779    0.235    0.418   20.482
  285.426   84.212    0.220    0.429   17.523
  285.676   89.389    0.223    0.437   15.479
  285.926   99.239    0.231    0.439   13.674
  286.176  110.681    0.187    0.477   12.488
  286.426  119.213    0.147    0.500   11.151
  286.676  123.407    0.177    0.515   10.410
  286.926  120.858    0.178    0.509    9.437
  287.176  133.563    0.160    0.512    8.647
  287.426  134.354    0.209    0.544    8.050
  287.676  132.034    0.222    0.552    7.571
  287.926  132.593    0.250    0.549    7.120
  288.176  130.115    0.257    0.523    6.699
  288.426  129.665    0.237    0.549    6.365
  288.676  131.555    0.245    0.571    6.032
  288.926  133.115    0.244    0.567    6.246
  289.176  130.390    0.257    0.562    7.264
  289.426  123.496    0.275    0.578    9.339
  289.676  117.426    0.306    0.607   12.000
  289.926  111.032    0.330    0.615   14.718
  290.176  106.329    0.309    0.582   18.117
  290.426   99.408    0.258    0.504   22.131
  290.676   94.534    0.267    0.450   24.102
  290.926   93.685    0.274    0.450   24.316
  291.176   94.162    0.282    0.458   24.280
  291.426   92.790    0.288    0.457   24.892
  291.676   92.942    0.282    0.456   25.698
  291.926   94.805    0.275    0.461   25.841
  292.176   93.514    0.281    0.469   24.127
  292.426   92.590    0.272    0.477   20.998
  292.676   91.750    0.275    0.480   18.150
  292.926   97.819    0.288    0.468   14.589
  293.176  111.235    0.261    0.457   12.786
  293.426  122.971    0.234    0.477   11.437
  293.676  129.509    0.218    0.493   10.482
  293.926  133.186    0.216    0.523   10.668
  294.176  134.038    0.234    0.555   12.294
  294.426  127.430    0.234    0.532   14.278
  294.676  116.735    0.247    0.525   18.329
  294.926  104.780    0.252    0.500   25.404
  295.176   95.192    0.275    0.463   35.197
  295.426   95.659    0.315    0.444   42.035
  295.676  118.116    0.339    0.429   45.287
  295.926  125.373    0.332    0.428   43.366
  296.176  116.731    0.326    0.438   39.470
  296.426  109.388    0.328    0.449   35.980
  296.676  112.410    0.328    0.456   32.177
  296.926  112.117    0.310    0.468   29.354
  297.176  106.561    0.287    0.472   27.298
  297.426  105.410    0.277    0.452   26.165
  297.676  107.876    0.279    0.442   26.981
  297.926  109.891    0.281    0.457   28.717
  298.176  111.671    0.285    0.466   31.925
  298.426  106.909    0.285    0.475   33.836
  298.676   94.553    0.282    0.463   37.282
  298.926   78.314    0.279    0.443   39.457
  299.176   64.699    0.280    0.426   43.794
  299.426   61.061    0.283    0.424   46.410
  299.676   55.777    0.294    0.436   48.752
  299.926   53.024    0.308    0.431   45.202
  300.176   51.553    0.315    0.432   41.414
  300.426   59.497    0.317    0.439   36.297
  300.676   77.932    0.301    0.433   33.075
  300.926   84.426    0.271    0.410   29.874
  301.176   89.354    0.238    0.398   26.347
  301.426   91.669    0.240    0.400   24.069
  301.676   93.852    0.246    0.416   23.005
  301.926   94.494    0.240    0.435   23.104
  302.176   95.670    0.250    0.433   23.872
  302.426   93.555    0.257    0.436   24.785
  302.676   88.162    0.264    0.435   25.839
  302.926   86.491    0.273    0.430   27.027
  303.176   83.401    0.265    0.447   27.976
  303.426   80.991    0.275    0.454   28.901
  303.676   80.862    0.276    0.450   28.387
  303.926   83.447    0.276    0.439   26.928
  304.176   86.867    0.283    0.433   24.975
  304.426   91.571    0.264    0.433   23.500
  304.676   99.253    0.251    0.425   22.149
  304.926  104.103    0.240    0.431   21.475
  305.176  103.969    0.231    0.440   21.309
  305.426   98.535    0.230    0.449   20.158
  305.676  101.774    0.242    0.448   18.640
  305.926  109.181    0.239    0.443   17.041
  306.176  117.554    0.244    0.439   15.875
  306.426  130.481    0.222    0.457   14.612
  306.676  136.783    0.212    0.480   14.132
  306.926  137.552    0.260    0.506   13.690
  307.176  133.805    0.262    0.520   13.630
  307.426  127.744    0.269    0.536   14.235
  307.676  122.233    0.265    0.543   14.665
  307.926  118.075    0.258    0.536   15.759
  308.176  114.888    0.268    0.526   16.931
  308.426  116.018    0.274    0.531   18.622
