~VERSION INFORMATION
 VERS.                 2.0:   CWLS LOG ASCII STANDARD -VERSION 2.0
 WRAP.                  NO:   ONE LINE PER DEPTH STEP
~WELL INFORMATION BLOCK
#MNEM.UNIT           DATA                    DESCRIPTION OF MNEMONIC
#---------    -------------------            -------------------------------
# Generated from Intellog Unique Number	CS_67_68/WELL/2189
WELL.         10-02-067-04W4                 : Well_name    - WELL
LOC .         00/10-02-067-04W4/0            : Location     - LOCATION
UWI .         00/10-02-067-04W4/0            : Uwi          - UNIQUE WELL ID
ENTR.         SP                             : Entered      - ENTERED BY
SRVC.         SCHLUMBERGER                   : Scn          - SERVICE COMPANY
STRT.M        370                            : top_depth    - START DEPTH
STOP.M        590                            : bot_depth    - STOP DEPTH
STEP.M        0.25                           : increment    - STEP LENGTH
 NULL. -999.2500:NULL Value
~CURVE INFORMATION BLOCK
#MNEM UNIT       ERCB CURVE CODE    CURVE DESCRIPTION
#-----------   ------------------   ----------------------------------
DEPT.M        00 001 00 00         : DEPTH        - DEPTH
CALI.MM       00 280 01 00         : CAL          - CALIPER
ILD .OHMM     00 120 00 00         : RESD         - DEEP RESISTIVITY (DIL)
DPHI.V/V      00 890 00 00         : PHID         - DENSITY POROSITY (LIMESTONE)
NPHI.V/V      00 330 00 00         : PHIN         - NEUTRON POROSITY (LIMESTONE)
GR  .API      00 310 00 00         : GR           - GAMMA RAY
~PARAMETER INFORMATION
#MNEM.UNIT           DATA             DESCRIPTION OF MNEMONIC
#---------         -----------     ------------------------------
GL  .M        693.26               : gl           - GROUND LEVEL ELEVATION
EREF.M        697.11               : kb           - ELEVATION OF DEPTH REFERENCE
DATM.M        697.11               : datum        - DATUM ELEVATION
TDD .M        598                  : tdd          - TOTAL DEPTH DRILLER
RUN .         ONE                  : Run          - RUN NUMBER
ENG .         BILL                 : Engineer     - RECORDING ENGINEER
WIT .         JIM                  : Witness      - WITNESSED BY
MUD .         GEL                  : Mud_type     - MUD TYPE
MATR.         LIMESTONE            : Logunit      - NEUTRON MATRIX
TMAX.C        24.5                 : BHT          - MAXIMUM RECORDED TEMPERATURE
BHTD.M        598.6                : BHTDEP       - MAXIMUM RECORDED TEMPERATURE
MATR.         1                    : LOGUNIT      - NEUTRON MATRIX
RMT .C        25                   : MDTP         - TEMPERATURE OF MUD
NEUT.         1                    : NEUTRON      - NEUTRON TYPE
RESI.         0                    : RESIST       - RESISTIVITY TYPE
RMC .OHMM     0.25                 : RMC          - RESISTIVITY OF MUD CAKE
RMF .OHMM     0.25                 : RMF          - RESISTIVITY OF MUD FILTRATE
SUFT.C        15                   : SUFT         - SURFACE TEMPERATURE
~A  DEPTH      CAL     RESD     PHID     PHIN       GR
# ...
  552.500  171.518    6.700    0.192    0.405  104.387
  552.750  171.514    6.815    0.194    0.408  101.012
  553.000  171.008    6.984    0.191    0.379   91.856
  553.250  170.702    7.131    0.188    0.361   84.266
  553.500  170.196    7.240    0.189    0.374   87.094
  553.750  170.694    7.254    0.185    0.387   97.388
  554.000  170.990    7.214    0.176    0.394  107.442
  554.250  171.287    7.214    0.171    0.409  112.437
  554.500  171.783    7.160    0.176    0.416  107.677
  554.750  171.881    7.054    0.170    0.413  104.062
  555.000  172.278    6.975    0.171    0.410  101.650
  555.250  172.473    6.859    0.182    0.414  102.130
  555.500  172.570    6.859    0.185    0.421  102.007
  555.750  172.666    6.951    0.183    0.418  102.787
  556.000  172.661    7.057    0.181    0.404  106.337
  556.250  172.457    7.084    0.180    0.392  109.526
  556.500  172.453    7.031    0.180    0.393  111.209
  556.750  172.348    6.901    0.180    0.408  111.388
  557.000  172.243    6.734    0.187    0.422  110.421
  557.250  171.838    6.548    0.185    0.428  109.275
  557.500  171.632    6.548    0.183    0.437  112.404
  557.750  171.427    6.623    0.190    0.443  113.425
  558.000  171.122    6.749    0.179    0.450  112.338
  558.250  170.716    6.852    0.169    0.442  112.034
  558.500  170.010    6.957    0.176    0.436  112.393
  558.750  168.199    7.050    0.179    0.426  113.053
  559.000  167.491    7.144    0.183    0.420  113.833
  559.250  167.186    7.198    0.189    0.411  110.458
  559.500  166.881    7.239    0.175    0.407  104.976
  559.750  166.475    7.253    0.169    0.404   97.567
  560.000  165.868    7.240    0.176    0.400   90.639
  560.250  165.262    7.200    0.235    0.402   82.327
  560.500  164.655    7.160    0.257    0.401   76.724
  560.750  164.350    7.054    0.266    0.387   71.603
  561.000  164.145    6.923    0.255    0.375   75.334
  561.250  164.040    6.743    0.241    0.379   78.884
  561.500  164.337    6.693    0.241    0.385   81.230
  561.750  164.835    6.732    0.225    0.386   87.550
  562.000  165.331    6.886    0.209    0.377   93.328
  562.250  165.829    7.031    0.193    0.381   97.240
  562.500  166.427    7.151    0.179    0.388   91.095
  562.750  166.423    7.274    0.199    0.371   86.215
  563.000  166.419    7.399    0.201    0.360   88.801
  563.250  166.716    7.455    0.195    0.366   90.425
  563.500  166.811    7.470    0.199    0.374   89.519
  563.750  167.309    7.470    0.205    0.385   92.588
  564.000  167.606    7.513    0.207    0.386   91.923
  564.250  167.801    7.528    0.198    0.371   85.959
  564.500  167.798    7.543    0.220    0.356   81.861
  564.750  167.994    7.558    0.230    0.353   88.061
  565.000  168.090    7.544    0.227    0.363   95.585
  565.250  168.187    7.530    0.180    0.369   98.594
  565.500  168.383    7.517    0.175    0.373   97.929
  565.750  168.679    7.588    0.176    0.379  101.840
  566.000  168.675    7.661    0.173    0.386  105.450
  566.250  168.470    7.719    0.177    0.394  104.906
  566.500  168.065    7.763    0.181    0.396  100.266
  566.750  166.354    7.852    0.175    0.387   96.651
  567.000  164.543    7.927    0.171    0.377   93.577
  567.250  163.636    7.928    0.183    0.372   91.046
  567.500  163.932    7.913    0.183    0.368   93.392
  567.750  165.131    7.929    0.171    0.372   95.195
  568.000  165.730    7.944    0.180    0.381   96.819
  568.250  166.027    8.035    0.194    0.388   92.962
  568.500  164.918    8.158    0.203    0.383   89.527
  568.750  163.509    8.251    0.195    0.371   87.056
  569.000  163.303    8.314    0.184    0.365   90.425
  569.250  164.002    8.330    0.175    0.361   95.782
  569.500  164.901    8.331    0.169    0.361  101.801
  569.750  165.599    8.347    0.167    0.371  101.979
  570.000  166.197    8.316    0.167    0.380   99.688
  570.250  166.293    8.286    0.178    0.379   99.144
  570.500  166.189    8.255    0.163    0.378  102.995
  570.750  165.682    8.241    0.150    0.379  105.642
  571.000  165.175    8.257    0.163    0.383  107.626
  571.250  164.871    8.257    0.166    0.380  106.721
  571.500  164.665    8.212    0.164    0.373   98.107
  571.750  164.762    8.166    0.162    0.368   89.252
  572.000  164.758    8.105    0.208    0.366   82.445
  572.250  164.753    7.940    0.239    0.366   76.602
  572.500  164.447    7.647    0.253    0.378   66.784
  572.750  164.342    7.174    0.295    0.403   52.871
  573.000  163.937    6.780    0.313    0.408   50.099
  573.250  163.632    6.361    0.283    0.372   61.537
  573.500  163.326    6.173    0.255    0.358   66.653
  573.750  163.021    6.173    0.259    0.373   61.050
  574.000  163.017    6.220    0.273    0.379   56.351
  574.250  163.012    6.256    0.281    0.375   59.901
  574.500  162.908    6.292    0.266    0.358   64.355
  574.750  162.904    6.328    0.251    0.365   68.808
  575.000  162.898    6.388    0.245    0.369   69.709
  575.250  162.894    6.425    0.241    0.373   64.768
  575.500  162.790    6.437    0.251    0.371   61.694
  575.750  162.585    6.462    0.264    0.352   59.464
  576.000  162.279    6.463    0.261    0.350   60.967
  576.250  161.874    6.415    0.261    0.369   61.265
  576.500  161.869    6.343    0.284    0.385   48.798
  576.750  161.664    6.179    0.309    0.377   45.363
  577.000  161.659    5.940    0.318    0.379   54.032
  577.250  161.756    5.732    0.299    0.374   62.881
  577.500  161.751    5.469    0.276    0.391   61.252
  577.750  161.847    5.337    0.279    0.401   57.817
  578.000  161.843    5.199    0.296    0.397   58.417
  578.250  161.938    5.150    0.271    0.385   63.954
  578.500  162.236    5.308    0.261    0.390   63.590
  578.750  162.232    5.460    0.284    0.366   56.000
  579.000  162.529    5.586    0.300    0.325   63.284
  579.250  162.725    5.671    0.271    0.337   70.688
  579.500  163.222    5.703    0.231    0.354   65.567
  579.750  163.619    5.704    0.256    0.369   54.786
  580.000  164.116    5.651    0.298    0.349   50.688
  580.250  164.615    5.556    0.294    0.362   41.653
  580.500  165.012    5.372    0.316    0.383   33.160
  580.750  165.409    5.183    0.342    0.391   27.858
  581.000  165.404    5.059    0.344    0.391   30.866
  581.250  165.299    5.002    0.344    0.390   35.441
  581.500  165.095    4.937    0.348    0.392   42.844
  581.750  164.689    4.910    0.319    0.393   46.154
  582.000  164.584    4.882    0.293    0.391   47.175
  582.250  164.279    4.837    0.294    0.386   43.800
  582.500  163.973    4.801    0.317    0.381   40.546
  582.750  163.768    4.802    0.331    0.378   38.255
  583.000  163.564    4.829    0.338    0.382   36.988
  583.250  163.258    4.857    0.333    0.372   35.661
  583.500  162.852    4.876    0.336    0.384   34.453
  583.750  162.446    4.885    0.351    0.384   34.090
  584.000  161.739    4.867    0.348    0.369   36.737
  584.250  161.434    4.849    0.331    0.371   44.020
  584.500  161.027    4.813    0.317    0.388   37.574
  584.750  161.124    4.795    0.341    0.392   29.744
  585.000  161.321    4.778    0.349    0.388   25.285
  585.250  161.516    4.751    0.345    0.384   23.596
  585.500  161.914    4.725    0.341    0.374   25.039
  585.750  162.010    4.779    0.347    0.366   27.024
  586.000  162.307    4.752    0.358    0.380   30.032
  586.250  161.298    4.629    0.358    0.380   31.715
  586.500  160.692    4.509    0.351    0.375   32.435
  586.750  160.287    4.409    0.332    0.367   30.145
  587.000  159.781    4.476    0.309    0.358   29.058
  587.250  159.476    4.666    0.313    0.344   29.537
  587.500  159.170    4.854    0.312    0.331   30.257
  587.750  159.166    5.185    0.310    0.347   32.302
  588.000  159.161    5.445    0.301    0.334   36.815
  588.250  159.860    5.784    0.275    0.320   45.243
  588.500  161.360    6.132    0.251    0.304   54.454
  588.750  163.463    6.574    0.201    0.280   62.641
