~VERSION INFORMATION
 VERS.                 2.0:   CWLS LOG ASCII STANDARD -VERSION 2.0
 WRAP.                  NO:   ONE LINE PER DEPTH STEP
~WELL INFORMATION BLOCK
#MNEM.UNIT           DATA                    DESCRIPTION OF MNEMONIC
#---------    -------------------            -------------------------------
# Generated from Intellog Unique Number	CS_71_72/WELL/911
WELL.         ESSO IPIATIK                   : Well_name    - WELL
LOC .         00/11-32-072-09W4/0            : Location     - LOCATION
UWI .         00/11-32-072-09W4/0            : Uwi          - UNIQUE WELL ID
ENTR.         SP                             : Entered      - ENTERED BY
SRVC.         SCHLUMBERGER                   : Scn          - SERVICE COMPANY
STRT.M        295                            : top_depth    - START DEPTH
STOP.M        490                            : bot_depth    - STOP DEPTH
STEP.M        0.25                           : increment    - STEP LENGTH
 NULL. -999.2500:NULL Value
~CURVE INFORMATION BLOCK
#MNEM UNIT       ERCB CURVE CODE    CURVE DESCRIPTION
#-----------   ------------------   ----------------------------------
DEPT.M        00 001 00 00         : DEPTH        - DEPTH
ILD .OHMM     00 120 00 00         : RESD         - DEEP RESISTIVITY (DIL)
DPHI.V/V      00 890 00 00         : PHID         - DENSITY POROSITY (LIMESTONE)
NPHI.V/V      00 330 00 00         : PHIN         - NEUTRON POROSITY (LIMESTONE)
GR  .API      00 310 00 00         : GR           - GAMMA RAY
~PARAMETER INFORMATION
#MNEM.UNIT           DATA             DESCRIPTION OF MNEMONIC
#---------         -----------     ------------------------------
GL  .M        659.68               : gl           - GROUND LEVEL ELEVATION
EREF.M        663.56               : kb           - ELEVATION OF DEPTH REFERENCE
DATM.M        659.68               : datum        - DATUM ELEVATION
TDD .M        493                  : tdd          - TOTAL DEPTH DRILLER
RUN .         ONE                  : Run          - RUN NUMBER
ENG .         BILL                 : Engineer     - RECORDING ENGINEER
WIT .         JIM                  : Witness      - WITNESSED BY
MUD .         GEL                  : Mud_type     - MUD TYPE
MATR.         LIMESTONE            : Logunit      - NEUTRON MATRIX
TMAX.C        18                   : BHT          - MAXIMUM RECORDED TEMPERATURE
BHTD.M        493                  : BHTDEP       - MAXIMUM RECORDED TEMPERATURE
MATR.         1                    : LOGUNIT      - NEUTRON MATRIX
RMT .C        25                   : MDTP         - TEMPERATURE OF MUD
NEUT.         1                    : NEUTRON      - NEUTRON TYPE
RESI.         0                    : RESIST       - RESISTIVITY TYPE
RMC .OHMM     0.25                 : RMC          - RESISTIVITY OF MUD CAKE
RMF .OHMM     0.25                 : RMF          - RESISTIVITY OF MUD FILTRATE
SUFT.C        15                   : SUFT         - SURFACE TEMPERATURE
~A  DEPTH     RESD     PHID     PHIN       GR
  295.000    2.849    0.232    0.565  108.877
  295.250    2.796    0.233    0.582  109.488
  295.500    2.745    0.231    0.600  107.077
  295.750    2.645    0.225    0.607  105.272
  296.000    2.644    0.216    0.612  105.886
  296.250    2.643    0.216    0.602  102.870
  296.500    2.642    0.220    0.590  100.458
  296.750    2.690    0.220    0.603  104.703
  297.000    2.739    0.216    0.595  104.709
  297.250    2.789    0.214    0.614  101.693
  297.500    2.840    0.221    0.629  101.703
  297.750    2.892    0.213    0.620  105.947
  298.000    2.944    0.201    0.600  107.767
  298.250    2.943    0.197    0.543  110.805
  298.500    2.997    0.198    0.511  112.021
  298.750    2.996    0.202    0.571  112.633
  299.000    2.995    0.206    0.595  111.433
  299.250    3.049    0.208    0.627  108.416
  299.500    3.048    0.204    0.660  107.213
  299.750    3.161    0.205    0.628  109.043
  300.000    3.160    0.209    0.571  110.259
  300.250    3.159    0.203    0.503  110.869
  300.500    3.217    0.191    0.476  113.296
  300.750    3.216    0.194    0.494  115.122
  301.000    3.275    0.203    0.501  114.524
  301.250    3.334    0.187    0.520  112.114
  301.500    3.458    0.181    0.539  110.308
  301.750    3.521    0.186    0.548  106.690
  302.000    3.651    0.191    0.559  106.090
  302.250    3.856    0.177    0.520  105.494
  302.500    3.927    0.173    0.494  107.924
  302.750    3.926    0.173    0.484  109.745
  303.000    3.924    0.172    0.476  110.358
  303.250    3.851    0.177    0.471  110.369
  303.500    3.780    0.184    0.478  109.771
  303.750    3.643    0.184    0.524  110.384
  304.000    3.575    0.183    0.556  110.391
  304.250    3.574    0.182    0.580  108.586
  304.500    3.639    0.187    0.540  106.779
  304.750    3.705    0.192    0.505  109.811
  305.000    3.773    0.190    0.493  113.451
  305.250    3.913    0.183    0.485  112.855
  305.500    3.911    0.181    0.472  109.234
  305.750    3.839    0.178    0.495  108.031
  306.000    3.838    0.182    0.563  112.274
  306.250    3.837    0.191    0.604  111.677
  306.500    4.128    0.207    0.567  105.637
  306.750    4.523    0.209    0.527   98.992
  307.000    5.142    0.207    0.490  106.864
  307.250    6.527    0.237    0.455  109.294
  307.500    7.558    0.247    0.474  100.833
  307.750    9.248    0.229    0.491   88.141
  308.000   10.322    0.227    0.405   83.310
  308.250   11.311    0.220    0.389   81.503
  308.500   11.947    0.205    0.396   80.908
  308.750   12.620    0.236    0.403   76.682
  309.000   13.331    0.247    0.414   77.900
  309.250   14.082    0.231    0.423   81.536
  309.500   14.875    0.253    0.405   77.920
  309.750   15.428    0.268    0.387   77.925
  310.000   16.296    0.215    0.376   80.960
  310.250   17.212    0.178    0.372   78.548
  310.500   17.852    0.203    0.397   74.324
  310.750   18.176    0.237    0.420   72.514
  311.000   18.166    0.276    0.460   74.942
  311.250   18.163    0.273    0.480   83.423
  311.500   17.827    0.268    0.496   86.453
  311.750   17.178    0.246    0.429   91.304
  312.000   16.554    0.219    0.399   93.122
  312.250   15.661    0.166    0.373  103.420
  312.500   14.281    0.149    0.398  105.844
  312.750   14.018    0.163    0.412  108.273
  313.000   13.507    0.184    0.437  107.675
  313.250   13.503    0.195    0.418  104.054
  313.500   13.498    0.213    0.417  100.435
  313.750   13.743    0.225    0.402   98.627
  314.000   13.995    0.232    0.394   97.425
  314.250   13.989    0.209    0.390  100.461
  314.500   13.984    0.196    0.422  100.467
  314.750   14.239    0.227    0.440   97.452
  315.000   14.768    0.252    0.447   86.571
  315.250   15.316    0.270    0.449   73.879
  315.500   15.883    0.282    0.453   69.048
  315.750   15.879    0.289    0.424   79.339
  316.000   13.454    0.192    0.396   96.891
  316.250   11.827    0.168    0.376  106.574
  316.500   10.021    0.155    0.418  116.260
  316.750    8.649    0.152    0.452  118.688
  317.000    7.744    0.152    0.488  113.862
  317.250    7.192    0.159    0.471  112.657
  317.500    6.931    0.168    0.396  111.456
  317.750    6.928    0.173    0.379  107.230
  318.000    7.185    0.165    0.402   99.376
  318.250    7.590    0.154    0.409   96.360
  318.500    7.872    0.176    0.423   98.788
  318.750    8.315    0.190    0.447   98.195
  319.000    8.783    0.198    0.448   96.990
  319.250    8.943    0.205    0.468   87.927
  319.500    8.940    0.204    0.442   81.284
  319.750    8.774    0.151    0.410   80.684
  320.000    8.301    0.153    0.394   92.185
  320.250    7.711    0.180    0.427   98.847
  320.500    7.032    0.182    0.415  107.931
  320.750    6.181    0.165    0.389  117.618
  321.000    5.434    0.159    0.425  123.673
  321.250    4.604    0.171    0.496  127.914
  321.500    4.198    0.191    0.565  116.431
  321.750    3.829    0.191    0.591  101.923
  322.000    4.772    0.178    0.615   93.463
  322.250    6.283    0.203    0.523   85.609
  322.500    8.743    0.220    0.482   88.644
  322.750   12.391    0.231    0.476   91.071
  323.000   14.086    0.243    0.505   92.287
  323.250   14.342    0.214    0.520   92.296
  323.500   14.077    0.197    0.486   85.653
  323.750   13.565    0.177    0.485   89.895
  324.000   13.070    0.201    0.491   97.162
  324.250   12.365    0.220    0.499  101.403
  324.500   12.137    0.188    0.480  106.254
  324.750   11.069    0.142    0.463  109.284
  325.000    9.552    0.136    0.442  116.553
  325.250    8.711    0.148    0.438  119.583
  325.500    7.944    0.151    0.457  123.828
  325.750    7.245    0.154    0.460  125.650
  326.000    6.607    0.151    0.436  127.472
  326.250    6.136    0.151    0.420  129.900
  326.500    5.700    0.153    0.440  133.538
  326.750    5.594    0.160    0.487  137.175
  327.000    5.491    0.171    0.518  136.578
  327.250    5.591    0.159    0.555  132.958
  327.500    6.127    0.175    0.476  137.201
  327.750    7.094    0.192    0.471  131.766
  328.000    8.680    0.215    0.482  119.676
  328.250   10.051    0.240    0.489  105.171
  328.500   12.526    0.273    0.454   96.107
  328.750   15.046    0.289    0.404   92.484
  329.000   16.489    0.304    0.405   91.888
  329.250   17.100    0.298    0.427   96.132
  329.500   17.095    0.271    0.449   99.772
  329.750   15.877    0.228    0.471  100.987
  330.000   14.746    0.205    0.452  102.204
  330.250   14.211    0.199    0.489  103.423
  330.500   13.948    0.216    0.500   98.591
  330.750   15.285    0.234    0.531   90.132
  331.000   16.749    0.247    0.559   79.254
  331.250   18.020    0.254    0.517   69.586
  331.500   19.387    0.263    0.483   62.336
  331.750   19.743    0.272    0.443   56.899
  332.000   20.101    0.263    0.447   55.699
  332.250   19.728    0.258    0.448   59.337
  332.500   19.364    0.253    0.418   61.161
  332.750   19.004    0.242    0.419   59.958
  333.000   19.350    0.239    0.433   55.731
  333.250   19.345    0.252    0.454   53.320
  333.500   19.697    0.264    0.457   56.355
  333.750   19.332    0.248    0.435   59.387
  334.000   18.974    0.257    0.407   63.026
  334.250   18.622    0.255    0.394   64.847
  334.500   17.944    0.231    0.412   66.065
  334.750   17.290    0.223    0.421   69.106
  335.000   16.970    0.229    0.395   69.714
  335.250   16.656    0.219    0.391   70.932
  335.500   16.050    0.235    0.425   70.940
  335.750   15.465    0.272    0.458   67.318
  336.000   14.365    0.290    0.413   67.934
  336.250   13.342    0.266    0.368   77.015
  336.500   12.858    0.206    0.367   87.305
  336.750   11.944    0.185    0.403   93.361
  337.000   11.093    0.189    0.419  101.838
  337.250   10.495    0.200    0.432  116.363
  337.500   10.491    0.202    0.455  106.694
  337.750   10.682    0.208    0.466  100.655
  338.000   11.079    0.212    0.470   99.451
  338.250   11.701    0.217    0.492  100.676
