~VERSION INFORMATION
 VERS.                 2.0:   CWLS LOG ASCII STANDARD -VERSION 2.0
 WRAP.                  NO:   ONE LINE PER DEPTH STEP
~WELL INFORMATION BLOCK
#MNEM.UNIT           DATA                    DESCRIPTION OF MNEMONIC
#---------    -------------------            -------------------------------
# Generated from Intellog Unique Number	CS_71_72/WELL/914
WELL.         PEX PHILLIPS AEC GRIST         : Well_name    - WELL
LOC .         00/11-35-071-08W4/0            : Location     - LOCATION
UWI .         00/11-35-071-08W4/0            : Uwi          - UNIQUE WELL ID
ENTR.         SP                             : Entered      - ENTERED BY
SRVC.         SCHLUMBERGER                   : Scn          - SERVICE COMPANY
STRT.M        300                            : top_depth    - START DEPTH
STOP.M        525                            : bot_depth    - STOP DEPTH
STEP.M        0.25                           : increment    - STEP LENGTH
 NULL. -999.2500:NULL Value
~CURVE INFORMATION BLOCK
#MNEM UNIT       ERCB CURVE CODE    CURVE DESCRIPTION
#-----------   ------------------   ----------------------------------
DEPT.M        00 001 00 00         : DEPTH        - DEPTH
ILD .OHMM     00 120 00 00         : RESD         - DEEP RESISTIVITY (DIL)
DPHI.V/V      00 890 00 00         : PHID         - DENSITY POROSITY (LIMESTONE)
NPHI.V/V      00 330 00 00         : PHIN         - NEUTRON POROSITY (LIMESTONE)
GR  .API      00 310 00 00         : GR           - GAMMA RAY
~PARAMETER INFORMATION
#MNEM.UNIT           DATA             DESCRIPTION OF MNEMONIC
#---------         -----------     ------------------------------
GL  .M        663.86               : gl           - GROUND LEVEL ELEVATION
EREF.M        666.86               : kb           - ELEVATION OF DEPTH REFERENCE
DATM.M        663.86               : datum        - DATUM ELEVATION
TDD .M        530                  : tdd          - TOTAL DEPTH DRILLER
RUN .         ONE                  : Run          - RUN NUMBER
ENG .         BILL                 : Engineer     - RECORDING ENGINEER
WIT .         JIM                  : Witness      - WITNESSED BY
MUD .         GEL                  : Mud_type     - MUD TYPE
MATR.         LIMESTONE            : Logunit      - NEUTRON MATRIX
TMAX.C        22                   : BHT          - MAXIMUM RECORDED TEMPERATURE
BHTD.M        530                  : BHTDEP       - MAXIMUM RECORDED TEMPERATURE
MATR.         1                    : LOGUNIT      - NEUTRON MATRIX
RMT .C        25                   : MDTP         - TEMPERATURE OF MUD
NEUT.         1                    : NEUTRON      - NEUTRON TYPE
RESI.         0                    : RESIST       - RESISTIVITY TYPE
RMC .OHMM     0.25                 : RMC          - RESISTIVITY OF MUD CAKE
RMF .OHMM     0.25                 : RMF          - RESISTIVITY OF MUD FILTRATE
SUFT.C        15                   : SUFT         - SURFACE TEMPERATURE
~A  DEPTH     RESD     PHID     PHIN       GR
# ...
  387.000    8.373    0.294    0.359   73.820
  387.250    7.460    0.284    0.376   79.619
  387.500    6.609    0.285    0.397   85.296
  387.750    5.899    0.296    0.385   78.469
  388.000    4.738    0.290    0.379   75.073
  388.250    4.127    0.286    0.389   80.566
  388.500    3.663    0.248    0.398   88.448
  388.750    3.282    0.223    0.390   94.984
  389.000    2.941    0.188    0.399  103.357
  389.250    2.645    0.189    0.420  113.815
  389.500    2.452    0.219    0.426  115.508
  389.750    2.320    0.233    0.405  118.855
  390.000    2.306    0.242    0.396  123.121
  390.250    2.318    0.233    0.395  113.228
  390.500    2.401    0.216    0.404  114.308
  390.750    2.502    0.206    0.412  112.568
  391.000    2.651    0.205    0.405  110.397
  391.250    2.895    0.210    0.406  113.133
  391.500    3.155    0.223    0.419  108.021
  391.750    3.433    0.240    0.408  108.242
  392.000    3.757    0.244    0.395  101.230
  392.250    4.317    0.215    0.387   94.401
  392.500    4.886    0.216    0.381  102.591
  392.750    5.387    0.230    0.376  100.849
  393.000    5.795    0.242    0.370   91.203
  393.250    5.981    0.223    0.371   97.791
  393.500    5.944    0.222    0.377   99.796
  393.750    5.594    0.215    0.379  101.856
  394.000    5.304    0.210    0.355   99.382
  394.250    5.095    0.219    0.350   96.354
  394.500    4.988    0.228    0.360   92.959
  394.750    4.958    0.192    0.361  102.068
  395.000    4.983    0.201    0.354   94.076
  395.250    5.066    0.217    0.361   94.845
  395.500    5.229    0.227    0.373  100.462
  395.750    5.570    0.226    0.378   99.766
  396.000    5.622    0.232    0.369   96.125
  396.250    5.790    0.245    0.366   95.792
  396.500    5.843    0.241    0.363   93.317
  396.750    5.884    0.216    0.358   93.661
  397.000    5.915    0.207    0.349   93.698
  397.250    5.868    0.204    0.345   86.932
  397.500    5.832    0.227    0.347   82.372
  397.750    5.829    0.228    0.339   86.025
  398.000    5.837    0.240    0.345   91.457
  398.250    5.943    0.259    0.361   93.456
  398.500    5.953    0.195    0.382   95.393
  398.750    6.018    0.224    0.373   99.292
  399.000    6.129    0.236    0.361   93.199
  399.250    6.244    0.245    0.354   81.284
  399.500    6.504    0.236    0.360   82.792
  399.750    6.775    0.230    0.377   86.078
  400.000    6.876    0.230    0.364   85.625
  400.250    6.912    0.230    0.352   88.725
  400.500    6.844    0.224    0.346   90.848
  400.750    6.711    0.219    0.347   88.921
  401.000    6.685    0.211    0.344   88.716
  401.250    6.631    0.207    0.366   91.203
  401.500    6.640    0.205    0.373   93.326
  401.750    6.687    0.204    0.362   95.874
  402.000    6.696    0.223    0.367   89.722
  402.250    6.744    0.238    0.377   87.308
  402.500    6.779    0.236    0.371   84.465
  402.750    7.170    0.219    0.353   82.357
  403.000    6.914    0.201    0.346   85.152
  403.250    6.593    0.190    0.341   90.949
  403.500    6.369    0.202    0.345   94.421
  403.750    6.331    0.173    0.344   94.214
  404.000    6.497    0.189    0.353   96.886
  404.250    6.859    0.190    0.346   99.555
  404.500    7.281    0.179    0.345   99.840
  404.750    7.774    0.184    0.335   98.529
  405.000    8.426    0.183    0.322   94.522
  405.250    9.185    0.150    0.313   86.468
  405.500    9.770    0.112    0.207   78.780
  405.750   10.140    0.075    0.192   67.109
  406.000   10.116    0.004    0.281   60.712
  406.250    9.592    0.059    0.333   74.725
  406.500    8.465    0.149    0.334   87.819
  406.750    7.600    0.153    0.325   95.518
  407.000    7.004    0.158    0.335   89.732
  407.250    6.679    0.159    0.359   94.428
  407.500    6.354    0.154    0.364   96.366
  407.750    6.317    0.161    0.355   93.583
  408.000    6.279    0.167    0.372   96.439
  408.250    6.383    0.157    0.367   97.580
  408.500    6.513    0.172    0.359   95.042
  408.750    6.722    0.180    0.351   93.975
  409.000    6.977    0.159    0.367   98.549
  409.250    7.478    0.148    0.361   99.445
  409.500    8.059    0.143    0.364   96.234
  409.750    8.086    0.108    0.304   87.750
  410.000    7.738    0.102    0.336   77.674
  410.250    7.365    0.150    0.364   86.722
  410.500    7.036    0.178    0.369   94.665
  410.750    6.772    0.191    0.384  101.629
  411.000    6.531    0.205    0.398  101.421
  411.250    6.382    0.182    0.384   96.796
  411.500    6.259    0.174    0.375   94.386
  411.750    6.162    0.182    0.388   99.816
  412.000    6.033    0.187    0.380   98.996
  412.250    5.741    0.190    0.379  103.200
  412.500    5.403    0.186    0.372  107.837
  412.750    4.429    0.190    0.388  103.458
  413.000    4.007    0.197    0.383   98.655
  413.250    3.536    0.194    0.367  101.880
  413.500    3.322    0.207    0.411  105.411
  413.750    2.904    0.213    0.435  104.771
  414.000    2.743    0.203    0.417   98.252
  414.250    2.701    0.190    0.418  103.254
  414.500    2.720    0.171    0.430  107.275
  414.750    2.818    0.162    0.420  110.195
  415.000    2.930    0.185    0.414  112.866
  415.250    3.070    0.196    0.394  114.560
  415.500    3.241    0.216    0.398  110.612
  415.750    3.409    0.231    0.386  102.987
  416.000    3.626    0.221    0.375  100.205
  416.250    4.020    0.192    0.365   93.561
  416.500    4.374    0.179    0.377   97.582
  416.750    4.749    0.199    0.367   95.473
  417.000    4.939    0.205    0.371   95.265
  417.250    4.983    0.202    0.382   98.000
  417.500    4.943    0.211    0.381   94.665
  417.750    4.831    0.226    0.375   86.059
  418.000    4.580    0.242    0.368   78.619
  418.250    4.349    0.247    0.366   81.169
  418.500    4.308    0.244    0.379   85.005
  418.750    4.330    0.196    0.366   88.171
  419.000    4.632    0.179    0.343   83.794
  419.250    5.342    0.133    0.322   81.932
  419.500    6.303    0.166    0.329   77.188
  419.750    6.819    0.213    0.356   80.903
  420.000    7.105    0.244    0.377   86.762
  420.250    6.762    0.247    0.386   90.477
  420.500    5.923    0.270    0.387   89.778
  420.750    5.247    0.290    0.412   84.239
  421.000    4.864    0.303    0.407   76.246
  421.250    4.655    0.297    0.394   81.003
  421.500    4.609    0.295    0.383   79.506
  421.750    4.633    0.301    0.375   81.201
  422.000    4.701    0.308    0.379   77.680
  422.250    4.779    0.315    0.379   75.573
  422.500    4.868    0.320    0.378   79.288
  422.750    4.986    0.323    0.384   75.772
  423.000    5.040    0.311    0.372   73.356
  423.250    5.075    0.292    0.363   76.823
  423.500    5.074    0.286    0.373   80.971
  423.750    5.071    0.278    0.404   87.075
  424.000    5.040    0.237    0.385   85.456
  424.250    5.009    0.228    0.370   85.432
  424.500    5.064    0.225    0.351   90.250
  424.750    5.167    0.219    0.343   94.519
  425.000    5.333    0.215    0.342   97.008
  425.250    5.555    0.212    0.355   99.312
  425.500    5.745    0.210    0.340  100.210
  425.750    5.962    0.211    0.352   95.588
  426.000    6.062    0.222    0.364   92.989
  426.250    6.082    0.235    0.355   86.836
  426.500    6.056    0.243    0.362   85.461
  426.750    6.030    0.245    0.372   83.906
  427.000    6.003    0.236    0.359   90.440
  427.250    5.991    0.225    0.355   95.258
  427.500    5.941    0.212    0.346   94.803
  427.750    5.917    0.225    0.337   93.004
  428.000    5.814    0.223    0.334   97.149
  428.250    5.693    0.215    0.353   92.098
  428.500    5.459    0.220    0.350   88.334
  428.750    5.205    0.214    0.353   85.307
  429.000    4.807    0.207    0.374   87.182
  429.250    4.506    0.210    0.389   97.029
  429.500    4.304    0.212    0.381  106.199
  429.750    4.278    0.216    0.377   94.526
  430.000    4.236    0.231    0.365   86.290
  430.250    3.788    0.218    0.357   81.915
