~VERSION INFORMATION
 VERS.                 2.0:   CWLS LOG ASCII STANDARD -VERSION 2.0
 WRAP.                  NO:   ONE LINE PER DEPTH STEP
~WELL INFORMATION BLOCK
#MNEM.UNIT           DATA                    DESCRIPTION OF MNEMONIC
#---------    -------------------            -------------------------------
# Generated from Intellog Unique Number	CW_79_81/WELL/2470
NULL.         -999.25                        : NULL_VALUE
WELL.         CHEVRON FINA MUSKWA            : Well_name    - WELL              
LOC .         10-18-081-04W5                 : Location     - LOCATION          
UWI .         00/10-18-081-04W5/0            : Uwi          - UNIQUE WELL ID    
ENTR.         MAX                            : Entered      - ENTERED BY        
SRVC.         SCHLUMBERGER                   : Scn          - SERVICE COMPANY   
DATE.         06 MAR 74                      : Date         - LOG DATE
STRT.M        298.704                        : top_depth    - START DEPTH       
STOP.M        542.204                        : bot_depth    - STOP DEPTH        
STEP.M        0.25                           : increment    - STEP LENGTH       
~CURVE INFORMATION BLOCK
#MNEM UNIT       ERCB CURVE CODE    CURVE DESCRIPTION
#-----------   ------------------   ----------------------------------
DEPT.M        00 001 00 00         : DEPTH        - DEPTH                       
ILD .OHMM     00 120 00 00         : RESD         - DEEP RESISTIVITY (DIL)      
NPHI.V/V      00 330 00 00         : PHIN         - NEUTRON POROSITY (SANDSTONE)
DPHI.V/V      00 890 00 00         : PHID         - DENSITY POROSITY (SANDSTONE)
GR  .API      00 310 00 00         : GR           - GAMMA RAY                   
CALI.MM       00 280 01 00         : CAL          - CALIPER                     
~PARAMETER INFORMATION       
#MNEM.UNIT           DATA             DESCRIPTION OF MNEMONIC
#---------         -----------     ------------------------------
GL  .M        596.189              : gl           - GROUND LEVEL ELEVATION      
EREF.M        599.999              : kb           - ELEVATION OF DEPTH REFERENCE
DATM.M        596.189              : datum        - DATUM ELEVATION             
TDD .M        541.934              : tdd          - TOTAL DEPTH DRILLER         
RUN .         ONE                  : Run          - RUN NUMBER                  
ENG .         BILL                 : Engineer     - RECORDING ENGINEER          
WIT .         JIM                  : Witness      - WITNESSED BY                
MUD .         GEL                  : Mud_type     - MUD TYPE                    
MATR.         SANDSTONE            : Logunit      - NEUTRON MATRIX              
TMAX.C        28.3333              : BHT          - MAXIMUM RECORDED TEMPERATURE
BHTD.M        541.934              : BHTDEP       - MAXIMUM RECORDED TEMPERATURE
MATR.         1                    : LOGUNIT      - NEUTRON MATRIX              
RMT .C        20.5556              : MDTP         - TEMPERATURE OF MUD          
NEUT.         1                    : NEUTRON      - NEUTRON TYPE                
RESI.         0                    : RESIST       - RESISTIVITY TYPE            
RMC .OHMM     7.58                 : RMC          - RESISTIVITY OF MUD CAKE     
RMF .OHMM     8.19                 : RMF          - RESISTIVITY OF MUD FILTRATE 
SUFT.C        -15                  : SUFT         - SURFACE TEMPERATURE         
~A  DEPTH     RESD     PHIN     PHID       GR      CAL
# ...
  444.704   18.626    0.377    0.218   77.461  199.067
  444.954   18.431    0.379    0.222   74.623  198.677
  445.204   18.172    0.384    0.227   70.838  198.988
  445.454   17.809    0.385    0.227   70.905  201.577
  445.704   17.284    0.389    0.224   72.393  202.424
  445.954   16.668    0.396    0.216   73.111  202.036
  446.204   16.167    0.395    0.205   73.295  202.848
  446.454   15.942    0.388    0.197   72.472  203.462
  446.704   15.978    0.382    0.196   70.700  203.273
  446.954   16.201    0.385    0.205   68.773  202.315
  447.204   16.714    0.391    0.229   69.769  201.492
  447.454   17.215    0.394    0.231   70.960  201.502
  447.704   17.637    0.397    0.224   72.150  202.114
  447.954   17.712    0.396    0.212   73.697  202.727
  448.204   17.398    0.391    0.202   75.897  203.241
  448.454   16.856    0.386    0.201   79.432  204.056
  448.704   16.609    0.379    0.201   81.660  204.069
  448.954   13.998    0.372    0.204   83.325  206.087
  449.204   10.521    0.374    0.204   85.701  207.201
  449.454    8.224    0.382    0.200   88.671  207.613
  449.704    6.809    0.397    0.193   91.640  207.726
  449.954    5.652    0.425    0.186   93.791  208.225
  450.204    4.940    0.434    0.186   95.033  208.655
  450.454    4.764    0.436    0.177   97.409  209.469
  450.704    4.724    0.438    0.168   98.897  210.282
  450.954    4.812    0.437    0.171   99.142  210.894
  451.204    4.985    0.430    0.181   98.794  211.307
  451.454    5.152    0.422    0.176   99.364  211.721
  451.704    5.234    0.421    0.169   98.630  211.733
  451.954    5.236    0.421    0.167   98.399  212.145
  452.204    5.210    0.421    0.167   99.058  212.557
  452.454    5.156    0.426    0.164  100.843  212.969
  452.704    5.083    0.433    0.161  103.160  213.282
  452.954    4.997    0.433    0.166  104.540  213.297
  453.204    4.924    0.436    0.167  104.301  213.309
  453.454    4.819    0.442    0.167  104.307  213.321
  453.704    4.743    0.445    0.161  106.091  213.633
  453.954    4.797    0.444    0.161  107.046  213.242
  454.204    5.022    0.437    0.171  106.224  212.148
  454.454    5.481    0.421    0.180  102.607  211.359
  454.704    5.875    0.421    0.172   93.972  211.370
  454.954    6.411    0.416    0.189   88.289  206.966
  455.204    6.962    0.413    0.200   85.629  205.572
  455.454    7.549    0.408    0.201   83.858  204.980
  455.704    8.147    0.402    0.193   82.206  204.590
  455.954    8.810    0.395    0.177   81.413  205.573
  456.204    9.742    0.387    0.171   82.160  206.421
  456.454   10.783    0.367    0.167   80.745  204.828
  456.704   11.204    0.352    0.150   79.152  203.234
  456.954   11.043    0.345    0.129   80.342  203.446
  457.204   10.452    0.349    0.118   84.733  204.963
  457.454    9.312    0.370    0.136   90.391  204.808
  457.704    8.139    0.385    0.170   91.387  203.984
  457.954    6.859    0.378    0.162   93.763  203.593
  458.204    6.279    0.383    0.165   96.140  203.503
  458.454    5.950    0.390    0.172   98.517  203.515
  458.704    5.751    0.395    0.180  100.421  203.627
  458.954    5.713    0.398    0.186  101.149  204.123
  459.204    5.715    0.406    0.196  102.390  204.554
  459.454    5.802    0.423    0.200  102.870  203.363
  459.704    5.858    0.426    0.190  101.397  202.470
  459.954    5.883    0.416    0.175  100.336  201.878
  460.204    5.885    0.401    0.163  100.402  202.090
  460.454    5.915    0.397    0.161  101.189  204.111
  460.704    6.056    0.399    0.162  103.912  204.123
  460.954    6.148    0.398    0.164  102.971  202.530
  461.204    6.173    0.396    0.166  100.430  199.130
  461.454    6.221    0.393    0.170   97.355  198.136
  461.704    6.316    0.391    0.172   95.701  199.851
  461.954    6.432    0.396    0.164   99.402  200.250
  462.204    6.535    0.394    0.165  104.841  198.170
  462.454    6.682    0.392    0.180  103.664  198.983
  462.704    6.796    0.386    0.173  101.063  203.409
  462.954    6.874    0.381    0.161  100.951  205.830
  463.204    6.878    0.379    0.152  104.098  205.843
  463.454    6.648    0.371    0.145  109.074  208.431
  463.704    6.261    0.364    0.141  113.773  209.280
  463.954    5.905    0.355    0.149  115.676  209.289
  464.204    5.698    0.364    0.144  116.867  209.901
  464.454    5.639    0.378    0.146  115.095  211.118
  464.704    5.703    0.389    0.157  109.413  211.432
  464.954    5.869    0.391    0.164   99.337  207.330
  465.204    6.054    0.384    0.170   95.148  204.833
  465.454    6.282    0.381    0.156   95.865  205.244
  465.704    6.413    0.381    0.149   95.871  205.657
  465.954    6.416    0.389    0.147   96.114  205.868
  466.204    6.290    0.398    0.154   96.713  206.079
  466.454    6.041    0.387    0.172   96.267  206.979
  466.704    5.908    0.383    0.156   92.818  207.409
  466.954    5.868    0.389    0.151   92.114  207.821
  467.204    5.924    0.393    0.155   91.053  206.428
  467.454    6.123    0.392    0.154   89.756  204.634
  467.704    6.471    0.389    0.145   88.459  203.442
  467.954    6.960    0.392    0.137   87.123  203.539
  468.204    7.179    0.389    0.124   85.156  203.970
  468.454    7.341    0.352    0.109   85.162  203.979
  468.704    7.265    0.329    0.070   90.145  204.291
  468.954    7.004    0.335    0.058   96.315  204.704
  469.204    6.581    0.364    0.087  100.706  204.915
  469.454    5.958    0.384    0.133  101.288  204.360
  469.704    5.782    0.384    0.147  101.789  203.535
  469.954    5.784    0.391    0.157  102.032  203.545
  470.204    5.979    0.400    0.155  102.631  205.364
  470.454    6.139    0.404    0.149  103.112  206.580
  470.704    6.176    0.400    0.141  103.179  206.491
  470.954    6.170    0.391    0.133  102.366  206.103
  471.204    6.127    0.397    0.131  100.644  206.112
  471.454    6.085    0.397    0.138  101.599  206.124
  471.704    6.076    0.387    0.138  101.131  206.136
  471.954    6.079    0.378    0.139  100.427  205.948
  472.204    6.093    0.375    0.142  100.255  205.759
  472.454    6.151    0.376    0.144  100.827  206.339
  472.704    6.201    0.381    0.143  100.093  207.187
  472.954    6.387    0.382    0.136   96.781  206.796
  473.204    6.615    0.371    0.136   98.269  205.503
  473.454    6.841    0.356    0.135   99.342  204.711
  473.704    7.035    0.343    0.135   98.163  204.720
  473.954    7.249    0.333    0.138   96.078  204.400
  474.204    7.535    0.321    0.139   95.097  202.740
  474.454    7.875    0.314    0.136   92.023  202.350
  474.704    8.586    0.304    0.127   90.014  202.260
  474.954   10.051    0.297    0.114   88.243  202.271
  475.204   12.747    0.297    0.095   85.583  202.182
  475.454   17.362    0.294    0.056   78.885  201.712
  475.704   21.423    0.258    0.025   70.249  201.305
  475.954   24.393    0.239    0.004   68.123  201.315
  476.204   24.590    0.235    0.003   67.418  201.326
  476.454   23.362    0.239    0.008   67.544  201.539
  476.704   21.717    0.245    0.012   68.084  202.053
  476.954   19.242    0.248    0.012   69.296  203.369
  477.204   16.942    0.251    0.014   71.772  205.889
  477.454   14.497    0.265    0.020   77.468  205.901
  477.704   11.698    0.297    0.058   82.096  205.310
  477.954    9.247    0.333    0.094   87.790  204.317
  478.204    7.567    0.362    0.118   93.960  203.224
  478.454    6.717    0.378    0.134   96.892  202.434
  478.704    6.569    0.384    0.128   94.923  202.446
  478.954    6.524    0.387    0.139   92.086  202.858
  479.204    6.514    0.378    0.148   91.737  203.873
  479.454    6.493    0.367    0.154   92.929  204.487
  479.704    6.413    0.362    0.157   95.128  204.599
  479.954    6.233    0.365    0.160   98.069  204.929
  480.204    6.236    0.370    0.159   97.334  204.523
  480.454    6.331    0.381    0.146   96.868  204.132
  480.704    6.357    0.394    0.137   97.822  203.742
  480.954    6.314    0.400    0.135   97.236  203.553
