~VERSION INFORMATION
 VERS.                 2.0:   CWLS LOG ASCII STANDARD -VERSION 2.0
 WRAP.                  NO:   ONE LINE PER DEPTH STEP
~WELL INFORMATION BLOCK
#MNEM.UNIT           DATA                    DESCRIPTION OF MNEMONIC
#---------    -------------------            -------------------------------
# Generated from Intellog Unique Number	CS_77_79/WELL/957
WELL.         MESA HB LEISMER                : Well_name    - WELL
LOC .         00/10-18-078-10W4/0            : Location     - LOCATION
UWI .         00/10-18-078-10W4/0            : Uwi          - UNIQUE WELL ID
ENTR.         JHS                            : Entered      - ENTERED BY
SRVC.         SCHLUMBERGER                   : Scn          - SERVICE COMPANY
STRT.M        243.84                         : top_depth    - START DEPTH
STOP.M        475.34                         : bot_depth    - STOP DEPTH
STEP.M        0.25                           : increment    - STEP LENGTH
 NULL. -999.2500:NULL Value
~CURVE INFORMATION BLOCK
#MNEM UNIT       ERCB CURVE CODE    CURVE DESCRIPTION
#-----------   ------------------   ----------------------------------
DEPT.M        00 001 00 00         : DEPTH        - DEPTH
RHOB.KG/M3    00 350 00 00         : DENS         - BULK DENSITY
GR  .API      00 310 00 00         : GR           - GAMMA RAY
DPHI.V/V      00 890 00 00         : PHID         - DENSITY POROSITY (SANDSTONE)
NPHI.V/V      00 330 00 00         : PHIN         - NEUTRON POROSITY (SANDSTONE)
ILD .OHMM     00 120 00 00         : RESD         - DEEP RESISTIVITY (DIL)
~PARAMETER INFORMATION
#MNEM.UNIT           DATA             DESCRIPTION OF MNEMONIC
#---------         -----------     ------------------------------
GL  .M        662.33               : gl           - GROUND LEVEL ELEVATION
EREF.M        666.293              : kb           - ELEVATION OF DEPTH REFERENCE
DATM.M        666.293              : datum        - DATUM ELEVATION
TDD .M        487.68               : tdd          - TOTAL DEPTH DRILLER
RUN .         ONE                  : Run          - RUN NUMBER
ENG .         BILL                 : Engineer     - RECORDING ENGINEER
WIT .         JIM                  : Witness      - WITNESSED BY
MUD .         GEL                  : Mud_type     - MUD TYPE
MATR.         SANDSTONE            : Logunit      - NEUTRON MATRIX
TMAX.C        22.2222              : BHT          - MAXIMUM RECORDED TEMPERATURE
BHTD.M        487.68               : BHTDEP       - MAXIMUM RECORDED TEMPERATURE
MATR.         1                    : LOGUNIT      - NEUTRON MATRIX
RMT .C        25                   : MDTP         - TEMPERATURE OF MUD
NEUT.         1                    : NEUTRON      - NEUTRON TYPE
RESI.         0                    : RESIST       - RESISTIVITY TYPE
RMC .OHMM     0.25                 : RMC          - RESISTIVITY OF MUD CAKE
RMF .OHMM     0.25                 : RMF          - RESISTIVITY OF MUD FILTRATE
SUFT.C        15                   : SUFT         - SURFACE TEMPERATURE
~A  DEPTH     DENS       GR     PHID     PHIN     RESD
  243.840    0.000  109.638    0.266    0.564    3.143
  244.090    0.000  112.653    0.256    0.554    3.143
  244.340    0.000  110.446    0.276    0.577    3.144
  244.590    0.000  110.132    0.287    0.550    3.144
  244.840    0.000  113.234    0.283    0.555    3.151
  245.090    0.000  112.828    0.280    0.561    3.085
  245.340    0.000  109.603    0.286    0.562    3.038
  245.590    0.000  112.166    0.278    0.560    3.005
  245.840    0.000  109.458    0.269    0.586    2.972
  246.090    0.000  110.189    0.275    0.583    2.929
  246.340    0.000  107.811    0.281    0.561    2.806
  246.590    0.000  104.785    0.314    0.567    2.818
  246.840    0.000  107.947    0.305    0.561    2.874
  247.090    0.000  109.280    0.318    0.559    2.871
  247.340    0.000  107.819    0.323    0.549    2.871
  247.590    0.000  109.400    0.313    0.561    2.876
  247.840    0.000  113.214    0.311    0.562    2.812
  248.090    0.000  113.988    0.315    0.582    2.861
  248.340    0.000  110.719    0.330    0.587    2.979
  248.590    0.000  108.338    0.306    0.585    3.106
  248.840    0.000  106.355    0.273    0.604    3.243
  249.090    0.000  102.720    0.257    0.583    3.425
  249.340    0.000   97.394    0.219    0.545    3.526
  249.590    0.000   96.597    0.174    0.518    3.641
  249.840    0.000  101.738    0.096    0.548    3.651
  250.090    0.000  108.435    0.213    0.519    3.654
  250.340    0.000  111.970    0.244    0.509    3.544
  250.590    0.000  108.922    0.264    0.521    3.437
  250.840    0.000  106.023    0.253    0.544    3.395
  251.090    0.000  105.668    0.253    0.544    3.390
  251.340    0.000  105.457    0.272    0.516    3.471
  251.590    0.000  104.348    0.266    0.501    3.641
  251.840    0.000  106.502    0.260    0.493    3.798
  252.090    0.000  105.678    0.275    0.492    3.864
  252.340    0.000  103.108    0.262    0.518    3.873
  252.590    0.000  103.863    0.268    0.526    3.772
  252.840    0.000  108.541    0.272    0.504    3.587
  253.090    0.000  109.674    0.284    0.522    3.485
  253.340    0.000  108.794    0.262    0.545    3.399
  253.590    0.000  107.801    0.261    0.522    3.339
  253.840    0.000  107.756    0.235    0.524    3.374
  254.090    0.000  108.605    0.247    0.522    3.487
  254.340    0.000  108.503    0.258    0.514    3.785
  254.590    0.000  106.613    0.241    0.506    3.955
  254.840    0.000  103.984    0.250    0.507    4.026
  255.090    0.000  100.397    0.248    0.499    4.089
  255.340    0.000   98.805    0.257    0.470    4.172
  255.590    0.000   98.104    0.233    0.480    4.257
  255.840    0.000   95.624    0.243    0.509    4.386
  256.090    0.000   91.197    0.228    0.451    4.516
  256.340    0.000   83.053    0.234    0.430    4.750
  256.590    0.000   87.150    0.242    0.469    5.110
  256.840    0.000   93.419    0.225    0.467    5.440
  257.090    0.000   96.830    0.254    0.445    5.601
  257.340    0.000   97.889    0.255    0.434    5.722
  257.590    0.000   98.082    0.251    0.429    5.729
  257.840    0.000   99.132    0.249    0.449    5.993
  258.090    0.000  100.593    0.235    0.434    6.695
  258.340    0.000  100.380    0.252    0.423    7.307
  258.590    0.000   97.708    0.262    0.413    7.976
  258.840    0.000   98.229    0.240    0.405    8.960
  259.090    0.000   99.936    0.224    0.403    9.805
  259.340    0.000   95.726    0.224    0.406   10.646
  259.590    0.000   92.445    0.285    0.438   10.772
  259.840    0.000   91.523    0.376    0.464   10.918
  260.090    0.000   85.163    0.438    0.557   10.909
  260.340    0.000   71.329    0.576    0.614   11.229
  260.590    0.000   66.767    0.541    0.620   11.748
  260.840    0.000   70.841    0.487    0.599   11.637
  261.090    0.000   81.527    0.378    0.566   11.544
  261.340    0.000   86.346    0.294    0.415   11.724
  261.590    0.000   86.698    0.274    0.386   12.200
  261.840    0.000   81.364    0.247    0.399   12.714
  262.090    0.000   71.640    0.251    0.428   14.166
  262.340    0.000   59.172    0.291    0.418   15.556
  262.590    0.000   54.750    0.331    0.403   17.046
  262.840    0.000   63.000    0.327    0.393   16.337
  263.090    0.000   68.824    0.314    0.378   13.279
  263.340    0.000   79.059    0.301    0.390   10.609
  263.590    0.000   87.808    0.229    0.412    9.190
  263.840    0.000   96.597    0.211    0.431    8.730
  264.090    0.000   92.883    0.202    0.439    8.908
  264.340    0.000   83.268    0.178    0.414    9.238
  264.590    0.000   79.210    0.142    0.389   10.333
  264.840    0.000   84.190    0.137    0.387   12.882
  265.090    0.000   89.252    0.211    0.404   14.789
  265.340    0.000   86.956    0.274    0.408   16.185
  265.590    0.000   82.019    0.304    0.414   17.524
  265.840    0.000   79.996    0.338    0.424   18.513
  266.090    0.000   67.433    0.342    0.428   19.057
  266.340    0.000   63.446    0.327    0.425   18.855
  266.590    0.000   66.772    0.311    0.442   18.279
  266.840    0.000   69.603    0.314    0.449   17.739
  267.090    0.000   73.249    0.318    0.426   17.369
  267.340    0.000   76.179    0.323    0.432   17.425
  267.590    0.000   81.404    0.331    0.435   18.014
  267.840    0.000   82.990    0.330    0.430   18.066
  268.090    0.000   88.326    0.325    0.432   17.678
  268.340    0.000   93.248    0.331    0.446   17.127
  268.590    0.000   98.915    0.331    0.442   16.997
  268.840    0.000  101.108    0.311    0.441   16.460
  269.090    0.000   96.286    0.313    0.423   16.263
  269.340    0.000   89.788    0.313    0.411   16.244
  269.590    0.000   87.270    0.277    0.416   16.764
  269.840    0.000   85.404    0.267    0.406   17.273
  270.090    0.000   81.879    0.289    0.381   17.761
  270.340    0.000   80.903    0.279    0.363   17.731
  270.590    0.000   91.974    0.258    0.352   17.562
  270.840    0.000   99.053    0.249    0.361   17.389
  271.090    0.000  101.697    0.257    0.400   16.873
  271.340    0.000  101.831    0.274    0.398   16.043
  271.590    0.000   99.740    0.293    0.406   15.275
  271.840    0.000   96.338    0.280    0.405   14.839
  272.090    0.000   93.443    0.246    0.391   14.409
  272.340    0.000   94.465    0.242    0.380   13.710
  272.590    0.000   93.295    0.255    0.373   12.933
  272.840    0.000   89.627    0.266    0.396   11.472
  273.090    0.000  108.359    0.241    0.434    9.888
  273.340    0.000  114.714    0.208    0.455    8.824
  273.590    0.000  115.914    0.186    0.470    8.249
  273.840    0.000  116.605    0.177    0.458    7.527
  274.090    0.000  120.723    0.165    0.455    6.982
  274.340    0.000  126.532    0.132    0.460    6.644
  274.590    0.000  125.965    0.196    0.461    6.250
  274.840    0.000  127.786    0.215    0.460    6.060
  275.090    0.000  133.106    0.215    0.479    5.639
  275.340    0.000  134.017    0.207    0.498    4.977
  275.590    0.000  134.087    0.210    0.509    4.625
  275.840    0.000  132.439    0.215    0.520    4.296
  276.090    0.000  131.821    0.216    0.538    3.963
  276.340    0.000  131.005    0.223    0.567    3.749
  276.590    0.000  131.013    0.214    0.573    3.634
  276.840    0.000  134.317    0.203    0.545    3.701
  277.090    0.000  131.225    0.221    0.535    3.879
  277.340    0.000  125.171    0.249    0.539    4.532
  277.590    0.000  119.287    0.268    0.522    5.401
  277.840    0.000  104.747    0.302    0.495    7.442
  278.090    0.000   87.578    0.344    0.471    9.269
  278.340    0.000   82.011    0.342    0.421   12.113
  278.590    0.000   89.088    0.300    0.405   13.505
  278.840    0.000   95.325    0.281    0.410   13.924
  279.090    0.000   94.237    0.260    0.429   13.222
  279.340    0.000   90.886    0.276    0.415   13.245
  279.590    0.000   91.377    0.280    0.401   14.082
  279.840    0.000   94.401    0.309    0.406   14.581
  280.090    0.000   88.849    0.327    0.427   14.078
