~VERSION INFORMATION
 VERS.                 2.0:   CWLS LOG ASCII STANDARD -VERSION 2.0
 WRAP.                  NO:   ONE LINE PER DEPTH STEP
~WELL INFORMATION BLOCK
#MNEM.UNIT           DATA                    DESCRIPTION OF MNEMONIC
#---------    -------------------            -------------------------------
# Generated from Intellog Unique Number	CS_77_79/WELL/974
WELL.         AMOCO B-3 LEISMER              : Well_name    - WELL
LOC .         00/10-27-078-09W4/0            : Location     - LOCATION
UWI .         00/10-27-078-09W4/0            : Uwi          - UNIQUE WELL ID
ENTR.         JHS                            : Entered      - ENTERED BY
SRVC.         SCHLUMBERGER                   : Scn          - SERVICE COMPANY
STRT.M        192.024                        : top_depth    - START DEPTH
STOP.M        420.274                        : bot_depth    - STOP DEPTH
STEP.M        0.25                           : increment    - STEP LENGTH
 NULL. -999.2500:NULL Value
~CURVE INFORMATION BLOCK
#MNEM UNIT       ERCB CURVE CODE    CURVE DESCRIPTION
#-----------   ------------------   ----------------------------------
DEPT.M        00 001 00 00         : DEPTH        - DEPTH
GR  .API      00 310 00 00         : GR           - GAMMA RAY
DPHI.V/V      00 890 00 00         : PHID         - DENSITY POROSITY (SANDSTONE)
NPHI.V/V      00 330 00 00         : PHIN         - NEUTRON POROSITY (SANDSTONE)
ILD .OHMM     00 120 00 00         : RESD         - DEEP RESISTIVITY (DIL)
~PARAMETER INFORMATION
#MNEM.UNIT           DATA             DESCRIPTION OF MNEMONIC
#---------         -----------     ------------------------------
GL  .M        625.693              : gl           - GROUND LEVEL ELEVATION
EREF.M        629.26               : kb           - ELEVATION OF DEPTH REFERENCE
DATM.M        629.26               : datum        - DATUM ELEVATION
TDD .M        419.1                : tdd          - TOTAL DEPTH DRILLER
RUN .         ONE                  : Run          - RUN NUMBER
ENG .         BILL                 : Engineer     - RECORDING ENGINEER
WIT .         JIM                  : Witness      - WITNESSED BY
MUD .         GEL                  : Mud_type     - MUD TYPE
MATR.         SANDSTONE            : Logunit      - NEUTRON MATRIX
TMAX.C        60                   : BHT          - MAXIMUM RECORDED TEMPERATURE
BHTD.M        419.1                : BHTDEP       - MAXIMUM RECORDED TEMPERATURE
MATR.         1                    : LOGUNIT      - NEUTRON MATRIX
RMT .C        25                   : MDTP         - TEMPERATURE OF MUD
NEUT.         1                    : NEUTRON      - NEUTRON TYPE
RESI.         0                    : RESIST       - RESISTIVITY TYPE
RMC .OHMM     0.25                 : RMC          - RESISTIVITY OF MUD CAKE
RMF .OHMM     0.25                 : RMF          - RESISTIVITY OF MUD FILTRATE
SUFT.C        15                   : SUFT         - SURFACE TEMPERATURE
~A  DEPTH       GR     PHID     PHIN     RESD
# ...
  322.524   93.684    0.253    0.505    2.922
  322.774   95.349    0.255    0.511    3.429
  323.024   93.530    0.280    0.517    4.270
  323.274   89.437    0.285    0.484    4.730
  323.524   85.971    0.303    0.453    5.271
  323.774   83.374    0.326    0.426    5.769
  324.024   79.262    0.335    0.401    6.313
  324.274   74.230    0.341    0.386    6.824
  324.524   74.434    0.349    0.389    7.145
  324.774   79.077    0.328    0.401    7.156
  325.024   78.594    0.337    0.418    6.971
  325.274   75.877    0.352    0.428    6.844
  325.524   76.597    0.311    0.441    6.411
  325.774   77.941    0.303    0.456    6.088
  326.024   77.719    0.328    0.474    5.908
  326.274   75.075    0.316    0.498    5.835
  326.524   73.673    0.294    0.520    5.714
  326.774   77.926    0.291    0.468    5.735
  327.024   84.757    0.284    0.452    5.823
  327.274   85.246    0.289    0.447    5.939
  327.524   88.502    0.294    0.445    6.053
  327.774   90.820    0.292    0.441    6.120
  328.024   90.700    0.288    0.454    6.286
  328.274   91.337    0.285    0.450    6.277
  328.524   91.572    0.282    0.432    6.355
  328.774   85.463    0.296    0.422    6.391
  329.024   81.694    0.292    0.418    6.393
  329.274   84.227    0.283    0.427    6.389
  329.524   88.337    0.268    0.440    6.371
  329.774   92.861    0.267    0.448    6.279
  330.024   95.081    0.260    0.450    6.153
  330.274   92.527    0.258    0.460    6.025
  330.524   90.829    0.258    0.471    5.930
  330.774   93.570    0.261    0.476    5.973
  331.024   92.592    0.275    0.444    6.040
  331.274   88.694    0.269    0.431    6.125
  331.524   84.727    0.286    0.436    6.178
  331.774   88.388    0.298    0.441    6.386
  332.024   90.434    0.297    0.446    6.385
  332.274   91.609    0.316    0.438    6.387
  332.524   89.949    0.339    0.456    6.385
  332.774   85.899    0.360    0.474    6.331
  333.024   83.468    0.363    0.489    6.128
  333.274   81.326    0.350    0.474    6.044
  333.524   82.078    0.339    0.464    5.924
  333.774   83.720    0.334    0.480    5.810
  334.024   84.084    0.288    0.478    5.820
  334.274   85.139    0.274    0.476    5.844
  334.524   85.514    0.304    0.483    6.036
  334.774   84.157    0.280    0.498    6.102
  335.024   86.126    0.302    0.472    6.309
  335.274   87.412    0.293    0.466    6.269
  335.524   86.118    0.303    0.459    6.266
  335.774   84.054    0.319    0.463    6.262
  336.024   83.217    0.297    0.469    6.261
  336.274   81.915    0.287    0.474    6.260
  336.524   85.257    0.287    0.474    6.259
  336.774   86.367    0.302    0.453    6.270
  337.024   83.172    0.305    0.445    6.129
  337.274   79.529    0.305    0.457    6.139
  337.524   79.695    0.295    0.481    6.026
  337.774   77.866    0.300    0.471    6.070
  338.024   70.033    0.311    0.442    6.032
  338.274   61.287    0.198    0.397    6.160
  338.524   52.703    0.011    0.291    6.582
  338.774   48.688    0.017    0.211    7.200
  339.024   47.415    0.048    0.191    8.118
  339.274   50.769    0.087    0.206    7.914
  339.524   54.415    0.126    0.236    6.989
  339.774   65.126    0.149    0.261    6.316
  340.024   72.132    0.234    0.291    5.900
  340.274   75.005    0.297    0.408    5.762
  340.524   73.811    0.305    0.455    5.587
  340.774   72.424    0.313    0.461    5.591
  341.024   74.108    0.315    0.484    5.578
  341.274   77.739    0.321    0.486    5.699
  341.524   76.795    0.325    0.466    5.797
  341.774   75.272    0.322    0.463    5.799
  342.024   77.795    0.310    0.464    5.805
  342.274   80.250    0.298    0.450    5.708
  342.524   82.930    0.294    0.470    5.484
  342.774   92.655    0.284    0.479    5.262
  343.024   96.022    0.261    0.469    5.005
  343.274   95.606    0.252    0.485    4.999
  343.524   87.991    0.268    0.494    4.999
  343.774   84.153    0.288    0.482    5.158
  344.024   83.271    0.315    0.476    5.317
  344.274   81.715    0.297    0.487    5.480
  344.524   78.052    0.292    0.498    5.768
  344.774   78.099    0.312    0.477    5.969
  345.024   74.136    0.303    0.460    6.120
  345.274   71.620    0.306    0.449    6.371
  345.524   71.600    0.293    0.448    6.492
  345.774   72.681    0.285    0.448    6.468
  346.024   72.728    0.281    0.439    6.612
  346.274   72.066    0.293    0.430    6.600
  346.524   72.665    0.270    0.443    6.599
  346.774   72.070    0.249    0.454    6.598
  347.024   70.267    0.238    0.459    6.598
  347.274   71.497    0.267    0.443    6.596
  347.524   75.909    0.274    0.431    6.591
  347.774   80.510    0.273    0.440    6.711
  348.024   79.494    0.290    0.459    6.853
  348.274   79.089    0.276    0.469    6.840
  348.524   80.075    0.261    0.477    6.960
  348.774   78.377    0.263    0.497    6.966
  349.024   74.392    0.278    0.488    6.957
  349.274   73.982    0.277    0.459    6.835
  349.524   75.480    0.265    0.457    6.800
  349.774   79.572    0.283    0.457    6.589
  350.024   78.590    0.291    0.448    6.524
  350.274   77.288    0.298    0.448    6.180
  350.524   75.872    0.309    0.440    6.005
  350.774   79.189    0.302    0.435    5.824
  351.024   83.086    0.282    0.432    5.650
  351.274   87.798    0.237    0.432    5.473
  351.524   91.293    0.223    0.434    5.424
  351.774   91.426    0.229    0.438    5.261
  352.024   89.682    0.244    0.443    5.276
  352.274   95.027    0.260    0.454    5.159
  352.524  100.590    0.234    0.465    5.165
  352.774  102.517    0.221    0.473    5.333
  353.024   99.160    0.204    0.462    5.482
  353.274   99.702    0.209    0.453    5.677
  353.524  102.938    0.213    0.451    5.891
  353.774  106.066    0.198    0.443    5.996
  354.024  106.380    0.206    0.426    6.219
  354.274  107.748    0.222    0.407    6.232
  354.524  108.940    0.202    0.398    6.101
  354.774  107.277    0.202    0.408    6.017
  355.024  102.649    0.227    0.433    5.663
  355.274   98.878    0.222    0.439    5.324
  355.524   96.670    0.198    0.419    4.771
  355.774   98.240    0.214    0.424    4.318
  356.024   96.038    0.227    0.453    3.816
  356.274   95.413    0.224    0.478    3.395
  356.524   96.854    0.225    0.482    2.893
  356.774   93.745    0.238    0.486    2.452
  357.024   90.539    0.263    0.506    2.144
  357.274   91.917    0.300    0.543    2.074
  357.524   93.291    0.268    0.524    2.037
  357.774   88.302    0.263    0.519    2.035
  358.024   85.132    0.275    0.532    2.033
  358.274   86.794    0.278    0.541    2.068
  358.524   89.528    0.265    0.515    2.087
  358.774   92.177    0.265    0.517    2.155
  359.024   94.710    0.262    0.526    2.253
  359.274   96.311    0.241    0.542    2.402
  359.524   98.061    0.234    0.523    2.748
  359.774   95.773    0.223    0.512    3.088
  360.024   96.039    0.203    0.471    3.532
  360.274   96.966    0.205    0.457    3.967
  360.524   94.543    0.222    0.466    4.563
  360.774   95.351    0.211    0.478    4.838
  361.024   95.216    0.203    0.454    5.234
  361.274   95.895    0.209    0.443    5.531
  361.524   99.605    0.217    0.431    5.427
  361.774  101.068    0.195    0.437    4.937
  362.024   99.787    0.207    0.446    4.591
  362.274   98.185    0.196    0.451    4.176
  362.524   97.202    0.198    0.452    3.918
  362.774   96.510    0.219    0.465    3.720
  363.024   98.276    0.225    0.472    3.617
  363.274   99.919    0.221    0.472    3.510
  363.524  100.919    0.233    0.470    3.419
  363.774  101.337    0.222    0.468    3.360
  364.024  101.621    0.215    0.466    3.366
  364.274  103.624    0.230    0.464    3.297
  364.524  107.261    0.233    0.463    3.416
  364.774  106.642    0.222    0.484    3.471
  365.024  103.510    0.201    0.472    3.701
  365.274   99.779    0.208    0.446    3.941
  365.524   99.112    0.193    0.427    4.093
  365.774  101.432    0.205    0.463    4.356
