~VERSION INFORMATION
 VERS.                 2.0:   CWLS LOG ASCII STANDARD -VERSION 2.0
 WRAP.                  NO:   ONE LINE PER DEPTH STEP
~WELL INFORMATION BLOCK
#MNEM.UNIT           DATA                    DESCRIPTION OF MNEMONIC
#---------    -------------------            -------------------------------
# Generated from Intellog Unique Number	CS_73_76/WELL/3278
WELL.         BOW VALLEY EXPLORATION         : Well_name    - WELL
LOC .         00/15-06-075-13W4/0            : Location     - LOCATION
UWI .         00/15-06-075-13W4/0            : Uwi          - UNIQUE WELL ID
ENTR.         SP                             : Entered      - ENTERED BY
SRVC.         SCHLUMBERGER                   : Scn          - SERVICE COMPANY
STRT.M        375                            : top_depth    - START DEPTH
STOP.M        615                            : bot_depth    - STOP DEPTH
STEP.M        0.25                           : increment    - STEP LENGTH
 NULL. -999.2500:NULL Value
~CURVE INFORMATION BLOCK
#MNEM UNIT       ERCB CURVE CODE    CURVE DESCRIPTION
#-----------   ------------------   ----------------------------------
DEPT.M        00 001 00 00         : DEPTH        - DEPTH
ILD .OHMM     00 120 00 00         : RESD         - DEEP RESISTIVITY (DIL)
DPHI.V/V      00 890 00 00         : PHID         - DENSITY POROSITY (LIMESTONE)
NPHI.V/V      00 330 00 00         : PHIN         - NEUTRON POROSITY (LIMESTONE)
GR  .API      00 310 00 00         : GR           - GAMMA RAY
~PARAMETER INFORMATION
#MNEM.UNIT           DATA             DESCRIPTION OF MNEMONIC
#---------         -----------     ------------------------------
GL  .M        742.4                : gl           - GROUND LEVEL ELEVATION
EREF.M        745.6                : kb           - ELEVATION OF DEPTH REFERENCE
DATM.M        742.4                : datum        - DATUM ELEVATION
TDD .M        636                  : tdd          - TOTAL DEPTH DRILLER
RUN .         ONE                  : Run          - RUN NUMBER
ENG .         BILL                 : Engineer     - RECORDING ENGINEER
WIT .         JIM                  : Witness      - WITNESSED BY
MUD .         GEL                  : Mud_type     - MUD TYPE
MATR.         LIMESTONE            : Logunit      - NEUTRON MATRIX
TMAX.C        14                   : BHT          - MAXIMUM RECORDED TEMPERATURE
BHTD.M        636                  : BHTDEP       - MAXIMUM RECORDED TEMPERATURE
MATR.         1                    : LOGUNIT      - NEUTRON MATRIX
RMT .C        25                   : MDTP         - TEMPERATURE OF MUD
NEUT.         1                    : NEUTRON      - NEUTRON TYPE
RESI.         0                    : RESIST       - RESISTIVITY TYPE
RMC .OHMM     0.25                 : RMC          - RESISTIVITY OF MUD CAKE
RMF .OHMM     0.25                 : RMF          - RESISTIVITY OF MUD FILTRATE
SUFT.C        15                   : SUFT         - SURFACE TEMPERATURE
~A  DEPTH     RESD     PHID     PHIN       GR
# ...
  462.000    9.612    0.367    0.466   56.631
  462.250    9.609    0.373    0.454   58.436
  462.500    9.606    0.365    0.444   60.844
  462.750    9.603    0.348    0.433   62.649
  463.000    9.600    0.340    0.443   62.045
  463.250    9.598    0.318    0.449   59.633
  463.500    9.595    0.282    0.432   59.029
  463.750    9.592    0.266    0.390   58.426
  464.000    9.590    0.311    0.406   57.219
  464.250    9.587    0.310    0.423   57.820
  464.500    9.407    0.300    0.425   59.626
  464.750    9.404    0.316    0.421   63.238
  465.000    9.229    0.321    0.417   64.442
  465.250    8.099    0.301    0.411   68.656
  465.500    7.241    0.279    0.427   72.269
  465.750    6.845    0.256    0.444   75.279
  466.000    6.717    0.226    0.457   77.085
  466.250    6.715    0.220    0.448   80.095
  466.500    6.589    0.246    0.443   80.696
  466.750    6.587    0.250    0.450   81.297
  467.000    6.227    0.244    0.457   83.102
  467.250    5.998    0.246    0.450   85.510
  467.500    5.671    0.238    0.457   86.713
  467.750    5.262    0.233    0.463   86.109
  468.000    4.883    0.243    0.471   85.504
  468.250    4.366    0.255    0.480   86.106
  468.500    3.831    0.267    0.501   88.514
  468.750    3.300    0.281    0.520   90.319
  469.000    3.120    0.294    0.530   91.522
  469.250    3.062    0.283    0.540   89.111
  469.500    3.060    0.272    0.537   86.699
  469.750    3.003    0.266    0.532   87.300
  470.000    3.002    0.273    0.525   92.117
  470.250    3.002    0.286    0.515   95.127
  470.500    3.114    0.303    0.525   93.319
  470.750    3.231    0.306    0.517   86.088
  471.000    3.353    0.323    0.520   81.870
  471.250    3.545    0.329    0.513   75.844
  471.500    3.678    0.307    0.484   69.819
  471.750    3.962    0.328    0.445   71.624
  472.000    4.111    0.337    0.430   76.441
  472.250    3.675    0.317    0.431   81.259
  472.500    3.475    0.301    0.434   85.474
  472.750    4.343    0.307    0.445   89.689
  473.000    5.039    0.304    0.450   93.301
  473.250    4.029    0.282    0.455   94.505
  473.500    3.221    0.281    0.512   96.913
  473.750    2.673    0.300    0.557   93.899
  474.000    2.346    0.304    0.592   90.885
  474.250    2.137    0.312    0.588   89.076
  474.500    2.389    0.333    0.604   86.062
  474.750    2.771    0.315    0.522   81.241
  475.000    3.216    0.300    0.485   76.420
  475.250    3.945    0.299    0.448   73.407
  475.500    4.578    0.325    0.437   71.598
  475.750    5.023    0.343    0.437   72.801
  476.000    5.410    0.346    0.439   73.402
  476.250    5.510    0.348    0.434   73.400
  476.500    5.717    0.329    0.442   73.399
  476.750    5.715    0.321    0.453   73.999
  477.000    5.821    0.331    0.456   75.804
  477.250    5.929    0.335    0.456   76.406
  477.500    6.038    0.334    0.465   77.006
  477.750    6.036    0.323    0.471   78.209
  478.000    6.148    0.315    0.465   80.014
  478.250    6.262    0.291    0.447   80.615
  478.500    6.378    0.268    0.438   80.614
  478.750    6.376    0.270    0.443   77.600
  479.000    6.493    0.293    0.447   75.189
  479.250    6.372    0.302    0.443   76.391
  479.500    6.370    0.312    0.435   78.799
  479.750    6.251    0.294    0.437   81.207
  480.000    6.249    0.285    0.461   83.615
  480.250    6.247    0.274    0.457   86.023
  480.500    6.246    0.271    0.451   87.226
  480.750    6.243    0.279    0.459   89.031
  481.000    6.359    0.271    0.455   90.235
  481.250    6.476    0.225    0.437   90.836
  481.500    6.596    0.166    0.418   87.822
  481.750    6.595    0.200    0.356   79.386
  482.000    6.592    0.222    0.363   74.566
  482.250    6.591    0.287    0.398   76.371
  482.500    6.589    0.279    0.433   78.778
  482.750    6.587    0.273    0.436   79.982
  483.000    6.463    0.263    0.437   81.185
  483.250    6.462    0.247    0.450   82.388
  483.500    6.460    0.237    0.461   82.386
  483.750    6.458    0.247    0.454   82.385
  484.000    6.337    0.252    0.465   82.986
  484.250    6.104    0.264    0.470   84.189
  484.500    5.989    0.270    0.464   84.789
  484.750    5.877    0.277    0.458   83.583
  485.000    5.767    0.267    0.453   81.171
  485.250    5.554    0.252    0.450   81.170
  485.500    5.553    0.241    0.467   83.578
  485.750    5.448    0.254    0.489   85.383
  486.000    5.447    0.264    0.501   87.188
  486.250    5.446    0.270    0.500   88.391
  486.500    5.444    0.280    0.490   88.992
  486.750    5.443    0.298    0.479   82.966
  487.000    5.340    0.231    0.465   81.760
  487.250    5.339    0.234    0.475   80.554
  487.500    5.337    0.237    0.477   75.130
  487.750    5.336    0.227    0.437   75.731
  488.000    5.434    0.231    0.444   78.741
  488.250    5.433    0.244    0.446   81.149
  488.500    5.533    0.244    0.444   79.340
  488.750    5.532    0.251    0.458   78.736
  489.000    5.530    0.263    0.475   78.735
  489.250    5.529    0.258    0.477   76.926
  489.500    5.527    0.247    0.477   74.514
  489.750    5.630    0.239    0.465   74.513
  490.000    5.628    0.262    0.458   76.920
  490.250    5.732    0.269    0.455   78.726
  490.500    5.730    0.275    0.453   79.327
  490.750    5.836    0.278    0.450   78.722
  491.000    5.944    0.286    0.444   78.118
  491.250    5.942    0.296    0.436   77.514
  491.500    6.052    0.298    0.430   76.307
  491.750    6.050    0.285    0.431   75.704
  492.000    5.936    0.282    0.436   75.099
  492.250    5.935    0.284    0.437   76.303
  492.500    5.824    0.285    0.433   77.505
  492.750    5.715    0.285    0.425   76.901
  493.000    5.608    0.286    0.423   75.695
  493.250    5.606    0.296    0.425   73.886
  493.500    5.501    0.304    0.431   72.680
  493.750    5.500    0.305    0.438   72.076
  494.000    5.498    0.303    0.444   70.869
  494.250    5.496    0.302    0.448   70.265
  494.500    5.495    0.302    0.453   72.673
  494.750    5.597    0.304    0.446   73.876
  495.000    5.595    0.307    0.431   74.477
  495.250    5.593    0.308    0.419   72.065
  495.500    5.592    0.309    0.411   69.051
  495.750    5.590    0.312    0.418   67.243
  496.000    5.485    0.310    0.427   70.855
  496.250    5.283    0.306    0.430   72.058
  496.500    4.813    0.299    0.426   73.261
  496.750    4.145    0.297    0.415   75.669
  497.000    3.638    0.295    0.408   78.680
  497.250    3.134    0.285    0.423   82.292
  497.500    2.649    0.276    0.467   85.904
  497.750    2.458    0.289    0.515   88.313
  498.000    2.281    0.302    0.534   88.913
  498.250    2.280    0.309    0.536   87.707
  498.500    2.323    0.304    0.522   85.898
  498.750    2.501    0.297    0.512   84.089
  499.000    2.596    0.295    0.529   84.088
  499.250    2.744    0.295    0.544   84.688
  499.500    2.955    0.290    0.541   84.686
  499.750    3.183    0.290    0.515   82.878
  500.000    3.428    0.281    0.451   84.081
  500.250    3.624    0.273    0.441   86.488
  500.500    3.760    0.269    0.420   88.294
  500.750    3.902    0.280    0.430   88.895
  501.000    4.049    0.289    0.441   86.484
  501.250    4.280    0.290    0.460   82.264
  501.500    4.441    0.250    0.471   80.456
  501.750    4.523    0.212    0.478   76.237
  502.000    4.782    0.200    0.466   70.814
  502.250    4.962    0.217    0.452   65.391
  502.500    5.148    0.271    0.436   61.775
  502.750    5.243    0.301    0.442   59.363
  503.000    5.242    0.319    0.440   56.952
  503.250    5.240    0.343    0.426   53.336
  503.500    5.142    0.347    0.420   52.731
  503.750    5.141    0.347    0.425   53.934
  504.000    5.139    0.341    0.424   53.933
  504.250    5.137    0.320    0.408   52.727
  504.500    5.136    0.225    0.394   50.315
  504.750    5.134    0.157    0.326   47.904
  505.000    5.133    0.123    0.224   44.288
  505.250    5.228    0.151    0.267   49.105
