~VERSION INFORMATION
 VERS.                 2.0:   CWLS LOG ASCII STANDARD -VERSION 2.0
 WRAP.                  NO:   ONE LINE PER DEPTH STEP
~WELL INFORMATION BLOCK
#MNEM.UNIT           DATA                    DESCRIPTION OF MNEMONIC
#---------    -------------------            -------------------------------
# Generated from Intellog Unique Number	CS_71_72/WELL/927
WELL.         ET AL SCHELTENS                : Well_name    - WELL
LOC .         00/16-13-071-01W4/0            : Location     - LOCATION
UWI .         00/16-13-071-01W4/0            : Uwi          - UNIQUE WELL ID
ENTR.         SP                             : Entered      - ENTERED BY
SRVC.         SCHLUMBERGER                   : Scn          - SERVICE COMPANY
STRT.M        365                            : top_depth    - START DEPTH
STOP.M        620                            : bot_depth    - STOP DEPTH
STEP.M        0.25                           : increment    - STEP LENGTH
 NULL. -999.2500:NULL Value
~CURVE INFORMATION BLOCK
#MNEM UNIT       ERCB CURVE CODE    CURVE DESCRIPTION
#-----------   ------------------   ----------------------------------
DEPT.M        00 001 00 00         : DEPTH        - DEPTH
ILD .OHMM     00 120 00 00         : RESD         - DEEP RESISTIVITY (DIL)
DPHI.V/V      00 890 00 00         : PHID         - DENSITY POROSITY (LIMESTONE)
NPHI.V/V      00 330 00 00         : PHIN         - NEUTRON POROSITY (LIMESTONE)
GR  .API      00 310 00 00         : GR           - GAMMA RAY
~PARAMETER INFORMATION
#MNEM.UNIT           DATA             DESCRIPTION OF MNEMONIC
#---------         -----------     ------------------------------
GL  .M        708.9                : gl           - GROUND LEVEL ELEVATION
EREF.M        713.2                : kb           - ELEVATION OF DEPTH REFERENCE
DATM.M        708.9                : datum        - DATUM ELEVATION
TDD .M        825                  : tdd          - TOTAL DEPTH DRILLER
RUN .         ONE                  : Run          - RUN NUMBER
ENG .         BILL                 : Engineer     - RECORDING ENGINEER
WIT .         JIM                  : Witness      - WITNESSED BY
MUD .         GEL                  : Mud_type     - MUD TYPE
MATR.         LIMESTONE            : Logunit      - NEUTRON MATRIX
TMAX.C        23                   : BHT          - MAXIMUM RECORDED TEMPERATURE
BHTD.M        825                  : BHTDEP       - MAXIMUM RECORDED TEMPERATURE
MATR.         1                    : LOGUNIT      - NEUTRON MATRIX
RMT .C        25                   : MDTP         - TEMPERATURE OF MUD
NEUT.         1                    : NEUTRON      - NEUTRON TYPE
RESI.         0                    : RESIST       - RESISTIVITY TYPE
RMC .OHMM     0.25                 : RMC          - RESISTIVITY OF MUD CAKE
RMF .OHMM     0.25                 : RMF          - RESISTIVITY OF MUD FILTRATE
SUFT.C        15                   : SUFT         - SURFACE TEMPERATURE
~A  DEPTH     RESD     PHID     PHIN       GR
# ...
  452.000   10.691    0.367    0.451   48.538
  452.250   10.669    0.365    0.440   48.399
  452.500   10.769    0.366    0.456   50.998
  452.750   11.139    0.367    0.480   54.207
  453.000   11.456    0.357    0.491   56.688
  453.250   11.694    0.344    0.474   58.005
  453.500   11.893    0.334    0.452   56.462
  453.750   12.026    0.332    0.436   55.833
  454.000   12.138    0.337    0.436   57.213
  454.250   12.227    0.336    0.474   59.324
  454.500   12.020    0.330    0.487   60.772
  454.750   11.293    0.329    0.462   63.605
  455.000    9.583    0.330    0.434   65.653
  455.250    7.905    0.330    0.430   66.439
  455.500    6.696    0.323    0.436   68.734
  455.750    6.012    0.316    0.446   70.605
  456.000    5.628    0.308    0.454   72.897
  456.250    5.532    0.304    0.461   73.736
  456.500    6.055    0.301    0.468   73.897
  456.750    7.269    0.301    0.462   71.746
  457.000    8.077    0.339    0.454   67.032
  457.250    9.180    0.374    0.444   58.480
  457.500   10.124    0.381    0.437   45.478
  457.750   10.957    0.378    0.438   41.984
  458.000   11.227    0.371    0.439   42.997
  458.250   11.099    0.367    0.448   43.041
  458.500   10.910    0.361    0.464   41.923
  458.750   10.806    0.356    0.474   42.634
  459.000   10.703    0.354    0.458   44.322
  459.250   10.541    0.353    0.445   46.252
  459.500   10.303    0.352    0.438   47.817
  459.750    9.995    0.347    0.442   51.389
  460.000    9.551    0.338    0.450   53.627
  460.250    9.214    0.332    0.455   57.383
  460.500    8.624    0.331    0.437   61.266
  460.750    8.211    0.295    0.430   66.427
  461.000    7.656    0.302    0.429   67.931
  461.250    7.247    0.318    0.453   67.666
  461.500    6.545    0.314    0.453   74.838
  461.750    6.207    0.301    0.452   80.730
  462.000    5.788    0.288    0.474   83.875
  462.250    5.479    0.285    0.492   85.259
  462.500    5.346    0.316    0.506   86.094
  462.750    5.285    0.339    0.516   86.433
  463.000    5.560    0.369    0.530   85.627
  463.250    6.005    0.361    0.553   81.824
  463.500    6.426    0.331    0.554   76.872
  463.750    6.812    0.315    0.518   71.733
  464.000    7.126    0.308    0.502   68.177
  464.250    7.329    0.306    0.504   80.408
  464.500    7.946    0.299    0.516   98.184
  464.750    8.051    0.295    0.507  102.796
  465.000    8.406    0.289    0.473   91.621
  465.250    8.565    0.285    0.466   80.267
  465.500    8.727    0.282    0.448   74.941
  465.750    8.824    0.280    0.451   74.860
  466.000    8.840    0.276    0.463   75.391
  466.250    8.772    0.273    0.466   74.761
  466.500    8.478    0.275    0.491   70.110
  466.750    7.758    0.309    0.486   59.789
  467.000    6.810    0.329    0.468   55.199
  467.250    6.339    0.320    0.447   62.980
  467.500    5.553    0.293    0.451   73.931
  467.750    5.317    0.277    0.469   81.773
  468.000    4.893    0.263    0.486   86.566
  468.250    4.685    0.253    0.499   89.960
  468.500    4.597    0.252    0.500   92.865
  468.750    4.683    0.256    0.505   94.431
  469.000    4.826    0.258    0.500   91.484
  469.250    4.945    0.255    0.488   86.649
  469.500    5.010    0.264    0.476   89.003
  469.750    4.943    0.273    0.469   90.265
  470.000    4.823    0.280    0.507   90.305
  470.250    4.759    0.282    0.543   88.640
  470.500    4.858    0.280    0.534   88.743
  470.750    5.043    0.278    0.511   89.394
  471.000    5.197    0.269    0.531   89.800
  471.250    5.376    0.259    0.530   89.292
  471.500    5.645    0.251    0.507   87.748
  471.750    5.795    0.252    0.489   87.364
  472.000    5.827    0.267    0.482   90.999
  472.250    5.610    0.274    0.481   93.965
  472.500    5.321    0.269    0.479   95.711
  472.750    4.915    0.265    0.482   96.361
  473.000    4.777    0.268    0.490   95.975
  473.250    4.626    0.269    0.494   95.652
  473.500    4.678    0.266    0.499   94.841
  473.750    4.912    0.266    0.488   95.004
  474.000    5.167    0.269    0.498   93.461
  474.250    5.305    0.277    0.507   90.025
  474.500    5.446    0.270    0.489   91.347
  474.750    5.363    0.262    0.494   91.627
  475.000    5.106    0.273    0.518   91.125
  475.250    4.898    0.284    0.532   89.094
  475.500    4.760    0.289    0.520   87.183
  475.750    4.706    0.283    0.525   85.332
  476.000    4.741    0.277    0.556   85.007
  476.250    4.922    0.272    0.538   85.778
  476.500    5.297    0.270    0.537   86.251
  476.750    5.975    0.271    0.551   86.047
  477.000    6.540    0.271    0.527   80.968
  477.250    7.078    0.289    0.495   76.194
  477.500    6.777    0.313    0.490   72.884
  477.750    6.177    0.320    0.517   70.792
  478.000    5.547    0.323    0.534   73.940
  478.250    5.361    0.311    0.517   77.395
  478.500    5.211    0.292    0.480   79.872
  478.750    5.151    0.282    0.505   80.337
  479.000    5.170    0.283    0.530   79.466
  479.250    5.368    0.288    0.546   76.887
  479.500    6.704    0.303    0.530   74.552
  479.750   10.129    0.317    0.512   71.299
  480.000   12.604    0.327    0.508   68.599
  480.250   12.963    0.338    0.502   67.787
  480.500   10.434    0.344    0.489   68.681
  480.750    8.431    0.342    0.467   67.686
  481.000    7.657    0.344    0.456   64.802
  481.250    8.255    0.338    0.456   68.861
  481.500    9.383    0.328    0.466   71.708
  481.750   10.929    0.324    0.488   73.031
  482.000   12.802    0.334    0.501   67.037
  482.250   14.828    0.334    0.484   61.288
  482.500   16.695    0.320    0.474   58.950
  482.750   17.798    0.313    0.474   59.843
  483.000   17.039    0.333    0.493   62.076
  483.250   16.406    0.340    0.500   65.286
  483.500   15.946    0.327    0.491   67.526
  483.750   15.528    0.325    0.482   70.422
  484.000   15.496    0.329    0.471   71.082
  484.250   15.611    0.320    0.469   71.241
  484.500   15.697    0.316    0.476   70.067
  484.750   16.054    0.317    0.483   68.280
  485.000   16.326    0.321    0.502   66.186
  485.250   16.666    0.326    0.516   65.313
  485.500   17.011    0.332    0.523   66.391
  485.750   17.041    0.334    0.481   68.315
  486.000   16.532    0.334    0.462   69.215
  486.250   15.358    0.335    0.451   69.805
  486.500   13.947    0.324    0.450   68.686
  486.750   12.835    0.312    0.464   67.996
  487.000   11.417    0.311    0.473   68.218
  487.250   10.080    0.337    0.464   68.684
  487.500    8.716    0.386    0.461   69.516
  487.750    7.341    0.415    0.479   69.923
  488.000    6.360    0.418    0.502   69.238
  488.250    5.397    0.384    0.523   70.618
  488.500    4.711    0.324    0.545   78.155
  488.750    4.159    0.314    0.523   84.597
  489.000    3.864    0.321    0.514   87.561
  489.250    3.699    0.320    0.539   88.392
  489.500    3.528    0.310    0.560   88.739
  489.750    3.462    0.303    0.577   90.672
  490.000    3.448    0.308    0.578   91.750
  490.250    3.474    0.310    0.551   92.217
  490.500    3.526    0.301    0.534   92.136
  490.750    3.661    0.299    0.517   90.774
  491.000    3.940    0.300    0.508   85.023
  491.250    4.495    0.283    0.506   76.168
  491.500    5.498    0.267    0.520   70.359
  491.750    6.514    0.261    0.525   66.743
  492.000    7.418    0.272    0.484   63.675
  492.250    7.745    0.291    0.465   64.569
  492.500    7.671    0.289    0.441   66.677
  492.750    7.290    0.280    0.451   68.064
  493.000    6.375    0.275    0.484   69.507
  493.250    6.081    0.283    0.508   68.997
  493.500    6.080    0.308    0.497   62.820
  493.750    7.494    0.334    0.483   58.717
  494.000    9.682    0.348    0.475   54.617
  494.250   12.966    0.341    0.476   53.254
  494.500   15.275    0.218    0.467   51.953
  494.750   17.658    0.119    0.314   49.797
  495.000   18.682    0.105    0.277   49.172
  495.250   17.853    0.137    0.248   53.663
