~VERSION INFORMATION
 VERS.                 2.0:   CWLS LOG ASCII STANDARD -VERSION 2.0
 WRAP.                  NO:   ONE LINE PER DEPTH STEP
~WELL INFORMATION BLOCK
#MNEM.UNIT           DATA                    DESCRIPTION OF MNEMONIC
#---------    -------------------            -------------------------------
# Generated from Intellog Unique Number	CS_71_72/WELL/855
WELL.         PEX PHILLIPS AEC WIAU          : Well_name    - WELL
LOC .         00/10-13-071-08W4/0            : Location     - LOCATION
UWI .         00/10-13-071-08W4/0            : Uwi          - UNIQUE WELL ID
ENTR.         SP                             : Entered      - ENTERED BY
SRVC.         SCHLUMBERGER                   : Scn          - SERVICE COMPANY
STRT.M        305                            : top_depth    - START DEPTH
STOP.M        525                            : bot_depth    - STOP DEPTH
STEP.M        0.25                           : increment    - STEP LENGTH
 NULL. -999.2500:NULL Value
~CURVE INFORMATION BLOCK
#MNEM UNIT       ERCB CURVE CODE    CURVE DESCRIPTION
#-----------   ------------------   ----------------------------------
DEPT.M        00 001 00 00         : DEPTH        - DEPTH
ILD .OHMM     00 120 00 00         : RESD         - DEEP RESISTIVITY (DIL)
DPHI.V/V      00 890 00 00         : PHID         - DENSITY POROSITY (LIMESTONE)
NPHI.V/V      00 330 00 00         : PHIN         - NEUTRON POROSITY (LIMESTONE)
GR  .API      00 310 00 00         : GR           - GAMMA RAY
~PARAMETER INFORMATION
#MNEM.UNIT           DATA             DESCRIPTION OF MNEMONIC
#---------         -----------     ------------------------------
GL  .M        663.74               : gl           - GROUND LEVEL ELEVATION
EREF.M        666.7                : kb           - ELEVATION OF DEPTH REFERENCE
DATM.M        663.74               : datum        - DATUM ELEVATION
TDD .M        535                  : tdd          - TOTAL DEPTH DRILLER
RUN .         ONE                  : Run          - RUN NUMBER
ENG .         BILL                 : Engineer     - RECORDING ENGINEER
WIT .         JIM                  : Witness      - WITNESSED BY
MUD .         GEL                  : Mud_type     - MUD TYPE
MATR.         LIMESTONE            : Logunit      - NEUTRON MATRIX
TMAX.C        22                   : BHT          - MAXIMUM RECORDED TEMPERATURE
BHTD.M        535                  : BHTDEP       - MAXIMUM RECORDED TEMPERATURE
MATR.         1                    : LOGUNIT      - NEUTRON MATRIX
RMT .C        25                   : MDTP         - TEMPERATURE OF MUD
NEUT.         1                    : NEUTRON      - NEUTRON TYPE
RESI.         0                    : RESIST       - RESISTIVITY TYPE
RMC .OHMM     0.25                 : RMC          - RESISTIVITY OF MUD CAKE
RMF .OHMM     0.25                 : RMF          - RESISTIVITY OF MUD FILTRATE
SUFT.C        15                   : SUFT         - SURFACE TEMPERATURE
~A  DEPTH     RESD     PHID     PHIN       GR
# ...
  348.500    9.309    0.261    0.381   71.845
  348.750    9.367    0.272    0.405   84.294
  349.000    9.497    0.284    0.417   84.410
  349.250    9.504    0.296    0.407   82.036
  349.500    9.493    0.298    0.398   88.835
  349.750    9.272    0.249    0.389   95.391
  350.000    8.906    0.226    0.395  101.097
  350.250    8.365    0.206    0.416  106.499
  350.500    7.915    0.206    0.431  113.359
  350.750    7.420    0.223    0.443  118.093
  351.000    6.982    0.235    0.446  117.662
  351.250    6.632    0.249    0.444  114.012
  351.500    6.334    0.243    0.453  109.451
  351.750    6.096    0.232    0.463  102.641
  352.000    6.054    0.257    0.471   98.080
  352.250    6.372    0.274    0.479   91.392
  352.500    6.909    0.289    0.479   87.864
  352.750    7.505    0.282    0.457   86.158
  353.000    8.214    0.268    0.445   92.471
  353.250    8.709    0.261    0.442   97.691
  353.500    9.097    0.259    0.443  100.541
  353.750    9.258    0.260    0.443   99.077
  354.000    9.316    0.264    0.449   97.249
  354.250    9.359    0.270    0.455   97.002
  354.500    9.383    0.276    0.444   97.847
  354.750    9.407    0.280    0.424   98.207
  355.000    9.556    0.250    0.419   96.987
  355.250    9.855    0.262    0.419   92.972
  355.500   10.027    0.262    0.414   91.144
  355.750   10.183    0.251    0.409   91.018
  356.000   10.267    0.262    0.412   93.625
  356.250   10.198    0.249    0.421   96.415
  356.500    9.905    0.235    0.426   99.204
  356.750    9.286    0.235    0.429  101.083
  357.000    8.738    0.236    0.450  101.927
  357.250    8.315    0.250    0.479  100.769
  357.500    8.031    0.263    0.468   98.334
  357.750    7.830    0.265    0.463   97.600
  358.000    7.734    0.227    0.475   95.650
  358.250    7.725    0.236    0.484   93.580
  358.500    7.716    0.238    0.480   93.575
  358.750    7.622    0.255    0.475   97.762
  359.000    7.418    0.253    0.477  101.340
  359.250    7.257    0.233    0.485  103.220
  359.500    6.919    0.215    0.477  104.551
  359.750    6.670    0.235    0.470   97.134
  360.000    6.675    0.260    0.462   89.535
  360.250    7.471    0.279    0.453   83.819
  360.500    8.679    0.211    0.457   80.837
  360.750    9.897    0.177    0.438   78.281
  361.000   11.098    0.161    0.427   77.000
  361.250   11.549    0.180    0.438   82.219
  361.500   11.031    0.210    0.454   88.654
  361.750    9.742    0.228    0.463   94.238
  362.000    8.766    0.246    0.449   98.243
  362.250    8.326    0.257    0.440  101.276
  362.500    8.014    0.245    0.430   99.387
  362.750    7.854    0.239    0.423   98.289
  363.000    7.461    0.237    0.426   95.732
  363.250    7.246    0.244    0.442   92.264
  363.500    6.973    0.249    0.463   87.703
  363.750    6.823    0.262    0.479   84.053
  364.000    7.222    0.279    0.479   80.160
  364.250    7.657    0.295    0.455   76.631
  364.500    8.334    0.304    0.426   74.439
  364.750    8.937    0.317    0.415   73.826
  365.000    9.247    0.327    0.420   73.396
  365.250    9.499    0.327    0.426   73.816
  365.500    9.612    0.331    0.419   75.512
  365.750    9.529    0.325    0.412   77.269
  366.000    9.308    0.320    0.414   78.783
  366.250    9.125    0.326    0.408   78.899
  366.500    9.048    0.321    0.401   78.225
  366.750    9.070    0.313    0.397   78.038
  367.000    9.162    0.308    0.401   78.520
  367.250    9.359    0.295    0.408   80.883
  367.500    9.614    0.297    0.416   82.640
  367.750    9.838    0.291    0.416   84.762
  368.000   10.030    0.280    0.410   86.579
  368.250   10.288    0.273    0.402   87.851
  368.500   10.331    0.269    0.392   87.177
  368.750   10.260    0.268    0.403   84.195
  369.000   10.229    0.272    0.415   86.013
  369.250   10.053    0.280    0.429   89.228
  369.500    9.981    0.275    0.432   91.471
  369.750    9.882    0.278    0.427   92.377
  370.000    9.902    0.267    0.422   98.204
  370.250    9.835    0.248    0.433  102.755
  370.500    9.644    0.245    0.446  106.577
  370.750    9.348    0.247    0.445  106.512
  371.000    8.929    0.252    0.440   98.488
  371.250    8.640    0.273    0.447   88.155
  371.500    8.534    0.310    0.465   78.611
  371.750    8.883    0.321    0.474   74.050
  372.000    9.192    0.319    0.471   72.587
  372.250    9.406    0.306    0.471   75.133
  372.500    9.519    0.299    0.465   78.894
  372.750    9.042    0.292    0.461   81.684
  373.000    8.412    0.286    0.469   85.142
  373.250    7.698    0.280    0.487   88.600
  373.500    6.876    0.288    0.501   91.936
  373.750    6.385    0.292    0.512   94.240
  374.000    5.810    0.283    0.502   97.029
  374.250    5.277    0.270    0.507   99.212
  374.500    4.847    0.260    0.519  101.394
  374.750    4.460    0.257    0.532  101.814
  375.000    4.088    0.270    0.526  101.019
  375.250    3.707    0.268    0.527  100.710
  375.500    3.573    0.249    0.545  100.219
  375.750    4.261    0.252    0.515  100.943
  376.000    5.034    0.260    0.468  100.512
  376.250    5.903    0.262    0.433   99.293
  376.500    6.794    0.254    0.404   97.040
  376.750    7.618    0.241    0.395   93.208
  377.000    8.168    0.218    0.409   86.398
  377.250    8.500    0.251    0.430   78.010
  377.500    8.764    0.309    0.448   70.715
  377.750    9.138    0.334    0.460   65.485
  378.000    9.599    0.350    0.449   61.409
  378.250   10.064    0.347    0.436   58.488
  378.500   10.474    0.340    0.428   57.390
  378.750   10.778    0.352    0.434   57.385
  379.000   11.010    0.357    0.434   57.439
  379.250   11.059    0.347    0.425   58.954
  379.500   11.006    0.339    0.428   63.018
  379.750   10.891    0.331    0.438   64.290
  380.000   10.758    0.337    0.449   63.252
  380.250   10.685    0.346    0.461   62.215
  380.500   10.554    0.345    0.470   63.485
  380.750   10.483    0.347    0.459   64.452
  381.000   10.451    0.358    0.445   64.691
  381.250   10.420    0.359    0.438   64.078
  381.500   10.428    0.360    0.445   61.947
  381.750   10.455    0.363    0.449   59.815
  382.000   10.540    0.361    0.451   58.594
  382.250   10.627    0.359    0.456   58.590
  382.500   10.655    0.366    0.453   59.800
  382.750   10.683    0.356    0.448   60.827
  383.000   10.631    0.352    0.441   60.398
  383.250   10.677    0.356    0.434   58.448
  383.500   10.685    0.353    0.434   57.775
  383.750   10.653    0.357    0.436   57.284
  384.000   10.680    0.348    0.440   57.157
  384.250   10.670    0.354    0.440   57.759
  384.500   10.677    0.359    0.440   58.909
  384.750   10.683    0.357    0.441   62.306
  385.000   10.691    0.347    0.450   65.642
  385.250   10.699    0.342    0.458   66.791
  385.500   10.747    0.332    0.451   64.539
  385.750   10.855    0.331    0.432   61.618
  386.000   11.067    0.335    0.425   63.800
  386.250   11.823    0.317    0.409   63.613
  386.500   12.771    0.271    0.365   58.930
  386.750   15.287    0.126    0.155   53.457
  387.000   17.858    0.012    0.150   51.021
  387.250   21.336    0.029    0.163   50.652
  387.500   24.926    0.050    0.200   51.862
  387.750   25.795    0.110    0.290   54.895
  388.000   23.692    0.225    0.331   60.236
  388.250   18.227    0.282    0.377   62.722
  388.500   14.664    0.323    0.410   62.717
  388.750   12.711    0.355    0.433   59.553
  389.000   11.289    0.345    0.441   61.734
  389.250   10.120    0.339    0.436   66.347
  389.500    9.004    0.345    0.429   71.991
  389.750    7.938    0.334    0.438   77.393
  390.000    7.023    0.315    0.453   82.857
  390.250    6.180    0.302    0.466   91.782
  390.500    5.407    0.282    0.480  106.236
  390.750    4.618    0.267    0.506  110.241
  391.000    3.842    0.251    0.540  111.147
  391.250    3.190    0.242    0.557  109.866
  391.500    2.797    0.249    0.564  109.071
  391.750    2.622    0.255    0.551  110.281
