~VERSION INFORMATION
 VERS.                 2.0:   CWLS LOG ASCII STANDARD -VERSION 2.0
 WRAP.                  NO:   ONE LINE PER DEPTH STEP
~WELL INFORMATION BLOCK
#MNEM.UNIT           DATA                    DESCRIPTION OF MNEMONIC
#---------    -------------------            -------------------------------
# Generated from Intellog Unique Number	CS_71_72/WELL/904
WELL.         HUDSON'S BAY OIL & GAS         : Well_name    - WELL
LOC .         00/11-25-071-12W4/0            : Location     - LOCATION
UWI .         00/11-25-071-12W4/0            : Uwi          - UNIQUE WELL ID
ENTR.         SP                             : Entered      - ENTERED BY
SRVC.         SCHLUMBERGER                   : Scn          - SERVICE COMPANY
STRT.M        260                            : top_depth    - START DEPTH
STOP.M        480                            : bot_depth    - STOP DEPTH
STEP.M        0.25                           : increment    - STEP LENGTH
 NULL. -999.2500:NULL Value
~CURVE INFORMATION BLOCK
#MNEM UNIT       ERCB CURVE CODE    CURVE DESCRIPTION
#-----------   ------------------   ----------------------------------
DEPT.M        00 001 00 00         : DEPTH        - DEPTH
ILD .OHMM     00 120 00 00         : RESD         - DEEP RESISTIVITY (DIL)
DPHI.V/V      00 890 00 00         : PHID         - DENSITY POROSITY (LIMESTONE)
NPHI.V/V      00 330 00 00         : PHIN         - NEUTRON POROSITY (LIMESTONE)
GR  .API      00 310 00 00         : GR           - GAMMA RAY
~PARAMETER INFORMATION
#MNEM.UNIT           DATA             DESCRIPTION OF MNEMONIC
#---------         -----------     ------------------------------
GL  .M        599.3                : gl           - GROUND LEVEL ELEVATION
EREF.M        602.9                : kb           - ELEVATION OF DEPTH REFERENCE
DATM.M        599.3                : datum        - DATUM ELEVATION
TDD .M        486                  : tdd          - TOTAL DEPTH DRILLER
RUN .         ONE                  : Run          - RUN NUMBER
ENG .         BILL                 : Engineer     - RECORDING ENGINEER
WIT .         JIM                  : Witness      - WITNESSED BY
MUD .         GEL                  : Mud_type     - MUD TYPE
MATR.         LIMESTONE            : Logunit      - NEUTRON MATRIX
TMAX.C        18                   : BHT          - MAXIMUM RECORDED TEMPERATURE
BHTD.M        486                  : BHTDEP       - MAXIMUM RECORDED TEMPERATURE
MATR.         1                    : LOGUNIT      - NEUTRON MATRIX
RMT .C        25                   : MDTP         - TEMPERATURE OF MUD
NEUT.         1                    : NEUTRON      - NEUTRON TYPE
RESI.         0                    : RESIST       - RESISTIVITY TYPE
RMC .OHMM     0.25                 : RMC          - RESISTIVITY OF MUD CAKE
RMF .OHMM     0.25                 : RMF          - RESISTIVITY OF MUD FILTRATE
SUFT.C        15                   : SUFT         - SURFACE TEMPERATURE
~A  DEPTH     RESD     PHID     PHIN       GR
  260.000    2.343    0.240    0.604   81.808
  260.250    2.299    0.240    0.578   88.037
  260.500    2.285    0.234    0.547   93.843
  260.750    2.306    0.234    0.530   87.337
  261.000    2.348    0.237    0.544   83.744
  261.250    2.400    0.237    0.587   85.063
  261.500    2.462    0.231    0.609   87.837
  261.750    2.544    0.221    0.614   92.064
  262.000    2.654    0.213    0.600   94.534
  262.250    2.800    0.208    0.586   95.489
  262.500    2.964    0.202    0.601   95.837
  262.750    3.075    0.194    0.549   91.394
  263.000    3.114    0.191    0.528   84.222
  263.250    3.061    0.201    0.519   83.054
  263.500    2.938    0.212    0.495   82.673
  263.750    2.830    0.218    0.492   87.449
  264.000    2.761    0.220    0.525   94.831
  264.250    2.704    0.216    0.549   99.363
  264.500    2.682    0.214    0.487   89.765
  264.750    2.692    0.220    0.496   85.444
  265.000    2.726    0.227    0.481   84.154
  265.250    2.761    0.218    0.474   82.137
  265.500    2.744    0.203    0.476   80.421
  265.750    2.688    0.200    0.442   92.476
  266.000    2.677    0.212    0.453   94.640
  266.250    2.706    0.215    0.497   91.412
  266.500    2.791    0.216    0.477   89.455
  266.750    2.801    0.217    0.464   96.292
  267.000    2.943    0.218    0.520   95.852
  267.250    3.036    0.200    0.501   89.285
  267.500    3.052    0.108    0.449   80.536
  267.750    3.000    0.123    0.433   75.973
  268.000    2.966    0.165    0.439   87.965
  268.250    2.959    0.195    0.429   96.559
  268.500    3.139    0.209    0.442   91.450
  268.750    3.533    0.225    0.456   84.519
  269.000    4.127    0.242    0.416   78.863
  269.250    4.750    0.257    0.400   84.971
  269.500    5.114    0.276    0.417   88.171
  269.750    5.609    0.299    0.510   59.046
  270.000    6.049    0.325    0.472   45.749
  270.250    6.126    0.313    0.438   37.908
  270.500    6.056    0.309    0.417   34.557
  270.750    5.964    0.307    0.398   31.145
  271.000    5.874    0.306    0.365   29.311
  271.250    5.828    0.301    0.374   27.777
  271.500    5.889    0.304    0.353   26.793
  271.750    5.933    0.301    0.332   26.104
  272.000    6.098    0.295    0.339   26.032
  272.250    6.209    0.292    0.361   27.347
  272.500    6.477    0.268    0.345   33.639
  272.750    6.807    0.216    0.365   39.386
  273.000    7.234    0.174    0.353   44.403
  273.250    7.285    0.176    0.330   48.754
  273.500    7.030    0.198    0.325   57.226
  273.750    6.598    0.211    0.333   65.217
  274.000    6.285    0.187    0.364   72.539
  274.250    6.110    0.203    0.401   83.984
  274.500    5.995    0.222    0.429   87.727
  274.750    6.060    0.221    0.418   93.109
  275.000    6.228    0.235    0.441   95.883
  275.250    6.378    0.247    0.450   96.473
  275.500    6.470    0.260    0.443   94.153
  275.750    6.480    0.247    0.429   93.834
  276.000    6.406    0.229    0.416   99.457
  276.250    6.250    0.216    0.407  102.716
  276.500    6.043    0.209    0.406  101.607
  276.750    5.908    0.210    0.456  100.500
  277.000    5.851    0.214    0.493   98.361
  277.250    5.677    0.217    0.518   98.467
  277.500    5.289    0.225    0.464   98.084
  277.750    4.900    0.245    0.471   97.464
  278.000    4.539    0.277    0.536  102.118
  278.250    4.495    0.290    0.575  103.861
  278.500    4.655    0.292    0.607   95.719
  278.750    4.965    0.303    0.432   82.602
  279.000    5.385    0.321    0.408   72.215
  279.250    5.798    0.283    0.417   62.984
  279.500    6.161    0.262    0.417   71.639
  279.750    6.595    0.271    0.390   69.744
  280.000    6.792    0.279    0.399   66.028
  280.250    6.603    0.261    0.387   65.951
  280.500    6.384    0.231    0.354   69.388
  280.750    6.276    0.212    0.358   71.073
  281.000    6.227    0.219    0.388   72.876
  281.250    6.247    0.263    0.436   75.408
  281.500    6.338    0.293    0.460   66.416
  281.750    6.575    0.313    0.456   56.395
  282.000    6.733    0.331    0.477   55.710
  282.250    6.780    0.342    0.489   62.667
  282.500    6.828    0.346    0.479   66.838
  282.750    6.838    0.343    0.483   68.884
  283.000    6.835    0.342    0.469   74.870
  283.250    6.807    0.342    0.451   73.097
  283.500    6.767    0.339    0.451   68.290
  283.750    6.739    0.333    0.422   65.423
  284.000    6.737    0.325    0.439   78.079
  284.250    6.796    0.307    0.458   83.341
  284.500    6.844    0.290    0.453   83.384
  284.750    6.918    0.266    0.437   87.007
  285.000    6.993    0.246    0.468   90.874
  285.250    6.990    0.226    0.455   92.130
  285.500    6.987    0.226    0.484   94.175
  285.750    7.037    0.229    0.498   95.798
  286.000    7.034    0.224    0.443   83.896
  286.250    7.176    0.214    0.447   79.574
  286.500    7.307    0.220    0.472   76.828
  286.750    7.497    0.243    0.413   71.476
  287.000    7.662    0.260    0.406   66.487
  287.250    7.934    0.268    0.440   63.621
  287.500    8.005    0.274    0.451   61.481
  287.750    8.091    0.272    0.461   62.861
  288.000    8.285    0.271    0.481   59.569
  288.250    8.594    0.272    0.485   57.250
  288.500    8.688    0.274    0.492   66.509
  288.750    8.831    0.280    0.450   70.196
  289.000    8.349    0.288    0.425   65.265
  289.250    7.398    0.225    0.439   64.585
  289.500    6.678    0.203    0.449   83.428
  289.750    6.198    0.193    0.478   99.422
  290.000    5.636    0.187    0.495  100.799
  290.250    5.088    0.188    0.462   98.358
  290.500    4.584    0.192    0.404  100.526
  290.750    4.358    0.190    0.397  109.605
  291.000    4.159    0.182    0.444  115.411
  291.250    4.188    0.189    0.469  113.514
  291.500    4.345    0.197    0.465  111.255
  291.750    4.739    0.212    0.427  116.756
  292.000    5.187    0.235    0.426  119.229
  292.250    5.637    0.236    0.423  114.847
  292.500    6.182    0.235    0.389  104.703
  292.750    6.643    0.236    0.375   99.046
  293.000    7.112    0.249    0.371   98.606
  293.250    7.406    0.268    0.379   94.649
  293.500    7.556    0.284    0.380   94.209
  293.750    7.680    0.294    0.387   94.617
  294.000    7.634    0.301    0.397   88.654
  294.250    7.421    0.281    0.421   85.730
  294.500    7.215    0.258    0.430   86.988
  294.750    6.937    0.248    0.396   94.916
  295.000    6.744    0.245    0.396  101.448
  295.250    6.666    0.246    0.460  103.556
  295.500    6.713    0.262    0.461   94.080
  295.750    6.824    0.279    0.465   84.240
  296.000    6.962    0.291    0.485   81.919
  296.250    7.155    0.298    0.490   79.113
  296.500    7.327    0.285    0.468   72.608
  296.750    7.516    0.275    0.421   78.774
  297.000    7.640    0.265    0.370   86.400
  297.250    7.708    0.253    0.364   91.359
  297.500    7.748    0.244    0.397   94.557
  297.750    7.716    0.235    0.425   99.816
  298.000    7.600    0.226    0.386  103.925
  298.250    7.471    0.221    0.358   99.784
  298.500    7.249    0.217    0.384   94.674
  298.750    6.983    0.212    0.419   97.992
  299.000    6.651    0.207    0.430  102.162
  299.250    6.442    0.208    0.434  108.450
  299.500    6.333    0.224    0.448  107.406
  299.750    6.319    0.240    0.469  100.294
  300.000    6.435    0.254    0.505   94.395
  300.250    6.688    0.261    0.479   89.710
  300.500    6.951    0.265    0.451   84.782
  300.750    7.210    0.258    0.464   83.493
  301.000    7.397    0.247    0.467   88.086
  301.250    7.560    0.240    0.445   91.405
  301.500    7.628    0.236    0.477   87.265
  301.750    7.625    0.240    0.510   81.124
  302.000    7.468    0.246    0.510   83.958
  302.250    7.153    0.234    0.495   91.887
  302.500    6.614    0.225    0.484   94.418
  302.750    6.060    0.221    0.570   96.161
  303.000    5.562    0.230    0.598   96.083
  303.250    5.338    0.249    0.605   96.795
