~VERSION INFORMATION
 VERS.                 2.0:   CWLS LOG ASCII STANDARD -VERSION 2.0
 WRAP.                  NO:   ONE LINE PER DEPTH STEP
~WELL INFORMATION BLOCK
#MNEM.UNIT           DATA                    DESCRIPTION OF MNEMONIC
#---------    -------------------            -------------------------------
# Generated from Intellog Unique Number	CW_79_81/WELL/2476
WELL.         10-32-080-20W4                 : Well_name    - WELL
LOC .         00/10-32-080-20W4/0            : Location     - LOCATION
UWI .         00/10-32-080-20W4/0            : Uwi          - UNIQUE WELL ID
ENTR.         MAX                            : Entered      - ENTERED BY
SRVC.         SCHLUMBERGER                   : Scn          - SERVICE COMPANY
STRT.M        149.602                        : top_depth    - START DEPTH
STOP.M        396.102                        : bot_depth    - STOP DEPTH
STEP.M        0.25                           : increment    - STEP LENGTH
 NULL. -999.2500:NULL Value
~CURVE INFORMATION BLOCK
#MNEM UNIT       ERCB CURVE CODE    CURVE DESCRIPTION
#-----------   ------------------   ----------------------------------
DEPT.M        00 001 00 00         : DEPTH        - DEPTH
ILD .OHMM     00 120 00 00         : RESD         - DEEP RESISTIVITY (DIL)
NPHI.V/V      00 330 00 00         : PHIN         - NEUTRON POROSITY (SANDSTONE)
DPHI.V/V      00 890 00 00         : PHID         - DENSITY POROSITY (SANDSTONE)
GR  .API      00 310 00 00         : GR           - GAMMA RAY
CALI.MM       00 280 01 00         : CAL          - CALIPER
~PARAMETER INFORMATION
#MNEM.UNIT           DATA             DESCRIPTION OF MNEMONIC
#---------         -----------     ------------------------------
GL  .M        578.815              : gl           - GROUND LEVEL ELEVATION
EREF.M        581.254              : kb           - ELEVATION OF DEPTH REFERENCE
DATM.M        578.815              : datum        - DATUM ELEVATION
TDD .M        403.25               : tdd          - TOTAL DEPTH DRILLER
RUN .         ONE                  : Run          - RUN NUMBER
ENG .         BILL                 : Engineer     - RECORDING ENGINEER
WIT .         JIM                  : Witness      - WITNESSED BY
MUD .         GEL                  : Mud_type     - MUD TYPE
MATR.         SANDSTONE            : Logunit      - NEUTRON MATRIX
TMAX.C        21.1111              : BHT          - MAXIMUM RECORDED TEMPERATURE
BHTD.M        403.25               : BHTDEP       - MAXIMUM RECORDED TEMPERATURE
MATR.         1                    : LOGUNIT      - NEUTRON MATRIX
RMT .C        13.3333              : MDTP         - TEMPERATURE OF MUD
NEUT.         1                    : NEUTRON      - NEUTRON TYPE
RESI.         0                    : RESIST       - RESISTIVITY TYPE
RMC .OHMM     8                    : RMC          - RESISTIVITY OF MUD CAKE
RMF .OHMM     4.46                 : RMF          - RESISTIVITY OF MUD FILTRATE
SUFT.C        -20.5556             : SUFT         - SURFACE TEMPERATURE
~A  DEPTH     RESD     PHIN     PHID       GR      CAL
# ...
  222.602    6.451    0.483    0.237  118.764  197.946
  222.852    6.113    0.481    0.250  121.435  193.315
  223.102    5.930    0.479    0.238  118.806  185.269
  223.352    6.107    0.490    0.229  114.588  182.015
  223.602    7.069    0.499    0.236  109.012  179.361
  223.852    9.110    0.504    0.259  100.899  177.106
  224.102   11.466    0.506    0.286   85.630  179.363
  224.352   15.758    0.503    0.310   75.517  180.955
  224.602   20.130    0.499    0.324   69.582  180.903
  224.852   24.860    0.500    0.343   67.542  178.454
  225.102   29.746    0.504    0.354   67.507  175.004
  225.352   34.010    0.505    0.354   68.358  172.448
  225.602   35.759    0.497    0.354   69.982  173.838
  225.852   37.091    0.491    0.357   71.178  177.118
  226.102   37.856    0.511    0.343   71.380  180.649
  226.352   38.231    0.524    0.339   69.810  182.083
  226.602   38.049    0.517    0.339   67.770  183.423
  226.852   37.245    0.493    0.333   66.206  183.171
  227.102   35.250    0.472    0.301   65.741  175.651
  227.352   32.414    0.465    0.269   65.951  172.262
  227.602   29.204    0.499    0.258   68.511  178.594
  227.852   25.570    0.522    0.308   71.248  179.834
  228.102   23.831    0.544    0.355   73.925  178.178
  228.352   23.849    0.568    0.374   76.072  175.822
  228.602   24.812    0.584    0.385   76.981  174.449
  228.852   26.341    0.552    0.394   76.945  171.898
  229.102   29.089    0.544    0.376   75.253  168.634
  229.352   31.643    0.541    0.360   74.804  162.382
  229.602   33.767    0.541    0.344   74.768  158.335
  229.852   35.315    0.539    0.335   74.556  158.385
  230.102   36.192    0.526    0.349   73.375  161.443
  230.352   35.608    0.516    0.345   71.124  163.040
  230.602   34.033    0.506    0.347   69.678  163.792
  230.852   33.078    0.506    0.339   67.873  166.932
  231.102   33.040    0.503    0.323   64.655  169.068
  231.352   34.542    0.488    0.298   60.495  168.107
  231.602   40.315    0.454    0.241   57.338  165.576
  231.852   47.700    0.413    0.171   57.056  177.177
  232.102   53.805    0.477    0.188   58.673  180.714
  232.352   58.896    0.493    0.273   57.103  186.946
  232.602   63.940    0.505    0.331   55.888  193.678
  232.852   68.516    0.520    0.338   55.971  199.909
  233.102   68.977    0.509    0.339   55.694  205.408
  233.352   66.848    0.510    0.342   55.658  203.267
  233.602   63.916    0.514    0.354   55.391  206.016
  233.852   59.402    0.512    0.356   54.940  209.352
  234.102   56.031    0.507    0.352   54.670  212.289
  234.352   53.979    0.501    0.350   54.641  214.331
  234.602   51.583    0.493    0.354   54.602  214.872
  234.852   49.611    0.485    0.354   54.559  211.905
  235.102   46.374    0.488    0.343   55.003  209.450
  235.352   44.108    0.512    0.342   54.558  207.595
  235.602   42.479    0.534    0.346   54.758  206.139
  235.852   41.202    0.539    0.347   56.019  205.480
  236.102   39.995    0.527    0.334   57.681  206.605
  236.352   39.944    0.530    0.331   57.891  206.556
  236.602   40.185    0.515    0.347   57.853  206.892
  236.852   39.771    0.511    0.351   58.705  205.438
  237.102   38.426    0.516    0.347   60.561  201.389
  237.352   36.128    0.521    0.338   63.890  195.440
  237.602   32.031    0.515    0.331   70.640  188.364
  237.852   27.557    0.528    0.322   76.255  181.230
  238.102   25.199    0.519    0.321   76.224  178.370
  238.352   23.444    0.497    0.309   73.537  175.814
  238.602   22.433    0.477    0.288   72.088  172.960
  238.852   21.968    0.472    0.272   72.641  170.006
  239.102   21.589    0.497    0.295   72.487  167.440
  239.352   21.398    0.502    0.312   70.738  164.883
  239.602   21.058    0.495    0.310   68.345  161.230
  239.852   20.615    0.492    0.308   67.544  157.577
  240.102   20.072    0.493    0.306   67.746  156.523
  240.352   19.400    0.497    0.303   68.418  157.768
  240.602   18.406    0.501    0.303   69.180  158.511
  240.852   17.702    0.498    0.310   69.639  160.518
  241.102   17.172    0.490    0.311   66.063  159.268
  241.352   16.749    0.478    0.314   65.497  156.220
  241.602   16.429    0.476    0.313   66.290  153.163
  241.852   16.205    0.486    0.309   67.555  152.297
  242.102   15.989    0.492    0.309   68.919  156.389
  242.352   15.604    0.482    0.316   67.651  157.166
  242.602   15.363    0.482    0.318   67.623  157.114
  242.852   15.207    0.484    0.319   68.824  159.146
  243.102   15.080    0.487    0.321   70.323  160.882
  243.352   14.927    0.492    0.323   71.886  160.532
  243.602   14.711    0.497    0.325   73.721  156.295
  243.852   14.806    0.505    0.327   72.457  153.316
  244.102   15.222    0.492    0.337   71.243  156.458
  244.352   16.074    0.485    0.337   71.448  157.496
  244.602   17.022    0.475    0.329   70.943  159.634
  244.852   17.985    0.465    0.318   69.375  162.673
  245.102   19.551    0.463    0.303   67.462  161.910
  245.352   20.752    0.443    0.264   63.983  156.447
  245.602   21.185    0.422    0.195   63.473  154.797
  245.852   20.125    0.435    0.240   64.207  156.138
  246.102   18.403    0.461    0.295   65.711  158.473
  246.352   17.064    0.482    0.318   67.155  160.511
  246.602   17.286    0.474    0.323   66.807  162.481
  246.852   18.640    0.440    0.305   64.072  166.575
  247.102   22.387    0.389    0.279   57.434  171.315
  247.352   26.692    0.322    0.206   53.625  170.061
  247.602   30.208    0.263    0.141   53.001  171.001
  247.852   31.655    0.236    0.110   54.557  175.137
  248.102   30.788    0.265    0.111   55.780  175.599
  248.352   28.101    0.272    0.132   55.008  172.210
  248.602   23.664    0.357    0.132   55.681  173.350
  248.852   20.550    0.420    0.152   56.354  172.988
  249.102   18.579    0.456    0.209   56.675  171.136
  249.352   17.429    0.467    0.287   56.467  166.191
  249.602   16.707    0.462    0.335   55.274  155.259
  249.852   16.312    0.461    0.331   53.020  156.869
  250.102   15.940    0.463    0.342   50.870  157.204
  250.352   15.834    0.466    0.344   47.120  161.147
  250.602   15.814    0.470    0.338   44.723  168.483
  250.852   15.792    0.472    0.332   44.628  175.513
  251.102   15.791    0.462    0.345   46.067  174.284
  251.352   15.893    0.457    0.331   47.502  170.485
  251.602   16.223    0.463    0.339   47.704  170.027
  251.852   16.561    0.462    0.339   48.438  171.072
  252.102   16.847    0.456    0.334   49.587  171.818
  252.352   16.982    0.450    0.328   51.147  171.863
  252.602   16.756    0.446    0.330   53.323  172.519
  252.852   16.357    0.450    0.349   53.778  174.123
  253.102   16.339    0.459    0.351   52.093  174.070
  253.352   16.142    0.460    0.353   49.346  174.912
  253.602   15.947    0.463    0.355   46.835  176.851
  253.852   15.839    0.470    0.357   45.149  179.889
  254.102   15.816    0.481    0.357   44.407  184.894
  254.352   15.800    0.480    0.358   45.607  190.242
  254.602   15.664    0.475    0.358   47.221  194.977
  254.852   15.616    0.479    0.358   47.603  199.403
  255.102   15.596    0.484    0.360   47.572  202.945
  255.352   15.548    0.487    0.360   47.242  205.300
  255.602   15.393    0.486    0.354   45.867  206.172
  255.852   15.255    0.480    0.350   45.098  204.864
  256.102   15.236    0.468    0.353   47.897  208.000
  256.352   15.219    0.467    0.344   49.633  212.335
  256.602   15.200    0.478    0.342   51.485  216.671
  256.852   15.180    0.495    0.346   53.870  220.011
  257.102   15.181    0.494    0.339   56.181  220.968
  257.352   15.278    0.482    0.343   54.916  217.995
  257.602   15.373    0.480    0.337   50.165  212.328
  257.852   15.381    0.484    0.327   47.890  209.682
  258.102   15.362    0.487    0.317   46.794  209.233
  258.352   15.372    0.487    0.313   46.170  210.273
  258.602   15.461    0.488    0.321   45.892  212.447
  258.852   15.442    0.493    0.332   45.857  213.623
