~VERSION INFORMATION
 VERS.                 2.0:   CWLS LOG ASCII STANDARD -VERSION 2.0
 WRAP.                  NO:   ONE LINE PER DEPTH STEP
~WELL INFORMATION BLOCK
#MNEM.UNIT           DATA                    DESCRIPTION OF MNEMONIC
#---------    -------------------            -------------------------------
# Generated from Intellog Unique Number	CW_73_75/WELL/2746
WELL.         GAO ET AL KELLY                : Well_name    - WELL
LOC .         00/11-21-073-19W4/0            : Location     - LOCATION
UWI .         00/11-21-073-19W4/0            : Uwi          - UNIQUE WELL ID
ENTR.         JAYE                           : Entered      - ENTERED BY
SRVC.         SCHLUMBERGER                   : Scn          - SERVICE COMPANY
DATE.         20 JAN 77                      : Date         - LOG DATE
STRT.M        350.52                         : top_depth    - START DEPTH
STOP.M        585.27                         : bot_depth    - STOP DEPTH
STEP.M        0.25                           : increment    - STEP LENGTH
 NULL. -999.2500:NULL Value
~CURVE INFORMATION BLOCK
#MNEM UNIT       ERCB CURVE CODE    CURVE DESCRIPTION
#-----------   ------------------   ----------------------------------
DEPT.M        00 001 00 00         : DEPTH        - DEPTH
ILD .OHMM     00 120 00 00         : RESD         - DEEP RESISTIVITY (DIL)
NPHI.V/V      00 330 00 00         : PHIN         - NEUTRON POROSITY (SANDSTONE)
DPHI.V/V      00 890 00 00         : PHID         - DENSITY POROSITY (SANDSTONE)
GR  .API      00 310 00 00         : GR           - GAMMA RAY
CALI.MM       00 280 01 00         : CAL          - CALIPER
~PARAMETER INFORMATION
#MNEM.UNIT           DATA             DESCRIPTION OF MNEMONIC
#---------         -----------     ------------------------------
GL  .M        654.71               : gl           - GROUND LEVEL ELEVATION
EREF.M        658.368              : kb           - ELEVATION OF DEPTH REFERENCE
DATM.M        654.71               : datum        - DATUM ELEVATION
TDD .M        620.268              : tdd          - TOTAL DEPTH DRILLER
RUN .         ONE                  : Run          - RUN NUMBER
MATR.         SANDSTONE            : Logunit      - NEUTRON MATRIX
TMAX.C        30                   : BHT          - MAXIMUM RECORDED TEMPERATURE
BHTD.M        620.268              : BHTDEP       - MAXIMUM RECORDED TEMPERATURE
RMT .C        15.5556              : MDTP         - TEMPERATURE OF MUD
MUDD.KG/M     0                    : MWT          - MUD DENSITY
NEUT.         1                    : NEUTRON      - NEUTRON TYPE
RESI.         0                    : RESIST       - RESISTIVITY TYPE
RM  .OHMM     8.1                  : RM           - RESISTIVITY OF MUD
RMC .OHMM     9.2                  : RMC          - RESISTIVITY OF MUD CAKE
RMF .OHMM     6.3                  : RMF          - RESISTIVITY OF MUD FILTRATE
SUFT.C        -17.7778             : SUFT         - SURFACE TEMPERATURE
~A  DEPTH     RESD     PHIN     PHID       GR      CAL
# ...
  460.020    5.706    0.441    0.323   96.696  164.915
  460.270    5.661    0.437    0.318   95.419  164.945
  460.520    5.711    0.450    0.318   95.237  165.040
  460.770    5.877    0.458    0.321   95.528  164.828
  461.020    5.994    0.469    0.315   96.135  164.886
  461.270    6.202    0.470    0.310   96.498  164.989
  461.520    6.383    0.459    0.313   95.943  165.084
  461.770    6.474    0.446    0.327   93.991  165.190
  462.020    6.471    0.430    0.332   89.248  165.171
  462.270    6.338    0.423    0.327   85.472  165.163
  462.520    6.220    0.423    0.322   90.698  165.272
  462.770    6.081    0.423    0.321   94.767  165.159
  463.020    6.066    0.424    0.327   96.950  164.939
  463.270    6.278    0.424    0.336   97.678  164.929
  463.520    6.789    0.420    0.333   92.444  165.127
  463.770    7.532    0.414    0.320   90.254  165.224
  464.020    8.764    0.403    0.297   90.124  165.228
  464.270   10.311    0.366    0.241   89.093  165.136
  464.520   12.041    0.231    0.188   86.589  165.215
  464.770   14.012    0.192    0.069   84.091  165.322
  465.020   14.958    0.180    0.053   83.966  165.316
  465.270   13.691    0.182    0.056   86.094  165.206
  465.520   11.797    0.192    0.082   89.497  165.198
  465.770    9.980    0.223    0.103   93.807  165.197
  466.020    8.616    0.267    0.130   98.242  165.168
  466.270    7.410    0.340    0.230  103.099  165.058
  466.520    6.200    0.434    0.261  106.689  164.959
  466.770    5.801    0.454    0.320  104.311  164.937
  467.020    5.693    0.456    0.319  101.211  164.835
  467.270    5.679    0.459    0.332  100.531  164.757
  467.520    5.792    0.448    0.329  100.040  164.822
  467.770    5.906    0.442    0.324  100.103  164.922
  468.020    5.969    0.452    0.320  101.368  164.816
  468.270    5.922    0.462    0.322  102.100  164.822
  468.520    5.811    0.453    0.322  101.423  164.721
  468.770    5.629    0.440    0.309  101.908  164.678
  469.020    5.484    0.449    0.293  103.917  164.691
  469.270    5.274    0.447    0.272  105.856  164.564
  469.520    5.157    0.453    0.247  107.367  164.664
  469.770    5.015    0.470    0.234  109.734  164.652
  470.020    4.912    0.464    0.248  112.646  165.056
  470.270    4.882    0.462    0.257  115.683  165.359
  470.520    4.853    0.489    0.248  119.448  165.353
  470.770    4.824    0.484    0.248  124.496  166.693
  471.020    4.777    0.469    0.244  126.921  167.817
  471.270    4.705    0.465    0.241  124.302  168.626
  471.520    4.542    0.460    0.248  127.276  169.755
  471.770    4.234    0.463    0.245  131.895  171.094
  472.020    3.976    0.473    0.232  136.756  173.041
  472.270    3.874    0.486    0.219  141.858  175.300
  472.520    3.794    0.502    0.219  143.982  178.889
  472.770    3.834    0.502    0.205  143.191  183.414
  473.020    3.982    0.513    0.199  144.582  189.787
  473.270    4.236    0.504    0.235  146.889  197.193
  473.520    4.614    0.480    0.249  140.077  181.340
  473.770    5.091    0.463    0.256  134.296  173.092
  474.020    5.587    0.468    0.240  129.364  170.734
  474.270    6.097    0.469    0.269  125.715  169.370
  474.520    6.653    0.471    0.269  121.695  166.590
  474.770    6.886    0.479    0.252  118.898  163.706
  475.020    6.933    0.468    0.227  123.633  162.557
  475.270    5.996    0.465    0.229  129.651  162.881
  475.520    4.109    0.461    0.234  132.142  164.728
  475.770    3.195    0.444    0.247  133.354  166.652
  476.020    2.517    0.455    0.242  134.625  168.911
  476.270    2.270    0.474    0.232  138.145  170.680
  476.520    2.505    0.479    0.219  143.556  171.058
  476.770    2.952    0.468    0.209  148.292  171.161
  477.020    3.827    0.465    0.193  150.543  171.263
  477.270    4.854    0.465    0.198  152.237  171.685
  477.520    5.454    0.463    0.187  153.389  171.974
  477.770    5.854    0.473    0.189  152.597  172.060
  478.020    6.015    0.468    0.205  150.886  171.954
  478.270    6.078    0.472    0.216  145.898  171.626
  478.520    6.086    0.476    0.198  148.873  170.800
  478.770    6.160    0.432    0.213  143.944  169.356
  479.020    6.237    0.413    0.236  135.913  167.912
  479.270    6.360    0.418    0.226  136.461  168.019
  479.520    6.522    0.428    0.219  140.712  168.203
  479.770    6.688    0.431    0.214  143.931  168.504
  480.020    6.870    0.435    0.210  144.410  168.594
  480.270    7.019    0.441    0.209  143.128  169.113
  480.520    7.068    0.453    0.215  141.242  169.526
  480.770    7.038    0.450    0.202  140.265  169.609
  481.020    6.982    0.442    0.219  140.504  169.414
  481.270    6.852    0.437    0.220  143.720  169.075
  481.520    6.711    0.442    0.209  143.899  168.987
  481.770    6.574    0.451    0.208  142.317  169.281
  482.020    6.475    0.447    0.199  142.193  169.683
  482.270    6.401    0.431    0.202  141.272  170.201
  482.520    6.316    0.430    0.217  135.009  170.600
  482.770    6.267    0.435    0.203  134.758  170.892
  483.020    6.138    0.445    0.218  136.334  170.573
  483.270    6.023    0.452    0.232  139.493  170.261
  483.520    5.944    0.460    0.231  141.131  170.057
  483.770    5.854    0.459    0.232  136.870  169.642
  484.020    5.755    0.454    0.220  140.576  169.317
  484.270    5.627    0.449    0.198  144.950  168.708
  484.520    5.583    0.452    0.206  141.358  168.380
  484.770    5.621    0.472    0.203  135.092  167.860
  485.020    5.732    0.474    0.206  129.614  167.232
  485.270    5.899    0.462    0.214  123.656  166.817
  485.520    6.072    0.449    0.226  116.052  166.601
  485.770    6.192    0.447    0.237  111.910  166.701
  486.020    6.303    0.458    0.250  108.444  166.492
  486.270    6.381    0.454    0.261  105.823  166.279
  486.520    6.507    0.447    0.275  102.234  166.168
  486.770    6.673    0.447    0.292   97.422  166.046
  487.020    6.880    0.457    0.301   90.910  165.951
  487.270    7.265    0.456    0.300   93.464  165.527
  487.520    7.798    0.443    0.290   97.715  165.199
  487.770    9.874    0.429    0.274  101.238  164.574
  488.020   11.425    0.396    0.275   98.239  161.258
  488.270   14.248    0.345    0.208   92.650  161.156
  488.520   16.426    0.306    0.137   86.939  160.849
  488.770   19.822    0.247    0.081   84.206  160.644
  489.020   21.669    0.214    0.032   88.155  160.439
  489.270   21.577    0.163    0.018   88.277  160.851
  489.520   18.868    0.145    0.009   85.483  161.160
  489.770   14.434    0.147    0.017   83.782  161.778
  490.020   12.235    0.162    0.033   84.937  162.705
  490.270   10.600    0.186    0.029   86.943  163.324
  490.520    9.458    0.208    0.071   89.130  163.221
  490.770    8.392    0.243    0.105   92.533  163.016
  491.020    7.473    0.303    0.150   92.412  162.811
  491.270    7.070    0.374    0.182   95.997  162.606
  491.520    7.092    0.434    0.244   96.362  162.298
  491.770    7.365    0.437    0.299   91.502  161.682
  492.020    7.848    0.423    0.319   87.007  160.551
  492.270    8.241    0.397    0.328   82.815  159.009
  492.520    8.146    0.342    0.315   79.474  157.158
  492.770    7.805    0.298    0.294   81.115  156.027
  493.020    7.576    0.303    0.285   86.401  155.822
  493.270    7.353    0.394    0.317   89.196  156.132
  493.520    7.019    0.440    0.315   88.528  156.235
  493.770    6.725    0.440    0.302   85.309  156.544
  494.020    6.601    0.428    0.285   82.758  156.751
  494.270    6.453    0.424    0.303   80.328  157.369
  494.520    6.426    0.423    0.306   77.655  157.575
  494.770    6.399    0.425    0.295   77.170  157.885
  495.020    6.395    0.427    0.305   78.446  158.194
  495.270    6.367    0.427    0.317   80.512  158.504
  495.520    6.363    0.428    0.317   82.031  158.608
  495.770    6.349    0.433    0.298   82.700  158.506
  496.020    6.321    0.433    0.305   78.691  158.609
  496.270    6.316    0.429    0.331   77.355  159.021
