~VERSION INFORMATION
 VERS.                 2.0:   CWLS LOG ASCII STANDARD -VERSION 2.0
 WRAP.                  NO:   ONE LINE PER DEPTH STEP
~WELL INFORMATION BLOCK
#MNEM.UNIT           DATA                    DESCRIPTION OF MNEMONIC
#---------    -------------------            -------------------------------
# Generated from Intellog Unique Number	CS_73_76/WELL/850
WELL.         ESSO CLYDE LAKE                : Well_name    - WELL
LOC .         00/11-23-073-09W4/0            : Location     - LOCATION
UWI .         00/11-23-073-09W4/0            : Uwi          - UNIQUE WELL ID
ENTR.         SP                             : Entered      - ENTERED BY
SRVC.         SCHLUMBERGER                   : Scn          - SERVICE COMPANY
STRT.M        285                            : top_depth    - START DEPTH
STOP.M        495                            : bot_depth    - STOP DEPTH
STEP.M        0.25                           : increment    - STEP LENGTH
 NULL. -999.2500:NULL Value
~CURVE INFORMATION BLOCK
#MNEM UNIT       ERCB CURVE CODE    CURVE DESCRIPTION
#-----------   ------------------   ----------------------------------
DEPT.M        00 001 00 00         : DEPTH        - DEPTH
ILD .OHMM     00 120 00 00         : RESD         - DEEP RESISTIVITY (DIL)
DPHI.V/V      00 890 00 00         : PHID         - DENSITY POROSITY (LIMESTONE)
NPHI.V/V      00 330 00 00         : PHIN         - NEUTRON POROSITY (LIMESTONE)
GR  .API      00 310 00 00         : GR           - GAMMA RAY
~PARAMETER INFORMATION
#MNEM.UNIT           DATA             DESCRIPTION OF MNEMONIC
#---------         -----------     ------------------------------
GL  .M        650.3                : gl           - GROUND LEVEL ELEVATION
EREF.M        654.5                : kb           - ELEVATION OF DEPTH REFERENCE
DATM.M        650.3                : datum        - DATUM ELEVATION
TDD .M        503.5                : tdd          - TOTAL DEPTH DRILLER
RUN .         ONE                  : Run          - RUN NUMBER
ENG .         BILL                 : Engineer     - RECORDING ENGINEER
WIT .         JIM                  : Witness      - WITNESSED BY
MUD .         GEL                  : Mud_type     - MUD TYPE
MATR.         LIMESTONE            : Logunit      - NEUTRON MATRIX
TMAX.C        23                   : BHT          - MAXIMUM RECORDED TEMPERATURE
BHTD.M        503.5                : BHTDEP       - MAXIMUM RECORDED TEMPERATURE
MATR.         1                    : LOGUNIT      - NEUTRON MATRIX
RMT .C        25                   : MDTP         - TEMPERATURE OF MUD
NEUT.         1                    : NEUTRON      - NEUTRON TYPE
RESI.         0                    : RESIST       - RESISTIVITY TYPE
RMC .OHMM     0.25                 : RMC          - RESISTIVITY OF MUD CAKE
RMF .OHMM     0.25                 : RMF          - RESISTIVITY OF MUD FILTRATE
SUFT.C        15                   : SUFT         - SURFACE TEMPERATURE
~A  DEPTH     RESD     PHID     PHIN       GR
  285.000    2.835    0.227    0.527  107.763
  285.250    2.789    0.232    0.530  108.992
  285.500    2.836    0.223    0.549  107.158
  285.750    2.885    0.216    0.549  103.490
  286.000    2.935    0.215    0.515  102.271
  286.250    2.985    0.217    0.491  108.403
  286.500    2.985    0.216    0.461  109.630
  286.750    3.088    0.206    0.483  105.964
  287.000    3.089    0.194    0.502  100.459
  287.250    3.142    0.192    0.502   98.017
  287.500    3.305    0.203    0.489   96.799
  287.750    3.419    0.211    0.485   96.803
  288.000    3.536    0.202    0.465   98.645
  288.250    3.783    0.193    0.455  100.489
  288.500    3.784    0.189    0.466  101.106
  288.750    3.784    0.191    0.476  101.111
  289.000    3.722    0.189    0.478   99.895
  289.250    3.600    0.193    0.463   99.286
  289.500    3.481    0.203    0.482   99.293
  289.750    3.367    0.205    0.509   99.910
  290.000    3.311    0.214    0.532   99.305
  290.250    3.257    0.209    0.480  101.150
  290.500    3.257    0.201    0.453  101.767
  290.750    3.313    0.194    0.473  101.158
  291.000    3.427    0.195    0.487   99.940
  291.250    3.428    0.200    0.493  101.170
  291.500    3.429    0.203    0.510  106.688
  291.750    3.372    0.204    0.480  108.530
  292.000    3.373    0.204    0.465  109.758
  292.250    3.374    0.204    0.450  108.541
  292.500    3.374    0.205    0.469  106.709
  292.750    3.490    0.207    0.504  105.492
  293.000    3.610    0.204    0.516  104.884
  293.250    3.551    0.195    0.469  103.666
  293.500    3.434    0.188    0.470  101.835
  293.750    3.435    0.184    0.452  100.005
  294.000    3.494    0.176    0.441   99.399
  294.250    3.614    0.148    0.399   98.791
  294.500    4.066    0.144    0.363   87.776
  294.750    4.423    0.176    0.376   79.822
  295.000    4.976    0.200    0.403   73.706
  295.250    5.989    0.209    0.390   76.772
  295.500    6.515    0.199    0.377   81.678
  295.750    6.853    0.198    0.399   82.906
  296.000    7.089    0.198    0.393   81.688
  296.250    7.211    0.204    0.392   82.918
  296.500    7.092    0.209    0.404   82.311
  296.750    6.975    0.201    0.413   81.706
  297.000    6.976    0.204    0.403   84.161
  297.250    6.978    0.221    0.392   85.391
  297.500    6.862    0.208    0.394   82.947
  297.750    6.864    0.202    0.416   79.280
  298.000    6.981    0.195    0.405   83.574
  298.250    7.102    0.207    0.392   87.865
  298.500    7.224    0.205    0.366   89.093
  298.750    7.225    0.193    0.347   83.588
  299.000    7.106    0.180    0.355   80.532
  299.250    6.989    0.173    0.404   87.275
  299.500    6.759    0.183    0.436   90.954
  299.750    6.647    0.184    0.400   93.408
  300.000    6.429    0.177    0.375   96.477
  300.250    6.218    0.174    0.383   98.931
  300.500    6.116    0.173    0.416   95.875
  300.750    6.015    0.173    0.462  100.782
  301.000    5.916    0.165    0.440  102.009
  301.250    5.917    0.161    0.384   99.565
  301.500    5.918    0.157    0.408   94.063
  301.750    5.820    0.165    0.418   91.617
  302.000    5.822    0.169    0.428   95.910
  302.250    6.023    0.176    0.444   98.364
  302.500    6.230    0.171    0.410   97.146
  302.750    6.444    0.167    0.361   88.582
  303.000    6.779    0.184    0.326   83.688
  303.250    7.011    0.190    0.344   79.407
  303.500    7.375    0.199    0.353   81.865
  303.750    7.758    0.195    0.338   82.480
  304.000    7.891    0.182    0.327   83.713
  304.250    7.893    0.171    0.349   87.393
  304.500    7.381    0.165    0.409   91.072
  304.750    7.019    0.184    0.435   93.525
  305.000    6.456    0.194    0.405   95.979
  305.250    6.244    0.180    0.404   95.985
  305.500    6.038    0.175    0.411   94.153
  305.750    5.938    0.173    0.396   98.445
  306.000    5.840    0.178    0.379  102.739
  306.250    5.842    0.174    0.398   97.845
  306.500    5.942    0.174    0.419   93.566
  306.750    5.943    0.183    0.396   90.509
  307.000    5.945    0.184    0.392   94.803
  307.250    5.946    0.175    0.410   96.032
  307.500    5.946    0.173    0.405   97.876
  307.750    5.947    0.169    0.364   98.492
  308.000    5.949    0.172    0.359  100.947
  308.250    5.950    0.175    0.394   97.281
  308.500    5.755    0.179    0.413   98.509
  308.750    5.566    0.190    0.428  100.353
  309.000    5.474    0.192    0.435   96.686
  309.250    5.206    0.185    0.425   96.690
  309.500    5.120    0.176    0.410   99.757
  309.750    5.121    0.176    0.387   99.764
  310.000    5.122    0.181    0.371   98.546
  310.250    5.210    0.184    0.367   97.327
  310.500    5.764    0.196    0.377   98.556
  310.750    6.594    0.217    0.362   99.174
  311.000    7.545    0.200    0.365   94.282
  311.250    8.928    0.197    0.383   85.717
  311.500   10.045    0.235    0.401   81.436
  311.750   11.113    0.259    0.435   76.544
  312.000   11.690    0.276    0.456   79.612
  312.250   12.092    0.278    0.476   81.454
  312.500   11.894    0.280    0.484   82.685
  312.750   11.697    0.283    0.433   85.140
  313.000   11.312    0.271    0.424   86.369
  313.250   11.126    0.278    0.442   90.050
  313.500   10.760    0.284    0.464   93.730
  313.750   10.062    0.283    0.433   96.184
  314.000    8.799    0.261    0.365   98.638
  314.250    7.957    0.239    0.363  104.154
  314.500    7.566    0.199    0.378  112.120
  314.750    6.958    0.174    0.391  116.411
  315.000    6.292    0.171    0.413  118.866
  315.250    5.983    0.177    0.440  119.484
  315.500    5.596    0.180    0.433  120.103
  315.750    5.321    0.171    0.418  123.169
  316.000    4.976    0.168    0.450  119.502
  316.250    4.654    0.167    0.475  121.958
  316.500    4.426    0.173    0.460  125.023
  316.750    4.280    0.179    0.485  128.702
  317.000    4.281    0.164    0.463  131.770
  317.250    5.239    0.196    0.423  128.716
  317.500    5.699    0.228    0.396  123.821
  317.750    6.974    0.253    0.384  112.807
  318.000    9.128    0.271    0.402   99.344
  318.250   10.444    0.295    0.422   95.063
  318.500   11.173    0.313    0.435   90.782
  318.750   11.175    0.290    0.454   91.401
  319.000   11.178    0.265    0.441   92.631
  319.250   10.811    0.242    0.424   96.311
  319.500   10.632    0.226    0.402   96.929
  319.750    9.943    0.227    0.408  101.835
  320.000    9.779    0.236    0.420  103.676
  320.250    9.947    0.237    0.426  101.844
  320.500   10.117    0.249    0.401   90.218
  320.750   10.823    0.277    0.385   79.203
  321.000   11.579    0.290    0.363   63.290
  321.250   11.777    0.273    0.336   54.724
  321.500   12.181    0.264    0.334   53.505
  321.750   12.390    0.277    0.355   52.898
  322.000   12.816    0.285    0.373   49.844
  322.250   13.036    0.293    0.385   46.176
  322.500   12.822    0.288    0.375   45.570
  322.750   12.824    0.282    0.361   49.863
  323.000   12.403    0.272    0.344   51.703
  323.250   12.405    0.285    0.372   53.546
  323.500   12.408    0.297    0.389   52.938
  323.750   12.410    0.288    0.401   49.271
  324.000   12.002    0.266    0.374   50.501
  324.250   10.853    0.231    0.365   60.916
  324.500   10.149    0.208    0.354   79.903
  324.750    9.492    0.191    0.356   93.990
  325.000    9.026    0.182    0.375  105.017
  325.250    8.585    0.182    0.386  107.471
  325.500    8.302    0.200    0.370  108.090
  325.750    8.166    0.210    0.353  104.422
  326.000    8.031    0.207    0.354  101.366
  326.250    8.033    0.206    0.378  105.659
  326.500    7.900    0.197    0.369  100.155
  326.750    7.641    0.181    0.360   97.710
  327.000    7.026    0.188    0.382   95.267
  327.250    6.571    0.188    0.414  102.620
  327.500    6.355    0.179    0.427  114.260
  327.750    6.146    0.189    0.424  122.224
  328.000    5.944    0.199    0.427  120.392
  328.250    5.846    0.211    0.439  113.052
