~VERSION INFORMATION
 VERS.                 2.0:   CWLS LOG ASCII STANDARD -VERSION 2.0
 WRAP.                  NO:   ONE LINE PER DEPTH STEP
~WELL INFORMATION BLOCK
#MNEM.UNIT           DATA                    DESCRIPTION OF MNEMONIC
#---------    -------------------            -------------------------------
# Generated from Intellog Unique Number	CW_76_78/WELL/903
WELL.         AMOCO ROCK  10-23              : Well_name    - WELL
LOC .         00/10-23-077-23W4/0            : Location     - LOCATION
UWI .         00/10-23-077-23W4/0            : Uwi          - UNIQUE WELL ID
ENTR.         jj                             : Entered      - ENTERED BY
SRVC.         WESTERN ATLAS                  : Scn          - SERVICE COMPANY
DATE.         17 MARCH 78                    : Date         - LOG DATE
STRT.M        332.232                        : top_depth    - START DEPTH
STOP.M        575.982                        : bot_depth    - STOP DEPTH
STEP.M        0.25                           : increment    - STEP LENGTH
 NULL. -999.2500:NULL Value
~CURVE INFORMATION BLOCK
#MNEM UNIT       ERCB CURVE CODE    CURVE DESCRIPTION
#-----------   ------------------   ----------------------------------
DEPT.M        00 001 00 00         : DEPTH        - DEPTH
ILD .OHMM     00 120 00 00         : RESD         - DEEP RESISTIVITY (DIL)
DPHI.V/V      00 890 00 00         : PHID         - DENSITY POROSITY (SANDSTONE)
NPHI.V/V      00 330 00 00         : PHIN         - NEUTRON POROSITY (SANDSTONE)
GR  .API      00 310 00 00         : GR           - GAMMA RAY
CALI.MM       00 280 01 00         : CAL          - CALIPER
~PARAMETER INFORMATION
#MNEM.UNIT           DATA             DESCRIPTION OF MNEMONIC
#---------         -----------     ------------------------------
GL  .M        654.101              : gl           - GROUND LEVEL ELEVATION
EREF.M        658.063              : kb           - ELEVATION OF DEPTH REFERENCE
DATM.M        654.101              : datum        - DATUM ELEVATION
TDD .M        577.291              : tdd          - TOTAL DEPTH DRILLER
RUN .         ONE                  : Run          - RUN NUMBER
ENG .         BURLET               : Engineer     - RECORDING ENGINEER
WIT .         DAHLSTEDT/REGAN      : Witness      - WITNESSED BY
BASE.         EDMONTON             : Branch       - HOME BASE OF LOGGING UNIT
MUD .         GEL BENDEX           : Mud_type     - MUD TYPE
MATR.         SANDSTONE            : Logunit      - NEUTRON MATRIX
TMAX.C        26.1111              : BHT          - MAXIMUM RECORDED TEMPERATURE
BHTD.M        575.767              : BHTDEP       - MAXIMUM RECORDED TEMPERATURE
RMT .C        21.1111              : MDTP         - TEMPERATURE OF MUD
MUDD.KG/M     1140                 : MWT          - MUD DENSITY
NEUT.         1                    : NEUTRON      - NEUTRON TYPE
RESI.         0                    : RESIST       - RESISTIVITY TYPE
RM  .OHMM     2.13                 : RM           - RESISTIVITY OF MUD
RMC .OHMM     2.9                  : RMC          - RESISTIVITY OF MUD CAKE
RMF .OHMM     2.2                  : RMF          - RESISTIVITY OF MUD FILTRATE
SUFT.C        4.5                  : SUFT         - SURFACE TEMPERATURE
~A  DEPTH     RESD     PHID     PHIN       GR      CAL
# ...
  514.732    6.179    0.163    0.381   80.714  228.776
  514.982    6.186    0.161    0.361   79.912  228.476
  515.232    6.192    0.159    0.357   78.173  228.494
  515.482    6.176    0.182    0.356   81.368  228.512
  515.732    5.967    0.189    0.358   89.125  228.844
  515.982    5.594    0.186    0.365   86.322  228.858
  516.232    5.052    0.180    0.375   89.768  229.194
  516.482    4.640    0.174    0.379   89.528  228.257
  516.732    4.294    0.182    0.372   86.914  226.264
  516.982    3.973    0.212    0.367   90.922  225.116
  517.232    4.231    0.241    0.361   83.122  224.391
  517.482    4.784    0.261    0.347   77.384  224.094
  517.732    5.594    0.281    0.340   74.270  223.897
  517.982    6.816    0.304    0.333   41.794  222.960
  518.232    8.479    0.302    0.333   39.805  222.446
  518.482   11.518    0.296    0.337   38.814  222.783
  518.732   14.653    0.291    0.333   35.263  223.435
  518.982   16.660    0.286    0.341   35.834  221.554
  519.232   17.908    0.279    0.347   39.718  221.982
  519.482   18.749    0.273    0.349   45.850  223.163
  519.732   19.196    0.277    0.350   46.109  223.499
  519.982   19.504    0.282    0.350   48.618  223.725
  520.232   19.529    0.287    0.349   48.752  223.423
  520.482   18.517    0.291    0.348   47.139  223.230
  520.732   14.917    0.287    0.350   45.399  223.562
  520.982   12.337    0.280    0.353   48.282  223.685
  521.232   10.337    0.269    0.354   48.729  223.806
  521.482    9.163    0.258    0.343   50.363  223.823
  521.732    7.693    0.245    0.336   54.434  224.054
  521.982    6.445    0.229    0.344   63.689  224.384
  522.232    5.767    0.204    0.358   76.631  224.718
  522.482    5.277    0.196    0.353   85.636  225.159
  522.732    5.060    0.190    0.352   92.769  225.597
  522.982    5.428    0.184    0.358   90.405  225.930
  523.232    6.092    0.179    0.361   82.792  226.054
  523.482    7.607    0.173    0.357   71.369  225.964
  523.732   10.448    0.272    0.338   56.322  225.771
  523.982   13.929    0.271    0.349   52.396  225.257
  524.232   16.229    0.264    0.375   47.908  224.746
  524.482   19.227    0.259    0.383   48.105  224.444
  524.732   22.108    0.253    0.366   48.929  224.038
  524.982   24.997    0.249    0.362   49.311  223.841
  525.232   28.957    0.268    0.354   48.634  223.225
  525.482   32.988    0.305    0.349   44.083  222.711
  525.732   40.651    0.308    0.350   38.846  222.620
  525.982   46.568    0.307    0.364   34.544  222.636
  526.232   48.759    0.311    0.381   30.555  222.444
  526.482   48.898    0.316    0.374   29.505  222.247
  526.732   47.685    0.313    0.372   30.389  222.158
  526.982   45.813    0.309    0.371   32.522  222.174
  527.232   43.112    0.306    0.364   33.845  222.297
  527.482   40.574    0.302    0.367   33.540  222.417
  527.732   37.543    0.299    0.373   34.549  222.542
  527.982   34.809    0.299    0.381   38.682  222.767
  528.232   32.151    0.298    0.379   40.566  222.680
  528.482   29.196    0.297    0.376   42.013  222.800
  528.732   26.864    0.295    0.373   43.022  222.923
  528.982   25.047    0.293    0.377   44.468  223.363
  529.232   23.617    0.291    0.372   46.352  223.590
  529.482   22.605    0.287    0.364   49.049  223.926
  529.732   21.391    0.283    0.351   49.808  223.939
  529.982   20.629    0.276    0.337   49.505  223.851
  530.232   20.040    0.270    0.326   50.265  223.444
  530.482   19.470    0.263    0.319   52.273  223.038
  530.732   18.987    0.254    0.323   51.096  222.842
  530.982   18.444    0.242    0.318   50.293  222.646
  531.232   18.158    0.243    0.310   52.990  222.347
  531.482   17.873    0.241    0.310   57.122  221.941
  531.732   18.331    0.237    0.312   60.632  221.534
  531.982   19.159    0.228    0.311   60.327  221.442
  532.232   21.379    0.211    0.297   56.277  221.354
  532.482   23.593    0.191    0.276   58.285  221.266
  532.732   25.077    0.165    0.260   51.861  221.282
  532.982   25.434    0.057    0.243   41.811  221.296
  533.232   24.252    0.084    0.258   38.697  221.420
  533.482   21.697    0.114    0.312   39.520  221.648
  533.732   17.645    0.235    0.343   43.278  221.664
  533.982   15.876    0.235    0.339   51.596  221.361
  534.232   14.745    0.229    0.335   56.604  221.273
  534.482   14.034    0.223    0.338   58.551  221.184
  534.732   13.357    0.215    0.343   62.682  220.990
  534.982   12.429    0.209    0.340   61.943  221.004
  535.232   11.141    0.199    0.335   61.828  220.809
  535.482    9.530    0.188    0.334   65.399  220.826
  535.732    7.578    0.180    0.361   72.593  220.737
  535.982    6.338    0.174    0.395   88.345  220.754
  536.232    5.692    0.167    0.396  118.468  220.770
  536.482    5.488    0.161    0.342   87.992  220.891
  536.732    5.608    0.155    0.321   82.314  221.226
  536.982    6.005    0.157    0.320   73.641  221.348
  537.232    6.407    0.170    0.322   75.961  221.574
  537.482    6.823    0.182    0.323   78.534  221.276
  537.732    6.830    0.181    0.320   78.855  221.079
  537.982    6.549    0.177    0.303   72.367  221.095
  538.232    6.544    0.175    0.293   68.565  221.536
  538.482    8.095    0.168    0.263   63.078  221.974
  538.732   13.714    0.063    0.231   53.779  222.413
  538.982   26.588    0.039    0.203   33.547  222.642
  539.232   45.812    0.028    0.167   19.750  223.187
  539.482   52.774    0.052    0.188   12.637  223.309
  539.732   48.835    0.088    0.289   17.833  223.644
  539.982   33.492    0.128    0.311   25.339  223.660
  540.232   10.384    0.159    0.330   35.594  224.417
  540.482    5.917    0.192    0.435   45.913  224.963
  540.732    4.228    0.251    0.476   62.290  225.507
  540.982    3.497    0.296    0.451   83.228  225.947
  541.232    3.242    0.285    0.454   95.920  226.280
  541.482    3.138    0.285    0.457   99.678  226.721
  541.732    3.106    0.294    0.439  101.062  226.946
  541.982    3.121    0.283    0.427  102.574  227.176
  542.232    3.292    0.219    0.424  103.582  227.298
  542.482    3.640    0.188    0.420  102.654  227.208
  542.732    4.193    0.177    0.406   80.985  227.224
  542.982    4.876    0.193    0.395   82.744  227.241
  543.232    5.691    0.248    0.393   78.005  227.363
  543.482    6.199    0.260    0.400   80.077  227.699
  543.732    6.055    0.203    0.408   84.959  227.715
  543.982    5.839    0.155    0.410   95.465  227.517
  544.232    5.620    0.144    0.407   98.660  227.218
  544.482    5.929    0.168    0.403  102.231  226.175
  544.732    6.679    0.233    0.395   98.367  224.923
  544.982    9.453    0.282    0.364   71.388  223.881
  545.232   13.256    0.314    0.357   58.591  223.157
  545.482   17.671    0.330    0.359   41.608  222.644
  545.732   20.589    0.334    0.361   38.931  222.132
  545.982   20.225    0.336    0.378   44.063  221.725
  546.232   19.761    0.336    0.376   51.821  221.106
  546.482   19.236    0.338    0.369   55.078  220.701
  546.732   18.340    0.338    0.381   58.774  220.292
  546.982   17.653    0.333    0.357   57.535  220.098
  547.232   16.892    0.328    0.355   55.172  219.903
  547.482   16.537    0.321    0.356   53.993  219.604
  547.732   16.494    0.314    0.351   52.752  219.302
  547.982   16.918    0.303    0.338   53.137  219.318
  548.232   19.236    0.281    0.317   52.084  219.546
  548.482   26.672    0.219    0.297   56.592  219.349
  548.732   31.543    0.066    0.164   50.495  225.885
  548.982   40.123    0.072    0.174   45.312  225.616
  549.232   43.124    0.138    0.212   39.939  225.237
  549.482   34.993    0.212    0.248   38.144  225.065
  549.732   25.909    0.226    0.283   44.328  225.125
  549.982   16.544    0.237    0.327   48.185  225.383
  550.232   14.203    0.241    0.328   47.336  225.542
  550.482   12.945    0.247    0.339   51.319  225.375
  550.732   11.755    0.268    0.374   60.773  225.100
  550.982   10.733    0.306    0.419   66.579  224.834
