~VERSION INFORMATION
 VERS.                 2.0:   CWLS LOG ASCII STANDARD -VERSION 2.0
 WRAP.                  NO:   ONE LINE PER DEPTH STEP
~WELL INFORMATION BLOCK
#MNEM.UNIT           DATA                    DESCRIPTION OF MNEMONIC
#---------    -------------------            -------------------------------
# Generated from Intellog Unique Number	CS_73_76/WELL/2187
WELL.         PEX MARGIE                     : Well_name    - WELL
LOC .         00/10-11-074-09W4/0            : Location     - LOCATION
UWI .         00/10-11-074-09W4/0            : Uwi          - UNIQUE WELL ID
ENTR.         SP                             : Entered      - ENTERED BY
SRVC.         SCHLUMBERGER                   : Scn          - SERVICE COMPANY
STRT.M        285                            : top_depth    - START DEPTH
STOP.M        500                            : bot_depth    - STOP DEPTH
STEP.M        0.25                           : increment    - STEP LENGTH
 NULL. -999.2500:NULL Value
~CURVE INFORMATION BLOCK
#MNEM UNIT       ERCB CURVE CODE    CURVE DESCRIPTION
#-----------   ------------------   ----------------------------------
DEPT.M        00 001 00 00         : DEPTH        - DEPTH
ILD .OHMM     00 120 00 00         : RESD         - DEEP RESISTIVITY (DIL)
DPHI.V/V      00 890 00 00         : PHID         - DENSITY POROSITY (LIMESTONE)
NPHI.V/V      00 330 00 00         : PHIN         - NEUTRON POROSITY (LIMESTONE)
GR  .API      00 310 00 00         : GR           - GAMMA RAY
~PARAMETER INFORMATION
#MNEM.UNIT           DATA             DESCRIPTION OF MNEMONIC
#---------         -----------     ------------------------------
GL  .M        659.5                : gl           - GROUND LEVEL ELEVATION
EREF.M        663.3                : kb           - ELEVATION OF DEPTH REFERENCE
DATM.M        659.5                : datum        - DATUM ELEVATION
TDD .M        609                  : tdd          - TOTAL DEPTH DRILLER
RUN .         ONE                  : Run          - RUN NUMBER
ENG .         BILL                 : Engineer     - RECORDING ENGINEER
WIT .         JIM                  : Witness      - WITNESSED BY
MUD .         GEL                  : Mud_type     - MUD TYPE
MATR.         LIMESTONE            : Logunit      - NEUTRON MATRIX
TMAX.C        22.5                 : BHT          - MAXIMUM RECORDED TEMPERATURE
BHTD.M        609                  : BHTDEP       - MAXIMUM RECORDED TEMPERATURE
MATR.         1                    : LOGUNIT      - NEUTRON MATRIX
RMT .C        25                   : MDTP         - TEMPERATURE OF MUD
NEUT.         1                    : NEUTRON      - NEUTRON TYPE
RESI.         0                    : RESIST       - RESISTIVITY TYPE
RMC .OHMM     0.25                 : RMC          - RESISTIVITY OF MUD CAKE
RMF .OHMM     0.25                 : RMF          - RESISTIVITY OF MUD FILTRATE
SUFT.C        15                   : SUFT         - SURFACE TEMPERATURE
~A  DEPTH     RESD     PHID     PHIN       GR
# ...
  459.000   25.267    0.233    0.341   65.962
  459.250   24.780    0.226    0.352   67.784
  459.500   24.307    0.242    0.358   67.178
  459.750   23.394    0.255    0.334   70.824
  460.000   22.095    0.263    0.330   73.862
  460.250   20.089    0.266    0.344   75.685
  460.500   19.336    0.270    0.345   79.938
  460.750   18.259    0.245    0.335   83.583
  461.000   17.906    0.227    0.331   85.406
  461.250   17.900    0.216    0.321   82.978
  461.500   18.238    0.223    0.333   78.729
  461.750   19.665    0.231    0.357   72.657
  462.000   23.305    0.228    0.364   69.015
  462.250   29.233    0.217    0.374   65.980
  462.500   34.651    0.264    0.385   52.620
  462.750   44.296    0.297    0.373   39.869
  463.000   52.499    0.306    0.362   38.049
  463.250   57.690    0.303    0.356   39.871
  463.500   57.665    0.294    0.357   46.553
  463.750   51.453    0.282    0.352   52.628
  464.000   46.789    0.271    0.360   56.880
  464.250   40.197    0.264    0.362   58.703
  464.500   33.885    0.277    0.363   53.846
  464.750   31.405    0.294    0.363   55.063
  465.000   30.225    0.279    0.350   59.315
  465.250   33.842    0.255    0.351   65.389
  465.500   37.191    0.261    0.363   55.067
  465.750   46.648    0.282    0.378   50.817
  466.000   56.345    0.297    0.391   42.924
  466.250   68.050    0.317    0.393   37.460
  466.500   77.660    0.321    0.393   34.424
  466.750   85.340    0.320    0.406   35.033
  467.000   95.558    0.329    0.410   34.427
  467.250  104.998    0.337    0.406   30.178
  467.500  115.368    0.330    0.385   29.572
  467.750  122.050    0.315    0.372   29.573
  468.000  124.317    0.304    0.364   28.967
  468.250  126.651    0.299    0.356   28.362
  468.500  124.243    0.302    0.344   29.578
  468.750  112.966    0.315    0.348   30.793
  469.000  100.804    0.328    0.367   32.617
  469.250   95.203    0.320    0.383   33.833
  469.500   95.153    0.321    0.390   33.227
  469.750   98.794    0.323    0.383   35.657
  470.000  106.499    0.314    0.373   37.481
  470.250  108.502    0.302    0.374   38.697
  470.500  106.418    0.301    0.378   37.483
  470.750  100.503    0.319    0.382   39.306
  471.000   94.907    0.319    0.373   41.130
  471.250   93.106    0.309    0.366   41.739
  471.500   96.662    0.307    0.374   42.347
  471.750  106.191    0.297    0.382   40.527
  472.000  108.188    0.291    0.388   36.885
  472.250  112.302    0.304    0.378   35.672
  472.500  112.262    0.310    0.367   33.851
  472.750  110.110    0.309    0.368   30.816
  473.000  107.999    0.318    0.373   30.210
  473.250  105.942    0.325    0.379   28.997
  473.500  105.901    0.325    0.372   29.606
  473.750  107.872    0.319    0.360   30.214
  474.000  103.830    0.314    0.356   29.001
  474.250   78.135    0.314    0.355   29.002
  474.500   58.800    0.315    0.361   33.255
  474.750   39.498    0.308    0.367   39.329
  475.000   27.558    0.292    0.371   54.513
  475.250   24.130    0.248    0.384   69.697
  475.500   26.013    0.263    0.404   69.091
  475.750   27.006    0.280    0.402   67.270
  476.000   28.571    0.280    0.394   63.021
  476.250   30.229    0.281    0.385   60.593
  476.500   32.595    0.280    0.387   58.772
  476.750   41.662    0.274    0.396   56.345
  477.000   46.659    0.271    0.400   55.739
  477.250   56.358    0.288    0.398   56.955
  477.500   64.314    0.298    0.398   63.029
  477.750   57.385    0.288    0.400   67.889
  478.000   47.473    0.276    0.406   68.498
  478.250   55.209    0.294    0.421   63.641
  478.500   65.434    0.309    0.416   58.176
  478.750   82.073    0.303    0.378   53.927
  479.000   93.662    0.294    0.393   50.892
  479.250  100.992    0.293    0.400   46.035
  479.500  106.842    0.306    0.395   42.393
  479.750  108.845    0.315    0.393   39.965
  480.000  112.991    0.320    0.389   39.966
  480.250  119.511    0.314    0.383   47.862
  480.500  121.754    0.308    0.375   61.832
  480.750  124.034    0.304    0.371   70.335
  481.000  123.984    0.310    0.378   77.624
  481.250  121.627    0.308    0.380   79.447
  481.500  117.058    0.301    0.389   74.591
  481.750  106.449    0.293    0.391   70.341
  482.000   96.797    0.298    0.385   66.698
  482.250  104.356    0.297    0.390   63.056
  482.500  108.332    0.291    0.388   58.199
  482.750  110.371    0.290    0.378   53.950
  483.000   98.466    0.294    0.375   52.736
  483.250   84.610    0.303    0.372   56.988
  483.500   48.853    0.303    0.364   58.812
  483.750   31.006    0.280    0.357   67.923
  484.000   28.194    0.259    0.368   71.568
  484.250   26.628    0.272    0.378   68.533
  484.500   25.145    0.288    0.371   56.388
  484.750   24.664    0.282    0.355   58.212
  485.000   25.126    0.270    0.351   58.820
  485.250   26.079    0.291    0.364   49.712
  485.500   26.570    0.309    0.396   39.390
  485.750   27.586    0.324    0.393   32.104
  486.000   28.100    0.319    0.378   30.891
  486.250   28.625    0.315    0.373   32.714
  486.500   27.549    0.313    0.369   33.322
  486.750   26.017    0.308    0.368   33.324
  487.000   24.107    0.318    0.367   33.325
  487.250   23.202    0.323    0.366   32.112
  487.500   22.331    0.325    0.363   33.328
  487.750   21.494    0.321    0.353   33.937
  488.000   21.083    0.314    0.357   33.938
  488.250   20.680    0.306    0.366   34.547
  488.500   20.286    0.303    0.360   35.156
  488.750   19.892    0.308    0.367   36.372
  489.000   19.887    0.312    0.361   36.980
  489.250   19.876    0.317    0.352   37.589
  489.500   19.497    0.320    0.357   35.769
  489.750   19.125    0.323    0.362   34.556
  490.000   18.760    0.319    0.361   35.164
  490.250   16.738    0.317    0.361   35.166
  490.500   14.935    0.317    0.373   34.560
  490.750   13.581    0.323    0.383   37.597
  491.000   12.827    0.331    0.388   40.635
  491.250   11.661    0.334    0.390   40.029
  491.500   11.439    0.314    0.373   31.529
  491.750   11.009    0.308    0.363   33.959
  492.000   10.799    0.312    0.373   36.390
  492.250   10.395    0.304    0.363   38.213
  492.500    9.101    0.302    0.360   36.393
  492.750    7.112    0.313    0.361   32.751
  493.000    6.227    0.323    0.361   29.716
  493.250    5.452    0.324    0.362   27.895
  493.500    5.150    0.323    0.377   27.290
  493.750    4.773    0.328    0.395   27.898
  494.000    4.258    0.331    0.388   30.936
  494.250    3.872    0.318    0.366   32.759
  494.500    3.657    0.307    0.361   35.190
  494.750    3.586    0.308    0.362   36.406
  495.000    3.585    0.309    0.367   37.622
  495.250    3.722    0.314    0.369   38.230
  495.500    3.938    0.314    0.371   36.410
  495.750    4.327    0.320    0.406   33.375
  496.000    4.845    0.282    0.428   32.162
  496.250    5.529    0.228    0.406   33.985
  496.500    6.806    0.000    0.210   41.274
  496.750    9.565    0.000    0.212   43.704
  497.000   12.461    0.000    0.227   46.742
  497.250   14.219    0.000    0.232   50.387
  497.500   14.486    0.018    0.226   50.996
  497.750   15.326    0.022    0.228   49.783
  498.000   16.211    0.023    0.233   50.999
  498.250   17.148    0.026    0.237   54.037
  498.500   17.804    0.013    0.239   54.038
  498.750   18.139    0.000    0.238   51.610
  499.000   18.479    0.000    0.234   49.790
  499.250   19.184    0.001    0.232   49.184
  499.500   19.542    0.013    0.231   49.793
  499.750   19.535    0.000    0.231   50.401
  500.000   18.450    0.000    0.236   52.225
