~VERSION INFORMATION
 VERS.                 2.0:   CWLS LOG ASCII STANDARD -VERSION 2.0
 WRAP.                  NO:   ONE LINE PER DEPTH STEP
~WELL INFORMATION BLOCK
#MNEM.UNIT           DATA                    DESCRIPTION OF MNEMONIC
#---------    -------------------            -------------------------------
# Generated from Intellog Unique Number	CC_84_87/WELL/1184
NULL.         -999.25                        : NULL_VALUE
WELL.         PCI PCEJ HANGST                : Well_name    - WELL              
LOC .         10-08-084-09W4                 : Location     - LOCATION          
UWI .         00/10-08-084-09W400            : Uwi          - UNIQUE WELL ID    
ENTR.         RJA                            : Entered      - ENTERED BY        
SRVC.         SCHLUMBERGER                   : Scn          - SERVICE COMPANY   
DATE.         17 MAR 85                      : Date         - LOG DATE
STRT.M        175                            : top_depth    - START DEPTH       
STOP.M        475.892                        : bot_depth    - STOP DEPTH        
STEP.M        0.3                            : increment    - STEP LENGTH       
~CURVE INFORMATION BLOCK
#MNEM UNIT       ERCB CURVE CODE    CURVE DESCRIPTION
#-----------   ------------------   ----------------------------------
DEPT.M        00 001 00 00         : DEPTH        - DEPTH                       
DPHI.V/V      00 890 00 00         : PHID         - DENSITY POROSITY (LIMESTONE)
NPHI.V/V      00 330 00 00         : PHIN         - NEUTRON POROSITY (LIMESTONE)
GR  .API      00 310 00 00         : GR           - GAMMA RAY                   
ILD .OHMM     00 120 00 00         : RESD         - DEEP RESISTIVITY (DIL)      
~PARAMETER INFORMATION       
#MNEM.UNIT           DATA             DESCRIPTION OF MNEMONIC
#---------         -----------     ------------------------------
GL  .M        716.37               : gl           - GROUND LEVEL ELEVATION      
EREF.M        719.37               : kb           - ELEVATION OF DEPTH REFERENCE
DATM.M        719.37               : datum        - DATUM ELEVATION             
TDD .M        488                  : tdd          - TOTAL DEPTH DRILLER         
RUN .         ONE                  : Run          - RUN NUMBER                  
ENG .         BILL                 : Engineer     - RECORDING ENGINEER          
WIT .         JIM                  : Witness      - WITNESSED BY                
MUD .         GEL                  : Mud_type     - MUD TYPE                    
MATR.         LIMESTONE            : Logunit      - NEUTRON MATRIX              
TMAX.C        19                   : BHT          - MAXIMUM RECORDED TEMPERATURE
BHTD.M        488                  : BHTDEP       - MAXIMUM RECORDED TEMPERATURE
MATR.         1                    : LOGUNIT      - NEUTRON MATRIX              
RMT .C        25                   : MDTP         - TEMPERATURE OF MUD          
NEUT.         1                    : NEUTRON      - NEUTRON TYPE                
RESI.         0                    : RESIST       - RESISTIVITY TYPE            
RMC .OHMM     0.25                 : RMC          - RESISTIVITY OF MUD CAKE     
RMF .OHMM     0.25                 : RMF          - RESISTIVITY OF MUD FILTRATE 
SUFT.C        4                    : SUFT         - SURFACE TEMPERATURE         
~A  DEPTH     PHID     PHIN       GR     RESD
# ...
  383.796    0.220    0.421   86.303    6.276
  384.096    0.229    0.436   84.426    6.043
  384.396    0.246    0.452   86.210    5.711
  384.696    0.257    0.464   92.811    5.297
  384.996    0.260    0.452   92.170    4.733
  385.296    0.257    0.468   88.483    4.229
  385.596    0.252    0.487   92.072    3.922
  385.896    0.262    0.467   95.052    3.440
  386.196    0.274    0.478   95.610    3.074
  386.496    0.261    0.550   94.341    2.799
  386.796    0.251    0.576   93.706    2.547
  387.095    0.255    0.557  102.117    2.546
  387.395    0.216    0.535   98.432    2.741
  387.695    0.212    0.506   94.777    3.121
  387.995    0.225    0.444   89.290    3.900
  388.295    0.244    0.466   87.428    4.609
  388.595    0.244    0.478   97.057    5.056
  388.895    0.230    0.470   98.215    5.545
  389.195    0.223    0.460   87.292    5.647
  389.495    0.228    0.447   76.969    6.193
  389.795    0.236    0.417   92.630    6.793
  390.095    0.223    0.456   95.015    7.048
  390.395    0.224    0.466   96.780    7.309
  390.695    0.231    0.439  101.559    7.724
  390.995    0.239    0.397   99.704    8.013
  391.295    0.227    0.418   96.644    8.787
  391.595    0.197    0.426   88.120    9.117
  391.895    0.200    0.404   85.061    9.454
  392.195    0.226    0.412  100.731    9.448
  392.495    0.233    0.402  102.500    9.096
  392.795    0.235    0.394   93.379    8.756
  393.095    0.216    0.396   88.506    8.588
  393.395    0.198    0.400   90.876    8.267
  393.695    0.200    0.421   92.631    7.962
  393.995    0.216    0.444   93.198    7.114
  394.295    0.236    0.470  102.823    6.476
  394.595    0.238    0.483  102.175    6.120
  394.895    0.217    0.491   96.669    6.115
  395.195    0.223    0.485   93.625    7.362
  395.495    0.228    0.438   85.084    8.538
  395.795    0.239    0.419   83.852    8.858
  396.095    0.262    0.412   84.398    9.017
  396.395    0.259    0.422   86.168    8.846
  396.695    0.255    0.424   86.129    8.676
  396.995    0.254    0.419   84.272    8.353
  397.295    0.230    0.411   83.019    8.043
  397.595    0.231    0.389   93.234    7.457
  397.895    0.247    0.406   95.615    7.048
  398.195    0.210    0.434   94.360    6.660
  398.495    0.214    0.433   88.873    6.176
  398.795    0.234    0.432   87.619    6.058
  399.095    0.238    0.448   94.829    6.168
  399.395    0.236    0.436   89.340    6.640
  399.695    0.215    0.460   85.673    7.018
  399.995    0.214    0.457  100.118    7.417
  400.295    0.219    0.429   93.408    7.139
  400.595    0.231    0.442   91.576    6.873
  400.895    0.244    0.468   84.246    6.743
  401.195    0.242    0.483   81.196    7.673
  401.495    0.241    0.455   78.138    8.111
  401.795    0.252    0.427   74.457    8.571
  402.095    0.253    0.412   76.228    8.565
  402.395    0.245    0.403   79.198    7.372
  402.695    0.246    0.410   78.562    6.347
  402.995    0.256    0.447   76.096    5.465
  403.295    0.256    0.494   83.301    4.448
  403.595    0.260    0.518   91.116    3.829
  403.895    0.283    0.521   95.305    3.358
  404.195    0.241    0.475   96.447    3.233
  404.495    0.236    0.476   93.383    3.965
  404.795    0.243    0.483   86.081    4.776
  405.095    0.220    0.456   79.394    6.927
  405.395    0.232    0.446   78.138    7.743
  405.695    0.251    0.447   78.092    8.183
  405.995    0.252    0.440   77.439    8.023
  406.295    0.206    0.446   76.194    7.871
  406.595    0.217    0.432   78.547    8.014
  406.895    0.251    0.408   79.123    8.469
  407.195    0.267    0.410   77.263    9.288
  407.495    0.244    0.450   74.171    9.999
  407.795    0.058    0.446   71.118   10.969
  408.095    0.099    0.345   68.052   11.171
  408.395    0.139    0.354   75.863   10.167
  408.695    0.208    0.413   88.512    9.084
  408.995    0.219    0.433   87.863    8.426
  409.295    0.218    0.456   93.855    7.388
  409.595    0.228    0.451  107.105    7.116
  409.895    0.233    0.435  102.819    6.478
  410.195    0.233    0.434   96.731    6.234
  410.495    0.234    0.427   94.284    6.232
  410.795    0.222    0.421   92.427    6.344
  411.095    0.210    0.419   89.338    5.774
  411.395    0.206    0.419   86.879    5.356
  411.694    0.222    0.452   85.631    4.442
  411.994    0.271    0.449   82.563    3.295
  412.294    0.291    0.529   80.096    2.732
  412.594    0.273    0.564   75.218    2.487
  412.894    0.259    0.557   70.332    2.885
  413.194    0.237    0.493   72.103    3.474
  413.494    0.235    0.449   69.639    4.506
  413.794    0.242    0.435   71.406    5.425
  414.094    0.231    0.406   73.167    5.629
  414.394    0.227    0.416   71.910    5.625
  414.694    0.232    0.430   74.292    4.933
  414.994    0.239    0.425   82.102    4.326
  415.294    0.238    0.421   85.677    3.795
  415.594    0.226    0.424   86.238    3.454
  415.894    0.244    0.471   82.568    3.145
  416.194    0.251    0.501   81.913    3.262
  416.494    0.214    0.526   82.471    5.003
  416.794    0.148    0.487   76.980    6.137
  417.094    0.213    0.380   73.318    6.134
  417.394    0.235    0.403   80.514    4.900
  417.694    0.243    0.435   87.125    4.218
  417.994    0.253    0.456   95.543    3.841
  418.294    0.264    0.468   94.285    3.306
  418.594    0.260    0.473   88.184    3.067
  418.894    0.259    0.483   86.337    2.791
  419.194    0.264    0.501   92.338    2.790
  419.494    0.266    0.501   92.287    2.841
  419.794    0.251    0.522   91.036    3.058
  420.094    0.236    0.505   95.218    3.417
  420.394    0.226    0.517   92.150    3.545
  420.694    0.222    0.514   92.097    3.815
  420.994    0.237    0.457   95.080    3.959
  421.294    0.241    0.450   90.176    4.029
  421.594    0.203    0.476   87.130    4.259
  421.894    0.158    0.477   81.638    4.500
  422.194    0.158    0.436   90.058    4.332
  422.494    0.210    0.474   95.458    4.018
  422.794    0.247    0.489   97.814    3.727
  423.094    0.241    0.444   98.379    3.589
  423.394    0.235    0.464   87.453    3.722
  423.694    0.231    0.487   79.550    4.399
  423.994    0.249    0.463   82.525    5.199
  424.294    0.245    0.404   88.521    5.195
  424.594    0.243    0.412   82.433    5.389
  424.894    0.282    0.424   72.717    6.488
  425.194    0.308    0.445   71.460    7.668
  425.494    0.298    0.417   78.069    8.895
  425.794    0.257    0.396   84.663   10.128
  426.094    0.237    0.381   82.800   10.901
  426.394    0.240    0.356   78.531    9.386
  426.694    0.245    0.372   75.459   10.489
  426.994    0.217    0.358   74.205   10.098
  427.294    0.212    0.319   78.396    9.542
  427.594    0.225    0.322   96.475    8.686
  427.894    0.255    0.357   98.239    7.908
  428.194    0.267    0.401   91.534    6.807
  428.494    0.298    0.442   88.485    6.197
  428.794    0.330    0.502   96.296    5.538
  429.094    0.309    0.532   99.874    5.136
  429.394    0.241    0.544   96.797    5.132
  429.694    0.236    0.535  100.378    4.848
  429.994    0.241    0.512  104.578    4.669
  430.294    0.240    0.490  107.539    4.495
  430.594    0.218    0.484  106.888    4.409
  430.894    0.210    0.524  104.429    4.659
  431.194    0.209    0.508  105.586    4.923
  431.494    0.183    0.487  107.359    5.105
  431.794    0.162    0.487  106.103    5.200
  432.094    0.185    0.483  101.222    5.810
  432.394    0.026    0.492   89.093    6.373
  432.694    0.061    0.485   87.233    6.369
  432.994    0.159    0.417  103.508    6.986
  433.294    0.254    0.444   88.954    9.232
  433.594    0.295    0.514   71.370   10.513
  433.894    0.311    0.506   60.447   11.530
  434.194    0.302    0.363   56.773   11.962
  434.494    0.280    0.337   69.416   12.406
  434.794    0.258    0.348   71.192   13.111
  435.094    0.279    0.381   63.283   14.114
  435.394    0.299    0.408   55.359   14.918
  435.694    0.317    0.379   54.128   15.469
