~VERSION INFORMATION
 VERS.                 2.0:   CWLS LOG ASCII STANDARD -VERSION 2.0
 WRAP.                  NO:   ONE LINE PER DEPTH STEP
~WELL INFORMATION BLOCK
#MNEM.UNIT           DATA                    DESCRIPTION OF MNEMONIC
#---------    -------------------            -------------------------------
# Generated from Intellog Unique Number	CS_71_72/WELL/891
WELL.         CAVALIER ENERGY INC            : Well_name    - WELL
LOC .         00/11-08-072-14W4/0            : Location     - LOCATION
UWI .         00/11-08-072-14W4/0            : Uwi          - UNIQUE WELL ID
ENTR.         SP                             : Entered      - ENTERED BY
SRVC.         SCHLUMBERGER                   : Scn          - SERVICE COMPANY
STRT.M        277.368                        : top_depth    - START DEPTH
STOP.M        481.368                        : bot_depth    - STOP DEPTH
STEP.M        0.25                           : increment    - STEP LENGTH
 NULL. -999.2500:NULL Value
~CURVE INFORMATION BLOCK
#MNEM UNIT       ERCB CURVE CODE    CURVE DESCRIPTION
#-----------   ------------------   ----------------------------------
DEPT.M        00 001 00 00         : DEPTH        - DEPTH
GR  .API      00 310 00 00         : GR           - GAMMA RAY
DPHI.V/V      00 890 00 00         : PHID         - DENSITY POROSITY (SANDSTONE)
NPHI.V/V      00 330 00 00         : PHIN         - NEUTRON POROSITY (SANDSTONE)
ILD .OHMM     00 120 00 00         : RESD         - DEEP RESISTIVITY (DIL)
~PARAMETER INFORMATION
#MNEM.UNIT           DATA             DESCRIPTION OF MNEMONIC
#---------         -----------     ------------------------------
GL  .M        606.552              : gl           - GROUND LEVEL ELEVATION
EREF.M        609.6                : kb           - ELEVATION OF DEPTH REFERENCE
DATM.M        606.552              : datum        - DATUM ELEVATION
TDD .M        482.194              : tdd          - TOTAL DEPTH DRILLER
RUN .         ONE                  : Run          - RUN NUMBER
ENG .         BILL                 : Engineer     - RECORDING ENGINEER
WIT .         JIM                  : Witness      - WITNESSED BY
MUD .         GEL                  : Mud_type     - MUD TYPE
MATR.         SANDSTONE            : Logunit      - NEUTRON MATRIX
TMAX.C        23.3333              : BHT          - MAXIMUM RECORDED TEMPERATURE
BHTD.M        482.194              : BHTDEP       - MAXIMUM RECORDED TEMPERATURE
MATR.         1                    : LOGUNIT      - NEUTRON MATRIX
RMT .C        25                   : MDTP         - TEMPERATURE OF MUD
NEUT.         1                    : NEUTRON      - NEUTRON TYPE
RESI.         0                    : RESIST       - RESISTIVITY TYPE
RMC .OHMM     0.25                 : RMC          - RESISTIVITY OF MUD CAKE
RMF .OHMM     0.25                 : RMF          - RESISTIVITY OF MUD FILTRATE
SUFT.C        15                   : SUFT         - SURFACE TEMPERATURE
~A  DEPTH       GR     PHID     PHIN     RESD
# ...
  451.368   81.019    0.240    0.393   24.305
  451.618   86.090    0.244    0.389   18.796
  451.868   90.163    0.218    0.383   12.834
  452.118   92.874    0.193    0.385   11.682
  452.368   95.252    0.168    0.394   10.681
  452.618   97.420    0.165    0.401    9.622
  452.868   96.287    0.168    0.398    8.923
  453.118   99.956    0.178    0.397    8.151
  453.368  105.342    0.162    0.387    7.762
  453.618  111.999    0.150    0.403    7.613
  453.868  118.787    0.149    0.432    7.581
  454.118  122.042    0.148    0.452    8.431
  454.368  118.237    0.149    0.457   10.595
  454.618  112.434    0.154    0.433   14.658
  454.868  103.685    0.149    0.410   17.508
  455.118   97.153    0.173    0.381   19.129
  455.368   87.017    0.187    0.347   20.337
  455.618   80.813    0.155    0.317   20.480
  455.868   76.383    0.116    0.333   18.685
  456.118   82.966    0.231    0.421   16.479
  456.368   87.731    0.245    0.439   14.864
  456.618   88.557    0.236    0.420   13.402
  456.868   83.445    0.241    0.394   12.580
  457.118   81.039    0.220    0.371   11.696
  457.368   82.898    0.197    0.361   11.234
  457.618   86.552    0.177    0.364   10.697
  457.868   88.755    0.163    0.355   10.286
  458.118   91.751    0.156    0.353    9.974
  458.368   95.352    0.150    0.358    9.662
  458.618   98.186    0.147    0.380    9.392
  458.868   99.104    0.167    0.394    9.186
  459.118   97.317    0.181    0.404    9.035
  459.368   99.391    0.165    0.400    9.222
  459.618  103.476    0.145    0.383    9.586
  459.868  106.676    0.134    0.366   10.337
  460.118  104.406    0.126    0.386   12.762
  460.368   93.471    0.126    0.411   17.098
  460.618   85.599    0.166    0.417   18.905
  460.868   75.667    0.213    0.406   20.495
  461.118   66.853    0.239    0.412   22.254
  461.368   66.528    0.259    0.443   23.025
  461.618   65.052    0.260    0.482   20.604
  461.868   70.135    0.272    0.508   20.683
  462.118   74.096    0.243    0.491   15.484
  462.368   80.871    0.232    0.480   14.005
  462.618   83.429    0.221    0.457   13.785
  462.868   84.316    0.212    0.438   14.512
  463.118   81.086    0.195    0.410   18.419
  463.368   61.700    0.180    0.365   29.224
  463.618   46.939    0.228    0.327   44.608
  463.868   40.212    0.334    0.363   56.328
  464.118   43.480    0.307    0.441   63.054
  464.368   49.705    0.275    0.456   62.497
  464.618   55.456    0.259    0.430   54.715
  464.868   54.177    0.256    0.417   50.748
  465.118   55.571    0.305    0.417   43.261
  465.368   58.233    0.301    0.416   36.694
  465.618   64.764    0.286    0.398   30.871
  465.868   70.861    0.271    0.398   22.177
  466.118   79.321    0.254    0.388   19.969
  466.368   83.718    0.231    0.378   17.768
  466.618   90.242    0.203    0.399   17.454
  466.868   93.346    0.192    0.400   17.695
  467.118   95.988    0.210    0.381   18.402
  467.368   96.851    0.199    0.383   19.196
  467.618   94.893    0.191    0.393   19.876
  467.868   97.642    0.219    0.379   20.378
  468.118  100.232    0.233    0.369   20.525
  468.368  101.846    0.227    0.387   19.844
  468.618  100.223    0.240    0.408   16.040
  468.868  104.280    0.237    0.404   13.268
  469.118  112.893    0.218    0.394   10.874
  469.368  121.393    0.222    0.394   10.230
  469.618  127.419    0.185    0.410    9.660
  469.868  130.233    0.155    0.399    9.425
  470.118  129.698    0.135    0.391    9.512
  470.368  123.807    0.152    0.379    9.485
  470.618  118.836    0.170    0.369    9.347
  470.868  118.392    0.161    0.371    9.201
  471.118  121.552    0.159    0.376    9.288
  471.368  123.552    0.160    0.381    9.565
  471.618  125.938    0.143    0.397   10.293
  471.868  128.428    0.137    0.405   11.483
  472.118  131.121    0.167    0.422   13.800
  472.368  127.622    0.180    0.393   15.908
  472.618  123.241    0.204    0.361   17.722
  472.868  107.155    0.118    0.337   19.955
  473.118   93.441    0.053    0.290   20.422
  473.368   72.586    0.025    0.173   20.379
  473.618   66.448   -0.001    0.200   19.810
  473.868   73.988    0.129    0.310   16.998
  474.118   83.097    0.169    0.364   15.213
  474.368   87.083    0.217    0.373   14.270
  474.618   89.043    0.215    0.371   13.662
  474.868   87.461    0.220    0.369   13.056
  475.118   87.810    0.216    0.364   12.947
  475.368   89.150    0.195    0.360   13.065
  475.618   81.247    0.180    0.368   13.466
  475.868   61.097    0.177    0.358   14.032
  476.118   71.020    0.223    0.346   14.711
  476.368   83.175    0.273    0.329   14.085
  476.618   87.953    0.277    0.322   12.273
  476.868   89.349    0.252    0.325   10.784
  477.118   88.360    0.241    0.316    9.517
  477.368   87.418    0.260    0.297    8.731
  477.618   86.427    0.284    0.329    8.922
  477.868   86.149    0.235    0.371    9.579
  478.118   85.197    0.209    0.404   10.856
  478.368   85.305    0.167    0.448   14.251
  478.618   84.618    0.102    0.530   18.241
  478.868   84.688    0.078    0.587   20.078
  479.118   84.717    0.049    0.615   20.403
  479.368   84.915    0.024    0.619   20.268
  479.618   85.956    0.019    0.570   19.322
  479.868   85.140    0.012    0.358   17.476
  480.118   84.188    0.005    0.289   15.530
  480.368   83.602    0.027    0.357   14.175
  480.618   83.635    0.030    0.428   12.865
  480.868   83.754    0.021    0.437   11.978
  481.118   84.252    0.013    0.441   11.466
  481.368   84.517    0.038    0.467   11.233
