~VERSION INFORMATION
 VERS.                 2.0:   CWLS LOG ASCII STANDARD -VERSION 2.0
 WRAP.                  NO:   ONE LINE PER DEPTH STEP
~WELL INFORMATION BLOCK
#MNEM.UNIT           DATA                    DESCRIPTION OF MNEMONIC
#---------    -------------------            -------------------------------
# Generated from Intellog Unique Number	CS_73_76/WELL/3260
WELL.         BOW VALLEY INDUSTRIES LTD      : Well_name    - WELL
LOC .         00/11-10-076-14W4/0            : Location     - LOCATION
UWI .         00/11-10-076-14W4/0            : Uwi          - UNIQUE WELL ID
ENTR.         SP                             : Entered      - ENTERED BY
SRVC.         SCHLUMBERGER                   : Scn          - SERVICE COMPANY
STRT.M        315                            : top_depth    - START DEPTH
STOP.M        535                            : bot_depth    - STOP DEPTH
STEP.M        0.25                           : increment    - STEP LENGTH
 NULL. -999.2500:NULL Value
~CURVE INFORMATION BLOCK
#MNEM UNIT       ERCB CURVE CODE    CURVE DESCRIPTION
#-----------   ------------------   ----------------------------------
DEPT.M        00 001 00 00         : DEPTH        - DEPTH
ILD .OHMM     00 120 00 00         : RESD         - DEEP RESISTIVITY (DIL)
DPHI.V/V      00 890 00 00         : PHID         - DENSITY POROSITY (LIMESTONE)
NPHI.V/V      00 330 00 00         : PHIN         - NEUTRON POROSITY (LIMESTONE)
GR  .API      00 310 00 00         : GR           - GAMMA RAY
~PARAMETER INFORMATION
#MNEM.UNIT           DATA             DESCRIPTION OF MNEMONIC
#---------         -----------     ------------------------------
GL  .M        644.9                : gl           - GROUND LEVEL ELEVATION
EREF.M        648.3                : kb           - ELEVATION OF DEPTH REFERENCE
DATM.M        644.9                : datum        - DATUM ELEVATION
TDD .M        537                  : tdd          - TOTAL DEPTH DRILLER
RUN .         ONE                  : Run          - RUN NUMBER
ENG .         BILL                 : Engineer     - RECORDING ENGINEER
WIT .         JIM                  : Witness      - WITNESSED BY
MUD .         GEL                  : Mud_type     - MUD TYPE
MATR.         LIMESTONE            : Logunit      - NEUTRON MATRIX
TMAX.C        26                   : BHT          - MAXIMUM RECORDED TEMPERATURE
BHTD.M        537                  : BHTDEP       - MAXIMUM RECORDED TEMPERATURE
MATR.         1                    : LOGUNIT      - NEUTRON MATRIX
RMT .C        25                   : MDTP         - TEMPERATURE OF MUD
NEUT.         1                    : NEUTRON      - NEUTRON TYPE
RESI.         0                    : RESIST       - RESISTIVITY TYPE
RMC .OHMM     0.25                 : RMC          - RESISTIVITY OF MUD CAKE
RMF .OHMM     0.25                 : RMF          - RESISTIVITY OF MUD FILTRATE
SUFT.C        15                   : SUFT         - SURFACE TEMPERATURE
~A  DEPTH     RESD     PHID     PHIN       GR
# ...
  445.500   12.497    0.028    0.177   60.772
  445.750   15.322    0.034    0.168   60.155
  446.000   16.501    0.035    0.159   60.152
  446.250   15.903    0.028    0.154   60.143
  446.500   15.612    0.034    0.165   59.528
  446.750   15.328    0.029    0.168   59.521
  447.000   15.328    0.027    0.157   59.517
  447.250   15.617    0.034    0.153   58.901
  447.500   15.617    0.037    0.156   57.675
  447.750   15.620    0.036    0.167   57.056
  448.000   15.621    0.049    0.185   57.662
  448.250   15.335    0.089    0.219   58.876
  448.500   13.225    0.115    0.246   61.308
  448.750   12.056    0.147    0.277   63.739
  449.000   11.196    0.160    0.342   66.172
  449.250   10.019    0.183    0.412   67.386
  449.500    7.590    0.215    0.434   69.209
  449.750    6.792    0.238    0.458   70.422
  450.000    6.192    0.289    0.479   71.026
  450.250    5.967    0.312    0.481   71.630
  450.500    5.858    0.318    0.478   71.013
  450.750    5.646    0.312    0.474   70.397
  451.000    5.646    0.286    0.471   69.782
  451.250    5.647    0.277    0.469   69.167
  451.500    5.647    0.255    0.469   68.550
  451.750    5.753    0.230    0.462   67.933
  452.000    5.862    0.220    0.450   67.318
  452.250    5.862    0.213    0.438   65.481
  452.500    5.862    0.193    0.415   64.866
  452.750    5.863    0.179    0.389   64.247
  453.000    5.756    0.213    0.464   64.854
  453.250    5.445    0.235    0.497   67.897
  453.500    5.247    0.277    0.499   72.157
  453.750    5.057    0.301    0.490   73.371
  454.000    4.874    0.303    0.487   74.584
  454.250    4.697    0.303    0.498   75.188
  454.500    4.611    0.303    0.502   75.793
  454.750    4.611    0.301    0.499   77.004
  455.000    4.612    0.298    0.495   78.218
  455.250    4.699    0.299    0.485   77.602
  455.500    4.699    0.302    0.477   76.375
  455.750    4.699    0.303    0.484   75.152
  456.000    4.700    0.304    0.497   72.706
  456.250    4.614    0.305    0.495   71.482
  456.500    4.614    0.309    0.486   71.475
  456.750    4.878    0.296    0.480   72.687
  457.000    4.789    0.293    0.471   73.292
  457.250    4.789    0.298    0.478   73.280
  457.500    4.616    0.306    0.474   73.279
  457.750    4.616    0.311    0.494   71.442
  458.000    4.616    0.315    0.494   72.047
  458.250    4.617    0.315    0.483   73.258
  458.500    4.704    0.316    0.484   74.474
  458.750    4.704    0.316    0.473   71.417
  459.000    4.792    0.317    0.465   71.413
  459.250    4.793    0.320    0.469   72.626
  459.500    4.793    0.305    0.473   73.229
  459.750    4.794    0.314    0.478   73.223
  460.000    4.794    0.315    0.483   71.998
  460.250    4.884    0.313    0.486   70.162
  460.500    4.884    0.308    0.480   70.155
  460.750    4.976    0.308    0.477   69.540
  461.000    4.976    0.309    0.473   67.094
  461.250    5.070    0.308    0.466   65.258
  461.500    5.262    0.307    0.456   64.641
  461.750    5.773    0.301    0.450   64.636
  462.000    6.452    0.269    0.447   65.240
  462.250    6.695    0.245    0.442   65.844
  462.500    7.346    0.214    0.432   65.838
  462.750    7.346    0.179    0.389   63.392
  463.000    7.080    0.169    0.345   62.775
  463.250    6.336    0.199    0.360   63.380
  463.500    5.566    0.220    0.392   64.591
  463.750    5.169    0.239    0.453   64.588
  464.000    5.075    0.284    0.479   65.188
  464.250    5.075    0.304    0.495   65.792
  464.500    5.365    0.313    0.488   65.788
  464.750    5.672    0.319    0.472   65.782
  465.000    5.997    0.324    0.482   63.947
  465.250    6.459    0.327    0.484   62.719
  465.500    7.086    0.320    0.476   62.714
  465.750    7.631    0.306    0.446   63.318
  466.000    7.920    0.291    0.405   63.920
  466.250    7.775    0.267    0.384   63.915
  466.500    6.582    0.263    0.408   65.128
  466.750    6.001    0.282    0.431   67.556
  467.000    5.891    0.292    0.458   65.726
  467.250    5.677    0.306    0.471   68.159
  467.500    5.574    0.298    0.480   69.979
  467.750    5.574    0.289    0.470   71.193
  468.000    5.893    0.290    0.464   70.578
  468.250    5.893    0.290    0.461   70.573
  468.500    5.786    0.288    0.461   73.000
  468.750    5.680    0.296    0.465   74.217
  469.000    5.576    0.293    0.466   76.649
  469.250    5.475    0.288    0.469   79.693
  469.500    5.475    0.284    0.470   83.347
  469.750    5.682    0.258    0.470   87.606
  470.000    5.897    0.242    0.474   86.382
  470.250    6.590    0.237    0.477   85.155
  470.500    6.967    0.218    0.458   83.322
  470.750    7.366    0.175    0.442   77.825
  471.000    7.367    0.186    0.394   78.429
  471.250    7.100    0.198    0.410   79.643
  471.500    6.842    0.253    0.421   80.247
  471.750    6.473    0.277    0.435   80.241
  472.000    6.011    0.258    0.456   79.626
  472.250    5.901    0.241    0.463   79.009
  472.500    5.793    0.234    0.462   80.833
  472.750    5.794    0.237    0.462   83.873
  473.000    5.688    0.235    0.463   85.088
  473.250    5.689    0.224    0.464   83.862
  473.500    5.585    0.209    0.464   86.295
  473.750    5.585    0.215    0.464   90.558
  474.000    5.586    0.218    0.469   89.941
  474.250    5.586    0.211    0.473   87.495
  474.500    5.484    0.197    0.474   88.708
  474.750    5.485    0.205    0.479   88.701
  475.000    5.384    0.212    0.471   87.477
  475.250    5.485    0.211    0.457   87.472
  475.500    5.486    0.207    0.465   88.685
  475.750    5.486    0.201    0.473   90.507
  476.000    5.694    0.196    0.480   91.720
  476.250    5.801    0.210    0.491   92.932
  476.500    6.020    0.220    0.491   92.318
  476.750    6.484    0.210    0.487   90.483
  477.000    6.855    0.206    0.482   88.646
  477.250    7.114    0.184    0.469   85.592
  477.500    7.383    0.196    0.462   84.975
  477.750    7.662    0.177    0.450   84.968
  478.000    7.952    0.184    0.444   83.745
  478.250    8.253    0.193    0.446   82.516
  478.500    9.054    0.177    0.454   84.340
  478.750    9.572    0.147    0.449   84.945
  479.000   10.120    0.101    0.400   82.499
  479.250   10.310    0.116    0.347   81.272
  479.500   10.311    0.147    0.350   84.924
  479.750    9.575    0.177    0.386   88.579
  480.000    8.729    0.184    0.417  100.766
  480.250    7.254    0.194    0.458  107.467
  480.500    6.373    0.203    0.468  110.510
  480.750    6.373    0.204    0.458  104.406
  481.000    6.142    0.233    0.449  100.130
  481.250    6.142    0.242    0.440   97.074
  481.500    6.030    0.219    0.444   96.461
  481.750    5.812    0.229    0.456   94.623
  482.000    5.705    0.264    0.463   93.399
  482.250    5.601    0.293    0.469   91.561
  482.500    5.398    0.316    0.483   90.338
  482.750    5.202    0.323    0.488   87.894
  483.000    5.013    0.340    0.495   90.324
  483.250    4.922    0.344    0.492   92.150
  483.500    4.571    0.309    0.484   93.973
  483.750    4.487    0.214    0.469   93.356
  484.000    4.091    0.250    0.488   89.690
  484.250    3.276    0.298    0.497   87.245
  484.500    2.825    0.311    0.532   87.850
  484.750    2.436    0.337    0.560   88.449
  485.000    2.062    0.331    0.591   88.442
  485.250    1.951    0.321    0.624   88.441
  485.500    1.915    0.305    0.612   89.654
  485.750    1.880    0.295    0.599   90.866
  486.000    1.881    0.284    0.565   91.471
  486.250    1.916    0.275    0.549   92.075
  486.500    1.988    0.261    0.546   92.068
  486.750    2.181    0.248    0.559   91.453
  487.000    2.393    0.249    0.573   93.275
  487.250    2.675    0.235    0.576   91.439
  487.500    2.776    0.219    0.537   91.434
  487.750    3.280    0.203    0.472   92.036
  488.000    3.947    0.184    0.442   92.641
  488.250    4.840    0.170    0.448   95.684
  488.500    5.310    0.141    0.456   96.898
  488.750    5.510    0.137    0.446   94.452
