~VERSION INFORMATION
 VERS.                 2.0:   CWLS LOG ASCII STANDARD -VERSION 2.0
 WRAP.                  NO:   ONE LINE PER DEPTH STEP
~WELL INFORMATION BLOCK
#MNEM.UNIT           DATA                    DESCRIPTION OF MNEMONIC
#---------    -------------------            -------------------------------
# Generated from Intellog Unique Number	CW_76_78/WELL/2811
WELL.         AAMOCO ET ROCK 10-34           : Well_name    - WELL
LOC .         00/10-34-077-24W4/0            : Location     - LOCATION
UWI .         00/10-34-077-24W4/0            : Uwi          - UNIQUE WELL ID
ENTR.         JJ                             : Entered      - ENTERED BY
SRVC.         WESTERN ATLAS                  : Scn          - SERVICE COMPANY
DATE.         14 JAN 73                      : Date         - LOG DATE
STRT.M        396.24                         : top_depth    - START DEPTH
STOP.M        533.49                         : bot_depth    - STOP DEPTH
STEP.M        0.25                           : increment    - STEP LENGTH
 NULL. -999.2500:NULL Value
~CURVE INFORMATION BLOCK
#MNEM UNIT       ERCB CURVE CODE    CURVE DESCRIPTION
#-----------   ------------------   ----------------------------------
DEPT.M        00 001 00 00         : DEPTH        - DEPTH
DELT.US/F     00 520 00 00         : DELT         - SONIC TRAVEL TIME
NPHI.V/V      00 330 00 00         : PHIN         - NEUTRON POROSITY (SANDSTONE)
GR  .API      00 310 00 00         : GR           - GAMMA RAY
CALI.MM       00 280 01 00         : CAL          - CALIPER
ILD .OHMM     00 120 00 00         : RESD         - DEEP RESISTIVITY (DIL)
~PARAMETER INFORMATION
#MNEM.UNIT           DATA             DESCRIPTION OF MNEMONIC
#---------         -----------     ------------------------------
GL  .M        613.105              : gl           - GROUND LEVEL ELEVATION
EREF.M        617.281              : kb           - ELEVATION OF DEPTH REFERENCE
DATM.M        613.105              : datum        - DATUM ELEVATION
TDD .M        534.924              : tdd          - TOTAL DEPTH DRILLER
RUN .         ONE                  : Run          - RUN NUMBER
ENG .         MACLEAN-HETHERINGTON : Engineer     - RECORDING ENGINEER
WIT .         MACALDER-DAVIS       : Witness      - WITNESSED BY
BASE.         V.V                  : Branch       - HOME BASE OF LOGGING UNIT
MUD .         GEL                  : Mud_type     - MUD TYPE
MATR.         SANDSTONE            : Logunit      - NEUTRON MATRIX
TMAX.C        28.3333              : BHT          - MAXIMUM RECORDED TEMPERATURE
BHTD.M        535.534              : BHTDEP       - MAXIMUM RECORDED TEMPERATURE
RMT .C        18.3333              : MDTP         - TEMPERATURE OF MUD
MUDD.KG/M     1140                 : MWT          - MUD DENSITY
NEUT.         1                    : NEUTRON      - NEUTRON TYPE
RESI.         0                    : RESIST       - RESISTIVITY TYPE
RM  .OHMM     4.1                  : RM           - RESISTIVITY OF MUD
RMC .OHMM     4.5                  : RMC          - RESISTIVITY OF MUD CAKE
RMF .OHMM     3.5                  : RMF          - RESISTIVITY OF MUD FILTRATE
SUFT.C        5                    : SUFT         - SURFACE TEMPERATURE
~A  DEPTH     DELT     PHIN       GR      CAL     RESD
  396.240  394.458    0.301   64.840  228.578    3.247
  396.490  397.269    0.308   67.632  229.251    3.024
  396.740  404.192    0.309   71.091  231.386    2.706
  396.990  416.856    0.318   74.059  234.251    2.412
  397.240  415.948    0.328   73.244  238.453    2.242
  397.490  414.388    0.338   68.639  240.897    2.182
  397.740  435.993    0.348   64.278  242.812    2.352
  397.990  425.232    0.345   60.093  242.977    2.715
  398.240  445.008    0.327   55.850  238.282    3.250
  398.490  439.141    0.319   52.038  232.340    3.648
  398.740  430.861    0.317   47.679  228.182    4.036
  398.990  429.692    0.310   44.109  226.488    4.258
  399.240  416.647    0.312   42.070  226.023    4.322
  399.490  443.732    0.306   42.346  225.661    4.252
  399.740  442.564    0.299   44.037  225.831    4.041
  399.990  436.565    0.296   45.546  226.515    3.648
  400.240  423.717    0.314   47.114  228.235    3.348
  400.490  434.293    0.331   48.302  229.744    2.995
  400.740  445.587    0.348   52.013  228.263    2.574
  400.990  434.239    0.367   54.612  229.038    2.328
  401.240  410.493    0.382   59.964  234.912    2.282
  401.490  415.393    0.377   61.835  240.142    2.270
  401.740  419.184    0.358   62.790  241.852    2.300
  401.990  411.881    0.341   62.645  236.345    2.326
  402.240  409.276    0.334   64.270  235.256    2.436
  402.490  416.917    0.345   67.179  238.014    2.533
  402.740  416.270    0.342   66.546  242.625    2.691
  402.990  405.117    0.334   68.659  247.140    2.875
  403.240  397.163    0.322   66.923  243.684    3.112
  403.490  393.450    0.311   62.875  241.465    3.455
  403.740  390.844    0.298   60.649  238.641    3.858
  403.990  381.650    0.294   59.459  236.017    4.070
  404.240  375.065    0.293   61.034  232.756    4.094
  404.490  373.636    0.289   63.024  228.790    3.962
  404.740  378.600    0.291   65.313  231.333    3.683
  404.990  392.309    0.291   69.752  239.567    3.412
  405.240  392.902    0.291   71.625  241.599    2.964
  405.490  394.016    0.290   71.177  237.425    2.842
  405.740  396.045    0.293   69.985  237.592    2.917
  405.990  405.904    0.298   69.111  241.688    3.123
  406.240  416.350    0.305   68.102  241.855    3.392
  406.490  416.617    0.310   64.902  239.123    3.760
  406.740  414.730    0.296   61.092  234.640    3.894
  406.990  407.232    0.304   56.970  230.567    4.004
  407.240  390.533    0.309   53.768  227.727    4.027
  407.490  394.649    0.307   55.823  226.235    4.043
  407.740  394.721    0.301   56.962  225.780    4.067
  407.990  390.551    0.292   55.715  226.255    4.135
  408.240  387.750    0.276   53.858  228.903    4.387
  408.490  385.341    0.256   52.249  231.660    4.704
  408.740  365.119    0.240   51.127  225.302    5.389
  408.990  345.092    0.214   51.041  225.583    6.333
  409.240  262.880    0.192   51.200  227.394    7.176
  409.490  278.677    0.188   51.781  225.288    7.780
  409.740  293.693    0.199   51.882  222.759    8.375
  409.990  274.709    0.198   50.880  223.558    7.756
  410.240  281.631    0.213   51.102  223.927    6.274
  410.490  293.708    0.255   52.178  221.396    5.510
  410.740  333.321    0.302   55.755  215.675    4.666
  410.990  386.899    0.325   56.904  213.461    4.189
  411.240  387.101    0.327   57.544  211.963    3.894
  411.490  378.819    0.320   59.964  211.943    3.825
  411.740  376.672    0.316   63.731  212.512    3.702
  411.990  379.483    0.311   65.903  212.875    3.422
  412.240  393.844    0.319   67.776  212.958    3.062
  412.490  426.868    0.321   69.462  213.113    2.980
  412.740  427.917    0.324   69.926  213.602    3.003
  412.990  406.390    0.316   66.359  214.277    3.121
  413.240  379.903    0.304   62.615  214.848    3.428
  413.490  383.890    0.292   62.033  215.237    3.934
  413.740  383.568    0.277   61.714  214.972    4.336
  413.990  377.115    0.260   60.840  213.596    4.976
  414.240  368.833    0.242   60.130  211.281    5.774
  414.490  348.807    0.218   59.003  208.753    6.824
  414.740  227.509    0.191   56.665  204.372    8.198
  414.990  242.262    0.170   53.766  201.423   10.050
  415.240  233.459    0.158   53.438  216.696   11.491
  415.490  224.525    0.177   55.558  214.179   11.750
  415.740  270.598    0.173   57.236  213.212   10.282
  415.990  311.713    0.183   59.168  217.406    8.643
  416.240  313.546    0.205   61.477  224.094    7.056
  416.490  292.149    0.237   62.728  223.022    6.369
  416.740  288.043    0.273   64.175  221.225    5.534
  416.990  361.653    0.298   65.364  221.592    5.134
  417.240  370.859    0.309   66.327  221.651    4.543
  417.490  372.629    0.305   66.478  219.850    4.246
  417.740  386.466    0.304   66.698  217.860    4.021
  417.990  367.158    0.302   68.086  215.743    3.877
  418.240  366.510    0.296   68.364  214.348    3.801
  418.490  378.522    0.297   68.225  215.980    3.706
  418.740  388.446    0.306   68.382  218.207    3.687
  418.990  393.216    0.311   68.598  220.749    3.668
  419.240  384.543    0.303   69.856  221.233    3.689
  419.490  381.677    0.300   69.408  219.640    3.697
  419.740  385.141    0.300   70.054  218.355    3.712
  419.990  396.893    0.301   71.498  218.837    3.740
  420.240  391.809    0.306   72.575  219.626    3.734
  420.490  391.163    0.309   75.364  222.164    3.715
  420.740  393.908    0.311   75.703  224.917    3.744
  420.990  386.410    0.310   74.763  220.112    3.787
  421.240  373.104    0.303   73.952  222.763    3.794
  421.490  392.032    0.293   73.620  225.428    3.830
  421.740  395.302    0.282   73.475  226.007    3.888
  421.990  389.564    0.277   73.509  226.166    3.911
  422.240  385.525    0.278   73.429  224.055    3.919
  422.490  392.578    0.288   73.217  221.127    3.913
  422.740  396.955    0.301   71.851  222.114    3.843
  422.990  392.393    0.297   70.725  226.113    3.747
  423.240  400.882    0.287   69.725  227.614    3.660
  423.490  399.712    0.298   68.782  226.956    3.608
  423.740  382.623    0.298   68.270  222.160    3.609
  423.990  394.178    0.300   68.609  216.213    3.637
  424.240  402.144    0.304   75.126  220.732    3.719
  424.490  392.623    0.296   72.536  223.170    3.830
  424.740  390.542    0.285   70.685  222.404    4.041
  424.990  391.199    0.275   69.794  221.542    4.072
  425.240  397.012    0.283   68.739  224.088    3.905
  425.490  391.602    0.284   68.406  224.670    3.725
  425.740  391.608    0.277   67.707  223.075    3.692
  425.990  397.747    0.265   66.102  222.004    3.959
  426.240  373.805    0.256   65.584  221.343    4.348
  426.490  322.197    0.248   65.620  220.884    5.008
  426.740  298.190    0.239   65.105  220.736    5.602
  426.990  288.212    0.203   60.259  220.385    6.608
  427.240  292.851    0.187   55.953  219.415    7.696
  427.490  401.109    0.181   51.841  218.027    9.279
  427.740  401.702    0.169   48.510  217.265   10.210
  427.990  225.202    0.142   50.933  217.756    9.084
  428.240  259.204    0.153   55.493  218.539    7.993
  428.490  321.916    0.242   59.377  219.007    6.969
  428.740  376.147    0.257   63.143  220.108    6.326
  428.990  374.717    0.258   62.324  221.632    5.881
  429.240  354.429    0.240   60.166  222.399    5.713
  429.490  321.025    0.246   61.543  222.577    5.684
  429.740  312.483    0.250   61.641  222.422    5.685
  429.990  349.487    0.250   62.106  221.352    5.442
  430.240  364.828    0.260   63.809  219.247    5.125
  430.490  372.141    0.279   65.001  217.748    4.960
  430.740  378.672    0.292   66.130  216.984    4.917
  430.990  378.025    0.297   67.146  216.432    4.883
  431.240  359.107    0.285   64.862  216.600    4.866
  431.490  366.095    0.275   64.048  217.173    4.894
  431.740  370.081    0.266   66.158  218.586    4.950
  431.990  363.497    0.273   67.912  221.554    4.988
  432.240  358.869    0.269   68.065  223.371    5.035
  432.490  358.092    0.266   68.109  224.780    5.093
