~VERSION INFORMATION
 VERS.                 2.0:   CWLS LOG ASCII STANDARD -VERSION 2.0
 WRAP.                  NO:   ONE LINE PER DEPTH STEP
~WELL INFORMATION BLOCK
#MNEM.UNIT           DATA                    DESCRIPTION OF MNEMONIC
#---------    -------------------            -------------------------------
# Generated from Intellog Unique Number	CW_73_75/WELL/2740
WELL.         SUNDALE ET AL FRANCIS 10-16    : Well_name    - WELL
LOC .         00/10-16-073-21W4/0            : Location     - LOCATION
UWI .         00/10-16-073-21W4/0            : Uwi          - UNIQUE WELL ID
ENTR.         JAYE                           : Entered      - ENTERED BY
SRVC.         SCHLUMBERGER                   : Scn          - SERVICE COMPANY
DATE.         11 FEB 1976                    : Date         - LOG DATE
STRT.M        377.952                        : top_depth    - START DEPTH
STOP.M        579.202                        : bot_depth    - STOP DEPTH
STEP.M        0.25                           : increment    - STEP LENGTH
 NULL. -999.2500:NULL Value
~CURVE INFORMATION BLOCK
#MNEM UNIT       ERCB CURVE CODE    CURVE DESCRIPTION
#-----------   ------------------   ----------------------------------
DEPT.M        00 001 00 00         : DEPTH        - DEPTH
ILD .OHMM     00 120 00 00         : RESD         - DEEP RESISTIVITY (DIL)
NPHI.V/V      00 330 00 00         : PHIN         - NEUTRON POROSITY (SANDSTONE)
DPHI.V/V      00 890 00 00         : PHID         - DENSITY POROSITY (SANDSTONE)
GR  .API      00 310 00 00         : GR           - GAMMA RAY
CALI.MM       00 280 01 00         : CAL          - CALIPER
~PARAMETER INFORMATION
#MNEM.UNIT           DATA             DESCRIPTION OF MNEMONIC
#---------         -----------     ------------------------------
GL  .M        668.731              : gl           - GROUND LEVEL ELEVATION
EREF.M        672.998              : kb           - ELEVATION OF DEPTH REFERENCE
DATM.M        668.731              : datum        - DATUM ELEVATION
TDD .M        609.6                : tdd          - TOTAL DEPTH DRILLER
RUN .         ONE                  : Run          - RUN NUMBER
MUD .         GEL CHEM             : Mud_type     - MUD TYPE
MATR.         SANDSTONE            : Logunit      - NEUTRON MATRIX
TMAX.C        21.6667              : BHT          - MAXIMUM RECORDED TEMPERATURE
BHTD.M        578.206              : BHTDEP       - MAXIMUM RECORDED TEMPERATURE
RMT .C        16.6667              : MDTP         - TEMPERATURE OF MUD
MUDD.KG/M     1080                 : MWT          - MUD DENSITY
NEUT.         1                    : NEUTRON      - NEUTRON TYPE
RESI.         0                    : RESIST       - RESISTIVITY TYPE
RM  .OHMM     3.62                 : RM           - RESISTIVITY OF MUD
RMC .OHMM     0                    : RMC          - RESISTIVITY OF MUD CAKE
RMF .OHMM     2.9                  : RMF          - RESISTIVITY OF MUD FILTRATE
SUFT.C        0                    : SUFT         - SURFACE TEMPERATURE
~A  DEPTH     RESD     PHIN     PHID       GR      CAL
# ...
  560.452  155.640    0.354    0.051   18.135  152.294
  560.702  139.334    0.331    0.026   20.167  152.611
  560.952  125.880    0.337    0.036   22.507  152.719
  561.202  115.847    0.368    0.069   24.969  152.620
  561.452   96.888    0.396    0.100   27.616  152.311
  561.702   77.967    0.429    0.139   28.480  151.690
  561.952   61.481    0.448    0.190   26.699  151.278
  562.202   46.392    0.455    0.184   21.720  150.763
  562.452   36.517    0.488    0.209   19.570  150.141
  562.702   29.330    0.397    0.182   24.001  149.521
  562.952   20.790    0.366    0.145   30.645  148.901
  563.202   18.306    0.390    0.148   33.108  148.593
  563.452   18.950    0.422    0.187   28.806  148.181
  563.702   22.515    0.445    0.192   24.503  147.873
  563.952   28.581    0.472    0.188   21.554  147.773
  564.202   33.525    0.506    0.204   18.481  147.569
  564.452   34.575    0.499    0.232   25.064  147.365
  564.702   31.067    0.464    0.247   38.289  146.849
  564.952   25.888    0.436    0.223   44.503  146.436
  565.202   26.601    0.406    0.213   44.383  146.025
  565.452   33.212    0.384    0.190   44.878  146.029
  565.702   36.867    0.369    0.157   45.249  145.929
  565.952   42.224    0.346    0.107   46.728  145.830
  566.202   31.395    0.320    0.084   50.359  145.626
  566.452   25.826    0.302    0.098   58.541  145.422
  566.702   21.920    0.320    0.119   70.167  145.114
  566.952   17.966    0.343    0.121   78.410  144.702
  567.202   15.165    0.349    0.066   84.071  144.393
  567.452   13.727    0.358    0.053   84.627  143.982
  567.702   12.586    0.327    0.076   76.512  143.986
  567.952   11.518    0.319    0.106   64.584  143.886
  568.202   10.561    0.328    0.162   58.928  143.475
  568.452    9.113    0.338    0.186   54.810  143.374
  568.702    8.010    0.361    0.165   50.938  143.483
  568.952    7.439    0.353    0.183   46.144  143.591
  569.202    7.341    0.336    0.180   41.165  143.595
  569.452    7.419    0.358    0.159   32.251  143.808
  569.702    7.624    0.387    0.175   24.934  144.334
  569.952    7.635    0.416    0.210   17.557  144.650
  570.202    7.424    0.441    0.224   19.835  144.863
  570.452    7.573    0.356    0.196   24.573  145.076
  570.702    8.132    0.330    0.189   27.343  144.871
  570.952    9.093    0.332    0.178   17.137  144.668
  571.202   10.338    0.324    0.191   12.158  144.673
  571.452   13.616    0.318    0.172   11.792  144.678
  571.702   10.580    0.277    0.145   11.549  144.682
  571.952    7.852    0.293    0.138   11.551  144.477
  572.202    6.531    0.325    0.168   11.738  144.065
  572.452    5.275    0.340    0.175   11.495  144.070
  572.702    4.705    0.344    0.171   11.190  144.178
  572.952    4.517    0.354    0.154   11.254  144.495
  573.202    4.548    0.357    0.147   12.671  144.708
  573.452    4.631    0.370    0.153   23.866  145.129
  573.702    4.698    0.387    0.173   39.859  145.237
  573.952    4.696    0.385    0.176   60.956  145.554
  574.202    4.755    0.377    0.163   73.136  145.766
  574.452    4.985    0.380    0.145   74.245  145.771
  574.702    5.364    0.382    0.106   75.478  146.088
  574.952    6.210    0.382    0.092   76.464  146.405
  575.202    7.074    0.380    0.087   78.127  146.513
  575.452    7.269    0.379    0.092   82.066  146.518
  575.702    6.714    0.379    0.118   87.972  146.627
  575.952    6.213    0.370    0.122   89.266  146.630
  576.202    5.696    0.359    0.129   88.592  146.531
  576.452    5.261    0.344    0.140   88.042  146.431
  576.702    4.904    0.343    0.148   88.106  146.435
  576.952    4.769    0.362    0.142   88.539  146.128
  577.202    4.750    0.377    0.132   88.911  145.923
  577.452    4.696    0.381    0.148   89.221  145.824
  577.702    4.668    0.379    0.114   89.162  145.620
  577.952    4.701    0.378    0.134   88.980  145.416
  578.202    4.760    0.377    0.181   88.613  145.108
  578.452    4.793    0.376    0.157   88.309  145.009
  578.702    4.800    0.376    0.148   88.004  145.222
  578.952    4.825    0.377    0.133   87.637  145.434
  579.202    4.840    0.377    0.129   87.209  145.961
