~VERSION INFORMATION
 VERS.                 2.0:   CWLS LOG ASCII STANDARD -VERSION 2.0
 WRAP.                  NO:   ONE LINE PER DEPTH STEP
~WELL INFORMATION BLOCK
#MNEM.UNIT           DATA                    DESCRIPTION OF MNEMONIC
#---------    -------------------            -------------------------------
# Generated from Intellog Unique Number	CW_70_72/WELL/1053
NULL.         -999.25                        : NULL_VALUE
WELL.         LAND BANK ET AL MITSUE 11-03-0 : Well_name    - WELL              
LOC .         11-03-072-03W5                 : Location     - LOCATION          
UWI .         00/11-03-072-03W5/0            : Uwi          - UNIQUE WELL ID    
ENTR.         JAYE                           : Entered      - ENTERED BY        
SRVC.         SCHLUMBERGER                   : Scn          - SERVICE COMPANY   
DATE.         13 FEB 79                      : Date         - LOG DATE          
STRT.M        395                            : top_depth    - START DEPTH       
STOP.M        602                            : bot_depth    - STOP DEPTH        
STEP.M        0.25                           : increment    - STEP LENGTH       
~CURVE INFORMATION BLOCK
#MNEM UNIT       ERCB CURVE CODE    CURVE DESCRIPTION
#-----------   ------------------   ----------------------------------
DEPT.M        00 001 00 00         : DEPTH        - DEPTH                       
DPHI.V/V      00 890 00 00         : PHID         - DENSITY POROSITY (SANDSTONE)
NPHI.V/V      00 330 00 00         : PHIN         - NEUTRON POROSITY (SANDSTONE)
GR  .API      00 310 00 00         : GR           - GAMMA RAY                   
CALI.MM       00 280 01 00         : CAL          - CALIPER                     
ILD .OHMM     00 120 00 00         : RESD         - DEEP RESISTIVITY (DIL)      
~PARAMETER INFORMATION       
#MNEM.UNIT           DATA             DESCRIPTION OF MNEMONIC
#---------         -----------     ------------------------------
GL  .M        594.1                : gl           - GROUND LEVEL ELEVATION      
EREF.M        596.8                : kb           - ELEVATION OF DEPTH REFERENCE
DATM.M        594.1                : datum        - DATUM ELEVATION             
TDD .M        616                  : tdd          - TOTAL DEPTH DRILLER         
RUN .         ONE                  : Run          - RUN NUMBER                  
ENG .         JONES                : Engineer     - RECORDING ENGINEER          
WIT .         LOWTHER              : Witness      - WITNESSED BY                
BASE.         EDM                  : Branch       - HOME BASE OF LOGGING UNIT   
MUD .         FRESH GEL            : Mud_type     - MUD TYPE                    
MATR.         SANDSTONE            : Logunit      - NEUTRON MATRIX              
TMAX.C        30                   : BHT          - MAXIMUM RECORDED TEMPERATURE
BHTD.M        617.3                : BHTDEP       - MAXIMUM RECORDED TEMPERATURE
RMT .C        12                   : MDTP         - TEMPERATURE OF MUD          
MUDD.KG/M     1190                 : MWT          - MUD DENSITY                 
NEUT.         1                    : NEUTRON      - NEUTRON TYPE                
RESI.         0                    : RESIST       - RESISTIVITY TYPE            
RM  .OHMM     2.42                 : RM           - RESISTIVITY OF MUD          
RMC .OHMM     0                    : RMC          - RESISTIVITY OF MUD CAKE     
RMF .OHMM     4.21                 : RMF          - RESISTIVITY OF MUD FILTRATE 
SUFT.C        0                    : SUFT         - SURFACE TEMPERATURE         
~A  DEPTH     PHID     PHIN       GR      CAL     RESD
# ...
  577.500    0.129    0.364  110.006  171.250    4.902
  577.750    0.145    0.384  111.831  171.322    4.553
  578.000    0.152    0.400  111.064  171.682    4.398
  578.250    0.154    0.408  107.392  172.156    4.526
  578.500    0.159    0.392  102.544  172.314    4.781
  578.750    0.173    0.396   96.643  172.265    5.136
  579.000    0.187    0.396   92.662  172.021    5.622
  579.250    0.197    0.388   88.622  171.671    5.949
  579.500    0.163    0.375   89.766  171.005    6.180
  579.750    0.156    0.359   95.425  170.754    6.208
  580.000    0.159    0.348  100.838  170.813    5.963
  580.250    0.151    0.358  106.248  170.868    5.706
  580.500    0.150    0.374  109.619  170.509    5.440
  580.750    0.162    0.387  110.891  169.644    5.177
  581.000    0.163    0.386  112.160  168.570    5.114
  581.250    0.165    0.362  112.875  168.116    5.146
  581.500    0.150    0.338  112.292  168.790    5.208
  581.750    0.112    0.338  110.288  169.674    5.431
  582.000    0.136    0.347  111.188  170.555    5.557
  582.250    0.138    0.346  112.089  170.923    5.687
  582.500    0.152    0.337  111.133  171.084    5.745
  582.750    0.164    0.328  110.488  171.344    5.717
  583.000    0.154    0.329  110.151  171.920    5.679
  583.250    0.144    0.329  110.868  173.316    5.683
  583.500    0.131    0.326  111.521  174.920    5.656
  583.750    0.123    0.325  112.235  176.522    5.607
  584.000    0.116    0.328  114.986  177.091    5.366
  584.250    0.141    0.335  117.803  177.457    5.116
  584.500    0.156    0.349  120.371  177.724    4.761
  584.750    0.164    0.361  123.989  177.888    4.373
  585.000    0.148    0.390  126.870  178.344    3.942
  585.250    0.167    0.435  124.802  178.613    3.360
  585.500    0.215    0.472  116.557  178.679    2.629
  585.750    0.270    0.509  114.921  178.837    1.934
  586.000    0.270    0.539  116.503  179.205    1.474
  586.250    0.243    0.526  119.009  179.886    1.334
  586.500    0.210    0.518  121.083  180.866    1.308
  586.750    0.186    0.502  120.687  181.543    1.341
  587.000    0.189    0.489  119.299  181.912    1.409
  587.250    0.183    0.476  118.898  180.323    1.591
  587.500    0.158    0.467  118.381  183.368    1.700
  587.750    0.120    0.455  115.387  185.486    1.711
  588.000    0.047    0.433  109.861  181.111    1.706
  588.250    0.007    0.396  107.853  177.051    1.749
  588.500    0.086    0.368  110.603  176.284    2.043
  588.750    0.116    0.360  112.065  176.857    2.914
  589.000    0.088    0.353  113.090  176.400    3.634
  589.250    0.094    0.345  114.051  174.401    4.524
  589.500    0.106    0.335  115.196  173.122    5.083
  589.750    0.112    0.343  116.466  173.174    5.231
  590.000    0.125    0.360  118.172  173.854    5.284
  590.250    0.152    0.376  121.234  174.941    5.288
  590.500    0.118    0.376  122.445  175.303    5.262
  590.750    0.067    0.367  122.231  175.465    5.286
  591.000    0.082    0.355  119.671  174.804    5.400
  591.250    0.082    0.338  113.775  174.761    5.373
  591.500    0.070    0.321  110.843  175.436    5.171
  591.750    0.130    0.349  114.894  178.689    4.636
  592.000    0.161    0.413  119.502  183.485    4.445
  592.250    0.160    0.430  117.497  192.193    4.357
  592.500    0.155    0.359  113.947  203.273    4.451
  592.750    0.129    0.323  109.719  188.088    4.530
  593.000    0.076    0.321  112.470  174.243    4.542
  593.250    0.125    0.375  118.749  172.241    4.461
  593.500    0.152    0.406  124.222  178.268    4.301
  593.750    0.164    0.407  123.575  184.298    4.288
  594.000    0.129    0.375  121.633  186.214    4.488
  594.250    0.111    0.352  116.724  177.726    4.876
  594.500    0.098    0.336  112.496  169.745    5.306
  594.750    0.106    0.319  113.704  168.052    5.732
  595.000    0.117    0.319  117.510  166.876    6.356
  595.250    0.131    0.327  119.953  166.213    6.627
  595.500    0.129    0.330  120.048  165.860    6.559
  595.750    0.122    0.329  118.724  165.507    6.103
  596.000    0.140    0.314  113.262  165.562    5.962
  596.250    0.169    0.290  101.802  165.618    6.623
  596.500    0.216    0.202   89.601  165.780    9.952
  596.750    0.258    0.182   79.133  165.634   14.571
  597.000    0.300    0.198   83.677  164.664   19.652
  597.250    0.281    0.215  103.302  163.687   22.960
  597.500    0.264    0.225  116.681  163.027   23.409
  597.750    0.246    0.232  121.351  162.264   19.735
  598.000    0.247    0.237  122.931  161.597   17.234
  598.250    0.233    0.249  121.854  161.137   14.638
  598.500    0.244    0.256  120.341  161.092   13.073
  598.750    0.242    0.271  118.773  161.157   11.228
  599.000    0.226    0.280  116.581  161.212    9.879
  599.250    0.232    0.264  113.529  161.168    8.774
  599.500    0.204    0.229  105.160  161.225    8.104
  599.750    0.052    0.208   89.808  161.585    8.233
  600.000    0.018    0.184   78.348  161.652    9.027
  600.250   -0.002    0.143   71.278  162.120   10.067
  600.500    0.011    0.148   68.654  162.795   11.456
  600.750    0.036    0.154   67.699  163.477   12.895
  601.000    0.052    0.165   68.662  164.050   13.420
  601.250    0.069    0.177   70.239  164.519   12.842
  601.500    0.086    0.183   70.583  164.676   11.950
  601.750    0.069    0.184   69.072  164.631   11.608
  602.000    0.052    0.182   67.875  164.485   11.946
