~VERSION INFORMATION
 VERS.                 2.0:   CWLS LOG ASCII STANDARD -VERSION 2.0
 WRAP.                  NO:   ONE LINE PER DEPTH STEP
~WELL INFORMATION BLOCK
#MNEM.UNIT           DATA                    DESCRIPTION OF MNEMONIC
#---------    -------------------            -------------------------------
# Generated from Intellog Unique Number	CS_67_68/WELL/2402
WELL.         MERLAND TWEEDIE                : Well_name    - WELL
LOC .         00/11-27-068-11W4/0            : Location     - LOCATION
UWI .         00/11-27-068-11W4/0            : Uwi          - UNIQUE WELL ID
ENTR.         TIM                            : Entered      - ENTERED BY
SRVC.         SCHLUMBERGER                   : Scn          - SERVICE COMPANY
STRT.M        300                            : top_depth    - START DEPTH
STOP.M        505                            : bot_depth    - STOP DEPTH
STEP.M        0.25                           : increment    - STEP LENGTH
 NULL. -999.2500:NULL Value
~CURVE INFORMATION BLOCK
#MNEM UNIT       ERCB CURVE CODE    CURVE DESCRIPTION
#-----------   ------------------   ----------------------------------
DEPT.M        00 001 00 00         : DEPTH        - DEPTH
DPHI.V/V      00 890 00 00         : PHID         - DENSITY POROSITY (SANDSTONE)
NPHI.V/V      00 330 00 00         : PHIN         - NEUTRON POROSITY (SANDSTONE)
CALI.MM       00 280 01 00         : CAL          - CALIPER
GR  .API      00 310 00 00         : GR           - GAMMA RAY
ILD .OHMM     00 120 00 00         : RESD         - DEEP RESISTIVITY (DIL)
~PARAMETER INFORMATION
#MNEM.UNIT           DATA             DESCRIPTION OF MNEMONIC
#---------         -----------     ------------------------------
GL  .M        615.5                : gl           - GROUND LEVEL ELEVATION
EREF.M        619                  : kb           - ELEVATION OF DEPTH REFERENCE
DATM.M        619                  : datum        - DATUM ELEVATION
TDD .M        516                  : tdd          - TOTAL DEPTH DRILLER
RUN .         ONE                  : Run          - RUN NUMBER
ENG .         BILL                 : Engineer     - RECORDING ENGINEER
WIT .         JIM                  : Witness      - WITNESSED BY
MUD .         GEL                  : Mud_type     - MUD TYPE
MATR.         SANDSTONE            : Logunit      - NEUTRON MATRIX
TMAX.C        22                   : BHT          - MAXIMUM RECORDED TEMPERATURE
BHTD.M        516                  : BHTDEP       - MAXIMUM RECORDED TEMPERATURE
MATR.         1                    : LOGUNIT      - NEUTRON MATRIX
RMT .C        22                   : MDTP         - TEMPERATURE OF MUD
NEUT.         1                    : NEUTRON      - NEUTRON TYPE
RESI.         0                    : RESIST       - RESISTIVITY TYPE
RMC .OHMM     4                    : RMC          - RESISTIVITY OF MUD CAKE
RMF .OHMM     4                    : RMF          - RESISTIVITY OF MUD FILTRATE
SUFT.C        5                    : SUFT         - SURFACE TEMPERATURE
~A  DEPTH     PHID     PHIN      CAL       GR     RESD
# ...
  482.500    0.223    0.334  159.358   85.431    4.648
  482.750    0.212    0.341  163.492   82.007    4.309
  483.000    0.213    0.345  166.469   78.582    4.071
  483.250    0.238    0.343  166.655   74.575    3.774
  483.500    0.237    0.346  166.717   71.169    3.565
  483.750    0.224    0.353  165.868   68.328    3.304
  484.000    0.237    0.349  166.023   66.634    3.181
  484.250    0.254    0.344  165.144   70.244    3.062
  484.500    0.259    0.339  164.327   72.030    3.004
  484.750    0.253    0.331  164.419   75.621    3.002
  485.000    0.237    0.321  163.602   78.028    3.001
  485.250    0.238    0.356  162.754   79.287    3.057
  485.500    0.240    0.374  162.908   82.295    3.173
  485.750    0.231    0.381  163.032   84.665    3.356
  486.000    0.218    0.397  163.156   92.902    3.484
  486.250    0.192    0.423  162.276  105.823    3.755
  486.500    0.139    0.431  162.431  111.163    3.972
  486.750    0.095    0.442  161.552  114.153    4.201
  487.000    0.101    0.434  161.706  113.061    4.443
  487.250    0.114    0.426  158.915  111.386    4.700
  487.500    0.129    0.418  157.094  109.711    4.878
  487.750    0.149    0.401  156.277  104.537    4.969
  488.000    0.162    0.348  156.339  100.511    4.967
  488.250    0.177    0.328  156.463   94.171    4.872
  488.500    0.187    0.338  157.558   90.747    4.779
  488.750    0.194    0.356  157.743   86.175    4.687
  489.000    0.201    0.366  158.808   86.249    4.686
  489.250    0.208    0.367  159.904   88.637    4.684
  489.500    0.211    0.357  162.002   91.645    4.682
  489.750    0.213    0.349  164.069   94.052    4.681
  490.000    0.209    0.340  164.162   97.643    4.679
  490.250    0.195    0.339  166.229  100.031    4.676
  490.500    0.182    0.344  167.386  102.438    4.763
  490.750    0.167    0.346  168.420  103.678    4.945
  491.000    0.172    0.352  168.543  104.918    5.132
  491.250    0.179    0.354  169.670  105.030    5.328
  491.500    0.185    0.359  170.796  105.085    5.529
  491.750    0.191    0.363  170.858  105.178    5.633
  492.000    0.192    0.365  172.015  105.252    5.630
  492.250    0.193    0.362  172.139  105.326    5.735
  492.500    0.193    0.357  171.291  104.817    5.625
  492.750    0.194    0.350  170.442  101.374    5.518
  493.000    0.190    0.339  169.563   96.182    5.413
  493.250    0.167    0.325  168.746   91.591    5.113
  493.500    0.176    0.322  165.954   86.418    5.016
  493.750    0.191    0.321  165.075   78.912    4.920
  494.000    0.205    0.317  164.289   76.653    4.736
  494.250    0.213    0.315  163.410   82.559    4.734
  494.500    0.209    0.317  163.502   89.630    4.644
  494.750    0.207    0.346  162.685   98.488    4.641
  495.000    0.218    0.412  162.839  100.876    4.552
  495.250    0.240    0.481  162.932  104.448    4.552
  495.500    0.245    0.487  164.028  102.209    4.550
  495.750    0.228    0.445  164.182   98.766    4.547
  496.000    0.191    0.369  165.216   93.009    4.461
  496.250    0.118    0.325  168.286   87.252    4.459
  496.500    0.084    0.317  170.353   86.743    4.457
  496.750    0.131    0.309  172.451   90.316    4.210
  497.000    0.146    0.307  173.516   94.472    4.130
  497.250    0.136    0.297  174.611  105.060    3.976
  497.500    0.143    0.337  174.766  117.981    3.900
  497.750    0.157    0.381  175.830  132.068    3.899
  498.000    0.165    0.405  175.954  132.142    3.824
  498.250    0.175    0.406  176.078  128.135    3.751
  498.500    0.177    0.408  176.263  130.542    3.680
  498.750    0.165    0.425  175.353  131.199    3.542
  499.000    0.160    0.440  175.477  126.608    3.475
  499.250    0.170    0.459  174.628  119.084    3.408
  499.500    0.175    0.235  173.811  110.411    3.343
  499.750    0.168    0.200  172.963  102.322    3.342
  500.000    0.003    0.176  173.087   88.383    3.535
  500.250   -0.002    0.165  172.269   69.197    3.956
  500.500   -0.005    0.156  172.393   50.010    5.552
  500.750   -0.007    0.149  172.486   41.319    9.058
  501.000   -0.011    0.146  172.640   37.895   12.472
  501.250   -0.010    0.153  172.764   36.220   15.340
  501.500   -0.007    0.153  172.856   39.830   18.168
  501.750   -0.001    0.152  173.042   41.653   21.517
  502.000    0.003    0.149  173.104   42.292   24.541
  502.250    0.009    0.151  173.227   40.635   25.952
  502.500    0.014    0.157  173.382   38.942   25.944
  502.750    0.018    0.161  173.505   37.267   25.452
  503.000    0.022    0.163  173.629   39.673   23.151
  503.250    0.033    0.191  172.750   43.246   20.668
  503.500    0.041    0.239  171.964   47.420   18.804
  503.750    0.046    0.281  172.056   52.159   13.902
  504.000    0.048    0.309  172.211   55.149   11.084
  504.250    0.052    0.328  172.365   59.323    9.529
  504.500    0.053    0.331  171.486   61.147    8.347
  504.750    0.053    0.333  171.579   61.804    7.885
  505.000    0.053    0.334  170.731   61.878    7.734
