~VERSION INFORMATION
 VERS.                 2.0:   CWLS LOG ASCII STANDARD -VERSION 2.0
 WRAP.                  NO:   ONE LINE PER DEPTH STEP
~WELL INFORMATION BLOCK
#MNEM.UNIT           DATA                    DESCRIPTION OF MNEMONIC
#---------    -------------------            -------------------------------
# Generated from Intellog Unique Number	CS_71_72/WELL/909
WELL.         BVX-PCP ET AL DUNCAN           : Well_name    - WELL
LOC .         00/11-30-071-14W4/0            : Location     - LOCATION
UWI .         00/11-30-071-14W4/0            : Uwi          - UNIQUE WELL ID
ENTR.         SP                             : Entered      - ENTERED BY
SRVC.         SCHLUMBERGER                   : Scn          - SERVICE COMPANY
STRT.M        350                            : top_depth    - START DEPTH
STOP.M        535                            : bot_depth    - STOP DEPTH
STEP.M        0.25                           : increment    - STEP LENGTH
 NULL. -999.2500:NULL Value
~CURVE INFORMATION BLOCK
#MNEM UNIT       ERCB CURVE CODE    CURVE DESCRIPTION
#-----------   ------------------   ----------------------------------
DEPT.M        00 001 00 00         : DEPTH        - DEPTH
ILD .OHMM     00 120 00 00         : RESD         - DEEP RESISTIVITY (DIL)
DPHI.V/V      00 890 00 00         : PHID         - DENSITY POROSITY (LIMESTONE)
NPHI.V/V      00 330 00 00         : PHIN         - NEUTRON POROSITY (LIMESTONE)
GR  .API      00 310 00 00         : GR           - GAMMA RAY
~PARAMETER INFORMATION
#MNEM.UNIT           DATA             DESCRIPTION OF MNEMONIC
#---------         -----------     ------------------------------
GL  .M        668.81               : gl           - GROUND LEVEL ELEVATION
EREF.M        672.81               : kb           - ELEVATION OF DEPTH REFERENCE
DATM.M        668.81               : datum        - DATUM ELEVATION
TDD .M        536                  : tdd          - TOTAL DEPTH DRILLER
RUN .         ONE                  : Run          - RUN NUMBER
ENG .         BILL                 : Engineer     - RECORDING ENGINEER
WIT .         JIM                  : Witness      - WITNESSED BY
MUD .         GEL                  : Mud_type     - MUD TYPE
MATR.         LIMESTONE            : Logunit      - NEUTRON MATRIX
TMAX.C        25                   : BHT          - MAXIMUM RECORDED TEMPERATURE
BHTD.M        536                  : BHTDEP       - MAXIMUM RECORDED TEMPERATURE
MATR.         1                    : LOGUNIT      - NEUTRON MATRIX
RMT .C        25                   : MDTP         - TEMPERATURE OF MUD
NEUT.         1                    : NEUTRON      - NEUTRON TYPE
RESI.         0                    : RESIST       - RESISTIVITY TYPE
RMC .OHMM     0.25                 : RMC          - RESISTIVITY OF MUD CAKE
RMF .OHMM     0.25                 : RMF          - RESISTIVITY OF MUD FILTRATE
SUFT.C        15                   : SUFT         - SURFACE TEMPERATURE
~A  DEPTH     RESD     PHID     PHIN       GR
# ...
  480.500    3.933    0.298    0.428   74.966
  480.750    3.990    0.286    0.422   71.846
  481.000    4.032    0.267    0.413   70.254
  481.250    4.044    0.257    0.418   80.082
  481.500    4.042    0.269    0.426   97.727
  481.750    3.979    0.255    0.415  102.913
  482.000    3.851    0.243    0.419  104.313
  482.250    3.770    0.250    0.443  103.819
  482.500    3.711    0.252    0.464  103.021
  482.750    3.737    0.238    0.475  102.710
  483.000    3.870    0.239    0.486  103.681
  483.250    4.015    0.244    0.488  104.288
  483.500    4.104    0.248    0.476  104.955
  483.750    4.132    0.251    0.466  104.463
  484.000    4.121    0.252    0.480   99.816
  484.250    4.111    0.259    0.493   95.963
  484.500    4.116    0.254    0.503   94.249
  484.750    4.111    0.239    0.509   97.603
  485.000    4.110    0.234    0.479  102.606
  485.250    4.107    0.230    0.455  101.380
  485.500    4.113    0.222    0.441   98.993
  485.750    4.102    0.217    0.464   97.400
  486.000    4.046    0.214    0.485   96.601
  486.250    3.961    0.214    0.506   97.268
  486.500    3.769    0.219    0.494  100.561
  486.750    3.601    0.235    0.485  103.366
  487.000    3.459    0.247    0.493  104.583
  487.250    3.438    0.255    0.506  104.211
  487.500    3.560    0.267    0.519  102.130
  487.750    3.843    0.276    0.482   97.666
  488.000    4.186    0.273    0.460   91.799
  488.250    4.743    0.260    0.451   87.335
  488.500    5.006    0.243    0.471   83.910
  488.750    5.454    0.221    0.462   85.921
  489.000    6.345    0.183    0.453   90.007
  489.250    7.218    0.142    0.461   89.393
  489.500    8.428    0.093    0.412   84.563
  489.750    9.148    0.071    0.329   82.543
  490.000    9.350    0.062    0.273   70.384
  490.250    8.491    0.051    0.266   72.700
  490.500    7.596    0.180    0.389   81.062
  490.750    6.950    0.267    0.433   87.470
  491.000    6.492    0.279    0.449   93.267
  491.250    6.050    0.264    0.451   90.026
  491.500    5.880    0.234    0.424   88.005
  491.750    5.670    0.190    0.406   91.176
  492.000    5.458    0.154    0.402   93.431
  492.250    5.213    0.195    0.427   95.319
  492.500    4.960    0.214    0.447   95.680
  492.750    4.922    0.226    0.436   94.393
  493.000    4.827    0.224    0.425   92.250
  493.250    4.971    0.208    0.426   90.047
  493.500    5.206    0.193    0.420   88.210
  493.750    5.483    0.178    0.413   88.267
  494.000    5.689    0.184    0.410   90.216
  494.250    5.903    0.196    0.423   92.471
  494.500    5.966    0.197    0.429   93.382
  494.750    5.950    0.198    0.429   94.477
  495.000    5.924    0.206    0.430   97.770
  495.250    5.865    0.213    0.431  100.391
  495.500    5.656    0.215    0.437  101.058
  495.750    5.322    0.209    0.447  102.947
  496.000    5.093    0.203    0.458  101.537
  496.250    5.091    0.196    0.451   98.662
  496.500    5.292    0.188    0.423   98.168
  496.750    5.469    0.183    0.406   99.507
  497.000    5.528    0.200    0.404  100.785
  497.250    5.453    0.217    0.408  102.918
  497.500    5.043    0.218    0.409  104.439
  497.750    4.920    0.196    0.410  105.106
  498.000    4.790    0.205    0.421  101.009
  498.250    4.786    0.191    0.421   95.570
  498.500    4.883    0.141    0.392   87.075
  498.750    5.018    0.131    0.363   79.742
  499.000    5.276    0.180    0.385   84.134
  499.250    5.695    0.225    0.406   84.373
  499.500    6.322    0.260    0.399   81.253
  499.750    7.123    0.107    0.353   77.401
  500.000    7.937    0.073    0.301   74.770
  500.250    8.189    0.055    0.269   77.513
  500.500    8.138    0.048    0.245   85.264
  500.750    7.558    0.147    0.323   91.977
  501.000    6.343    0.185    0.394   95.882
  501.250    5.696    0.195    0.427   97.648
  501.500    5.153    0.197    0.417   98.437
  501.750    4.750    0.200    0.399   99.043
  502.000    4.305    0.207    0.387   99.772
  502.250    3.773    0.216    0.397   99.339
  502.500    3.215    0.227    0.437  103.060
  502.750    2.887    0.241    0.475  106.413
  503.000    2.621    0.250    0.499  106.776
  503.250    2.476    0.257    0.509  104.144
  503.500    2.415    0.252    0.517  104.323
  503.750    2.482    0.247    0.510  102.547
  504.000    2.828    0.256    0.482   94.786
  504.250    3.128    0.238    0.440   92.888
  504.500    3.619    0.222    0.407   97.706
  504.750    3.950    0.222    0.409   99.779
  505.000    4.336    0.234    0.422   99.774
  505.250    4.601    0.176    0.435   92.074
  505.500    4.957    0.112    0.423   84.984
  505.750    5.260    0.083    0.373   81.438
  506.000    5.478    0.117    0.340   87.845
  506.250    5.578    0.158    0.354   94.070
  506.500    5.690    0.217    0.380   96.447
  506.750    5.970    0.198    0.403   88.869
  507.000    6.114    0.115    0.422   79.215
  507.250    6.427    0.050    0.339   76.828
  507.500    6.620    0.051    0.285   84.885
  507.750    6.916    0.164    0.305   93.674
  508.000    6.876    0.197    0.344   99.655
  508.250    6.494    0.205    0.372   98.551
  508.500    6.239    0.179    0.379   96.836
  508.750    6.029    0.167    0.352  101.289
  509.000    5.422    0.153    0.346  106.414
  509.250    5.181    0.175    0.386  110.807
  509.500    4.557    0.192    0.417  112.146
  509.750    4.209    0.194    0.431  108.598
  510.000    3.895    0.200    0.451  106.945
  510.250    3.907    0.201    0.471  106.451
  510.500    3.948    0.159    0.489  102.659
  510.750    3.990    0.135    0.446  100.945
  511.000    3.957    0.146    0.427  104.422
  511.250    3.809    0.170    0.443  107.042
  511.500    3.453    0.190    0.453  106.732
  511.750    3.305    0.200    0.455  105.078
  512.000    3.175    0.199    0.445  105.318
  512.250    3.085    0.193    0.438  107.755
  512.500    3.042    0.189    0.435  109.217
  512.750    3.007    0.190    0.435  110.312
  513.000    2.993    0.196    0.442  111.772
  513.250    3.292    0.204    0.451  110.730
  513.500    3.333    0.189    0.452  108.159
  513.750    3.388    0.138    0.444  110.414
  514.000    3.476    0.159    0.455  112.241
  514.250    3.572    0.195    0.471  110.771
  514.500    3.672    0.204    0.457  108.506
  514.750    3.774    0.175    0.439  109.356
  515.000    3.872    0.168    0.427  111.244
  515.250    3.928    0.179    0.416  112.278
  515.500    3.933    0.186    0.408  113.922
  515.750    3.945    0.190    0.427  113.979
  516.000    3.964    0.196    0.458  107.378
  516.250    3.970    0.171    0.483  103.647
  516.500    3.959    0.154    0.442  105.719
  516.750    3.934    0.164    0.394  105.959
  517.000    3.844    0.180    0.404  105.648
  517.250    3.638    0.199    0.428  108.087
  517.500    3.366    0.207    0.466  114.799
  517.750    3.080    0.210    0.511  119.925
  518.000    2.998    0.219    0.530  121.569
  518.250    3.146    0.209    0.411  107.334
  518.500    3.606    0.164    0.373   97.313
  518.750    4.331    0.055    0.319   83.750
  519.000    5.153    0.051    0.292   83.317
  519.250    6.109    0.074    0.309   89.969
  519.500    7.094    0.127    0.349   95.522
  519.750    8.316    0.155    0.380   86.845
  520.000    9.423    0.058    0.382   76.275
  520.250   10.619    0.020    0.270   70.957
  520.500   11.461    0.134    0.257   78.646
  520.750   12.026    0.171    0.307   83.344
  521.000   11.817    0.195    0.316   86.088
  521.250   11.351    0.201    0.317   80.464
  521.500   11.155    0.216    0.317   76.306
  521.750   11.210    0.240    0.323   79.539
  522.000   12.053    0.253    0.334   77.823
  522.250   13.131    0.191    0.349   73.910
  522.500   14.279    0.141    0.327   72.440
  522.750   15.096    0.095    0.322   76.038
  523.000   15.546    0.153    0.362   83.484
  523.250   15.390    0.186    0.380   90.258
  523.500   14.456    0.230    0.396   98.437
  523.750   12.908    0.246    0.371  105.029
