~VERSION INFORMATION
 VERS.                 2.0:   CWLS LOG ASCII STANDARD -VERSION 2.0
 WRAP.                  NO:   ONE LINE PER DEPTH STEP
~WELL INFORMATION BLOCK
#MNEM.UNIT           DATA                    DESCRIPTION OF MNEMONIC
#---------    -------------------            -------------------------------
# Generated from Intellog Unique Number	CS_77_79/WELL/1006
WELL.         NORTHSTAR THORNBURY            : Well_name    - WELL
LOC .         00/11-32-079-12W4/0            : Location     - LOCATION
UWI .         00/11-32-079-12W4/0            : Uwi          - UNIQUE WELL ID
ENTR.         JHS                            : Entered      - ENTERED BY
SRVC.         SCHLUMBERGER                   : Scn          - SERVICE COMPANY
STRT.M        250                            : top_depth    - START DEPTH
STOP.M        495                            : bot_depth    - STOP DEPTH
STEP.M        0.25                           : increment    - STEP LENGTH
 NULL. -999.2500:NULL Value
~CURVE INFORMATION BLOCK
#MNEM UNIT       ERCB CURVE CODE    CURVE DESCRIPTION
#-----------   ------------------   ----------------------------------
DEPT.M        00 001 00 00         : DEPTH        - DEPTH
DPHI.V/V      00 890 00 00         : PHID         - DENSITY POROSITY (LIMESTONE)
NPHI.V/V      00 330 00 00         : PHIN         - NEUTRON POROSITY (LIMESTONE)
GR  .API      00 310 00 00         : GR           - GAMMA RAY
ILD .OHMM     00 120 00 00         : RESD         - DEEP RESISTIVITY (DIL)
RHOB.KG/M3    00 350 00 00         : DENS         - BULK DENSITY
~PARAMETER INFORMATION
#MNEM.UNIT           DATA             DESCRIPTION OF MNEMONIC
#---------         -----------     ------------------------------
GL  .M        683.9                : gl           - GROUND LEVEL ELEVATION
EREF.M        687.9                : kb           - ELEVATION OF DEPTH REFERENCE
DATM.M        687.9                : datum        - DATUM ELEVATION
TDD .M        502                  : tdd          - TOTAL DEPTH DRILLER
RUN .         ONE                  : Run          - RUN NUMBER
ENG .         BILL                 : Engineer     - RECORDING ENGINEER
WIT .         JIM                  : Witness      - WITNESSED BY
MUD .         GEL                  : Mud_type     - MUD TYPE
MATR.         LIMESTONE            : Logunit      - NEUTRON MATRIX
TMAX.C        21.1                 : BHT          - MAXIMUM RECORDED TEMPERATURE
BHTD.M        502                  : BHTDEP       - MAXIMUM RECORDED TEMPERATURE
MATR.         1                    : LOGUNIT      - NEUTRON MATRIX
RMT .C        25                   : MDTP         - TEMPERATURE OF MUD
NEUT.         1                    : NEUTRON      - NEUTRON TYPE
RESI.         0                    : RESIST       - RESISTIVITY TYPE
RMC .OHMM     0.25                 : RMC          - RESISTIVITY OF MUD CAKE
RMF .OHMM     0.25                 : RMF          - RESISTIVITY OF MUD FILTRATE
SUFT.C        15                   : SUFT         - SURFACE TEMPERATURE
~A  DEPTH     PHID     PHIN       GR     RESD     DENS
# ...
  469.000    0.301    0.442   51.758   32.671 2195.600
  469.250    0.322    0.441   49.897   29.214 2160.140
  469.500    0.323    0.427   54.141   25.162 2157.940
  469.750    0.305    0.416   57.781   21.672 2189.030
  470.000    0.294    0.427   58.973   17.982 2207.640
  470.250    0.284    0.429   55.887   10.851 2224.150
  470.500    0.298    0.419   47.900    8.047 2201.170
  470.750    0.305    0.414   40.523    6.431 2188.560
  471.000    0.320    0.411   37.432    5.140 2163.490
  471.250    0.334    0.418   40.453    4.682 2138.430
  471.500    0.340    0.416   47.154    4.513 2127.910
  471.750    0.323    0.408   53.854    4.516 2156.900
  472.000    0.313    0.404   60.555    4.602 2175.530
  472.250    0.296    0.405   66.036    4.780 2204.520
  472.500    0.285    0.406   65.994    5.060 2223.140
  472.750    0.291    0.421   65.973    5.061 2212.640
  473.000    0.284    0.435   62.264    4.878 2224.990
  473.250    0.274    0.450   53.669    4.614 2241.530
  473.500    0.297    0.463   48.127    4.204 2201.890
  473.750    0.320    0.448   45.034    3.902 2162.250
  474.000    0.313    0.423   41.331    3.623 2174.560
  474.250    0.313    0.410   38.849    3.426 2174.500
  474.500    0.334    0.403   38.816    3.302 2139.020
  474.750    0.344    0.399   37.562    3.304 2122.270
  475.000    0.346    0.403   36.915    3.368 2118.000
  475.250    0.340    0.408   38.109    3.433 2128.280
  475.500    0.331    0.412   39.304    3.499 2144.810
  475.750    0.323    0.413   40.497    3.567 2157.150
  476.000    0.331    0.422   42.300    3.637 2144.580
  476.250    0.340    0.418   42.268    3.639 2127.840
  476.500    0.327    0.416   40.397    3.709 2150.600
  476.750    0.322    0.410   37.920    3.711 2158.790
  477.000    0.332    0.408   34.824    3.576 2142.050
  477.250    0.335    0.419   33.564    3.383 2137.780
  477.500    0.348    0.413   35.985    3.260 2114.790
  477.750    0.355    0.405   41.462    3.201 2102.180
  478.000    0.360    0.404   49.998    3.325 2093.760
  478.250    0.349    0.399   53.641    3.389 2112.370
  478.500    0.341    0.405   55.444    3.455 2126.790
  478.750    0.330    0.412   55.412    3.522 2145.420
  479.000    0.311    0.417   56.603    3.459 2178.590
  479.250    0.299    0.426   51.064    3.333 2199.280
  479.500    0.319    0.438   35.117    3.212 2163.800
  479.750    0.344    0.454   30.803    3.096 2122.090
  480.000    0.360    0.442   29.548    3.040 2094.910
  480.250    0.368    0.427   31.955    2.929 2080.250
  480.500    0.376    0.432   31.321    2.876 2067.660
  480.750    0.365    0.421   30.671    2.878 2086.270
  481.000    0.361    0.417   31.866    2.934 2092.400
  481.250    0.348    0.408   30.603    2.935 2115.160
  481.500    0.345    0.407   30.580    2.992 2119.210
  481.750    0.347    0.413   31.768    2.993 2117.020
  482.000    0.346    0.419   33.573    2.995 2118.950
  482.250    0.343    0.421   34.155    2.941 2122.990
  482.500    0.347    0.413   35.950    2.998 2116.660
  482.750    0.354    0.413   39.593    2.944 2104.060
  483.000    0.358    0.418   42.617    3.001 2097.710
  483.250    0.356    0.416   42.590    2.947 2101.760
  483.500    0.353    0.405   43.781    3.004 2105.810
  483.750    0.356    0.399   45.583    3.005 2101.550
  484.000    0.338    0.396   45.558    3.007 2132.630
  484.250    0.329    0.396   44.915    3.008 2147.050
  484.500    0.340    0.404   42.434    3.010 2128.250
  484.750    0.344    0.413   39.340    3.011 2121.880
  485.000    0.348    0.405   36.858    3.013 2115.530
  485.250    0.354    0.399   36.218    3.014 2105.030
  485.500    0.359    0.401   37.412    3.015 2096.600
  485.750    0.344    0.411   41.661    3.017 2121.440
  486.000    0.288    0.406   48.976    3.193 2217.020
  486.250    0.243    0.400   56.898    3.508    0.000
  486.500    0.122    0.391   71.558    4.312    0.000
  486.750    0.055    0.325   90.497    5.503    0.000
  487.000    0.031    0.300   92.298    6.764    0.000
  487.250    0.036    0.289  101.443    7.716    0.000
  487.500    0.058    0.293  108.150    7.865    0.000
  487.750    0.063    0.314  114.845    7.723    0.000
  488.000    0.066    0.347  118.488    7.583    0.000
  488.250    0.080    0.356  117.221    7.731    0.000
  488.500    0.093    0.355  118.416    7.881    0.000
  488.750    0.098    0.349  122.679    7.885    0.000
  489.000    0.081    0.347  129.986    7.599    0.000
  489.250    0.073    0.352  134.853    7.324    0.000
  489.500    0.102    0.376  140.327    7.326    0.000
  489.750    0.093    0.390  145.193    7.468    0.000
  490.000    0.094    0.382  142.102    7.472    0.000
  490.250    0.085    0.374  135.333    7.477    0.000
  490.500    0.086    0.368  135.914    7.342    0.000
  490.750    0.089    0.362  144.454    7.209    0.000
  491.000    0.083    0.358  147.478    7.078    0.000
  491.250    0.078    0.400  141.933    6.950    0.000
  491.500    0.087    0.408  143.130    6.698    0.000
  491.750    0.076    0.388  142.489    6.455    0.000
  492.000    0.115    0.387  146.131    6.106    0.000
  492.250    0.125    0.390  146.704    5.995    0.000
  492.500    0.106    0.387  147.291    5.999    0.000
  492.750    0.099    0.389  149.091    6.001    0.000
  493.000    0.108    0.398  148.452    6.351    0.000
  493.250    0.113    0.398  141.075    6.596    0.000
  493.500    0.111    0.391   88.407    6.724    0.000
  493.750    0.097    0.400   82.870    6.728    0.000
  494.000    0.090    0.395   80.991    6.606    0.000
  494.250    0.087    0.376   78.520    6.488    0.000
  494.500    0.081    0.369   72.368    6.369    0.000
  494.750    0.098    0.365   67.438    5.913    0.000
  495.000    0.103    0.371   65.573    5.806    0.000
