~VERSION INFORMATION
 VERS.                 2.0:   CWLS LOG ASCII STANDARD -VERSION 2.0
 WRAP.                  NO:   ONE LINE PER DEPTH STEP
~WELL INFORMATION BLOCK
#MNEM.UNIT           DATA                    DESCRIPTION OF MNEMONIC
#---------    -------------------            -------------------------------
# Generated from Intellog Unique Number	CS_73_76/WELL/4866
WELL.         ESSO KIRBY 15-23-75-4          : Well_name    - WELL
LOC .         00/15-23-075-04W4/0            : Location     - LOCATION
UWI .         00/15-23-075-04W4/0            : Uwi          - UNIQUE WELL ID
ENTR.         ANDERSEN                       : Entered      - ENTERED BY
SRVC.         COMPUTALOG                     : Scn          - SERVICE COMPANY
STRT.M        200                            : top_depth    - START DEPTH
STOP.M        435                            : bot_depth    - STOP DEPTH
STEP.M        0.25                           : increment    - STEP LENGTH
 NULL. -999.2500:NULL Value
~CURVE INFORMATION BLOCK
#MNEM UNIT       ERCB CURVE CODE    CURVE DESCRIPTION
#-----------   ------------------   ----------------------------------
DEPT.M        00 001 00 00         : DEPTH        - DEPTH
ILD .OHMM     00 120 00 00         : RESD         - DEEP RESISTIVITY (DIL)
DPHI.V/V      00 890 00 00         : PHID         - DENSITY POROSITY (SANDSTONE)
NPHI.V/V      00 330 00 00         : PHIN         - NEUTRON POROSITY (SANDSTONE)
CALI.MM       00 280 01 00         : CAL          - CALIPER
GR  .API      00 310 00 00         : GR           - GAMMA RAY
~PARAMETER INFORMATION
#MNEM.UNIT           DATA             DESCRIPTION OF MNEMONIC
#---------         -----------     ------------------------------
GL  .M        596.42               : gl           - GROUND LEVEL ELEVATION
EREF.M        606.22               : kb           - ELEVATION OF DEPTH REFERENCE
DATM.M        606.22               : datum        - DATUM ELEVATION
TDD .M        446                  : tdd          - TOTAL DEPTH DRILLER
RUN .         ONE                  : Run          - RUN NUMBER
ENG .         BILL                 : Engineer     - RECORDING ENGINEER
WIT .         JIM                  : Witness      - WITNESSED BY
MUD .         GEL                  : Mud_type     - MUD TYPE
MATR.         SANDSTONE            : Logunit      - NEUTRON MATRIX
TMAX.C        32                   : BHT          - MAXIMUM RECORDED TEMPERATURE
BHTD.M        456                  : BHTDEP       - MAXIMUM RECORDED TEMPERATURE
MATR.         1                    : LOGUNIT      - NEUTRON MATRIX
RMT .C        10                   : MDTP         - TEMPERATURE OF MUD
NEUT.         1                    : NEUTRON      - NEUTRON TYPE
RESI.         0                    : RESIST       - RESISTIVITY TYPE
RMC .OHMM     6.2                  : RMC          - RESISTIVITY OF MUD CAKE
RMF .OHMM     6                    : RMF          - RESISTIVITY OF MUD FILTRATE
SUFT.C        15                   : SUFT         - SURFACE TEMPERATURE
~A  DEPTH     RESD     PHID     PHIN      CAL       GR
# ...
  309.500    8.832    0.261    0.462  196.299   70.934
  309.750    8.820    0.257    0.461  196.309   70.938
  310.000    8.813    0.259    0.462  196.313   71.413
  310.250    8.802    0.264    0.465  196.321   71.888
  310.500    8.798    0.267    0.470  197.312   72.362
  310.750    8.629    0.263    0.470  197.318   72.837
  311.000    8.460    0.258    0.468  197.331   72.840
  311.250    8.298    0.257    0.464  197.337   72.844
  311.500    8.139    0.257    0.458  197.343   72.848
  311.750    7.839    0.255    0.456  197.355   72.852
  312.000    7.413    0.257    0.455  197.359   74.267
  312.250    7.010    0.261    0.455  197.368   75.683
  312.500    7.132    0.262    0.459  197.376   75.687
  312.750    7.390    0.257    0.468  197.384   74.280
  313.000    7.519    0.249    0.478  197.394   74.284
  313.250    7.511    0.250    0.488  197.403   75.229
  313.500    7.367    0.249    0.500  199.372   78.528
  313.750    7.096    0.245    0.490  200.363   80.885
  314.000    6.962    0.239    0.479  200.369   83.713
  314.250    6.705    0.232    0.475  201.360   85.130
  314.500    6.456    0.225    0.477  202.346   84.194
  314.750    6.218    0.223    0.481  203.341   83.726
  315.000    5.988    0.226    0.485  203.348   83.259
  315.250    5.767    0.231    0.490  203.354   84.205
  315.500    5.553    0.233    0.497  203.364   86.091
  315.750    5.450    0.234    0.507  203.370   87.977
  316.000    5.247    0.240    0.509  203.376   88.451
  316.250    5.055    0.249    0.504  203.385   87.514
  316.500    4.778    0.249    0.507  202.412   86.577
  316.750    4.688    0.245    0.516  202.423   87.052
  317.000    4.432    0.238    0.524  201.448   88.938
  317.250    4.348    0.233    0.528  201.459   93.648
  317.500    4.111    0.227    0.531  201.465   97.419
  317.750    3.888    0.230    0.531  201.475   96.481
  318.000    3.677    0.233    0.529  202.464   92.720
  318.250    3.541    0.238    0.524  204.431   90.370
  318.500    3.348    0.243    0.531  205.422   91.315
  318.750    3.225    0.250    0.546  206.413   91.319
  319.000    3.163    0.257    0.557  206.417   92.264
  319.250    3.102    0.261    0.553  207.406   90.856
  319.500    3.043    0.267    0.547  207.414   89.448
  319.750    3.041    0.271    0.534  207.422   88.040
  320.000    2.928    0.273    0.515  206.452   85.220
  320.250    2.925    0.276    0.508  203.516   81.929
  320.500    2.869    0.278    0.505  200.583   79.109
  320.750    2.867    0.282    0.487  197.650   75.821
  321.000    2.812    0.284    0.478  196.677   75.353
  321.250    2.809    0.277    0.477  195.707   74.886
  321.500    2.754    0.272    0.477  195.717   75.833
  321.750    2.752    0.271    0.477  195.724   77.719
  322.000    2.698    0.270    0.477  194.755   78.663
  322.250    2.646    0.272    0.472  194.762   80.079
  322.500    2.597    0.277    0.467  194.768   79.143
  322.750    2.546    0.281    0.459  194.778   73.498
  323.000    2.498    0.291    0.452  193.808   65.501
  323.250    2.406    0.298    0.448  193.812   59.857
  323.500    2.360    0.304    0.445  193.822   57.038
  323.750    2.315    0.306    0.442  193.828   57.041
  324.000    2.271    0.305    0.441  192.858   58.459
  324.250    2.227    0.300    0.441  192.866   60.343
  324.500    2.224    0.288    0.441  192.877   63.171
  324.750    2.305    0.268    0.438  192.881   66.941
  325.000    2.389    0.254    0.428  192.891   70.710
  325.250    2.475    0.260    0.426  191.921   74.009
  325.500    2.612    0.275    0.426  191.925   73.072
  325.750    2.707    0.284    0.425  191.933   71.663
  326.000    2.704    0.292    0.430  191.941   69.315
  326.250    2.652    0.301    0.438  191.950   68.848
  326.500    2.554    0.310    0.445  191.960   68.852
  326.750    2.460    0.318    0.449  191.966   68.385
  327.000    2.369    0.322    0.454  190.996   67.448
  327.250    2.323    0.323    0.448  191.985   67.452
  327.500    2.279    0.320    0.441  192.973   67.456
  327.750    2.277    0.310    0.428  192.980   67.460
  328.000    2.275    0.281    0.407  193.968   66.521
  328.250    2.400    0.106    0.326  193.979   62.760
  328.500    2.533    0.107    0.256  193.985   55.234
  328.750    2.723    0.143    0.269  193.993   50.061
  329.000    3.206    0.237    0.306  193.021   55.242
  329.250    3.707    0.281    0.340  192.053   60.424
  329.500    3.911    0.288    0.391  192.061   66.075
  329.750    3.699    0.273    0.448  192.069   71.257
  330.000    3.434    0.260    0.474  192.079   74.084
  330.250    3.248    0.255    0.475  193.066   74.559
  330.500    3.128    0.255    0.466  193.074   76.917
  330.750    3.068    0.260    0.471  194.063   76.451
  331.000    3.122    0.267    0.469  195.052   75.513
  331.250    3.294    0.270    0.473  195.058   77.869
  331.500    3.414    0.265    0.486  196.049   80.227
  331.750    3.474    0.262    0.479  196.059   80.232
  332.000    3.470    0.262    0.466  196.067   78.352
  332.250    3.530    0.257    0.453  196.071   75.532
  332.500    3.591    0.255    0.441  196.082   74.125
  332.750    3.721    0.259    0.444  196.090   74.599
  333.000    3.786    0.260    0.453  197.079   76.014
  333.250    3.921    0.260    0.463  197.085   78.373
  333.500    3.919    0.254    0.473  198.076   78.846
  333.750    3.843    0.247    0.482  199.065   77.909
  334.000    3.770    0.242    0.489  199.073   77.442
  334.250    3.698    0.236    0.500  200.059   77.446
  334.500    3.627    0.245    0.511  200.070   78.862
  334.750    3.492    0.258    0.520  201.056   81.220
  335.000    3.303    0.268    0.530  201.065   79.812
  335.250    3.067    0.281    0.543  202.056   78.875
  335.500    2.899    0.281    0.551  202.064   78.879
  335.750    2.794    0.289    0.554  202.074   79.355
  336.000    2.641    0.296    0.550  202.078   80.299
  336.250    2.591    0.296    0.534  201.112   80.773
  336.500    2.636    0.288    0.521  201.118   82.189
  336.750    2.781    0.289    0.499  200.146   78.428
  337.000    2.831    0.329    0.464  199.172   72.314
  337.250    3.213    0.360    0.364  198.201   69.493
  337.500    3.583    0.366    0.329  198.210   67.615
  337.750    4.457    0.377    0.284  198.220   66.207
  338.000    5.751    0.451    0.237  198.226   64.329
  338.250    7.026    0.471    0.215  199.213   62.450
  338.500    9.066    0.475    0.218  199.223   60.571
  338.750   12.819    0.463    0.224  199.229   59.633
  339.000   14.290    0.448    0.239  199.237   59.169
  339.250   14.535    0.430    0.255  199.248   59.171
  339.500   13.999    0.418    0.264  199.254   59.646
  339.750   13.001    0.416    0.262  199.264   59.650
  340.000   12.522    0.425    0.257  199.270   59.184
  340.250   12.279    0.432    0.254  199.279   58.717
  340.500   12.044    0.435    0.255  199.289   58.721
  340.750   12.035    0.432    0.261  199.295   59.195
  341.000   11.805    0.420    0.267  199.307   60.141
  341.250   11.793    0.412    0.270  199.312   60.145
  341.500   11.780    0.424    0.266  199.320   60.620
  341.750   11.765    0.443    0.261  199.330   61.093
  342.000   12.191    0.458    0.249  199.338   61.568
  342.250   12.403    0.465    0.235  199.347   61.571
  342.500   13.092    0.472    0.218  198.372   61.105
  342.750   13.816    0.464    0.217  198.380   56.873
  343.000   14.849    0.382    0.223  198.389   51.700
  343.250   15.666    0.185    0.229  198.401   44.644
  343.500   15.938    0.243    0.240  198.405   41.825
  343.750   15.072    0.329    0.253  197.437   48.418
  344.000   13.745    0.367    0.269  197.447   57.364
  344.250   10.627    0.418    0.272  197.451   62.545
  344.500    8.525    0.439    0.277  197.464   63.961
  344.750    7.358    0.445    0.288  197.470   63.966
  345.000    6.233    0.442    0.309  197.480   63.029
  345.250    5.282    0.433    0.326  197.484   61.621
  345.500    4.477    0.402    0.352  197.497   60.682
  345.750    3.725    0.386    0.374  197.503   59.745
