~VERSION INFORMATION
 VERS.                 2.0:   CWLS LOG ASCII STANDARD -VERSION 2.0
 WRAP.                  NO:   ONE LINE PER DEPTH STEP
~WELL INFORMATION BLOCK
#MNEM.UNIT           DATA                    DESCRIPTION OF MNEMONIC
#---------    -------------------            -------------------------------
# Generated from Intellog Unique Number	CN_94_101/WELL/5000
WELL.         10-02-099-13W4                 : Well_name    - WELL
LOC .         00/10-02-099-13W4/0            : Location     - LOCATION
UWI .         00/10-02-099-13W400            : Uwi          - UNIQUE WELL ID
ENTR.         TOP                            : Entered      - ENTERED BY
SRVC.         SCHLUMBERGER                   : Scn          - SERVICE COMPANY
DATE.         08/11/92                       : Date         - LOG DATE
STRT.M        375                            : top_depth    - START DEPTH
STOP.M        575                            : bot_depth    - STOP DEPTH
STEP.M        0.25                           : increment    - STEP LENGTH
 NULL. -999.2500:NULL Value
~CURVE INFORMATION BLOCK
#MNEM UNIT       ERCB CURVE CODE    CURVE DESCRIPTION
#-----------   ------------------   ----------------------------------
DEPT.M        00 001 00 00         : DEPTH        - DEPTH
GR  .API      00 310 00 00         : GR           - GAMMA RAY
ILD .OHMM     00 120 00 00         : RESD         - DEEP RESISTIVITY (DIL)
NPHI.V/V      00 330 00 00         : PHIN         - NEUTRON POROSITY (SANDSTONE)
DPHI.V/V      00 890 00 00         : PHID         - DENSITY POROSITY (SANDSTONE)
~PARAMETER INFORMATION
#MNEM.UNIT           DATA             DESCRIPTION OF MNEMONIC
#---------         -----------     ------------------------------
GL  .M        827                  : gl           - GROUND LEVEL ELEVATION
EREF.M        830                  : kb           - ELEVATION OF DEPTH REFERENCE
DATM.M        830                  : datum        - DATUM ELEVATION
TDD .M        564                  : tdd          - TOTAL DEPTH DRILLER
RUN .         ONE                  : Run          - RUN NUMBER
ENG .         BILL                 : Engineer     - RECORDING ENGINEER
WIT .         JIM                  : Witness      - WITNESSED BY
MUD .         GEL                  : Mud_type     - MUD TYPE
MATR.         SANDSTONE            : Logunit      - NEUTRON MATRIX
TMAX.C        27                   : BHT          - MAXIMUM RECORDED TEMPERATURE
BHTD.M        564                  : BHTDEP       - MAXIMUM RECORDED TEMPERATURE
RMT .C        12                   : MDTP         - TEMPERATURE OF MUD
MUDD.KG/M     1090                 : MWT          - MUD DENSITY
NEUT.         1                    : NEUTRON      - NEUTRON TYPE
RESI.         0                    : RESIST       - RESISTIVITY TYPE
RM  .OHMM     5.8                  : RM           - RESISTIVITY OF MUD
RMC .OHMM     1.8                  : RMC          - RESISTIVITY OF MUD CAKE
RMF .OHMM     5.8                  : RMF          - RESISTIVITY OF MUD FILTRATE
SUFT.C        4                    : SUFT         - SURFACE TEMPERATURE
~A  DEPTH       GR     RESD     PHIN     PHID
# ...
  505.500   93.917    4.591    0.428    0.254
  505.750   97.654    5.245    0.425    0.249
  506.000   98.904    5.665    0.418    0.241
  506.250  100.179    5.886    0.403    0.240
  506.500   98.407    6.120    0.404    0.237
  506.750   97.222    6.488    0.405    0.235
  507.000   96.687    6.749    0.400    0.224
  507.250   96.113    7.424    0.385    0.223
  507.500   94.928    7.717    0.374    0.226
  507.750   90.695    8.176    0.369    0.232
  508.000   90.746    8.502    0.359    0.238
  508.250   85.901    8.677    0.333    0.235
  508.500   77.995    9.371    0.323    0.230
  508.750   75.598    9.741    0.327    0.215
  509.000   77.499   10.321    0.340    0.201
  509.250   81.222   10.733    0.354    0.193
  509.500   86.783   10.555    0.360    0.193
  509.750   93.567   10.191    0.367    0.201
  510.000   94.843   10.014    0.373    0.210
  510.250   94.894    9.661    0.377    0.215
  510.500   94.346    9.320    0.380    0.218
  510.750   94.385    9.165    0.383    0.220
  511.000   95.048    8.839    0.381    0.224
  511.250   95.725    8.689    0.384    0.228
  511.500   97.000    8.537    0.386    0.228
  511.750   97.064    8.243    0.397    0.225
  512.000   97.090    8.097    0.399    0.225
  512.250   96.529    8.110    0.392    0.229
  512.500   97.818    8.123    0.388    0.232
  512.750   96.033    8.142    0.383    0.237
  513.000   93.623    8.152    0.382    0.232
  513.250   91.226    8.162    0.380    0.220
  513.500   91.890    8.175    0.379    0.213
  513.750   93.191    8.191    0.379    0.216
  514.000   92.618    8.205    0.380    0.219
  514.250   90.221    8.214    0.384    0.229
  514.500   89.074    8.542    0.375    0.269
  514.750   88.500    9.051    0.350    0.270
  515.000   87.927    9.771    0.325    0.271
  515.250   85.530   10.757    0.325    0.270
  515.500   83.745   11.397    0.332    0.263
  515.750   81.973   11.627    0.340    0.255
  516.000   81.412   11.429    0.351    0.243
  516.250   86.347   10.234    0.359    0.253
  516.500   91.308    8.986    0.368    0.260
  516.750   93.183    7.604    0.380    0.260
  517.000   94.459    6.803    0.411    0.256
  517.250   96.959    5.976    0.422    0.245
  517.500  102.545    5.658    0.434    0.243
  517.750  104.432    5.564    0.456    0.246
  518.000  103.272    5.576    0.477    0.250
  518.250  102.686    5.688    0.487    0.252
  518.500  101.513    5.919    0.457    0.255
  518.750   99.728    6.036    0.448    0.252
  519.000   98.569    6.163    0.432    0.243
  519.250   99.232    5.725    0.441    0.235
  519.500  101.120    4.935    0.448    0.260
  519.750  103.607    4.335    0.468    0.271
  520.000  105.494    3.807    0.479    0.281
  520.250  104.946    3.472    0.477    0.286
  520.500  103.761    3.287    0.474    0.292
  520.750  103.812    3.171    0.471    0.297
  521.000  103.864    3.362    0.467    0.298
  521.250  101.480    3.841    0.467    0.289
  521.500   97.859    4.145    0.467    0.276
  521.750   96.074    4.823    0.441    0.266
  522.000   98.586    5.614    0.425    0.254
  522.250  101.698    6.061    0.423    0.244
  522.500  102.948    6.300    0.421    0.242
  522.750  103.038    6.805    0.418    0.242
  523.000  103.064    6.945    0.412    0.242
  523.250  101.292    7.087    0.406    0.239
  523.500  100.119    7.370    0.392    0.239
  523.750   97.722    7.670    0.377    0.239
  524.000   95.924    7.821    0.350    0.241
  524.250   92.915    7.837    0.340    0.232
  524.500   92.954    7.558    0.342    0.220
  524.750   98.553    7.026    0.356    0.226
  525.000   98.604    6.529    0.366    0.228
  525.250   98.643    6.415    0.379    0.237
  525.500   98.694    6.077    0.394    0.239
  525.750   98.758    5.976    0.411    0.210
  526.000   98.172    5.870    0.428    0.229
  526.250   98.835    5.667    0.434    0.240
  526.500  101.335    5.566    0.429    0.246
  526.750  101.999    5.476    0.417    0.205
  527.000  100.826    5.381    0.409    0.199
  527.250  100.890    5.287    0.413    0.197
  527.500  102.778    5.010    0.419    0.222
  527.750  103.441    4.923    0.429    0.230
  528.000  101.057    4.748    0.435    0.240
  528.250   99.872    4.584    0.442    0.244
  528.500   96.863    4.506    0.438    0.244
  528.750   95.690    4.428    0.429    0.245
  529.000   95.129    4.270    0.424    0.248
  529.250   95.168    4.120    0.425    0.253
  529.500   95.219    4.051    0.430    0.255
  529.750   95.896    3.982    0.431    0.260
  530.000   99.620    3.913    0.430    0.263
  530.250  103.356    3.921    0.434    0.271
  530.500  102.796    3.926    0.437    0.276
  530.750  101.610    3.934    0.442    0.262
  531.000   98.627    3.943    0.442    0.258
  531.250   97.428    3.946    0.433    0.258
  531.500   96.868    4.107    0.429    0.255
  531.750   96.932    4.269    0.431    0.250
  532.000   96.983    4.525    0.423    0.248
  532.250   97.634    4.614    0.417    0.248
  532.500   99.534    4.800    0.414    0.244
  532.750  103.271    4.991    0.409    0.233
  533.000  105.758    5.000    0.399    0.234
  533.250  105.197    4.390    0.383    0.237
  533.500  102.788    3.785    0.387    0.246
  533.750   98.555    3.204    0.385    0.249
  534.000   94.933    2.814    0.354    0.277
  534.250   95.597    2.518    0.357    0.310
  534.500   96.873    2.340    0.406    0.326
  534.750   94.501    2.257    0.469    0.331
  535.000   93.303    2.219    0.484    0.322
  535.250   92.130    2.307    0.480    0.311
  535.500   89.746    2.685    0.458    0.313
  535.750   86.724    3.244    0.420    0.326
  536.000   80.655    4.072    0.375    0.332
  536.250   72.137    5.010    0.357    0.327
  536.500   65.468    6.053    0.347    0.319
  536.750   61.235    7.177    0.349    0.303
  537.000   59.450    9.706    0.352    0.284
  537.250   59.502   11.948    0.360    0.291
  537.500   60.165   12.899    0.374    0.318
  537.750   61.441   10.914    0.390    0.323
  538.000   63.941    7.948    0.392    0.313
  538.250   73.160    6.121    0.396    0.306
  538.500   87.915    5.083    0.401    0.294
  538.750   91.651    4.143    0.434    0.284
  539.000   91.091    3.850    0.444    0.282
  539.250   89.918    3.645    0.446    0.276
  539.500   88.745    3.584    0.441    0.269
  539.750   90.633    3.660    0.410    0.258
  540.000   91.896    3.664    0.411    0.237
  540.250   93.783    3.809    0.413    0.238
  540.500   95.684    3.890    0.421    0.238
  540.750   96.972    3.970    0.427    0.228
  541.000   97.636    3.975    0.427    0.223
  541.250   98.287    3.910    0.422    0.223
  541.500   98.338    3.913    0.412    0.219
  541.750   98.402    3.847    0.410    0.200
  542.000   98.454    3.855    0.415    0.204
  542.250   97.893    3.861    0.423    0.230
  542.500   97.319    3.867    0.419    0.236
  542.750   92.474    4.023    0.400    0.246
  543.000   76.599    4.340    0.388    0.253
  543.250   63.796    5.546    0.374    0.259
  543.500   54.666    9.936    0.360    0.273
  543.750   51.657   15.037    0.339    0.286
  544.000   51.709   17.173    0.319    0.302
  544.250   53.622   18.898    0.328    0.314
  544.500   56.096   20.023    0.341    0.325
  544.750   57.984   18.599    0.351    0.357
  545.000   58.048   16.035    0.361    0.360
  545.250   57.487   12.588    0.358    0.348
  545.500   55.078   10.255    0.352    0.330
  545.750   52.082    8.202    0.341    0.316
  546.000   54.581    6.814    0.322    0.302
  546.250   56.469    6.576    0.306    0.292
  546.500   54.671    6.706    0.302    0.290
  546.750   51.063    8.102    0.302    0.292
  547.000   50.502   10.170    0.307    0.296
  547.250   49.942   11.610    0.312    0.298
  547.500   49.993   13.509    0.320    0.299
  547.750   48.208   16.018    0.334    0.302
  548.000   42.738   19.007    0.345    0.318
  548.250   42.802   21.303    0.351    0.329
  548.500   42.854   23.434    0.348    0.332
  548.750   42.280   25.778    0.344    0.340
