~VERSION INFORMATION
 VERS.                 2.0:   CWLS LOG ASCII STANDARD -VERSION 2.0
 WRAP.                  NO:   ONE LINE PER DEPTH STEP
~WELL INFORMATION BLOCK
#MNEM.UNIT           DATA                    DESCRIPTION OF MNEMONIC
#---------    -------------------            -------------------------------
# Generated from Intellog Unique Number	CC_80_83/WELL/2345
NULL.         -999.25                        : NULL_VALUE
WELL.         HOMESTEAD JASPER COWPAR        : WELL_NAME
LOC .         10-10-080-04W4                 : Location     - LOCATION          
UWI .         00/10-10-080-04W400           : Uwi          - UNIQUE WELL ID    
ENTR.         DW                             : Entered      - ENTERED BY        
SRVC.         SCHLUMBERGER                   : Scn          - SERVICE COMPANY   
DATE.         24 NOV 77                      : Date         - LOG DATE
STRT.M        94.488                         : top_depth    - START DEPTH       
STOP.M        323.088                        : bot_depth    - STOP DEPTH        
STEP.M        0.3048                         : increment    - STEP LENGTH       
~CURVE INFORMATION BLOCK
#MNEM UNIT       ERCB CURVE CODE    CURVE DESCRIPTION
#-----------   ------------------   ----------------------------------
DEPT.M        00 001 00 00         : DEPTH        - DEPTH                       
DPHI.V/V      00 890 00 00         : PHID         - DENSITY POROSITY (LIMESTONE)
NPHI.V/V      00 330 00 00         : PHIN         - NEUTRON POROSITY (LIMESTONE)
GR  .API      00 310 00 00         : GR           - GAMMA RAY                   
ILD .OHMM     00 120 00 00         : RESD         - DEEP RESISTIVITY (DIL)      
~PARAMETER INFORMATION       
#MNEM.UNIT           DATA             DESCRIPTION OF MNEMONIC
#---------         -----------     ------------------------------
GL  .M        471.83               : gl           - GROUND LEVEL ELEVATION      
EREF.M        475.488              : kb           - ELEVATION OF DEPTH REFERENCE
DATM.M        475.488              : datum        - DATUM ELEVATION             
TDD .M        326.136              : tdd          - TOTAL DEPTH DRILLER         
RUN .         ONE                  : Run          - RUN NUMBER                  
ENG .         BILL                 : Engineer     - RECORDING ENGINEER          
WIT .         JIM                  : Witness      - WITNESSED BY                
MUD .         GEL                  : Mud_type     - MUD TYPE                    
MATR.         LIMESTONE            : Logunit      - NEUTRON MATRIX              
TMAX.C        23.3333              : BHT          - MAXIMUM RECORDED TEMPERATURE
BHTD.M        326.136              : BHTDEP       - MAXIMUM RECORDED TEMPERATURE
MATR.         1                    : LOGUNIT      - NEUTRON MATRIX              
RMT .C        25                   : MDTP         - TEMPERATURE OF MUD          
NEUT.         1                    : NEUTRON      - NEUTRON TYPE                
RESI.         0                    : RESIST       - RESISTIVITY TYPE            
RMC .OHMM     0.25                 : RMC          - RESISTIVITY OF MUD CAKE     
RMF .OHMM     0.25                 : RMF          - RESISTIVITY OF MUD FILTRATE 
SUFT.C        15                   : SUFT         - SURFACE TEMPERATURE         
~A  DEPTH     PHID     PHIN       GR     RESD
# ...
  253.591    0.242    0.467  104.904    5.184
  253.896    0.205    0.464  106.762    5.184
  254.201    0.228    0.473  104.282    5.084
  254.506    0.248    0.490  103.041    5.083
  254.811    0.236    0.498  103.660    5.081
  255.115    0.253    0.509  103.659    5.080
  255.420    0.290    0.511  103.659    4.889
  255.725    0.254    0.489  101.178    4.617
  256.030    0.249    0.479   96.839    4.198
  256.335    0.253    0.462   78.243    3.964
  256.639    0.262    0.407   83.820    3.889
  256.944    0.252    0.427   93.737    3.962
  257.249    0.242    0.446   88.777    3.961
  257.554    0.273    0.431   86.917    3.959
  257.859    0.294    0.420   90.635    3.884
  258.163    0.273    0.402   94.353    3.810
  258.468    0.247    0.447   82.575    3.809
  258.773    0.252    0.414   85.674    4.031
  259.078    0.238    0.443  103.028    4.185
  259.383    0.226    0.474   99.928    4.265
  259.688    0.240    0.477   89.390    4.183
  259.992    0.249    0.462   85.050    3.876
  260.297    0.256    0.411   70.793    3.458
  260.602    0.274    0.412   72.031    3.392
  260.907    0.295    0.423   74.510    3.456
  261.212    0.300    0.428   76.989    3.657
  261.516    0.307    0.444   83.806    4.020
  261.821    0.241    0.391   86.284    4.254
  262.126    0.231    0.416   85.663    4.253
  262.431    0.233    0.433   78.225    4.172
  262.736    0.240    0.423   61.489    3.138
  263.040    0.323    0.419   54.669    2.695
  263.345    0.338    0.407   66.445    2.450
  263.650    0.322    0.401   80.081    2.403
  263.955    0.267    0.405   85.038    2.449
  264.260    0.230    0.407   83.178    2.904
  264.564    0.211    0.406   80.078    3.510
  264.869    0.232    0.401   76.978    3.714
  265.174    0.262    0.395   77.597    3.713
  265.479    0.281    0.385   82.555    3.641
  265.784    0.231    0.381   87.513    3.641
  266.089    0.249    0.406   94.950    3.710
  266.393    0.238    0.420   93.709    4.001
  266.698    0.236    0.432   97.427    4.154
  267.003    0.221    0.447  101.765    4.232
  267.308    0.217    0.459  101.144    4.152
  267.613    0.223    0.465   96.805    3.921
  267.917    0.233    0.451   96.184    3.703
  268.222    0.216    0.440   89.985    3.497
  268.527    0.253    0.423   87.504    3.302
  268.832    0.263    0.393   99.900    3.301
  269.137    0.225    0.458   97.420    3.364
  269.441    0.254    0.483   89.981    3.363
  269.746    0.242    0.469   88.741    3.361
  270.051    0.244    0.423   93.698    3.361
  270.356    0.220    0.446   91.218    3.297
  270.661    0.262    0.464   81.919    3.173
  270.965    0.231    0.405   76.960    3.054
  271.270    0.230    0.405   70.761    2.724
  271.575    0.275    0.410   68.901    2.340
  271.880    0.273    0.414   78.817    2.252
  272.185    0.263    0.390   84.394    2.252
  272.490    0.249    0.394   88.732    2.338
  272.794    0.230    0.419   83.153    2.428
  273.099    0.259    0.447   68.896    2.521
  273.404    0.304    0.462   60.837    2.426
  273.709    0.326    0.422   73.853    2.206
  274.014    0.264    0.409   84.389    2.205
  274.318    0.248    0.435   90.587    2.424
  274.623    0.262    0.427   89.966    2.614
  274.928    0.259    0.435   63.932    2.766
  275.233    0.310    0.454   63.311    2.515
  275.538    0.312    0.444   59.591    2.160
  275.842    0.322    0.460   46.574    1.927
  276.147    0.337    0.430   38.515    1.753
  276.452    0.349    0.396   42.853    1.564
  276.757    0.359    0.400   45.332    1.421
  277.062    0.364    0.427   48.430    1.394
  277.366    0.349    0.443   52.768    1.421
  277.671    0.325    0.405   57.726    1.475
  277.976    0.311    0.391   70.121    1.561
  278.281    0.291    0.404   66.401    1.652
  278.586    0.279    0.425   60.202    1.782
  278.891    0.294    0.421   55.863    1.781
  279.195    0.322    0.423   47.184    1.559
  279.500    0.337    0.444   50.902    1.445
  279.805    0.322    0.388   58.339    1.444
  280.110    0.301    0.391   65.776    1.529
  280.415    0.249    0.351   75.073    1.712
  280.719    0.256    0.384   80.650    2.069
  281.024    0.241    0.412   81.269    2.318
  281.329    0.256    0.432   80.649    2.500
  281.634    0.280    0.405   81.268    2.547
  281.939    0.279    0.401   80.647    2.452
  282.243    0.284    0.404   80.646    2.315
  282.548    0.274    0.422   79.405    2.271
  282.853    0.281    0.431   79.405    2.271
  283.158    0.285    0.415   84.982    2.227
  283.463    0.283    0.411   89.320    2.269
  283.767    0.295    0.405   83.740    2.268
  284.072    0.300    0.402   79.401    2.268
  284.377    0.295    0.407   80.020    2.224
  284.682    0.285    0.416   84.358    2.224
  284.987    0.270    0.423   83.737    2.181
  285.292    0.285    0.416   80.017    2.181
  285.596    0.296    0.406   76.917    2.139
  285.901    0.300    0.411   76.916    2.139
  286.206    0.302    0.422   78.775    2.138
  286.511    0.304    0.422   82.493    2.097
  286.816    0.289    0.411   88.070    2.096
  287.120    0.288    0.407   81.251    2.136
  287.425    0.291    0.405   76.292    2.176
  287.730    0.294    0.411   76.291    2.176
  288.035    0.304    0.409   78.149    2.175
  288.340    0.312    0.410   79.388    2.133
  288.644    0.299    0.416   83.106    2.093
  288.949    0.285    0.416   88.064    2.132
  289.254    0.278    0.411   89.303    2.214
  289.559    0.272    0.400   91.162    2.299
  289.864    0.264    0.380   94.880    2.433
  290.168    0.278    0.385   94.879    2.624
  290.473    0.260    0.393   98.597    2.830
  290.778    0.257    0.389   91.158    2.939
  291.083    0.249    0.378   91.157    2.994
  291.388    0.246    0.374   94.875    2.882
  291.693    0.247    0.383   86.197    2.620
  291.997    0.249    0.412   82.477    2.382
  292.302    0.272    0.421   69.459    2.085
  292.607    0.290    0.426   55.822    1.791
  292.912    0.312    0.430   58.920    1.568
  293.217    0.365    0.428   73.796    1.425
  293.521    0.346    0.423   79.373    1.321
  293.826    0.293    0.415   73.174    1.296
  294.131    0.299    0.417   63.256    1.345
  294.436    0.305    0.444   51.478    1.397
  294.741    0.317    0.436   54.576    1.423
  295.045    0.362    0.432   60.154    1.319
  295.350    0.353    0.438   68.830    1.269
  295.655    0.312    0.431   75.028    1.245
  295.960    0.289    0.435   70.688    1.318
  296.265    0.301    0.460   62.630    1.448
  296.569    0.319    0.433   58.910    1.533
  296.874    0.328    0.423   55.810    1.592
  297.179    0.314    0.432   49.610    1.591
  297.484    0.270    0.433   52.709    1.561
  297.789    0.262    0.438   60.146    1.621
  298.094    0.288    0.447   69.442    1.715
  298.398    0.285    0.415   82.458    1.850
  298.703    0.207    0.395   86.796    1.995
  299.008    0.223    0.401   83.696    2.235
  299.313    0.251    0.421   65.720    2.504
  299.618    0.299    0.433   52.702    2.600
  299.922    0.327    0.440   47.123    2.319
  300.227    0.330    0.427   48.982    1.778
  300.532    0.328    0.412   52.700    1.498
  300.837    0.320    0.406   56.418    1.415
  301.142    0.304    0.407   49.599    1.362
  301.446    0.307    0.421   42.160    1.361
  301.751    0.327    0.420   42.779    1.335
  302.056    0.337    0.419   46.497    1.310
  302.361    0.342    0.416   52.075    1.285
  302.666    0.352    0.410   57.652    1.260
  302.970    0.356    0.407   65.709    1.260
  303.275    0.363    0.438   57.650    1.236
  303.580    0.362    0.426   47.732    1.236
  303.885    0.358    0.417   45.252    1.259
  304.190    0.349    0.407   50.210    1.282
  304.495    0.338    0.404   57.647    1.332
  304.799    0.281    0.450   78.796    1.701
  305.104    0.294    0.455   88.821    1.800
  305.409    0.353    0.459   61.325    1.799
  305.714    0.333    0.449   51.965    1.732
  306.019    0.316    0.427   55.115    1.575
  306.323    0.292    0.398   58.264    1.459
