~VERSION INFORMATION
 VERS.                 2.0:   CWLS LOG ASCII STANDARD -VERSION 2.0
 WRAP.                  NO:   ONE LINE PER DEPTH STEP
~WELL INFORMATION BLOCK
#MNEM.UNIT           DATA                    DESCRIPTION OF MNEMONIC
#---------    -------------------            -------------------------------
# Generated from Intellog Unique Number	CW_73_75/WELL/1034
WELL.         SUNDANCE MCMORAN MARTEN H 11-0 : Well_name    - WELL
LOC .         00/11-04-074-24W4/0            : Location     - LOCATION
UWI .         00/11-04-074-24W4/0            : Uwi          - UNIQUE WELL ID
ENTR.         JAYE                           : Entered      - ENTERED BY
SRVC.         SCHLUMBERGER                   : Scn          - SERVICE COMPANY
DATE.         2 FEB 73                       : Date         - LOG DATE
STRT.M        381                            : top_depth    - START DEPTH
STOP.M        597.5                          : bot_depth    - STOP DEPTH
STEP.M        0.25                           : increment    - STEP LENGTH
 NULL. -999.2500:NULL Value
~CURVE INFORMATION BLOCK
#MNEM UNIT       ERCB CURVE CODE    CURVE DESCRIPTION
#-----------   ------------------   ----------------------------------
DEPT.M        00 001 00 00         : DEPTH        - DEPTH
ILD .OHMM     00 120 00 00         : RESD         - DEEP RESISTIVITY (DIL)
DPHI.V/V      00 890 00 00         : PHID         - DENSITY POROSITY (SANDSTONE)
NPHI.V/V      00 330 00 00         : PHIN         - NEUTRON POROSITY (SANDSTONE)
CALI.MM       00 280 01 00         : CAL          - CALIPER
GR  .API      00 310 00 00         : GR           - GAMMA RAY
~PARAMETER INFORMATION
#MNEM.UNIT           DATA             DESCRIPTION OF MNEMONIC
#---------         -----------     ------------------------------
GL  .M        642.214              : gl           - GROUND LEVEL ELEVATION
EREF.M        644.5                : kb           - ELEVATION OF DEPTH REFERENCE
DATM.M        642.214              : datum        - DATUM ELEVATION
TDD .M        600.456              : tdd          - TOTAL DEPTH DRILLER
RUN .         ONE                  : Run          - RUN NUMBER
ENG .         DESROCHES            : Engineer     - RECORDING ENGINEER
WIT .         GREEN                : Witness      - WITNESSED BY
BASE.         RD                   : Branch       - HOME BASE OF LOGGING UNIT
MUD .         GEL CHEM             : Mud_type     - MUD TYPE
MATR.         SANDSTONE            : Logunit      - NEUTRON MATRIX
TMAX.C        26.1111              : BHT          - MAXIMUM RECORDED TEMPERATURE
BHTD.M        600.456              : BHTDEP       - MAXIMUM RECORDED TEMPERATURE
RMT .C        26.1111              : MDTP         - TEMPERATURE OF MUD
MUDD.KG/M     1104                 : MWT          - MUD DENSITY
NEUT.         1                    : NEUTRON      - NEUTRON TYPE
RESI.         0                    : RESIST       - RESISTIVITY TYPE
RM  .OHMM     4.6                  : RM           - RESISTIVITY OF MUD
RMC .OHMM     0                    : RMC          - RESISTIVITY OF MUD CAKE
RMF .OHMM     5.47                 : RMF          - RESISTIVITY OF MUD FILTRATE
SUFT.C        -17.7778             : SUFT         - SURFACE TEMPERATURE
~A  DEPTH     RESD     PHID     PHIN      CAL       GR
# ...
  563.500    3.977    0.184    0.285  161.306   34.384
  563.750    4.042    0.232    0.295  161.558   33.869
  564.000    4.085    0.250    0.353  161.502   34.139
  564.250    4.205    0.247    0.374  161.652   34.350
  564.500    3.921    0.225    0.365  161.689   33.892
  564.750    3.737    0.191    0.336  161.951   34.761
  565.000    3.868    0.168    0.306  162.189   35.693
  565.250    4.262    0.144    0.275  162.237   34.151
  565.500    4.494    0.179    0.263  162.279   34.844
  565.750    4.773    0.232    0.278  162.633   37.043
  566.000    4.886    0.247    0.303  159.814   36.406
  566.250    4.725    0.238    0.388  155.772   38.364
  566.500    4.604    0.235    0.381  154.082   40.082
  566.750    4.437    0.244    0.368  155.459   40.894
  567.000    4.395    0.237    0.369  156.931   39.955
  567.250    4.426    0.252    0.378  157.694   39.742
  567.500    4.565    0.256    0.375  158.661   42.787
  567.750    4.622    0.245    0.367  159.113   44.023
  568.000    4.612    0.233    0.349  159.466   44.837
  568.250    4.477    0.217    0.331  159.722   46.431
  568.500    4.387    0.220    0.355  159.759   47.607
  568.750    4.337    0.240    0.370  159.605   46.968
  569.000    4.375    0.248    0.369  159.451   48.020
  569.250    4.414    0.246    0.367  158.877   50.585
  569.500    4.429    0.236    0.371  158.106   53.329
  569.750    4.460    0.217    0.381  157.739   55.588
  570.000    4.558    0.209    0.368  156.770   58.333
  570.250    4.633    0.224    0.373  156.503   60.111
  570.500    4.761    0.229    0.368  156.239   60.801
  570.750    4.919    0.217    0.369  156.698   61.375
  571.000    5.138    0.222    0.362  156.946   63.090
  571.250    5.270    0.205    0.366  156.991   66.680
  571.500    5.308    0.223    0.361  156.938   68.699
  571.750    5.248    0.210    0.357  157.085   68.244
  572.000    5.104    0.197    0.357  157.230   65.493
  572.250    4.954    0.210    0.356  157.588   63.889
  572.500    4.916    0.219    0.362  157.630   64.405
  572.750    4.924    0.197    0.352  157.677   65.154
  573.000    4.941    0.179    0.348  157.722   66.024
  573.250    4.939    0.172    0.357  157.770   67.924
  573.500    4.964    0.181    0.348  157.619   70.303
  573.750    4.954    0.188    0.351  157.350   75.827
  574.000    4.943    0.188    0.367  157.194   74.346
  574.250    4.959    0.191    0.360  157.237   73.410
  574.500    4.985    0.191    0.365  157.280   73.009
  574.750    5.030    0.175    0.369  157.431   73.338
  575.000    5.084    0.156    0.371  157.473   73.789
  575.250    5.129    0.136    0.354  157.726   73.634
  575.500    5.222    0.143    0.360  157.979   73.360
  575.750    5.307    0.173    0.351  158.019   73.269
  576.000    5.355    0.153    0.342  158.276   73.230
  576.250    5.432    0.155    0.336  158.317   73.320
  576.500    5.541    0.177    0.355  158.472   73.768
  576.750    5.642    0.178    0.355  158.518   75.063
  577.000    5.713    0.177    0.344  158.759   77.142
  577.250    5.796    0.167    0.340  158.813   79.768
  577.500    5.922    0.165    0.335  158.958   82.030
  577.750    6.019    0.179    0.327  159.009   84.229
  578.000    6.106    0.163    0.331  159.561   87.335
  578.250    6.252    0.154    0.330  160.224   92.014
  578.500    6.471    0.129    0.341  160.975   96.265
  578.750    6.761    0.122    0.355  161.332  101.906
  579.000    7.220    0.129    0.397  161.787  108.393
  579.250    8.028    0.177    0.438  162.346  117.055
  579.500    8.733    0.284    0.459  162.590  127.285
  579.750    9.343    0.309    0.435  163.150   79.069
  580.000   10.033    0.285    0.395  163.604   86.583
  580.250   10.715    0.140    0.359  164.370   99.472
  580.500   10.672    0.152    0.319  164.819  108.857
  580.750    9.931    0.146    0.311  164.862  124.160
  581.000    9.362    0.140    0.304  165.219  136.927
  581.250    8.972    0.139    0.305  165.568  132.969
  581.500    8.710    0.119    0.352  164.898  124.603
  581.750    8.564    0.106    0.388  163.006  131.877
  582.000    8.453    0.113    0.425  165.404  140.720
  582.250    8.388    0.131    0.448  168.920  139.478
  582.500    8.385    0.134    0.459  172.648  139.989
  582.750    8.382    0.140    0.389  174.226  141.947
  583.000    8.503    0.121    0.352  171.719  140.042
  583.250    8.626    0.149    0.316  165.526  133.004
  583.500    8.881    0.158    0.288  163.121  111.476
  583.750    9.142    0.205    0.257  162.754  101.058
  584.000    8.493    0.223    0.215  162.700   95.952
  584.250    7.158    0.239    0.212  162.947   97.008
  584.500    6.456    0.222    0.280  163.197   99.872
  584.750    5.921    0.166    0.329  163.554  118.616
  585.000    5.490    0.180    0.450  164.924  167.731
  585.250    5.025    0.178    0.439  166.405  197.163
  585.500    4.492    0.164    0.431  167.778  216.632
  585.750    4.226    0.135    0.423  164.857  220.766
  586.000    3.919    0.095    0.415  163.576  216.082
  586.250    3.694    0.022    0.419  163.317  160.620
  586.500    3.470   -0.003    0.443  163.668  144.102
  586.750    3.205   -0.010    0.447  163.921  118.952
  587.000    3.027    0.022    0.435  164.476  123.750
  587.250    3.145    0.039    0.423  164.926  136.878
  587.500    3.396    0.064    0.418  164.875  158.883
  587.750    3.700    0.125    0.427  166.150  206.251
  588.000    3.974    0.093    0.440  167.110  201.687
  588.250    4.220    0.095    0.443  169.097  196.037
  588.500    4.474    0.133    0.428  170.983  244.490
  588.750    4.717    0.164    0.431  170.007  259.793
  589.000    4.777    0.158    0.440  168.214  269.420
  589.250    4.380    0.136    0.412  166.112  243.786
  589.500    4.054    0.110    0.386  164.111  228.235
  589.750    3.900    0.129    0.389  162.523  228.626
  590.000    3.821    0.107    0.416  161.343  244.229
  590.250    3.847    0.126    0.434  160.365  235.261
  590.500    3.874    0.117    0.375  159.493  213.851
  590.750    3.923    0.138    0.350  159.536  184.654
  591.000    3.951    0.127    0.374  159.580  166.086
  591.250    3.772    0.107    0.419  159.118  268.334
  591.500    3.576    0.074    0.433  158.854  290.581
  591.750    3.365    0.049    0.442  157.572  292.543
  592.000    3.260    0.089    0.407  156.494  293.171
  592.250    3.241    0.173    0.405  155.514  291.931
  592.500    3.084    0.156    0.384  154.439  285.921
  592.750    2.854    0.125    0.422  153.972  250.503
  593.000    2.537    0.151    0.442  153.612  205.547
  593.250    2.272    0.138    0.456  153.550  180.275
  593.500    1.997    0.161    0.464  153.499  173.841
  593.750    1.730    0.132    0.444  153.541  151.528
  594.000    1.541    0.101    0.388  154.200  151.559
  594.250    1.540    0.044    0.401  154.859  151.161
  594.500    1.651   -0.052    0.403  155.826  150.947
  594.750    1.832   -0.057    0.396  157.302  150.491
  595.000    1.946   -0.012    0.386  158.573  149.980
  595.250    1.992    0.216    0.422  159.546  149.761
  595.500    1.804    0.245    0.442  159.901  149.848
  595.750    1.592    0.183    0.416  160.456  150.355
  596.000    1.512    0.131    0.389  161.211  150.686
  596.250    1.659    0.073    0.341  162.382  151.194
  596.500    1.825    0.038    0.304  163.757  151.586
  596.750    2.071    0.041    0.179  165.440  151.915
  597.000    2.328    0.109    0.022  166.505  152.120
  597.250    2.537    0.161   -0.023  167.681  152.394
  597.500    2.665    0.146   -0.030  168.134  152.600
