~VERSION INFORMATION
 VERS.                 2.0:   CWLS LOG ASCII STANDARD -VERSION 2.0
 WRAP.                  NO:   ONE LINE PER DEPTH STEP
~WELL INFORMATION BLOCK
#MNEM.UNIT           DATA                    DESCRIPTION OF MNEMONIC
#---------    -------------------            -------------------------------
# Generated from Intellog Unique Number	CW_73_75/WELL/2752
WELL.         BRENDA ET AL MARTEN H 16-12    : Well_name    - WELL
LOC .         00/16-12-073-25W4/0            : Location     - LOCATION
UWI .         00/16-12-073-25W4/0            : Uwi          - UNIQUE WELL ID
ENTR.         JAYE                           : Entered      - ENTERED BY
SRVC.         SCHLUMBERGER                   : Scn          - SERVICE COMPANY
DATE.         3 MAR 81                       : Date         - LOG DATE
STRT.M        385                            : top_depth    - START DEPTH
STOP.M        615                            : bot_depth    - STOP DEPTH
STEP.M        0.25                           : increment    - STEP LENGTH
 NULL. -999.2500:NULL Value
~CURVE INFORMATION BLOCK
#MNEM UNIT       ERCB CURVE CODE    CURVE DESCRIPTION
#-----------   ------------------   ----------------------------------
DEPT.M        00 001 00 00         : DEPTH        - DEPTH
DPHI.V/V      00 890 00 00         : PHID         - DENSITY POROSITY (SANDSTONE)
NPHI.V/V      00 330 00 00         : PHIN         - NEUTRON POROSITY (SANDSTONE)
GR  .API      00 310 00 00         : GR           - GAMMA RAY
CALI.MM       00 280 01 00         : CAL          - CALIPER
ILD .OHMM     00 120 00 00         : RESD         - DEEP RESISTIVITY (DIL)
~PARAMETER INFORMATION
#MNEM.UNIT           DATA             DESCRIPTION OF MNEMONIC
#---------         -----------     ------------------------------
GL  .M        636.55               : gl           - GROUND LEVEL ELEVATION
EREF.M        640.15               : kb           - ELEVATION OF DEPTH REFERENCE
DATM.M        636.55               : datum        - DATUM ELEVATION
TDD .M        620                  : tdd          - TOTAL DEPTH DRILLER
RUN .         ONE                  : Run          - RUN NUMBER
ENG .         BRANDSTROM           : Engineer     - RECORDING ENGINEER
WIT .         CHRISTENSEN          : Witness      - WITNESSED BY
BASE.         EDM                  : Branch       - HOME BASE OF LOGGING UNIT
MUD .         GEL CHEN             : Mud_type     - MUD TYPE
MATR.         SANDSTONE            : Logunit      - NEUTRON MATRIX
TMAX.C        27.4                 : BHT          - MAXIMUM RECORDED TEMPERATURE
BHTD.M        621                  : BHTDEP       - MAXIMUM RECORDED TEMPERATURE
RMT .C        13.4                 : MDTP         - TEMPERATURE OF MUD
MUDD.KG/M     0                    : MWT          - MUD DENSITY
NEUT.         1                    : NEUTRON      - NEUTRON TYPE
RESI.         0                    : RESIST       - RESISTIVITY TYPE
RM  .OHMM     0.26                 : RM           - RESISTIVITY OF MUD
RMC .OHMM     0                    : RMC          - RESISTIVITY OF MUD CAKE
RMF .OHMM     0.36                 : RMF          - RESISTIVITY OF MUD FILTRATE
SUFT.C        0                    : SUFT         - SURFACE TEMPERATURE
~A  DEPTH     PHID     PHIN       GR      CAL     RESD
# ...
  567.500    0.290    0.370   51.339  224.077    5.862
  567.750    0.279    0.372   52.617  224.236    5.738
  568.000    0.282    0.378   54.457  224.401    5.617
  568.250    0.271    0.377   55.242  224.453    5.498
  568.500    0.275    0.372   56.648  224.497    5.341
  568.750    0.278    0.364   57.864  224.450    5.160
  569.000    0.283    0.358   59.076  224.400    5.022
  569.250    0.277    0.361   60.919  223.621    4.953
  569.500    0.265    0.368   62.261  223.363    4.980
  569.750    0.252    0.374   63.543  223.314    5.043
  570.000    0.255    0.373   64.820  223.367    5.167
  570.250    0.254    0.359   66.162  223.522    5.252
  570.500    0.243    0.352   67.192  224.202    5.474
  570.750    0.243    0.349   67.663  224.875    5.661
  571.000    0.244    0.348   68.694  225.451    5.955
  571.250    0.242    0.348   70.532  225.504    6.193
  571.500    0.240    0.348   72.312  225.770    6.429
  571.750    0.248    0.350   73.464  224.156    6.612
  572.000    0.235    0.353   75.429  224.831    6.634
  572.250    0.236    0.358   77.895  225.097    6.432
  572.500    0.233    0.361   74.808  224.734    6.156
  572.750    0.226    0.359   75.277  224.266    5.990
  573.000    0.215    0.351   79.363  221.720    5.765
  573.250    0.208    0.346   80.080  220.735    5.653
  573.500    0.212    0.346   80.549  222.245    5.535
  573.750    0.212    0.349   80.458  223.854    5.531
  574.000    0.211    0.353   81.301  225.262    5.635
  574.250    0.209    0.357   81.833  225.833    5.772
  574.500    0.205    0.363   80.678  227.136    6.004
  574.750    0.210    0.367   79.715  227.811    6.185
  575.000    0.224    0.365   80.807  228.393    6.206
  575.250    0.242    0.359   81.835  228.230    6.018
  575.500    0.240    0.373   84.114  227.978    5.813
  575.750    0.230    0.364   87.452  227.515    5.657
  576.000    0.217    0.348   92.097  227.250    5.612
  576.250    0.204    0.338   98.243  226.582    5.663
  576.500    0.201    0.333  102.640  225.699    5.693
  576.750    0.199    0.336  109.347  225.126    5.843
  577.000    0.196    0.347  114.057  224.763    6.008
  577.250    0.175    0.343  120.512  225.543    6.237
  577.500    0.187    0.352  130.963  228.299    6.511
  577.750    0.184    0.366  138.166  229.600    6.838
  578.000    0.182    0.363  150.235  229.136    7.045
  578.250    0.170    0.346  183.698  228.768    7.148
  578.500    0.144    0.338  209.553  229.238    7.185
  578.750    0.150    0.334  227.050  230.751    7.195
  579.000    0.151    0.336  240.679  232.154    7.165
  579.250    0.153    0.349  185.823  232.833    7.094
  579.500    0.146    0.352  162.342  233.824    6.996
  579.750    0.135    0.351  147.467  234.497    6.837
  580.000    0.124    0.339  128.226  235.384    6.730
  580.250    0.143    0.318  129.568  235.956    6.563
  580.500    0.172    0.306  138.021  236.011    6.388
  580.750    0.158    0.326  136.742  234.930    6.147
  581.000    0.144    0.350  133.905  234.774    5.903
  581.250    0.145    0.365  146.227  235.442    5.670
  581.500    0.128    0.380  154.803  236.957    5.354
  581.750    0.124    0.397  164.813  238.668    5.018
  582.000    0.137    0.416  168.026  244.959    4.856
  582.250    0.157    0.432  156.647  249.793    4.789
  582.500    0.141    0.405  144.577  240.282    4.796
  582.750    0.127    0.386  138.621  234.306    4.868
  583.000    0.103    0.382  143.331  237.482    4.967
  583.250    0.127    0.393  156.275  245.539    5.050
  583.500    0.118    0.420  168.344  252.870    4.990
  583.750    0.123    0.416  171.806  250.116    4.885
  584.000    0.102    0.421  186.434  242.685    4.809
  584.250    0.122    0.459  170.001  235.670    4.889
  584.500    0.112    0.488  155.997  236.149    5.047
  584.750    0.090    0.450  147.425  237.235    5.249
  585.000    0.151    0.391  143.091  238.117    5.512
  585.250    0.179    0.410  145.243  240.249    5.865
  585.500    0.255    0.425  140.286  233.134    6.216
  585.750    0.211    0.392  131.651  232.765    6.417
  586.000    0.174    0.351  126.939  240.927    6.306
  586.250    0.168    0.336  127.345  253.147    6.173
  586.500    0.161    0.379  123.262  256.732    5.940
  586.750    0.151    0.389  116.621  254.397    5.738
  587.000    0.169    0.373  118.709  244.890    5.617
  587.250    0.176    0.354  122.235  231.637    5.509
  587.500    0.192    0.359  120.274  233.353    5.423
  587.750    0.197    0.387  116.688  233.925    5.358
  588.000    0.193    0.389  114.348  232.004    5.346
  588.250    0.185    0.376  113.695  231.950    5.353
  588.500    0.204    0.364  117.908  232.530    5.361
  588.750    0.189    0.358  120.870  232.893    5.358
  589.000    0.200    0.375  124.522  234.919    5.325
  589.250    0.211    0.394  126.358  231.749    5.272
  589.500    0.216    0.409  129.013  238.358    5.210
  589.750    0.226    0.412  131.913  237.887    5.168
  590.000    0.211    0.415  135.564  237.321    5.107
  590.250    0.201    0.431  136.965  237.581    5.018
  590.500    0.198    0.459  137.437  238.570    4.894
  590.750    0.196    0.462  137.653  239.661    4.763
  591.000    0.192    0.451  154.651  238.577    4.609
  591.250    0.193    0.420  165.225  235.920    4.402
  591.500    0.211    0.408  176.981  231.714    3.956
  591.750    0.189    0.417  170.904  229.900    3.503
  592.000    0.168    0.418  157.337  228.913    3.314
  592.250    0.158    0.422  113.708  229.382    3.331
  592.500    0.202    0.412  112.932  230.056    3.380
  592.750    0.203    0.374  114.149  230.315    3.437
  593.000    0.198    0.363  115.369  228.290    3.501
  593.250    0.184    0.354  121.260  225.648    3.560
  593.500    0.177    0.352  128.029  228.192    3.585
  593.750    0.173    0.358  139.348  231.052    3.631
  594.000    0.165    0.369  131.334  232.564    3.656
  594.250    0.164    0.384  120.955  232.716    3.675
  594.500    0.189    0.408  108.384  232.045    3.709
  594.750    0.223    0.412  105.174  231.997    3.735
  595.000    0.224    0.400  115.311  231.944    3.776
  595.250    0.238    0.400  120.394  231.479    3.803
  595.500    0.225    0.413  122.860  231.320    3.844
  595.750    0.213    0.435  125.198  232.209    3.917
  596.000    0.191    0.443  126.978  235.274    3.929
  596.250    0.203    0.460  128.755  237.613    3.882
  596.500    0.212    0.469  135.461  238.605    3.793
  596.750    0.187    0.461  139.921  237.201    3.650
  597.000    0.196    0.436  142.573  230.606    3.466
  597.250    0.204    0.429  137.054  227.334    3.205
  597.500    0.190    0.450  114.072  226.554    2.936
  597.750    0.176    0.458   99.571  227.749    2.746
  598.000    0.161    0.457  100.601  228.945    2.688
  598.250    0.214    0.457  106.560  228.998    2.703
  598.500    0.215    0.459  110.520  226.981    2.722
  598.750    0.247    0.463  113.359  225.470    2.736
  599.000    0.226    0.483  103.910  224.691    2.744
  599.250    0.218    0.511   90.844  226.308    2.764
  599.500    0.221    0.543   76.468  227.403    2.784
  599.750    0.216    0.541   47.124  227.568    2.793
  600.000    0.216    0.469   35.679  227.093    2.840
  600.250    0.227    0.446   29.100  226.731    2.920
  600.500    0.222    0.447   28.447  226.569    3.025
  600.750    0.199    0.432   29.289  226.318    3.238
  601.000    0.174    0.398   27.326  226.470    3.485
  601.250    0.157    0.374   24.426  226.525    3.743
  601.500    0.149    0.354   23.772  226.263    3.856
  601.750    0.152    0.354   23.805  226.115    3.655
  602.000    0.176    0.363   24.585  226.069    3.298
  602.250    0.186    0.379   25.744  226.225    3.056
  602.500    0.202    0.412   26.458  226.276    2.940
  602.750    0.223    0.422   26.241  226.125    2.944
  603.000    0.197    0.427   24.901  226.491    3.017
  603.250    0.165    0.404   24.873  226.748    3.078
  603.500    0.151    0.385   26.529  227.322    3.190
  603.750    0.152    0.381   27.928  227.583    3.274
