~VERSION INFORMATION
 VERS.                 2.0:   CWLS LOG ASCII STANDARD -VERSION 2.0
 WRAP.                  NO:   ONE LINE PER DEPTH STEP
~WELL INFORMATION BLOCK
#MNEM.UNIT           DATA                    DESCRIPTION OF MNEMONIC
#---------    -------------------            -------------------------------
# Generated from Intellog Unique Number	CW_79_81/WELL/2483
WELL.         TEXEX WABASCA                  : Well_name    - WELL
LOC .         00/11-10-081-25W4/0            : Location     - LOCATION
UWI .         00/11-10-081-25W4/0            : Uwi          - UNIQUE WELL ID
ENTR.         MAX                            : Entered      - ENTERED BY
SRVC.         WESTERN ATLAS                  : Scn          - SERVICE COMPANY
STRT.M        213.36                         : top_depth    - START DEPTH
STOP.M        469.11                         : bot_depth    - STOP DEPTH
STEP.M        0.25                           : increment    - STEP LENGTH
 NULL. -999.2500:NULL Value
~CURVE INFORMATION BLOCK
#MNEM UNIT       ERCB CURVE CODE    CURVE DESCRIPTION
#-----------   ------------------   ----------------------------------
DEPT.M        00 001 00 00         : DEPTH        - DEPTH
ILD .OHMM     00 120 00 00         : RESD         - DEEP RESISTIVITY (DIL)
NPHI.V/V      00 330 00 00         : PHIN         - NEUTRON POROSITY (SANDSTONE)
DPHI.V/V      00 890 00 00         : PHID         - DENSITY POROSITY (SANDSTONE)
GR  .API      00 310 00 00         : GR           - GAMMA RAY
CALI.MM       00 280 01 00         : CAL          - CALIPER
~PARAMETER INFORMATION
#MNEM.UNIT           DATA             DESCRIPTION OF MNEMONIC
#---------         -----------     ------------------------------
GL  .M        595.884              : gl           - GROUND LEVEL ELEVATION
EREF.M        599.542              : kb           - ELEVATION OF DEPTH REFERENCE
DATM.M        595.884              : datum        - DATUM ELEVATION
TDD .M        466.039              : tdd          - TOTAL DEPTH DRILLER
RUN .         ONE                  : Run          - RUN NUMBER
ENG .         BILL                 : Engineer     - RECORDING ENGINEER
WIT .         JIM                  : Witness      - WITNESSED BY
MUD .         GEL                  : Mud_type     - MUD TYPE
MATR.         SANDSTONE            : Logunit      - NEUTRON MATRIX
TMAX.C        27.2222              : BHT          - MAXIMUM RECORDED TEMPERATURE
BHTD.M        466.039              : BHTDEP       - MAXIMUM RECORDED TEMPERATURE
MATR.         1                    : LOGUNIT      - NEUTRON MATRIX
RMT .C        12.2222              : MDTP         - TEMPERATURE OF MUD
NEUT.         1                    : NEUTRON      - NEUTRON TYPE
RESI.         0                    : RESIST       - RESISTIVITY TYPE
RMC .OHMM     10                   : RMC          - RESISTIVITY OF MUD CAKE
RMF .OHMM     10                   : RMF          - RESISTIVITY OF MUD FILTRATE
SUFT.C        -20.5556             : SUFT         - SURFACE TEMPERATURE
~A  DEPTH     RESD     PHIN     PHID       GR      CAL
# ...
  395.860   12.578    0.350    0.200   53.830  207.671
  396.110   11.446    0.346    0.199   55.000  207.487
  396.360   10.946    0.341    0.186   54.991  206.638
  396.610   10.635    0.336    0.180   54.747  206.226
  396.860   10.446    0.337    0.175   54.856  206.112
  397.110   10.371    0.338    0.174   54.965  205.897
  397.360   10.389    0.337    0.179   55.252  205.582
  397.610   10.478    0.335    0.195   56.470  205.481
  397.860   10.556    0.334    0.205   56.706  205.050
  398.110   10.555    0.333    0.210   56.225  205.034
  398.360   10.497    0.332    0.213   56.630  204.722
  398.610   10.459    0.331    0.214   57.448  204.110
  398.860   10.458    0.330    0.214   57.734  203.497
  399.110   10.488    0.329    0.214   56.219  203.562
  399.360   10.645    0.328    0.213   56.949  203.962
  399.610   10.721    0.328    0.210   57.412  203.949
  399.860   10.797    0.328    0.204   56.992  203.934
  400.110   10.796    0.332    0.192   56.276  204.119
  400.360   10.718    0.340    0.180   56.149  204.405
  400.610   10.576    0.352    0.193   58.132  204.469
  400.860   10.265    0.351    0.207   59.844  204.870
  401.110    9.759    0.351    0.223   60.544  204.857
  401.360    9.331    0.351    0.226   60.181  204.544
  401.610    9.004    0.345    0.223   59.582  204.130
  401.860    8.797    0.336    0.221   59.516  203.616
  402.110    8.797    0.329    0.216   60.931  202.715
  402.360    9.132    0.330    0.213   62.151  202.284
  402.610    9.463    0.333    0.214   59.311  201.471
  402.860    9.807    0.341    0.214   57.533  201.258
  403.110    9.985    0.350    0.213   57.288  201.243
  403.360    9.949    0.355    0.206   58.400  201.228
  403.610    9.806    0.352    0.186   60.042  201.212
  403.860    9.805    0.346    0.163   60.033  201.197
  404.110    9.875    0.338    0.151   58.138  201.181
  404.360    9.945    0.334    0.142   56.596  201.168
  404.610   10.052    0.335    0.155   56.823  201.154
  404.860   10.160    0.338    0.188   59.115  201.139
  405.110   10.159    0.338    0.215   62.397  201.121
  405.360   10.158    0.339    0.204   61.160  201.103
  405.610    9.941    0.338    0.199   56.905  201.092
  405.860    9.781    0.333    0.209   56.189  201.078
  406.110    9.676    0.330    0.215   57.714  201.065
  406.360    9.606    0.330    0.210   59.238  201.151
  406.610    9.522    0.332    0.198   57.625  201.533
  406.860    9.451    0.334    0.192   57.861  201.516
  407.110    9.382    0.337    0.194   60.920  201.502
  407.360    9.365    0.340    0.201   61.502  201.488
  407.610    9.364    0.341    0.203   61.730  201.474
  407.860    9.346    0.340    0.201   62.075  201.559
  408.110    9.279    0.339    0.208   61.062  202.025
  408.360    9.278    0.339    0.213   59.579  202.425
  408.610    9.277    0.340    0.209   59.333  202.810
  408.860    9.227    0.338    0.203   60.504  202.894
  409.110    9.193    0.338    0.199   61.086  203.080
  409.360    9.192    0.339    0.201   60.489  203.367
  409.610    9.191    0.343    0.209   59.878  203.430
  409.860    9.191    0.346    0.206   61.590  203.834
  410.110    9.124    0.347    0.206   62.997  203.817
  410.360    9.107    0.345    0.207   62.634  204.102
  410.610    9.106    0.343    0.208   61.564  204.489
  410.860    9.089    0.341    0.209   60.848  204.774
  411.110    9.024    0.338    0.206   61.644  204.754
  411.360    9.023    0.335    0.195   62.125  204.741
  411.610    9.022    0.341    0.196   61.882  204.726
  411.860    9.118    0.346    0.186   63.406  204.711
  412.110    9.216    0.353    0.179   65.520  204.697
  412.360    9.315    0.361    0.177   66.573  204.685
  412.610    9.587    0.363    0.174   63.900  204.499
  412.860    9.952    0.360    0.170   61.189  203.652
  413.110   10.022    0.364    0.169   59.293  202.441
  413.360   10.094    0.370    0.169   57.929  201.228
  413.610   10.129    0.371    0.172   57.448  200.214
  413.860   10.110    0.365    0.179   58.088  199.601
  414.110    9.976    0.356    0.193   60.162  199.918
  414.360    9.683    0.350    0.207   61.135  201.567
  414.610    9.408    0.345    0.208   62.069  203.946
  414.860    9.141    0.340    0.211   63.536  205.130
  415.110    8.882    0.337    0.212   64.471  205.517
  415.360    8.631    0.336    0.211   64.698  205.503
  415.610    8.399    0.338    0.208   64.826  205.402
  415.860    8.462    0.336    0.206   64.325  204.970
  416.110    9.083    0.337    0.191   63.374  204.556
  416.360   10.109    0.338    0.180   61.891  204.143
  416.610   11.306    0.338    0.171   59.524  203.730
  416.860   12.423    0.337    0.163   56.626  203.316
  417.110   13.490    0.336    0.144   54.158  202.814
  417.360   14.216    0.340    0.111   53.659  202.386
  417.610   14.941    0.338    0.097   55.300  202.371
  417.860   15.459    0.332    0.182   57.650  202.356
  418.110   15.963    0.325    0.248   55.757  202.341
  418.360   16.545    0.321    0.259   50.441  202.328
  418.610   17.325    0.325    0.265   48.356  202.227
  418.860   18.257    0.326    0.270   48.593  201.794
  419.110   18.785    0.322    0.274   48.821  201.780
  419.360   18.920    0.312    0.272   48.517  201.466
  419.610   18.919    0.300    0.266   48.626  201.053
  419.860   18.917    0.289    0.257   49.560  200.640
  420.110   18.999    0.279    0.241   50.514  200.057
  420.360   19.428    0.272    0.233   47.065  199.206
  420.610   19.848    0.264    0.230   44.935  199.193
  420.860   20.492    0.256    0.221   45.456  199.179
  421.110   21.164    0.248    0.212   45.920  198.965
  421.360   21.778    0.241    0.205   45.793  198.550
  421.610   22.641    0.241    0.190   46.677  198.052
  421.860   23.859    0.249    0.157   46.423  197.617
  422.110   24.899    0.259    0.134   45.943  197.207
  422.360   25.308    0.266    0.143   45.816  197.093
  422.610   24.940    0.272    0.152   45.925  197.477
  422.860   23.744    0.278    0.152   46.153  198.162
  423.110   21.332    0.286    0.169   46.477  198.794
  423.360   19.236    0.284    0.223   46.959  200.025
  423.610   17.124    0.277    0.267   49.308  200.413
  423.860   16.042    0.271    0.289   50.598  201.097
  424.110   15.539    0.267    0.295   51.769  201.880
  424.360   15.481    0.263    0.285   52.881  202.365
  424.610   16.071    0.257    0.259   52.713  201.947
  424.860   16.809    0.248    0.247   50.740  201.932
  425.110   17.791    0.253    0.219   48.135  201.521
  425.360   19.328    0.260    0.140   47.478  201.406
  425.610   20.571    0.269    0.091   48.531  201.392
  425.860   20.829    0.281    0.094   49.938  201.378
  426.110   19.820    0.295    0.136   49.565  201.357
  426.360   18.540    0.297    0.228   51.276  201.342
  426.610   16.748    0.295    0.238   53.860  200.532
  426.860   15.741    0.292    0.236   55.739  200.618
  427.110   15.136    0.290    0.225   55.967  200.804
  427.360   14.921    0.289    0.210   54.426  200.689
  427.610   15.445    0.291    0.192   51.722  200.188
  427.860   15.913    0.300    0.162   51.222  199.758
  428.110   15.798    0.314    0.133   51.685  199.742
  428.360   14.930    0.334    0.106   53.563  199.728
  428.610   13.791    0.351    0.117   56.031  199.914
  428.860   12.585    0.359    0.158   58.559  200.199
  429.110   11.127    0.361    0.180   61.448  200.264
  429.360   10.256    0.363    0.178   64.141  200.667
  429.610    9.610    0.364    0.170   62.953  200.651
  429.860    9.258    0.366    0.159   60.705  200.338
  430.110    9.094    0.371    0.158   59.988  200.324
  430.360    9.061    0.374    0.176   61.217  200.708
  430.610    9.125    0.371    0.212   62.623  201.172
  430.860    9.124    0.366    0.190   62.615  201.571
  431.110    9.123    0.366    0.185   62.840  201.159
  431.360    9.122    0.367    0.185   62.714  201.046
  431.610    9.122    0.369    0.192   61.880  200.833
  431.860    9.105    0.372    0.197   60.633  200.519
  432.110    9.025    0.377    0.184   59.915  200.500
