~VERSION INFORMATION
 VERS.                 2.0:   CWLS LOG ASCII STANDARD -VERSION 2.0
 WRAP.                  NO:   ONE LINE PER DEPTH STEP
~WELL INFORMATION BLOCK
#MNEM.UNIT           DATA                    DESCRIPTION OF MNEMONIC
#---------    -------------------            -------------------------------
# Generated from Intellog Unique Number	CS_73_76/WELL/2209
WELL.         PEX WAPPAU                     : Well_name    - WELL
LOC .         00/12-10-074-11W4/0            : Location     - LOCATION
UWI .         00/12-10-074-11W4/0            : Uwi          - UNIQUE WELL ID
ENTR.         SP                             : Entered      - ENTERED BY
SRVC.         SCHLUMBERGER                   : Scn          - SERVICE COMPANY
STRT.M        330                            : top_depth    - START DEPTH
STOP.M        530                            : bot_depth    - STOP DEPTH
STEP.M        0.25                           : increment    - STEP LENGTH
 NULL. -999.2500:NULL Value
~CURVE INFORMATION BLOCK
#MNEM UNIT       ERCB CURVE CODE    CURVE DESCRIPTION
#-----------   ------------------   ----------------------------------
DEPT.M        00 001 00 00         : DEPTH        - DEPTH
ILD .OHMM     00 120 00 00         : RESD         - DEEP RESISTIVITY (DIL)
DPHI.V/V      00 890 00 00         : PHID         - DENSITY POROSITY (LIMESTONE)
NPHI.V/V      00 330 00 00         : PHIN         - NEUTRON POROSITY (LIMESTONE)
GR  .API      00 310 00 00         : GR           - GAMMA RAY
~PARAMETER INFORMATION
#MNEM.UNIT           DATA             DESCRIPTION OF MNEMONIC
#---------         -----------     ------------------------------
GL  .M        656.9                : gl           - GROUND LEVEL ELEVATION
EREF.M        660.1                : kb           - ELEVATION OF DEPTH REFERENCE
DATM.M        656.9                : datum        - DATUM ELEVATION
TDD .M        780                  : tdd          - TOTAL DEPTH DRILLER
RUN .         ONE                  : Run          - RUN NUMBER
ENG .         BILL                 : Engineer     - RECORDING ENGINEER
WIT .         JIM                  : Witness      - WITNESSED BY
MUD .         GEL                  : Mud_type     - MUD TYPE
MATR.         LIMESTONE            : Logunit      - NEUTRON MATRIX
TMAX.C        21                   : BHT          - MAXIMUM RECORDED TEMPERATURE
BHTD.M        780                  : BHTDEP       - MAXIMUM RECORDED TEMPERATURE
MATR.         1                    : LOGUNIT      - NEUTRON MATRIX
RMT .C        25                   : MDTP         - TEMPERATURE OF MUD
NEUT.         1                    : NEUTRON      - NEUTRON TYPE
RESI.         0                    : RESIST       - RESISTIVITY TYPE
RMC .OHMM     0.25                 : RMC          - RESISTIVITY OF MUD CAKE
RMF .OHMM     0.25                 : RMF          - RESISTIVITY OF MUD FILTRATE
SUFT.C        15                   : SUFT         - SURFACE TEMPERATURE
~A  DEPTH     RESD     PHID     PHIN       GR
# ...
  373.500    4.642    0.248    0.529   90.849
  373.750    4.226    0.242    0.547   92.693
  374.000    3.995    0.232    0.531   94.537
  374.250    3.637    0.228    0.542   96.380
  374.500    3.373    0.245    0.561   96.379
  374.750    3.249    0.254    0.577   96.379
  375.000    3.071    0.269    0.590   92.074
  375.250    3.014    0.280    0.587   87.155
  375.500    3.014    0.277    0.575   84.081
  375.750    3.373    0.262    0.570   76.088
  376.000    3.920    0.280    0.564   71.170
  376.250    4.387    0.308    0.550   63.792
  376.500    5.194    0.314    0.526   57.029
  376.750    6.266    0.319    0.505   52.725
  377.000    8.149    0.319    0.464   50.880
  377.250    9.832    0.317    0.461   51.494
  377.500   10.799    0.317    0.457   52.723
  377.750   11.004    0.321    0.446   53.337
  378.000   11.003    0.324    0.444   52.106
  378.250   10.798    0.325    0.445   50.261
  378.500   10.798    0.323    0.457   50.261
  378.750   10.798    0.319    0.466   50.260
  379.000   10.400    0.317    0.472   50.259
  379.250   10.597    0.312    0.480   50.873
  379.500   10.797    0.311    0.469   53.331
  379.750   10.797    0.310    0.451   59.478
  380.000   11.001    0.305    0.445   60.092
  380.250   11.001    0.311    0.446   59.477
  380.500   11.209    0.310    0.447   57.632
  380.750   11.421    0.306    0.447   58.860
  381.000   11.421    0.297    0.440   60.704
  381.250   11.637    0.296    0.430   62.547
  381.500   11.637    0.295    0.431   64.391
  381.750   11.636    0.298    0.447   63.775
  382.000   11.636    0.301    0.461   61.316
  382.250   11.636    0.303    0.462   63.159
  382.500   11.636    0.302    0.449   62.543
  382.750   11.635    0.296    0.451   60.084
  383.000   11.635    0.294    0.455   58.853
  383.250   11.635    0.290    0.446   60.697
  383.500   11.418    0.287    0.430   64.384
  383.750   11.418    0.286    0.444   64.999
  384.000   11.205    0.287    0.452   64.998
  384.250   10.997    0.286    0.455   69.915
  384.500   10.591    0.285    0.451   72.988
  384.750   10.394    0.294    0.466   72.987
  385.000   10.201    0.300    0.476   72.987
  385.250   10.011    0.307    0.489   75.445
  385.500   10.010    0.305    0.490   74.215
  385.750   10.200    0.288    0.452   71.140
  386.000   10.393    0.276    0.444   69.295
  386.250   10.590    0.286    0.445   66.220
  386.500   11.203    0.290    0.446   64.990
  386.750   11.415    0.289    0.447   69.907
  387.000   11.631    0.284    0.451   79.743
  387.250   11.414    0.278    0.431   87.119
  387.500    9.822    0.274    0.436   88.963
  387.750    7.990    0.269    0.439   89.576
  388.000    6.622    0.259    0.457   90.805
  388.250    5.593    0.263    0.485   94.493
  388.500    4.142    0.278    0.569   94.492
  388.750    3.245    0.292    0.589   91.418
  389.000    2.899    0.304    0.602   87.728
  389.250    2.845    0.295    0.554   84.654
  389.500    3.010    0.265    0.494   82.809
  389.750    3.433    0.245    0.474   84.652
  390.000    4.141    0.235    0.488   85.881
  390.250    4.903    0.227    0.490   84.036
  390.500    5.488    0.218    0.500   83.421
  390.750    6.258    0.230    0.508   83.420
  391.000    6.746    0.249    0.516   83.419
  391.250    7.004    0.272    0.522   84.033
  391.500    7.271    0.286    0.490   80.958
  391.750    7.549    0.279    0.472   79.114
  392.000    7.692    0.270    0.459   79.113
  392.250    7.838    0.281    0.450   76.653
  392.500    7.986    0.284    0.444   74.193
  392.750    8.292    0.281    0.429   71.733
  393.000    8.449    0.286    0.428   71.733
  393.250    8.608    0.293    0.445   75.420
  393.500    8.608    0.278    0.449   80.952
  393.750    8.448    0.262    0.430   87.099
  394.000    8.448    0.256    0.449   82.795
  394.250    8.136    0.252    0.459   80.335
  394.500    7.985    0.258    0.452   75.416
  394.750    7.985    0.263    0.471   74.186
  395.000    7.984    0.274    0.479   77.259
  395.250    7.836    0.275    0.493   80.332
  395.500    7.836    0.253    0.466   81.561
  395.750    7.690    0.243    0.456   82.175
  396.000    7.689    0.234    0.462   81.559
  396.250    7.835    0.236    0.468   75.411
  396.500    8.769    0.232    0.472   65.574
  396.750   10.780    0.182    0.304   55.123
  397.000   12.065    0.000    0.246   50.204
  397.250   13.005    0.001    0.159   53.892
  397.500   14.284    0.049    0.211   66.186
  397.750   12.292    0.162    0.312   72.947
  398.000    9.999    0.239    0.441   76.635
  398.250    8.287    0.251    0.475   78.479
  398.500    6.741    0.247    0.457   79.093
  398.750    6.372    0.241    0.451   78.477
  399.000    6.492    0.239    0.453   80.935
  399.250    6.492    0.250    0.453   81.549
  399.500    6.615    0.253    0.460   82.778
  399.750    6.740    0.241    0.482   82.162
  400.000    6.740    0.226    0.493   81.547
  400.250    6.868    0.219    0.499   79.702
  400.500    6.868    0.232    0.469   79.087
  400.750    6.740    0.242    0.461   79.086
  401.000    6.739    0.236    0.457   82.774
  401.250    6.614    0.229    0.467   84.002
  401.500    6.370    0.228    0.481   84.002
  401.750    6.252    0.237    0.489   84.001
  402.000    6.135    0.239    0.503   84.615
  402.250    6.135    0.240    0.510   84.614
  402.500    6.135    0.244    0.488   81.539
  402.750    6.135    0.246    0.493   79.695
  403.000    6.135    0.239    0.491   77.849
  403.250    6.251    0.234    0.483   78.463
  403.500    6.251    0.242    0.489   80.921
  403.750    6.250    0.255    0.497   81.536
  404.000    6.369    0.262    0.482   82.150
  404.250    6.369    0.250    0.466   82.149
  404.500    6.250    0.244    0.472   82.148
  404.750    6.250    0.236    0.477   81.532
  405.000    6.250    0.241    0.464   81.532
  405.250    6.133    0.245    0.487   80.916
  405.500    6.133    0.239    0.496   82.760
  405.750    6.019    0.228    0.481   88.291
  406.000    6.019    0.217    0.466   87.061
  406.250    5.907    0.217    0.460   85.216
  406.500    5.907    0.221    0.476   82.757
  406.750    5.797    0.215    0.499   80.912
  407.000    5.796    0.228    0.506   80.296
  407.250    5.689    0.226    0.512   83.984
  407.500    5.689    0.223    0.530   87.057
  407.750    5.796    0.224    0.506   90.745
  408.000    5.906    0.236    0.486   87.670
  408.250    6.018    0.239    0.480   81.522
  408.500    6.017    0.234    0.474   80.292
  408.750    6.017    0.233    0.461   83.979
  409.000    5.582    0.245    0.498   82.749
  409.250    4.373    0.254    0.518   86.437
  409.500    3.693    0.276    0.541   93.813
  409.750    2.787    0.283    0.600   98.115
  410.000    2.354    0.287    0.606   94.426
  410.250    2.183    0.294    0.589   91.966
  410.500    2.183    0.304    0.601   92.580
  410.750    2.267    0.310    0.609   90.121
  411.000    2.735    0.290    0.588   85.817
  411.250    3.178    0.270    0.550   82.742
  411.500    3.693    0.258    0.517   85.201
  411.750    4.539    0.241    0.502   87.044
  412.000    4.986    0.251    0.519   85.814
  412.250    5.375    0.273    0.497   85.198
  412.500    5.686    0.262    0.491   85.197
  412.750    5.903    0.254    0.504   85.196
  413.000    6.015    0.235    0.507   83.966
  413.250    6.015    0.231    0.498   82.121
  413.500    5.903    0.234    0.519   79.047
  413.750    5.903    0.240    0.529   74.128
  414.000    6.014    0.257    0.498   70.439
  414.250    6.014    0.273    0.463   66.134
  414.500    6.128    0.281    0.460   64.904
  414.750    6.362    0.290    0.448   62.445
  415.000    6.483    0.291    0.417   64.288
  415.250    6.483    0.281    0.400   66.746
  415.500    6.605    0.288    0.427   70.434
  415.750    6.730    0.300    0.431   74.122
  416.000    6.730    0.298    0.428   76.580
  416.250    6.730    0.292    0.448   72.891
  416.500    6.605    0.282    0.463   72.275
  416.750    6.604    0.286    0.491   76.578
