~VERSION INFORMATION
 VERS.                 2.0:   CWLS LOG ASCII STANDARD -VERSION 2.0
 WRAP.                  NO:   ONE LINE PER DEPTH STEP
~WELL INFORMATION BLOCK
#MNEM.UNIT           DATA                    DESCRIPTION OF MNEMONIC
#---------    -------------------            -------------------------------
# Generated from Intellog Unique Number	CW_73_75/WELL/2737
WELL.         ICG ET AL AMADO4 10-04         : Well_name    - WELL
LOC .         00/10-04-073-20W4/0            : Location     - LOCATION
UWI .         00/10-04-073-20W4/0            : Uwi          - UNIQUE WELL ID
ENTR.         JAYE                           : Entered      - ENTERED BY
SRVC.         SCHLUMBERGER                   : Scn          - SERVICE COMPANY
DATE.         11 JAN 79                      : Date         - LOG DATE
STRT.M        365                            : top_depth    - START DEPTH
STOP.M        575                            : bot_depth    - STOP DEPTH
STEP.M        0.25                           : increment    - STEP LENGTH
 NULL. -999.2500:NULL Value
~CURVE INFORMATION BLOCK
#MNEM UNIT       ERCB CURVE CODE    CURVE DESCRIPTION
#-----------   ------------------   ----------------------------------
DEPT.M        00 001 00 00         : DEPTH        - DEPTH
ILD .OHMM     00 120 00 00         : RESD         - DEEP RESISTIVITY (DIL)
NPHI.V/V      00 330 00 00         : PHIN         - NEUTRON POROSITY (SANDSTONE)
DPHI.V/V      00 890 00 00         : PHID         - DENSITY POROSITY (SANDSTONE)
GR  .API      00 310 00 00         : GR           - GAMMA RAY
CALI.MM       00 280 01 00         : CAL          - CALIPER
~PARAMETER INFORMATION
#MNEM.UNIT           DATA             DESCRIPTION OF MNEMONIC
#---------         -----------     ------------------------------
GL  .M        680.5                : gl           - GROUND LEVEL ELEVATION
EREF.M        683.2                : kb           - ELEVATION OF DEPTH REFERENCE
DATM.M        680.5                : datum        - DATUM ELEVATION
TDD .M        576.5                : tdd          - TOTAL DEPTH DRILLER
RUN .         ONE                  : Run          - RUN NUMBER
ENG .         JORDAN               : Engineer     - RECORDING ENGINEER
WIT .         WALTERS              : Witness      - WITNESSED BY
BASE.         EDM                  : Branch       - HOME BASE OF LOGGING UNIT
MUD .         GEL CHEM             : Mud_type     - MUD TYPE
MATR.         SANDSTONE            : Logunit      - NEUTRON MATRIX
TMAX.C        28.9                 : BHT          - MAXIMUM RECORDED TEMPERATURE
BHTD.M        577                  : BHTDEP       - MAXIMUM RECORDED TEMPERATURE
RMT .C        14                   : MDTP         - TEMPERATURE OF MUD
MUDD.KG/M     9.5                  : MWT          - MUD DENSITY
NEUT.         1                    : NEUTRON      - NEUTRON TYPE
RESI.         0                    : RESIST       - RESISTIVITY TYPE
RM  .OHMM     5.18                 : RM           - RESISTIVITY OF MUD
RMC .OHMM     0                    : RMC          - RESISTIVITY OF MUD CAKE
RMF .OHMM     5.66                 : RMF          - RESISTIVITY OF MUD FILTRATE
SUFT.C        0                    : SUFT         - SURFACE TEMPERATURE
~A  DEPTH     RESD     PHIN     PHID       GR      CAL
# ...
  401.500   26.756    0.423    0.311   40.165  160.882
  401.750   34.987    0.401    0.314   44.372  160.897
  402.000   35.709    0.414    0.298   48.515  160.912
  402.250   33.245    0.432    0.293   52.966  160.108
  402.500   27.602    0.447    0.287   57.973  160.020
  402.750   22.575    0.434    0.278   73.594  160.240
  403.000   17.951    0.430    0.198   85.822  161.694
  403.250   14.035    0.448    0.188   93.916  166.132
  403.500   10.689    0.445    0.205   90.037  172.627
  403.750    7.855    0.441    0.227   84.740  172.951
  404.000    6.848    0.438    0.247   83.514  174.612
  404.250    6.694    0.424    0.262   84.758  175.450
  404.500    6.884    0.407    0.254   91.432  175.981
  404.750    7.240    0.414    0.243   96.130  176.200
  405.000    7.280    0.433    0.207  101.014  176.218
  405.250    7.037    0.448    0.201  107.379  175.924
  405.500    6.663    0.454    0.217  106.833  175.012
  405.750    5.963    0.466    0.234  109.496  173.694
  406.000    5.307    0.495    0.212  115.305  173.296
  406.250    4.498    0.518    0.211  124.139  173.829
  406.500    3.929    0.552    0.209  122.484  174.765
  406.750    3.569    0.599    0.212  120.764  177.044
  407.000    3.218    0.603    0.186  121.575  180.351
  407.250    2.968    0.584    0.173  125.102  179.234
  407.500    2.774    0.578    0.181  132.207  176.679
  407.750    2.666    0.568    0.203  137.709  175.974
  408.000    2.646    0.545    0.218  133.090  177.429
  408.250    2.710    0.520    0.232  126.928  180.015
  408.500    2.894    0.509    0.244  117.373  181.471
  408.750    3.220    0.509    0.268  109.298  181.692
  409.000    3.791    0.511    0.324  103.692  179.342
  409.250    4.314    0.536    0.302  100.493  183.677
  409.500    4.993    0.504    0.316  102.045  189.145
  409.750    5.381    0.487    0.329  111.125  178.566
  410.000    5.724    0.476    0.278  116.503  167.782
  410.250    5.712    0.482    0.248  110.464  174.688
  410.500    5.480    0.483    0.219  106.895  183.445
  410.750    5.169    0.472    0.194  112.581  176.467
  411.000    4.687    0.463    0.205  112.653  173.295
  411.250    4.251    0.537    0.222  105.566  176.190
  411.500    4.025    0.546    0.236   98.231  181.965
  411.750    4.273    0.500    0.282   91.267  193.910
  412.000    4.755    0.470    0.345   86.525  179.732
  412.250    5.310    0.447    0.300   84.067  163.395
  412.500    5.821    0.447    0.248   81.053  156.726
  412.750    6.550    0.460    0.256   77.728  155.713
  413.000    7.099    0.470    0.244   73.233  154.394
  413.250    7.453    0.480    0.257   73.181  153.995
  413.500    7.751    0.485    0.243   71.339  155.762
  413.750    7.986    0.479    0.231   70.176  158.654
  414.000    7.910    0.478    0.222   74.444  163.196
  414.250    7.761    0.490    0.239   77.784  166.399
  414.500    7.335    0.480    0.240   84.828  167.442
  414.750    6.919    0.469    0.245   88.848  167.151
  415.000    6.465    0.463    0.254   89.043  167.784
  415.250    5.885    0.463    0.245   86.398  169.032
  415.500    5.489    0.491    0.231   87.148  170.693
  415.750    5.346    0.515    0.251   91.910  171.737
  416.000    5.275    0.517    0.292   95.437  173.192
  416.250    5.294    0.474    0.294   98.777  173.413
  416.500    5.403    0.449    0.261  102.983  171.783
  416.750    5.504    0.437    0.248  107.249  169.331
  417.000    5.534    0.473    0.271  112.195  166.259
  417.250    5.502    0.518    0.270  115.599  165.248
  417.500    5.470    0.530    0.247  104.501  167.320
  417.750    5.490    0.480    0.258   89.884  172.683
  418.000    5.499    0.464    0.233   80.021  174.342
  418.250    5.487    0.451    0.214   89.841  167.159
  418.500    5.415    0.438    0.230  100.834  157.919
  418.750    5.313    0.445    0.248  104.608  155.774
  419.000    5.136    0.486    0.208   99.990  158.156
  419.250    4.936    0.508    0.234   91.792  165.371
  419.500    4.898    0.446    0.273   81.681  160.757
  419.750    5.123    0.413    0.289   77.123  155.837
  420.000    5.594    0.388    0.308   77.011  153.283
  420.250    6.561    0.418    0.311   76.710  152.167
  420.500    8.049    0.450    0.299   75.053  151.767
  420.750   10.564    0.461    0.294   74.261  151.681
  421.000   11.195    0.470    0.271   77.972  152.210
  421.250   10.190    0.482    0.248   85.201  153.462
  421.500    8.917    0.498    0.229   91.257  155.223
  421.750    7.847    0.501    0.232   92.809  155.240
  422.000    7.049    0.494    0.223   90.535  152.786
  422.250    6.333    0.488    0.211   87.337  148.996
  422.500    5.963    0.496    0.212   89.074  147.574
  422.750    5.850    0.477    0.225   88.712  148.720
  423.000    5.882    0.478    0.261   86.561  151.511
  423.250    5.981    0.488    0.252   87.991  154.716
  423.500    6.093    0.498    0.236   87.259  158.021
  423.750    6.337    0.503    0.224   85.788  158.551
  424.000    6.591    0.493    0.251   83.576  150.338
  424.250    6.854    0.500    0.254   80.932  146.035
  424.500    7.182    0.498    0.261   79.830  151.194
  424.750    7.181    0.491    0.264   81.259  157.894
  425.000    6.993    0.495    0.240   85.401  161.712
  425.250    6.671    0.514    0.226   85.657  163.477
  425.500    6.246    0.513    0.233   81.039  164.007
  425.750    5.815    0.495    0.244   83.702  164.022
  426.000    5.475    0.469    0.259   87.537  163.627
  426.250    5.021    0.490    0.285   89.706  163.949
  426.500    4.485    0.527    0.291   88.665  170.240
  426.750    4.247    0.559    0.315   88.366  176.630
  427.000    4.222    0.541    0.329   89.487  171.299
  427.250    4.325    0.487    0.324   90.606  166.171
  427.500    4.507    0.456    0.253   91.418  169.067
  427.750    4.678    0.470    0.184   90.316  172.475
  428.000    4.976    0.495    0.186   85.080  172.490
  428.250    5.195    0.512    0.254   76.081  170.965
  428.500    5.383    0.539    0.265   67.080  168.614
  428.750    5.619    0.569    0.288   55.426  165.030
  429.000    5.977    0.624    0.355   41.860  164.633
  429.250    6.466    0.683    0.394   44.893  166.294
  429.500    7.456    0.725    0.441   49.469  163.224
  429.750    8.926    0.469    0.263   49.417  159.742
  430.000   10.848    0.455    0.294   48.500  157.291
  430.250   11.474    0.451    0.295   48.015  156.894
  430.500   11.537    0.456    0.296   48.642  157.425
  430.750   11.005    0.464    0.272   49.022  157.954
  431.000   10.342    0.469    0.286   49.463  159.924
  431.250    9.467    0.463    0.284   50.891  160.452
  431.500    8.748    0.451    0.303   51.394  158.000
  431.750    7.844    0.442    0.314   51.218  152.461
  432.000    7.344    0.437    0.319   53.140  150.935
  432.250    6.850    0.431    0.329   53.089  150.332
  432.500    6.571    0.445    0.345   51.617  149.938
  432.750    6.292    0.464    0.335   52.058  149.952
  433.000    6.117    0.461    0.323   53.116  149.248
  433.250    5.945    0.472    0.304   53.742  148.543
  433.500    5.833    0.473    0.311   53.320  148.044
  433.750    5.822    0.452    0.318   53.514  147.648
  434.000    5.831    0.453    0.319   53.338  147.663
  434.250    5.874    0.454    0.324   51.866  148.297
  434.500    5.917    0.450    0.305   50.579  153.761
  434.750    5.927    0.441    0.318   49.725  159.434
  435.000    5.949    0.428    0.311   51.092  158.420
  435.250    6.048    0.440    0.294   52.089  153.295
  435.500    6.093    0.426    0.307   52.961  152.384
  435.750    6.103    0.418    0.285   52.600  152.712
  436.000    6.056    0.420    0.302   50.142  152.723
  436.250    5.976    0.426    0.303   50.150  153.050
  436.500    5.864    0.435    0.312   50.653  152.857
  436.750    5.819    0.449    0.327   50.724  152.462
  437.000    5.785    0.457    0.337   48.635  151.862
  437.250    5.740    0.469    0.325   51.792  151.257
  437.500    5.740    0.475    0.319   53.590  150.349
  437.750    5.760    0.458    0.317   53.723  150.261
