~VERSION INFORMATION
 VERS.                 2.0:   CWLS LOG ASCII STANDARD -VERSION 2.0
 WRAP.                  NO:   ONE LINE PER DEPTH STEP
~WELL INFORMATION BLOCK
#MNEM.UNIT           DATA                    DESCRIPTION OF MNEMONIC
#---------    -------------------            -------------------------------
# Generated from Intellog Unique Number	CW_70_72/WELL/1072
NULL.         -999.25                        : NULL_VALUE
WELL.         CABRE ET AL MITSUE 16-07       : Well_name    - WELL              
LOC .         16-07-072-03W5                 : Location     - LOCATION          
UWI .         00/16-07-072-03W5/0            : Uwi          - UNIQUE WELL ID    
ENTR.         JAYE                           : Entered      - ENTERED BY        
SRVC.         COMPUTALOG                     : Scn          - SERVICE COMPANY   
DATE.         21 DEC 84                      : Date         - LOG DATE          
STRT.M        500                            : top_depth    - START DEPTH       
STOP.M        710                            : bot_depth    - STOP DEPTH        
STEP.M        0.25                           : increment    - STEP LENGTH       
~CURVE INFORMATION BLOCK
#MNEM UNIT       ERCB CURVE CODE    CURVE DESCRIPTION
#-----------   ------------------   ----------------------------------
DEPT.M        00 001 00 00         : DEPTH        - DEPTH                       
DPHI.V/V      00 890 00 00         : PHID         - DENSITY POROSITY (SANDSTONE)
NPHI.V/V      00 330 00 00         : PHIN         - NEUTRON POROSITY (SANDSTONE)
GR  .API      00 310 00 00         : GR           - GAMMA RAY                   
CALI.MM       00 280 01 00         : CAL          - CALIPER                     
ILD .OHMM     00 120 00 00         : RESD         - DEEP RESISTIVITY (DIL)      
~PARAMETER INFORMATION       
#MNEM.UNIT           DATA             DESCRIPTION OF MNEMONIC
#---------         -----------     ------------------------------
GL  .M        694.7                : gl           - GROUND LEVEL ELEVATION      
EREF.M        699.4                : kb           - ELEVATION OF DEPTH REFERENCE
DATM.M        694.7                : datum        - DATUM ELEVATION             
TDD .M        724                  : tdd          - TOTAL DEPTH DRILLER         
RUN .         ONE                  : Run          - RUN NUMBER                  
BASE.         EDM                  : Branch       - HOME BASE OF LOGGING UNIT   
MUD .         GEL CHEN             : Mud_type     - MUD TYPE                    
MATR.         SANDSTONE            : Logunit      - NEUTRON MATRIX              
TMAX.C        32                   : BHT          - MAXIMUM RECORDED TEMPERATURE
BHTD.M        720.7                : BHTDEP       - MAXIMUM RECORDED TEMPERATURE
RMT .C        20                   : MDTP         - TEMPERATURE OF MUD          
MUDD.KG/M     1100                 : MWT          - MUD DENSITY                 
NEUT.         1                    : NEUTRON      - NEUTRON TYPE                
RESI.         0                    : RESIST       - RESISTIVITY TYPE            
RM  .OHMM     5                    : RM           - RESISTIVITY OF MUD          
RMC .OHMM     3.4                  : RMC          - RESISTIVITY OF MUD CAKE     
RMF .OHMM     6.7                  : RMF          - RESISTIVITY OF MUD FILTRATE 
SUFT.C        0                    : SUFT         - SURFACE TEMPERATURE         
~A  DEPTH     PHID     PHIN       GR      CAL     RESD
# ...
  536.500    0.289    0.363   60.377  144.393    3.108
  536.750    0.285    0.338   68.558  144.527    3.143
  537.000    0.270    0.359   79.501  144.648    3.153
  537.250    0.258    0.389   76.940  144.986    3.170
  537.500    0.273    0.384   69.102  145.330    3.187
  537.750    0.283    0.367   68.802  145.456    3.204
  538.000    0.273    0.346   70.199  145.694    3.221
  538.250    0.252    0.358   74.234  145.715    3.225
  538.500    0.233    0.372   76.006  145.949    3.223
  538.750    0.245    0.378   72.943  146.282    3.203
  539.000    0.274    0.366   68.999  146.513    3.190
  539.250    0.288    0.354   64.493  146.745    3.170
  539.500    0.282    0.353   69.595  146.980    3.156
  539.750    0.274    0.396   76.266  146.792    3.126
  540.000    0.260    0.403   80.425  147.029    3.112
  540.250    0.249    0.395   78.870  147.574    3.093
  540.500    0.251    0.397   76.937  147.705    3.086
  540.750    0.256    0.405   74.188  148.146    3.096
  541.000    0.268    0.404   69.051  148.380    3.118
  541.250    0.282    0.393   63.286  148.820    3.269
  541.500    0.283    0.371   63.301  149.579    4.046
  541.750    0.276    0.348   68.151  150.752    5.364
  542.000    0.259    0.367   75.264  152.140    6.638
  542.250    0.094    0.245   71.071  152.998    8.030
  542.500    0.040    0.163   57.642  153.755    7.951
  542.750   -0.001    0.125   43.963  154.095    7.335
  543.000    0.059    0.158   46.615  154.223    6.199
  543.250    0.150    0.248   54.795  153.830    5.238
  543.500    0.219    0.302   67.939  152.804    4.117
  543.750    0.252    0.376   75.238  151.680    3.433
  544.000    0.262    0.393   71.547  150.967    3.055
  544.250    0.270    0.384   68.860  149.947    2.928
  544.500    0.281    0.374   64.916  149.133    2.927
  544.750    0.291    0.366   60.911  148.321    2.959
  545.000    0.288    0.364   63.753  147.718    2.986
  545.250    0.276    0.362   63.201  147.421    3.013
  545.500    0.270    0.360   60.702  147.137    3.059
  545.750    0.271    0.349   64.800  146.842    3.075
  546.000    0.275    0.367   69.715  146.656    3.091
  546.250    0.270    0.383   71.299  146.680    3.103
  546.500    0.262    0.369   75.081  146.705    3.100
  546.750    0.255    0.355   82.131  147.149    3.117
  547.000    0.251    0.357   83.401  147.491    3.127
  547.250    0.253    0.389   74.496  147.825    3.125
  547.500    0.255    0.399   72.061  148.055    3.124
  547.750    0.247    0.378   77.414  148.393    3.116
  548.000    0.238    0.378   93.006  148.834    3.092
  548.250    0.269    0.379   93.460  149.490    3.061
  548.500    0.275    0.361   83.236  149.618    3.031
  548.750    0.261    0.349   75.021  149.848    3.006
  549.000    0.261    0.357   70.576  149.560    2.937
  549.250    0.274    0.377   75.678  149.058    2.930
  549.500    0.277    0.392   81.662  148.664    2.940
  549.750    0.274    0.394   84.187  148.481    2.966
  550.000    0.265    0.398   82.191  148.609    2.954
  550.250    0.257    0.413   83.525  148.943    2.969
  550.500    0.251    0.417   87.245  149.492    3.008
  550.750    0.244    0.406   91.342  150.461    3.083
  551.000    0.237    0.388   91.105  151.214    3.152
  551.250    0.239    0.402   88.419  152.706    3.243
  551.500    0.253    0.389   84.475  154.299    3.259
  551.750    0.253    0.381   79.905  155.056    3.197
  552.000    0.248    0.387   75.898  154.764    3.129
  552.250    0.247    0.395   79.242  154.579    3.022
  552.500    0.248    0.398   81.330  153.974    2.936
  552.750    0.257    0.358   82.034  153.058    2.889
  553.000    0.259    0.358   86.132  152.559    2.839
  553.250    0.258    0.402   84.637  152.162    2.806
  553.500    0.258    0.390   78.748  152.188    2.793
  553.750    0.259    0.378   82.279  152.629    2.803
  554.000    0.260    0.368   82.545  152.965    2.786
  554.250    0.260    0.357   81.178  153.304    2.743
  554.500    0.256    0.357   82.322  154.062    2.679
  554.750    0.248    0.370   85.165  153.771    2.582
  555.000    0.227    0.409   92.149  154.108    2.443
  555.250    0.243    0.439   87.014  154.447    2.427
  555.500    0.251    0.419   92.052  155.097    2.594
  555.750    0.243    0.413  107.017  159.518    2.719
  556.000    0.257    0.396   98.865  160.276    2.872
  556.250    0.271    0.377   78.088  158.833    2.977
  556.500    0.279    0.390   70.316  155.402    2.898
  556.750    0.289    0.371   65.868  151.450    2.772
  557.000    0.306    0.349   58.093  150.114    2.632
  557.250    0.321    0.353   54.717  149.926    2.537
  557.500    0.335    0.371   57.182  149.951    2.441
  557.750    0.343    0.427   59.706  150.398    2.348
  558.000    0.339    0.408   59.344  151.153    2.272
  558.250    0.329    0.399   53.579  151.489    2.233
  558.500    0.322    0.395   48.820  151.509    2.253
  558.750    0.320    0.385   47.138  151.956    2.327
  559.000    0.332    0.347   47.278  152.395    2.481
  559.250    0.334    0.331   53.323  153.152    2.755
  559.500    0.329    0.343   58.362  153.178    3.012
  559.750    0.356    0.376   57.811  151.110    3.274
  560.000    0.390    0.415   49.973  149.561    3.458
  560.250    0.376    0.443   50.430  148.646    3.689
  560.500    0.361    0.425   52.640  148.665    3.882
  560.750    0.354    0.430   55.670  149.531    4.023
  561.000    0.343    0.449   63.975  150.282    4.114
  561.250    0.299    0.446   75.673  152.614    4.177
  561.500    0.265    0.407   86.617  154.098    4.174
  561.750    0.231    0.363   94.860  156.321    4.172
  562.000    0.225    0.349   97.701  157.709    4.123
  562.250    0.214    0.357   95.705  158.574    4.075
  562.500    0.198    0.382   94.966  158.910    4.057
  562.750    0.197    0.379   94.854  159.038    4.047
  563.000    0.205    0.368   95.624  159.271    4.045
  563.250    0.205    0.383   96.579  159.604    4.059
  563.500    0.198    0.405   96.278  159.627    4.065
  563.750    0.192    0.409   98.743  159.548    4.072
  564.000    0.193    0.396  102.651  159.680    4.054
  564.250    0.195    0.382  102.854  160.436    4.052
  564.500    0.196    0.390  101.991  161.084    4.058
  564.750    0.194    0.420  100.559  161.632    4.048
  565.000    0.187    0.408   97.057  162.284    4.063
  565.250    0.176    0.402   94.871  163.049    4.045
  565.500    0.166    0.397   95.640  163.381    4.012
  565.750    0.175    0.385   96.721  163.512    3.972
  566.000    0.177    0.366   99.122  163.538    3.948
  566.250    0.174    0.393  102.717  163.559    3.923
  566.500    0.172    0.416   98.146  163.580    3.877
  566.750    0.174    0.423   92.634  163.602    3.853
  567.000    0.175    0.411   94.908  163.520    3.830
  567.250    0.174    0.404   98.502  163.338    3.842
  567.500    0.171    0.402  102.349  163.574    3.856
  567.750    0.165    0.399  105.065  163.699    3.854
  568.000    0.159    0.393  105.581  163.829    3.852
  568.250    0.155    0.383  104.904  164.066    3.865
  568.500    0.152    0.368  102.406  164.301    3.893
  568.750    0.149    0.375   96.956  164.420    3.951
  569.000    0.141    0.397   99.169  164.550    3.995
  569.250    0.143    0.423   98.240  164.782    3.978
  569.500    0.157    0.417   95.742  164.600    3.849
  569.750    0.170    0.407   94.188  164.518    3.640
  570.000    0.176    0.390   94.389  164.224    3.365
  570.250    0.178    0.401   95.158  163.097    3.099
  570.500    0.177    0.408   92.784  161.659    2.908
  570.750    0.201    0.402   85.700  160.005    2.632
  571.000    0.243    0.388   76.105  156.155    2.438
  571.250    0.296    0.372   68.016  153.982    2.310
  571.500    0.312    0.369   66.585  154.423    2.164
  571.750    0.313    0.383   68.044  154.659    2.130
  572.000    0.310    0.384   62.719  153.633    2.213
  572.250    0.305    0.380   58.213  151.670    2.306
  572.500    0.301    0.375   58.163  150.335    2.422
  572.750    0.299    0.368   64.083  149.622    2.549
