~VERSION INFORMATION
 VERS.                 2.0:   CWLS LOG ASCII STANDARD -VERSION 2.0
 WRAP.                  NO:   ONE LINE PER DEPTH STEP
~WELL INFORMATION BLOCK
#MNEM.UNIT           DATA                    DESCRIPTION OF MNEMONIC
#---------    -------------------            -------------------------------
# Generated from Intellog Unique Number	CW_82_90/WELL/3072
WELL.         10-08-086-22W4                 : Well_name    - WELL
LOC .         00/10-08-086-22W4/0            : Location     - LOCATION
UWI .         00/10-08-086-22W4/0            : Uwi          - UNIQUE WELL ID
ENTR.         MAX                            : Entered      - ENTERED BY
SRVC.         SCHLUMBERGER                   : Scn          - SERVICE COMPANY
STRT.M        167.64                         : top_depth    - START DEPTH
STOP.M        373.39                         : bot_depth    - STOP DEPTH
STEP.M        0.25                           : increment    - STEP LENGTH
 NULL. -999.2500:NULL Value
~CURVE INFORMATION BLOCK
#MNEM UNIT       ERCB CURVE CODE    CURVE DESCRIPTION
#-----------   ------------------   ----------------------------------
DEPT.M        00 001 00 00         : DEPTH        - DEPTH
GR  .API      00 310 00 00         : GR           - GAMMA RAY
ILD .OHMM     00 120 00 00         : RESD         - DEEP RESISTIVITY (DIL)
NPHI.V/V      00 330 00 00         : PHIN         - NEUTRON POROSITY (SANDSTONE)
DPHI.V/V      00 890 00 00         : PHID         - DENSITY POROSITY (SANDSTONE)
CALI.MM       00 280 01 00         : CAL          - CALIPER
~PARAMETER INFORMATION
#MNEM.UNIT           DATA             DESCRIPTION OF MNEMONIC
#---------         -----------     ------------------------------
GL  .M        576.925              : gl           - GROUND LEVEL ELEVATION
EREF.M        580.187              : kb           - ELEVATION OF DEPTH REFERENCE
DATM.M        576.925              : datum        - DATUM ELEVATION
TDD .M        373.075              : tdd          - TOTAL DEPTH DRILLER
RUN .         ONE                  : Run          - RUN NUMBER
ENG .         BILL                 : Engineer     - RECORDING ENGINEER
WIT .         JIM                  : Witness      - WITNESSED BY
MUD .         GEL                  : Mud_type     - MUD TYPE
MATR.         SANDSTONE            : Logunit      - NEUTRON MATRIX
TMAX.C        20.5556              : BHT          - MAXIMUM RECORDED TEMPERATURE
BHTD.M        373.075              : BHTDEP       - MAXIMUM RECORDED TEMPERATURE
MATR.         1                    : LOGUNIT      - NEUTRON MATRIX
RMT .C        6.66667              : MDTP         - TEMPERATURE OF MUD
NEUT.         1                    : NEUTRON      - NEUTRON TYPE
RESI.         0                    : RESIST       - RESISTIVITY TYPE
RMC .OHMM     5.5                  : RMC          - RESISTIVITY OF MUD CAKE
RMF .OHMM     3.23                 : RMF          - RESISTIVITY OF MUD FILTRATE
SUFT.C        -15                  : SUFT         - SURFACE TEMPERATURE
~A  DEPTH       GR     RESD     PHIN     PHID      CAL
# ...
  240.640   97.638    6.011    0.496    0.263  160.602
  240.890   99.357    5.745    0.504    0.256  160.597
  241.140  101.363    5.744    0.510    0.250  161.076
  241.390  101.933    5.956    0.501    0.253  161.070
  241.640   99.346    6.345    0.497    0.261  161.064
  241.890   96.185    6.820    0.512    0.272  161.057
  242.140   89.291    7.534    0.524    0.282  161.051
  242.390   87.278    7.882    0.522    0.305  161.530
  242.640   88.996    8.396    0.538    0.304  161.522
  242.890   90.714    8.945    0.543    0.300  161.517
  243.140   88.415    9.791    0.521    0.304  161.510
  243.390   84.679   10.430    0.513    0.305  161.504
  243.640   79.795   10.620    0.513    0.303  161.498
  243.890   73.763   10.715    0.480    0.310  161.491
  244.140   69.740   10.714    0.464    0.309  161.485
  244.390   71.459   10.714    0.481    0.307  160.992
  244.640   76.335   10.713    0.509    0.303  160.986
  244.890   80.350   10.809    0.507    0.295  160.494
  245.140   80.059   11.411    0.486    0.287  160.001
  245.390   79.194   11.105    0.472    0.275  159.509
  245.640   78.042   10.328    0.456    0.259  159.502
  245.890   78.900    8.935    0.485    0.223  159.495
  246.140   83.489    7.871    0.502    0.277  159.975
  246.390   88.939    7.061    0.531    0.284  160.940
  246.640   95.538    6.449    0.557    0.260  160.935
  246.890   96.682    6.163    0.524    0.278  161.414
  247.140   98.400    6.052    0.505    0.265  161.893
  247.390  103.564    5.997    0.540    0.254  162.860
  247.640  107.293    5.528    0.533    0.260  164.311
  247.890  107.001    4.958    0.529    0.261  165.763
  248.140  107.284    4.782    0.542    0.260  166.729
  248.390  109.290    5.048    0.564    0.256  166.723
  248.640  109.287    5.476    0.565    0.249  166.229
  248.890  103.828    6.049    0.534    0.246  165.737
  249.140   98.371    7.118    0.503    0.229  165.245
  249.390   93.199    8.226    0.481    0.219  164.267
  249.640   89.751   10.988    0.473    0.205  163.774
  249.890   86.015   12.248    0.438    0.181  162.795
  250.140   77.974   14.677    0.380    0.140  161.817
  250.390   75.100   17.587    0.317    0.152  160.838
  250.640   77.392   20.326    0.309    0.204  160.345
  250.890   81.407   19.601    0.348    0.250  160.338
  251.140   82.552   14.940    0.414    0.291  159.361
  251.390   80.538    9.416    0.433    0.284  158.868
  251.640   85.127    6.380    0.472    0.273  158.376
  251.890   89.142    5.723    0.492    0.270  158.369
  252.140   92.871    5.775    0.500    0.275  158.363
  252.390   94.015    6.378    0.524    0.268  158.357
  252.640   87.696    7.372    0.508    0.296  157.377
  252.890   79.654    9.326    0.499    0.291  157.371
  253.140   75.344   11.380    0.470    0.301  157.851
  253.390   73.043   13.271    0.472    0.319  157.844
  253.640   71.031   13.635    0.481    0.307  157.838
  253.890   69.878   13.269    0.479    0.284  157.344
  254.140   70.736   12.453    0.467    0.276  157.339
  254.390   71.880   10.774    0.464    0.260  157.331
  254.640   73.599    8.514    0.480    0.273  157.812
  254.890   75.605    7.234    0.487    0.273  158.292
  255.140   81.055    6.146    0.495    0.270  158.286
  255.390   85.358    5.665    0.511    0.262  158.279
  255.640   90.808    5.081    0.522    0.249  158.759
  255.890   95.110    4.945    0.528    0.231  159.238
  256.140   99.125    4.944    0.533    0.256  160.203
  256.390  101.417    5.034    0.539    0.258  160.682
  256.640  102.275    5.219    0.545    0.247  161.162
  256.890  102.271    5.765    0.551    0.253  161.157
  257.140  102.555    6.368    0.549    0.254  161.150
  257.390  102.264    7.293    0.526    0.252  161.144
  257.640  100.825    8.661    0.511    0.245  161.137
  257.890  100.247   10.192    0.498    0.231  161.131
  258.140  100.530   11.568    0.495    0.199  161.124
  258.390  103.110   11.993    0.488    0.191  161.604
  258.640   99.661   11.671    0.470    0.178  161.598
  258.890   93.629   10.953    0.420    0.149  162.077
  259.140   92.476   10.756    0.342    0.102  162.070
  259.390   95.056   10.658    0.429    0.172  162.064
  259.640   97.062   10.186    0.454    0.200  161.572
  259.890   97.632    9.734    0.462    0.225  161.566
  260.140   97.054    9.559    0.464    0.211  161.558
  260.390   96.477    9.910    0.468    0.209  161.552
  260.640   95.325    9.644    0.466    0.214  162.031
  260.890   92.737    8.970    0.440    0.201  161.539
  261.140   89.862    8.343    0.420    0.171  160.561
  261.390   92.442    8.342    0.472    0.183  161.526
  261.640   95.022    8.727    0.510    0.200  162.978
  261.890   99.612    9.213    0.485    0.212  162.486
  262.140  102.479    9.381    0.466    0.204  161.994
  262.390  103.336    9.726    0.457    0.214  163.445
  262.640  104.193   10.361    0.469    0.211  165.383
  262.890  103.902   11.037    0.489    0.201  168.293
  263.140  102.462   12.303    0.495    0.189  170.716
  263.390   99.876   14.478    0.469    0.166  171.683
  263.640   91.548   16.581    0.360    0.141  167.301
  263.890   83.219   17.191    0.308    0.023  162.434
  264.140   82.641   13.960    0.321    0.022  160.970
  264.390   83.498   10.077    0.382    0.033  161.936
  264.640   78.902    8.333    0.386    0.131  161.929
  264.890   75.739    7.542    0.426    0.165  160.465
  265.140   78.320    7.274    0.483    0.242  159.973
  265.390   85.779    7.014    0.470    0.278  159.965
  265.640   90.082    6.888    0.465    0.267  159.959
  265.890   94.958    6.764    0.484    0.257  160.923
  266.140  100.408    6.702    0.491    0.244  161.890
  266.390  103.275    6.641    0.499    0.229  163.342
  266.640  106.142    6.581    0.507    0.215  165.281
  266.890  103.841    6.521    0.522    0.218  163.814
  267.140  103.264    6.462    0.515    0.221  163.323
  267.390  102.398    6.579    0.507    0.215  163.316
  267.640  100.959    7.009    0.519    0.208  161.851
  267.890   98.372    7.535    0.509    0.225  160.874
  268.140   94.637    8.173    0.498    0.244  158.921
  268.390   88.891    8.707    0.486    0.261  157.944
  268.640   84.295    9.793    0.469    0.266  156.965
  268.890   81.707   11.216    0.468    0.265  156.472
  269.140   78.545   12.615    0.454    0.260  155.981
  269.390   78.541   13.561    0.430    0.220  155.487
  269.640   81.409   13.197    0.393    0.184  154.996
  269.890   85.137   12.386    0.360    0.123  154.988
  270.140   91.448   11.010    0.367    0.081  154.983
  270.390   98.334   10.618    0.413    0.118  155.947
  270.640  109.239   10.617    0.440    0.210  156.912
  270.890  112.393   10.810    0.463    0.221  157.393
  271.140  108.370   10.906    0.461    0.221  160.304
  271.390  104.634   11.105    0.454    0.206  162.728
  271.640  102.908   11.618    0.452    0.191  165.152
  271.890  102.043   12.045    0.451    0.171  163.686
  272.140  101.752   12.044    0.450    0.164  161.734
  272.390  103.183   12.043    0.461    0.199  162.701
  272.640  106.624   12.042    0.456    0.214  167.069
  272.890  105.186   12.041    0.440    0.218  170.953
  273.140  103.459   12.040    0.436    0.220  168.030
  273.390  103.456   12.259    0.444    0.220  164.620
  273.640  101.729   12.369    0.458    0.217  161.697
  273.890  100.290   12.368    0.465    0.213  160.718
  274.140  100.574   12.479    0.467    0.205  162.656
  274.390  102.865   12.478    0.468    0.188  164.108
  274.640  104.584   12.591    0.469    0.177  165.074
  274.890  104.581   12.820    0.463    0.187  162.151
  275.140  104.290   13.053    0.455    0.188  160.685
  275.390  104.286   13.533    0.446    0.209  160.194
  275.640  103.709   13.655    0.443    0.221  160.188
  275.890  100.259   14.157    0.441    0.223  160.667
  276.140   98.247   14.414    0.438    0.237  160.660
  276.390   95.659   14.413    0.452    0.231  160.166
  276.640   92.498   14.412    0.456    0.224  160.162
  276.890   89.336   14.280    0.453    0.224  159.183
