~VERSION INFORMATION
 VERS.                 2.0:   CWLS LOG ASCII STANDARD -VERSION 2.0
 WRAP.                  NO:   ONE LINE PER DEPTH STEP
~WELL INFORMATION BLOCK
#MNEM.UNIT           DATA                    DESCRIPTION OF MNEMONIC
#---------    -------------------            -------------------------------
# Generated from Intellog Unique Number	CS_71_72/WELL/3327
WELL.         ALLIED ROXANA MINERALS LTD.    : Well_name    - WELL
LOC .         00/10-32-072-13W4/0            : Location     - LOCATION
UWI .         00/10-32-072-13W4/0            : Uwi          - UNIQUE WELL ID
ENTR.         JOETTE                         : Entered      - ENTERED BY
SRVC.         SCHLUMBERGER                   : Scn          - SERVICE COMPANY
DATE.         05/13/92                       : Date         - LOG DATE
STRT.M        320.04                         : top_depth    - START DEPTH
STOP.M        533.29                         : bot_depth    - STOP DEPTH
STEP.M        0.25                           : increment    - STEP LENGTH
 NULL. -999.2500:NULL Value
~CURVE INFORMATION BLOCK
#MNEM UNIT       ERCB CURVE CODE    CURVE DESCRIPTION
#-----------   ------------------   ----------------------------------
DEPT.M        00 001 00 00         : DEPTH        - DEPTH
NPHI.V/V      00 330 00 00         : PHIN         - NEUTRON POROSITY (SANDSTONE)
GR  .API      00 310 00 00         : GR           - GAMMA RAY
CALI.MM       00 280 01 00         : CAL          - CALIPER
DPHI.V/V      00 890 00 00         : PHID         - DENSITY POROSITY (SANDSTONE)
ILD .OHMM     00 120 00 00         : RESD         - DEEP RESISTIVITY (DIL)
~PARAMETER INFORMATION
#MNEM.UNIT           DATA             DESCRIPTION OF MNEMONIC
#---------         -----------     ------------------------------
GL  .M        656.692              : gl           - GROUND LEVEL ELEVATION
EREF.M        659.74               : kb           - ELEVATION OF DEPTH REFERENCE
DATM.M        659.74               : datum        - DATUM ELEVATION
TDD .M        554.126              : tdd          - TOTAL DEPTH DRILLER
RUN .         ONE                  : Run          - RUN NUMBER
ENG .         BILL                 : Engineer     - RECORDING ENGINEER
WIT .         JIM                  : Witness      - WITNESSED BY
MUD .         GEL                  : Mud_type     - MUD TYPE
MATR.         SANDSTONE            : Logunit      - NEUTRON MATRIX
TMAX.C        25.5556              : BHT          - MAXIMUM RECORDED TEMPERATURE
BHTD.M        554.126              : BHTDEP       - MAXIMUM RECORDED TEMPERATURE
MATR.         1                    : LOGUNIT      - NEUTRON MATRIX
RMT .C        21.1111              : MDTP         - TEMPERATURE OF MUD
NEUT.         1                    : NEUTRON      - NEUTRON TYPE
RESI.         0                    : RESIST       - RESISTIVITY TYPE
RMC .OHMM     3.41                 : RMC          - RESISTIVITY OF MUD CAKE
RMF .OHMM     3.47                 : RMF          - RESISTIVITY OF MUD FILTRATE
SUFT.C        4                    : SUFT         - SURFACE TEMPERATURE
~A  DEPTH     PHIN       GR      CAL     PHID     RESD
  320.040    0.584  108.985  175.745    0.217    7.536
  320.290    0.602  104.139  175.814    0.207    7.755
  320.540    0.611  100.498  174.864    0.178    7.964
  320.790    0.572   98.712  172.877    0.176    8.997
  321.040    0.545   98.141  172.911    0.164    9.620
  321.290    0.554   95.111  171.961    0.157    9.635
  321.540    0.590   90.255  173.066    0.161    9.237
  321.790    0.575   90.296  175.208    0.192    8.845
  322.040    0.525   95.233  176.330    0.227    8.447
  322.290    0.469   92.846  175.380    0.244    8.465
  322.540    0.423   84.298  174.378    0.278    9.288
  322.790    0.400   64.753  170.336    0.304   10.521
  323.040    0.379   52.563  169.334    0.316   12.368
  323.290    0.425   50.145  167.330    0.328   13.601
  323.540    0.462   50.798  166.379    0.313   14.631
  323.790    0.494   52.685  166.448    0.311   15.864
  324.040    0.504   53.949  165.481    0.308   17.504
  324.290    0.510   55.234  165.567    0.306   18.337
  324.540    0.474   55.867  165.635    0.301   17.328
  324.790    0.476   58.356  165.687    0.299   15.915
  325.040    0.483   65.751  165.756    0.290   15.320
  325.290    0.472   70.076  166.878    0.277   14.928
  325.540    0.453   70.739  166.982    0.255   14.934
  325.790    0.452   68.331  167.033    0.266   14.952
  326.040    0.477   67.760  167.085    0.271   14.961
  326.290    0.479   72.085  166.152    0.261   15.183
  326.540    0.478   73.962  166.186    0.254   15.392
  326.790    0.492   75.849  168.379    0.243   15.608
  327.040    0.519   80.775  170.487    0.217   15.823
  327.290    0.546   86.947  174.701    0.219   16.039
  327.540    0.541   92.496  176.843    0.220   16.261
  327.790    0.532   98.657  177.965    0.204   16.273
  328.040    0.537  106.664  178.068    0.185   16.285
  328.290    0.521  110.387  179.156    0.179   15.890
  328.540    0.544  109.194  179.225    0.190   15.899
  328.790    0.557  109.847  180.348    0.198   15.510
  329.040    0.549  108.051  181.436    0.227   15.315
  329.290    0.551  103.818  182.558    0.231   14.926
  329.540    0.544   98.350  182.610    0.242   14.528
  329.790    0.515   94.106  179.569    0.261   14.334
  330.040    0.487   91.097  174.491    0.274   14.149
  330.290    0.491   91.137  171.416    0.279   14.155
  330.540    0.468   92.392  169.412    0.266   13.966
  330.790    0.453   94.881  167.408    0.265   14.592
  331.040    0.443   94.932  166.458    0.271   15.211
  331.290    0.442   90.688  166.544    0.274   16.244
  331.540    0.408   85.210  165.576    0.274   17.271
  331.790    0.390   76.070  165.645    0.269   18.713
  332.040    0.377   62.033  165.697    0.261   19.333
  332.290    0.395   55.954  166.836    0.261   20.165
  332.540    0.414   65.797  166.888    0.266   20.378
  332.790    0.489   73.805  168.028    0.256   20.590
  333.040    0.517   74.457  168.079    0.259   20.608
  333.290    0.508   71.438  168.131    0.276   20.213
  333.540    0.513   66.572  168.217    0.288   19.612
  333.790    0.493   59.278  168.268    0.299   16.978
  334.040    0.483   58.697  168.355    0.308   14.755
  334.290    0.475   63.644  169.477    0.298   14.153
  334.540    0.486   77.761  169.529    0.248   13.354
  334.790    0.523   83.321  170.668    0.204   13.165
  335.040    0.540   96.214  170.703    0.198   12.968
  335.290    0.559  102.375  172.896    0.194   12.780
  335.540    0.555  107.945  173.984    0.194   12.391
  335.790    0.545  110.434  174.036    0.193   12.400
  336.040    0.538  111.086  175.141    0.193   12.409
  336.290    0.573  114.177  175.210    0.209   12.223
  336.540    0.589  122.195  175.313    0.211   12.229
  336.790    0.607  121.011  176.401    0.196   12.041
  337.040    0.635  116.757  179.596    0.194   11.852
  337.290    0.638  113.126  180.684    0.194   11.457
  337.540    0.634  111.340  181.789    0.196   10.862
  337.790    0.637  114.431  180.839    0.205   10.664
  338.040    0.649  119.378  180.891    0.211    9.865
  338.290    0.656  123.101  178.904    0.219    9.467
  338.540    0.650  120.684  176.934    0.242    8.671
  338.790    0.628  115.828  175.950    0.258    8.474
  339.040    0.624  113.421  172.926    0.266    8.082
  339.290    0.599  109.177  170.905    0.283    7.893
  339.540    0.589  103.097  168.884    0.300    7.906
  339.790    0.559   89.673  165.861    0.310    8.528
  340.040    0.548   83.593  164.893    0.324    9.357
  340.290    0.529   86.092  164.997    0.319   10.791
  340.540    0.526   81.848  165.031    0.314   14.263
  340.790    0.537   80.043  166.136    0.319   15.293
  341.040    0.537   79.481  167.259    0.320   15.915
  341.290    0.551   83.204  167.328    0.315   16.134
  341.540    0.534   80.797  167.396    0.310   16.155
  341.790    0.526   79.603  167.465    0.308   16.164
  342.040    0.527   77.808  167.534    0.307   15.966
  342.290    0.541   76.033  166.584    0.305   15.778
  342.540    0.551   75.461  166.670    0.304   15.389
  342.790    0.549   75.502  166.704    0.293   14.991
  343.040    0.542   74.920  165.754    0.295   14.797
  343.290    0.532   73.135  165.823    0.300   14.611
  343.540    0.530   71.951  165.892    0.307   15.027
  343.790    0.532   74.430  164.941    0.310   15.446
  344.040    0.543   76.929  164.993    0.305   15.866
  344.290    0.548   75.134  165.062    0.297   16.285
  344.540    0.539   70.278  165.148    0.294   16.503
  344.790    0.550   69.094  165.217    0.294   16.515
  345.040    0.550   70.981  166.322    0.290   16.734
  345.290    0.571   75.296  168.498    0.244   16.740
  345.540    0.561   86.364  169.569    0.202   16.965
  345.790    0.548   93.749  172.747    0.174   17.174
  346.040    0.557  104.205  178.049    0.179   17.393
  346.290    0.586  115.884  179.120    0.196   17.405
  346.540    0.584  118.975  179.189    0.203   17.417
  346.790    0.543  122.086  179.292    0.210   17.426
  347.040    0.517  119.679  179.344    0.216   16.627
  347.290    0.540  116.659  179.412    0.217   15.214
  347.540    0.551  114.864  184.663    0.232   13.395
  347.790    0.559  116.740  186.805    0.245   12.392
  348.040    0.549  116.169  184.818    0.247   11.994
  348.290    0.538  113.772  180.759    0.248   12.012
  348.540    0.516  110.130  177.684    0.254   12.222
  348.790    0.486  104.662  173.624    0.260   12.844
  349.040    0.457   99.827  171.655    0.263   13.877
  349.290    0.487  100.479  171.689    0.273   14.910
  349.540    0.524  100.520  170.722    0.281   15.736
  349.790    0.556   97.501  169.754    0.295   16.152
  350.040    0.548   93.247  168.821    0.308   16.774
  350.290    0.535   87.167  168.873    0.312   16.999
  350.540    0.526   84.147  168.924    0.299   17.005
  350.790    0.520   84.198  169.027    0.297   16.410
  351.040    0.519   87.289  170.133    0.289   15.808
  351.290    0.526   97.132  171.221    0.250   15.213
  351.540    0.546  103.293  177.508    0.249   14.818
  351.790    0.523  111.913  174.485    0.257   14.827
  352.040    0.519  113.790  172.481    0.270   14.638
  352.290    0.528  114.442  173.586    0.273   14.857
  352.540    0.546  108.975  173.672    0.282   14.866
  352.790    0.517  101.059  170.615    0.287   15.288
  353.040    0.525   94.979  168.611    0.286   15.297
  353.290    0.531   91.959  167.660    0.276   15.519
  353.540    0.505   96.294  168.748    0.272   15.531
  353.790    0.497   96.947  170.924    0.264   15.546
  354.040    0.476  100.660  173.049    0.260   15.552
  354.290    0.467  103.761  175.190    0.253   15.564
  354.540    0.467  105.638  176.296    0.248   15.576
  354.790    0.474  106.311  178.454    0.241   16.001
  355.040    0.479  106.953  180.613    0.237   16.417
  355.290    0.492  107.606  181.701    0.225   16.636
  355.540    0.500  108.881  182.807    0.218   17.055
  355.790    0.529  110.758  183.929    0.215   17.270
  356.040    0.538  113.859  183.998    0.215   17.082
  356.290    0.533  116.347  182.011    0.222   16.887
