~VERSION INFORMATION
 VERS.                 2.0:   CWLS LOG ASCII STANDARD -VERSION 2.0
 WRAP.                  NO:   ONE LINE PER DEPTH STEP
~WELL INFORMATION BLOCK
#MNEM.UNIT           DATA                    DESCRIPTION OF MNEMONIC
#---------    -------------------            -------------------------------
# Generated from Intellog Unique Number	CS_67_68/WELL/818
WELL.         AMOCO CANADA PETROLEUM         : Well_name    - WELL
LOC .         00/11-03-068-18W4/0            : Location     - LOCATION
UWI .         00/11-03-068-18W4/0            : Uwi          - UNIQUE WELL ID
ENTR.         SP                             : Entered      - ENTERED BY
SRVC.         SCHLUMBERGER                   : Scn          - SERVICE COMPANY
STRT.M        289.560                        : top_depth    - START DEPTH
STOP.M        502.560                        : bot_depth    - STOP DEPTH
STEP.M        0.25                           : increment    - STEP LENGTH
 NULL. -999.2500:NULL Value
~CURVE INFORMATION BLOCK
#MNEM UNIT       ERCB CURVE CODE    CURVE DESCRIPTION
#-----------   ------------------   ----------------------------------
DEPT.M        00 001 00 00         : DEPTH        - DEPTH
GR  .API      00 310 00 00         : GR           - GAMMA RAY
DPHI.V/V      00 890 00 00         : PHID         - DENSITY POROSITY (SANDSTONE)
NPHI.V/V      00 330 00 00         : PHIN         - NEUTRON POROSITY (SANDSTONE)
ILD .OHMM     00 120 00 00         : RESD         - DEEP RESISTIVITY (DIL)
~PARAMETER INFORMATION
#MNEM.UNIT           DATA             DESCRIPTION OF MNEMONIC
#---------         -----------     ------------------------------
GL  .M        556.992              : gl           - GROUND LEVEL ELEVATION
EREF.M        561.137              : kb           - ELEVATION OF DEPTH REFERENCE
DATM.M        556.992              : datum        - DATUM ELEVATION
TDD .M        519.989              : tdd          - TOTAL DEPTH DRILLER
RUN .         ONE                  : Run          - RUN NUMBER
ENG .         BILL                 : Engineer     - RECORDING ENGINEER
WIT .         JIM                  : Witness      - WITNESSED BY
MUD .         GEL                  : Mud_type     - MUD TYPE
MATR.         SANDSTONE            : Logunit      - NEUTRON MATRIX
TMAX.C        31.6667              : BHT          - MAXIMUM RECORDED TEMPERATURE
BHTD.M        519.989              : BHTDEP       - MAXIMUM RECORDED TEMPERATURE
MATR.         1                    : LOGUNIT      - NEUTRON MATRIX
RMT .C        25                   : MDTP         - TEMPERATURE OF MUD
NEUT.         1                    : NEUTRON      - NEUTRON TYPE
RESI.         0                    : RESIST       - RESISTIVITY TYPE
RMC .OHMM     0.25                 : RMC          - RESISTIVITY OF MUD CAKE
RMF .OHMM     0.25                 : RMF          - RESISTIVITY OF MUD FILTRATE
SUFT.C        15                   : SUFT         - SURFACE TEMPERATURE
~A  DEPTH       GR     PHID     PHIN     RESD
# ...
  420.060   89.423    0.196    0.422    4.035
  420.310   90.319    0.206    0.404    4.050
  420.560   91.183    0.220    0.391    4.154
  420.810   92.121    0.206    0.415    4.237
  421.060   92.931    0.205    0.431    4.302
  421.310   93.301    0.213    0.430    4.357
  421.560   92.896    0.206    0.436    4.400
  421.810   91.796    0.199    0.442    4.397
  422.060   90.145    0.208    0.434    4.400
  422.310   88.860    0.204    0.429    4.114
  422.560   87.783    0.197    0.436    4.130
  422.810   88.719    0.187    0.444    4.130
  423.060   89.498    0.181    0.460    4.128
  423.310   90.585    0.189    0.439    4.146
  423.560   91.163    0.177    0.429    4.150
  423.810   92.162    0.171    0.417    4.158
  424.060   93.615    0.172    0.401    4.143
  424.310   95.207    0.188    0.390    4.114
  424.560   96.367    0.197    0.386    4.052
  424.810   97.541    0.204    0.406    3.984
  425.060   99.143    0.214    0.425    3.935
  425.310  100.183    0.226    0.445    3.881
  425.560  100.334    0.218    0.460    3.840
  425.810   97.976    0.214    0.496    3.810
  426.060   92.110    0.222    0.430    3.528
  426.310   87.607    0.223    0.412    3.204
  426.560   83.767    0.227    0.404    2.787
  426.810   81.506    0.239    0.404    2.436
  427.060   80.208    0.250    0.412    2.188
  427.310   82.974    0.272    0.431    2.036
  427.560   89.282    0.282    0.459    1.957
  427.810   93.286    0.266    0.500    2.070
  428.060   95.324    0.253    0.537    2.326
  428.310   94.586    0.240    0.514    2.608
  428.560   93.455    0.227    0.481    2.808
  428.810   92.299    0.215    0.458    2.999
  429.060   91.303    0.207    0.439    3.001
  429.310   88.037    0.214    0.429    2.868
  429.560   82.179    0.206    0.434    2.700
  429.810   75.903    0.222    0.427    2.537
  430.060   71.652    0.239    0.412    2.432
  430.310   70.549    0.260    0.399    2.353
  430.560   71.819    0.279    0.403    2.437
  430.810   77.105    0.288    0.415    2.674
  431.060   81.436    0.270    0.423    2.851
  431.310   84.366    0.241    0.430    3.050
  431.560   85.502    0.227    0.442    3.256
  431.810   84.532    0.218    0.438    3.414
  432.060   83.813    0.210    0.432    3.573
  432.310   81.650    0.208    0.421    3.538
  432.560   79.870    0.220    0.410    3.715
  432.810   80.278    0.228    0.400    3.801
  433.060   81.948    0.210    0.391    3.851
  433.310   81.532    0.207    0.380    3.857
  433.560   78.728    0.200    0.391    3.634
  433.810   75.656    0.206    0.403    3.443
  434.060   72.692    0.211    0.411    3.263
  434.310   73.370    0.211    0.404    3.051
  434.560   76.317    0.232    0.400    2.811
  434.810   72.786    0.259    0.397    2.632
  435.060   68.322    0.279    0.404    2.475
  435.310   65.750    0.292    0.415    2.330
  435.560   62.324    0.297    0.420    2.221
  435.810   60.647    0.311    0.403    2.128
  436.060   57.487    0.325    0.396    2.074
  436.310   56.069    0.312    0.387    2.039
  436.560   56.515    0.299    0.390    2.009
  436.810   57.597    0.300    0.385    1.999
  437.060   58.449    0.305    0.379    2.003
  437.310   59.013    0.309    0.398    2.010
  437.560   59.830    0.315    0.425    2.019
  437.810   60.701    0.306    0.411    2.025
  438.060   61.428    0.314    0.407    2.032
  438.310   62.466    0.308    0.418    2.064
  438.560   63.895    0.309    0.425    2.094
  438.810   65.081    0.314    0.414    2.156
  439.060   66.271    0.317    0.424    2.235
  439.310   67.814    0.306    0.428    2.364
  439.560   68.933    0.289    0.415    2.553
  439.810   70.598    0.268    0.405    2.890
  440.060   66.472    0.246    0.393    3.482
  440.310   62.812    0.244    0.384    4.723
  440.560   57.139    0.233    0.316    6.638
  440.810   53.659    0.209    0.259    8.937
  441.060   55.239    0.168    0.227   11.598
  441.310   60.955    0.041    0.204   14.803
  441.560   65.938    0.037    0.195   18.364
  441.810   70.739    0.081    0.233   13.086
  442.060   75.554    0.113    0.294    8.759
  442.310   80.452    0.151    0.347    6.229
  442.560   85.802    0.177    0.381    4.892
  442.810   87.905    0.196    0.397    4.497
  443.060   85.879    0.203    0.412    4.446
  443.310   83.627    0.205    0.399    4.508
  443.560   80.961    0.205    0.388    4.697
  443.810   79.900    0.192    0.386    4.882
  444.060   79.124    0.185    0.392    5.045
  444.310   79.917    0.179    0.391    5.036
  444.560   82.319    0.175    0.388    4.888
  444.810   84.942    0.184    0.400    4.763
  445.060   85.842    0.202    0.409    4.555
  445.310   86.648    0.207    0.414    4.402
  445.560   86.975    0.197    0.414    4.282
  445.810   87.165    0.187    0.411    4.258
  446.060   87.933    0.184    0.411    4.339
  446.310   89.072    0.184    0.413    4.407
  446.560   88.221    0.177    0.417    4.499
  446.810   85.869    0.170    0.416    4.566
  447.060   84.702    0.180    0.410    4.619
  447.310   86.936    0.197    0.406    4.625
  447.560   88.133    0.201    0.404    4.642
  447.810   87.034    0.194    0.403    4.636
  448.060   86.595    0.181    0.405    4.625
  448.310   87.175    0.193    0.398    4.667
  448.560   88.887    0.185    0.391    4.652
  448.810   89.966    0.194    0.388    4.627
  449.060   90.130    0.185    0.391    4.599
  449.310   89.818    0.177    0.389    4.581
  449.560   89.254    0.181    0.386    4.560
  449.810   88.346    0.191    0.387    4.559
  450.060   87.964    0.198    0.403    4.569
  450.310   88.206    0.188    0.414    4.575
  450.560   87.840    0.182    0.421    4.602
  450.810   86.329    0.171    0.426    4.646
  451.060   87.410    0.157    0.436    4.704
  451.310   89.525    0.185    0.416    4.744
  451.560   91.596    0.199    0.397    4.775
  451.810   91.781    0.203    0.399    4.801
  452.060   89.634    0.192    0.428    4.703
  452.310   89.633    0.184    0.438    4.186
  452.560   90.550    0.200    0.422    3.601
  452.810   92.583    0.215    0.439    3.183
  453.060   94.230    0.224    0.478    2.925
  453.310   93.164    0.238    0.477    2.729
  453.560   91.876    0.251    0.478    2.721
  453.810   90.639    0.249    0.491    2.785
  454.060   91.152    0.241    0.501    2.865
  454.310   91.274    0.242    0.490    2.977
  454.560   90.820    0.229    0.489    3.102
  454.810   89.558    0.222    0.503    3.246
  455.060   89.530    0.210    0.470    3.381
  455.310   91.486    0.175    0.437    3.498
  455.560   94.183    0.144    0.415    3.609
  455.810   96.948    0.169    0.416    3.691
  456.060   98.538    0.185    0.425    3.736
  456.310   99.509    0.190    0.431    3.770
  456.560  100.175    0.190    0.427    3.798
  456.810   99.291    0.186    0.421    3.838
  457.060   95.990    0.198    0.407    3.905
  457.310   92.758    0.204    0.397    4.000
  457.560   88.649    0.190    0.403    4.182
  457.810   84.591    0.194    0.416    4.532
  458.060   77.524    0.189    0.432    4.838
  458.310   71.756    0.190    0.429    5.232
  458.560   68.565    0.202    0.428    5.630
  458.810   67.509    0.218    0.407    6.128
  459.060   69.517    0.180    0.367    6.628
  459.310   73.489    0.139    0.350    6.570
  459.560   76.699    0.126    0.340    5.776
  459.810   79.603    0.134    0.325    5.418
  460.060   74.209    0.154    0.324    5.621
  460.310   68.648    0.180    0.354    6.757
  460.560   64.868    0.197    0.373    8.513
  460.810   59.210    0.196    0.336   10.785
  461.060   55.606    0.115    0.290   12.712
  461.310   53.832    0.061    0.211   14.357
  461.560   52.519    0.040    0.179   15.622
  461.810   60.459    0.024    0.169   14.048
  462.060   62.923    0.029    0.192   12.317
  462.310   65.744    0.080    0.214   10.597
  462.560   67.177    0.124    0.241    9.410
  462.810   68.502    0.153    0.293    7.720
  463.060   71.866    0.142    0.305    7.027
  463.310   76.544    0.132    0.303    6.277
