~VERSION INFORMATION
 VERS.                 2.0:   CWLS LOG ASCII STANDARD -VERSION 2.0
 WRAP.                  NO:   ONE LINE PER DEPTH STEP
~WELL INFORMATION BLOCK
#MNEM.UNIT           DATA                    DESCRIPTION OF MNEMONIC
#---------    -------------------            -------------------------------
# Generated from Intellog Unique Number	CS_73_76/WELL/811
WELL.         FOREST OIL CORPORATION         : Well_name    - WELL
LOC .         00/10-05-073-18W4/0            : Location     - LOCATION
UWI .         00/10-05-073-18W4/0            : Uwi          - UNIQUE WELL ID
ENTR.         SP                             : Entered      - ENTERED BY
SRVC.         SCHLUMBERGER                   : Scn          - SERVICE COMPANY
STRT.M        274.32                         : top_depth    - START DEPTH
STOP.M        496.57                         : bot_depth    - STOP DEPTH
STEP.M        0.25                           : increment    - STEP LENGTH
 NULL. -999.2500:NULL Value
~CURVE INFORMATION BLOCK
#MNEM UNIT       ERCB CURVE CODE    CURVE DESCRIPTION
#-----------   ------------------   ----------------------------------
DEPT.M        00 001 00 00         : DEPTH        - DEPTH
GR  .API      00 310 00 00         : GR           - GAMMA RAY
DPHI.V/V      00 890 00 00         : PHID         - DENSITY POROSITY (SANDSTONE)
NPHI.V/V      00 330 00 00         : PHIN         - NEUTRON POROSITY (SANDSTONE)
ILD .OHMM     00 120 00 00         : RESD         - DEEP RESISTIVITY (DIL)
~PARAMETER INFORMATION
#MNEM.UNIT           DATA             DESCRIPTION OF MNEMONIC
#---------         -----------     ------------------------------
GL  .M        594.543              : gl           - GROUND LEVEL ELEVATION
EREF.M        598.201              : kb           - ELEVATION OF DEPTH REFERENCE
DATM.M        594.543              : datum        - DATUM ELEVATION
TDD .M        520.903              : tdd          - TOTAL DEPTH DRILLER
RUN .         ONE                  : Run          - RUN NUMBER
ENG .         BILL                 : Engineer     - RECORDING ENGINEER
WIT .         JIM                  : Witness      - WITNESSED BY
MUD .         GEL                  : Mud_type     - MUD TYPE
MATR.         SANDSTONE            : Logunit      - NEUTRON MATRIX
TMAX.C        81.1111              : BHT          - MAXIMUM RECORDED TEMPERATURE
BHTD.M        520.903              : BHTDEP       - MAXIMUM RECORDED TEMPERATURE
MATR.         1                    : LOGUNIT      - NEUTRON MATRIX
RMT .C        25                   : MDTP         - TEMPERATURE OF MUD
NEUT.         1                    : NEUTRON      - NEUTRON TYPE
RESI.         0                    : RESIST       - RESISTIVITY TYPE
RMC .OHMM     0.25                 : RMC          - RESISTIVITY OF MUD CAKE
RMF .OHMM     0.25                 : RMF          - RESISTIVITY OF MUD FILTRATE
SUFT.C        15                   : SUFT         - SURFACE TEMPERATURE
~A  DEPTH       GR     PHID     PHIN     RESD
# ...
  404.820   85.627    0.241    0.492    4.821
  405.070   83.986    0.242    0.487    4.686
  405.320   82.699    0.238    0.483    4.542
  405.570   81.384    0.234    0.480    4.504
  405.820   80.552    0.227    0.478    4.429
  406.070   77.827    0.215    0.486    4.427
  406.320   76.643    0.203    0.498    4.421
  406.570   76.100    0.193    0.503    4.351
  406.820   76.075    0.214    0.507    4.270
  407.070   76.754    0.240    0.508    4.109
  407.320   76.155    0.265    0.496    4.068
  407.570   75.254    0.267    0.482    3.956
  407.820   73.249    0.254    0.475    3.960
  408.070   71.631    0.254    0.468    3.959
  408.320   68.558    0.272    0.462    3.965
  408.570   64.511    0.291    0.468    4.156
  408.820   62.036    0.211    0.431    4.397
  409.070   57.312    0.173    0.379    4.878
  409.320   53.934    0.144    0.305    5.316
  409.570   51.283    0.133    0.282    5.691
  409.820   52.482    0.181    0.292    5.906
  410.070   53.890    0.240    0.391    5.685
  410.320   55.060    0.305    0.433    5.066
  410.570   55.440    0.336    0.507    4.729
  410.820   55.386    0.338    0.487    4.407
  411.070   56.094    0.328    0.467    4.033
  411.320   56.619    0.325    0.478    3.870
  411.570   57.690    0.321    0.493    3.784
  411.820   58.001    0.313    0.504    3.888
  412.070   58.073    0.321    0.492    4.121
  412.320   56.109    0.288    0.406    4.431
  412.570   54.914    0.249    0.363    4.655
  412.820   55.455    0.203    0.347    4.796
  413.070   55.687    0.233    0.371    4.899
  413.320   57.410    0.320    0.402    4.788
  413.570   57.743    0.338    0.445    4.445
  413.820   58.654    0.328    0.479    4.147
  414.070   58.622    0.319    0.477    3.850
  414.320   58.619    0.314    0.470    3.727
  414.570   58.522    0.318    0.477    3.693
  414.820   58.044    0.318    0.475    3.636
  415.070   57.753    0.324    0.481    3.628
  415.320   57.487    0.328    0.489    3.707
  415.570   58.029    0.334    0.498    3.699
  415.820   58.367    0.344    0.508    3.697
  416.070   58.725    0.343    0.513    3.696
  416.320   58.749    0.333    0.504    3.697
  416.570   58.750    0.326    0.498    3.717
  416.820   58.769    0.332    0.497    3.759
  417.070   58.090    0.339    0.494    3.758
  417.320   58.923    0.333    0.490    3.756
  417.570   60.591    0.329    0.484    3.755
  417.820   58.664    0.323    0.479    3.793
  418.070   57.628    0.318    0.474    3.819
  418.320   57.590    0.324    0.465    3.820
  418.570   59.274    0.331    0.467    3.851
  418.820   59.420    0.327    0.468    3.883
  419.070   58.873    0.316    0.493    3.937
  419.320   58.862    0.334    0.514    4.062
  419.570   60.243    0.344    0.512    4.098
  419.820   65.289    0.368    0.517    4.098
  420.070   69.530    0.308    0.518    4.104
  420.320   73.823    0.237    0.519    3.952
  420.570   79.933    0.226    0.511    3.760
  420.820   86.229    0.233    0.502    3.664
  421.070   89.954    0.243    0.515    3.607
  421.320   90.528    0.247    0.526    3.494
  421.570   88.850    0.246    0.533    3.471
  421.820   88.888    0.243    0.525    3.411
  422.070   89.428    0.245    0.532    3.376
  422.320   88.416    0.257    0.544    3.339
  422.570   90.173    0.266    0.560    3.336
  422.820   89.552    0.263    0.563    3.327
  423.070   88.988    0.257    0.543    3.394
  423.320   86.550    0.249    0.529    3.194
  423.570   85.105    0.241    0.513    3.289
  423.820   84.255    0.246    0.512    3.388
  424.070   84.274    0.261    0.503    3.491
  424.320   84.267    0.256    0.510    3.605
  424.570   84.846    0.246    0.517    3.775
  424.820   84.901    0.262    0.528    3.806
  425.070   84.906    0.248    0.515    3.928
  425.320   82.999    0.248    0.514    3.981
  425.570   80.359    0.241    0.526    4.061
  425.820   80.854    0.227    0.537    4.137
  426.070   80.945    0.207    0.529    4.200
  426.320   81.700    0.191    0.469    4.283
  426.570   85.576    0.196    0.467    4.356
  426.820   86.767    0.219    0.477    4.353
  427.070   85.361    0.218    0.477    4.353
  427.320   83.952    0.215    0.475    4.351
  427.570   82.925    0.238    0.491    4.343
  427.820   83.345    0.219    0.521    4.444
  428.070   81.409    0.207    0.539    4.575
  428.320   76.027    0.211    0.469    4.704
  428.570   69.771    0.161    0.421    4.949
  428.820   63.395    0.168    0.376    5.410
  429.070   58.974    0.209    0.402    5.787
  429.320   60.693    0.234    0.416    6.025
  429.570   62.336    0.228    0.420    6.331
  429.820   63.326    0.222    0.426    6.301
  430.070   63.680    0.237    0.440    5.911
  430.320   64.010    0.257    0.446    5.683
  430.570   63.750    0.240    0.433    5.353
  430.820   63.744    0.210    0.410    5.282
  431.070   63.813    0.169    0.361    5.517
  431.320   63.113    0.118    0.309    6.039
  431.570   66.523    0.126    0.301    6.907
  431.820   70.867    0.154    0.341    7.715
  432.070   77.790    0.169    0.388    8.338
  432.320   80.821    0.200    0.422    7.535
  432.570   83.994    0.206    0.446    6.915
  432.820   85.369    0.204    0.455    6.097
  433.070   83.415    0.203    0.457    5.622
  433.320   81.598    0.194    0.453    5.434
  433.570   80.674    0.202    0.448    5.266
  433.820   81.235    0.197    0.439    5.270
  434.070   83.304    0.199    0.446    5.149
  434.320   84.733    0.211    0.461    5.242
  434.570   86.532    0.219    0.477    5.249
  434.820   85.243    0.212    0.480    5.249
  435.070   83.640    0.204    0.484    5.248
  435.320   83.934    0.194    0.485    5.247
  435.570   84.322    0.194    0.479    5.245
  435.820   84.414    0.205    0.465    5.416
  436.070   83.721    0.200    0.467    5.461
  436.320   83.208    0.209    0.465    5.528
  436.570   82.816    0.214    0.446    5.628
  436.820   84.647    0.205    0.442    5.742
  437.070   87.243    0.191    0.451    5.722
  437.320   88.592    0.209    0.452    5.843
  437.570   89.837    0.198    0.457    5.842
  437.820   89.826    0.202    0.471    5.936
  438.070   89.808    0.180    0.462    5.924
  438.320   90.519    0.186    0.452    6.048
  438.570   90.755    0.206    0.442    6.151
  438.820   89.115    0.225    0.433    6.150
  439.070   89.900    0.241    0.451    6.030
  439.320   88.239    0.269    0.442    5.849
  439.570   88.297    0.252    0.442    5.667
  439.820   88.272    0.235    0.456    5.602
  440.070   84.177    0.209    0.462    5.485
  440.320   78.677    0.176    0.459    5.492
  440.570   76.917    0.151    0.447    5.488
  440.820   76.115    0.168    0.436    5.441
  441.070   77.643    0.194    0.447    5.392
  441.320   79.090    0.194    0.458    5.237
  441.570   80.779    0.230    0.453    5.057
  441.820   81.695    0.251    0.465    4.903
  442.070   82.133    0.274    0.476    4.522
  442.320   82.406    0.250    0.468    4.226
  442.570   83.544    0.266    0.500    3.806
  442.820   80.879    0.270    0.535    3.411
  443.070   79.787    0.303    0.562    2.928
  443.320   79.828    0.328    0.582    2.559
  443.570   82.427    0.304    0.606    2.333
  443.820   85.065    0.315    0.608    2.176
  444.070   86.463    0.299    0.598    2.041
  444.320   86.833    0.275    0.580    2.037
  444.570   84.767    0.252    0.544    2.080
  444.820   83.420    0.229    0.500    2.131
  445.070   81.596    0.211    0.451    2.368
  445.320   80.679    0.187    0.426    2.631
  445.570   80.400    0.171    0.404    3.134
  445.820   82.502    0.161    0.422    3.610
  446.070   83.709    0.195    0.449    4.192
  446.320   84.043    0.201    0.469    4.734
  446.570   83.768    0.208    0.493    4.902
  446.820   83.382    0.221    0.505    4.534
  447.070   78.410    0.215    0.510    4.256
  447.320   72.485    0.164    0.421    4.382
  447.570   66.214    0.054    0.294    4.800
  447.820   68.070    0.032    0.298    5.264
  448.070   72.038    0.091    0.381    5.956
