~VERSION INFORMATION
 VERS.                 2.0:   CWLS LOG ASCII STANDARD -VERSION 2.0
 WRAP.                  NO:   ONE LINE PER DEPTH STEP
~WELL INFORMATION BLOCK
#MNEM.UNIT           DATA                    DESCRIPTION OF MNEMONIC
#---------    -------------------            -------------------------------
# Generated from Intellog Unique Number	CW_70_72/WELL/3033
NULL.         -999.25                        : NULL_VALUE
WELL.         PANTHER FOW HUNDO 11-32        : Well_name    - WELL              
LOC .         11-32-070-01W5                 : Location     - LOCATION          
UWI .         00/11-32-070-01W5/0            : Uwi          - UNIQUE WELL ID    
ENTR.         JAYE                           : Entered      - ENTERED BY        
SRVC.         SCHLUMBERGER                   : Scn          - SERVICE COMPANY   
DATE.         18 FEB 79                      : Date         - LOG DATE          
STRT.M        410                            : top_depth    - START DEPTH       
STOP.M        655                            : bot_depth    - STOP DEPTH        
STEP.M        0.25                           : increment    - STEP LENGTH       
~CURVE INFORMATION BLOCK
#MNEM UNIT       ERCB CURVE CODE    CURVE DESCRIPTION
#-----------   ------------------   ----------------------------------
DEPT.M        00 001 00 00         : DEPTH        - DEPTH                       
ILD .OHMM     00 120 00 00         : RESD         - DEEP RESISTIVITY (DIL)      
CALI.MM       00 280 01 00         : CAL          - CALIPER                     
GR  .API      00 310 00 00         : GR           - GAMMA RAY                   
NPHI.V/V      00 330 00 00         : PHIN         - NEUTRON POROSITY (SANDSTONE)
DPHI.V/V      00 890 00 00         : PHID         - DENSITY POROSITY (SANDSTONE)
~PARAMETER INFORMATION       
#MNEM.UNIT           DATA             DESCRIPTION OF MNEMONIC
#---------         -----------     ------------------------------
GL  .M        591.1                : gl           - GROUND LEVEL ELEVATION      
EREF.M        595                  : kb           - ELEVATION OF DEPTH REFERENCE
DATM.M        591.1                : datum        - DATUM ELEVATION             
TDD .M        1533                 : tdd          - TOTAL DEPTH DRILLER         
RUN .         ONE                  : Run          - RUN NUMBER                  
ENG .         GILLIS               : Engineer     - RECORDING ENGINEER          
WIT .         WETHERLEY            : Witness      - WITNESSED BY                
BASE.         EDM                  : Branch       - HOME BASE OF LOGGING UNIT   
MUD .         GEL MUD              : Mud_type     - MUD TYPE                    
MATR.         SANDSTONE            : Logunit      - NEUTRON MATRIX              
TMAX.C        42                   : BHT          - MAXIMUM RECORDED TEMPERATURE
BHTD.M        1532.5               : BHTDEP       - MAXIMUM RECORDED TEMPERATURE
RMT .C        17                   : MDTP         - TEMPERATURE OF MUD          
MUDD.KG/M     1090                 : MWT          - MUD DENSITY                 
NEUT.         1                    : NEUTRON      - NEUTRON TYPE                
RESI.         0                    : RESIST       - RESISTIVITY TYPE            
RM  .OHMM     1.41                 : RM           - RESISTIVITY OF MUD          
RMC .OHMM     0.25                 : RMC          - RESISTIVITY OF MUD CAKE     
RMF .OHMM     1.13                 : RMF          - RESISTIVITY OF MUD FILTRATE 
SUFT.C        0                    : SUFT         - SURFACE TEMPERATURE         
~A  DEPTH     RESD      CAL       GR     PHIN     PHID
# ...
  483.000    1.950  227.045   54.926    0.454    0.297
  483.250    1.978  226.964   58.721    0.462    0.290
  483.500    1.980  226.258   60.879    0.450    0.296
  483.750    1.998  225.966   53.713    0.434    0.283
  484.000    2.012  226.417   51.715    0.427    0.284
  484.250    2.022  227.171   53.365    0.442    0.294
  484.500    2.036  228.248   56.972    0.441    0.302
  484.750    2.042  229.640   56.295    0.438    0.304
  485.000    2.052  231.661   55.935    0.446    0.295
  485.250    2.075  233.998   56.768    0.470    0.282
  485.500    2.124  236.127   59.368    0.472    0.312
  485.750    2.198  237.092   61.711    0.468    0.322
  486.000    2.318  238.276   63.494    0.466    0.312
  486.250    2.387  238.298   62.562    0.460    0.306
  486.500    2.338  238.324   60.376    0.450    0.292
  486.750    2.272  238.043   59.507    0.437    0.308
  487.000    2.133  237.748   58.703    0.448    0.315
  487.250    2.050  237.457   58.026    0.452    0.316
  487.500    1.985  236.963   57.914    0.441    0.322
  487.750    1.870  236.669   58.060    0.432    0.322
  488.000    1.775  236.171   58.198    0.423    0.323
  488.250    1.687  235.777   59.221    0.453    0.321
  488.500    1.646  235.592   60.938    0.479    0.320
  488.750    1.609  235.617   62.843    0.474    0.315
  489.000    1.641  235.748   63.488    0.460    0.309
  489.250    1.718  235.985   62.309    0.445    0.293
  489.500    1.860  237.590   61.189    0.427    0.253
  489.750    1.979  240.764   60.261    0.382    0.188
  490.000    2.126  244.992   58.764    0.321    0.130
  490.250    2.358  248.267   57.267    0.242    0.128
  490.500    2.614  248.401   55.705    0.315    0.176
  490.750    2.809  239.501   55.598    0.394    0.240
  491.000    2.771  236.059   57.064    0.432    0.299
  491.250    2.469  235.455   59.030    0.429    0.332
  491.500    2.069  235.802   61.816    0.423    0.316
  491.750    1.857  236.245   62.461    0.443    0.324
  492.000    1.714  237.009   63.610    0.460    0.314
  492.250    1.713  237.555   65.959    0.448    0.294
  492.500    1.738  238.947   69.125    0.457    0.275
  492.750    1.799  239.918   68.823    0.468    0.277
  493.000    1.866  239.313   69.343    0.469    0.270
  493.250    1.950  238.711   73.517    0.463    0.271
  493.500    2.049  239.363   77.187    0.439    0.268
  493.750    2.177  240.757   75.123    0.427    0.238
  494.000    2.288  241.935   75.894    0.421    0.225
  494.250    2.422  243.221   78.997    0.422    0.209
  494.500    2.531  244.930   79.769    0.428    0.242
  494.750    2.605  247.481   76.574    0.422    0.252
  495.000    2.687  248.862   76.651    0.425    0.245
  495.250    2.778  250.885   80.888    0.425    0.241
  495.500    2.806  252.699   87.013    0.437    0.236
  495.750    2.815  253.666   88.730    0.453    0.241
  496.000    2.793  254.429   88.618    0.462    0.231
  496.250    2.751  254.662   86.051    0.463    0.220
  496.500    2.750  254.688   86.570    0.458    0.226
  496.750    2.763  254.399   87.153    0.444    0.230
  497.000    2.802  254.005   84.650    0.427    0.221
  497.250    2.864  254.035   83.214    0.418    0.212
  497.500    2.976  257.105   81.215    0.407    0.204
  497.750    3.093  260.069   79.717    0.423    0.200
  498.000    3.214  261.879   81.941    0.427    0.189
  498.250    3.315  262.330   84.790    0.419    0.201
  498.500    3.407  261.827   86.065    0.423    0.198
  498.750    3.463  261.331   83.624    0.444    0.198
  499.000    3.498  260.932   81.308    0.443    0.209
  499.250    3.535  260.642   79.624    0.431    0.224
  499.500    3.581  264.343   80.457    0.417    0.204
  499.750    3.611  272.033   87.277    0.414    0.193
  500.000    3.629  275.105   90.508    0.429    0.175
  500.250    3.676  265.890   91.844    0.447    0.195
  500.500    3.693  257.832   92.678    0.430    0.197
  500.750    3.712  255.546   92.945    0.432    0.151
  501.000    3.717  253.791   92.519    0.443    0.159
  501.250    3.723  252.345   90.141    0.412    0.143
  501.500    3.720  251.535   89.781    0.432    0.169
  501.750    3.684  251.457   89.858    0.463    0.185
  502.000    3.582  252.634   89.180    0.486    0.184
  502.250    3.455  255.494   87.179    0.505    0.217
  502.500    3.309  261.820   85.117    0.521    0.288
  502.750    3.140  276.755   83.369    0.529    0.304
  503.000    2.979  292.215   82.754    0.521    0.313
  503.250    2.885  254.231   82.265    0.488    0.286
  503.500    2.894  230.946   82.281    0.426    0.230
  503.750    2.942  223.939   77.885    0.406    0.228
  504.000    2.973  223.240   74.812    0.411    0.246
  504.250    3.022  223.785   78.927    0.425    0.263
  504.500    3.031  225.493   81.019    0.425    0.225
  504.750    3.046  226.980   83.742    0.439    0.203
  505.000    3.045  230.161   88.483    0.449    0.164
  505.250    3.060  233.862   89.255    0.440    0.150
  505.500    3.104  236.511   86.751    0.435    0.163
  505.750    3.167  241.158   87.964    0.431    0.193
  506.000    3.248  247.690   89.115    0.440    0.218
  506.250    3.345  247.612   89.443    0.476    0.243
  506.500    3.380  242.491   88.514    0.504    0.257
  506.750    3.353  244.619   86.764    0.504    0.242
  507.000    3.271  245.592   84.513    0.488    0.247
  507.250    3.162  240.051   81.882    0.473    0.268
  507.500    3.040  228.734   76.856    0.454    0.271
  507.750    2.933  226.245   77.001    0.458    0.263
  508.000    2.809  226.375   79.158    0.471    0.267
  508.250    2.756  226.921   78.353    0.470    0.280
  508.500    2.709  227.261   74.650    0.465    0.285
  508.750    2.663  227.400   69.248    0.486    0.295
  509.000    2.632  226.476   71.594    0.509    0.284
  509.250    2.587  224.927   74.697    0.491    0.266
  509.500    2.494  223.064   74.146    0.466    0.278
  509.750    2.481  221.618   68.680    0.445    0.267
  510.000    2.461  220.912   63.592    0.424    0.243
  510.250    2.473  221.145   58.443    0.398    0.235
  510.500    2.689  221.173   55.811    0.372    0.237
  510.750    2.772  221.724   55.512    0.312    0.165
  511.000    3.023  222.173   57.102    0.295    0.137
  511.250    3.188  222.196   60.078    0.330    0.165
  511.500    3.174  222.222   65.261    0.378    0.202
  511.750    2.892  222.454   69.749    0.422    0.243
  512.000    2.749  223.113   76.761    0.421    0.258
  512.250    2.632  224.397   81.815    0.428    0.234
  512.500    2.490  225.263   85.734    0.442    0.201
  512.750    2.437  222.563   81.531    0.468    0.200
  513.000    2.387  219.755   70.204    0.481    0.229
  513.250    2.364  218.514   65.559    0.428    0.278
  513.500    2.336  217.911   67.464    0.431    0.289
  513.750    2.237  218.781   67.100    0.446    0.292
  514.000    2.115  219.744   63.084    0.447    0.288
  514.250    2.041  220.511   62.031    0.434    0.287
  514.500    2.025  220.538   61.919    0.431    0.295
  514.750    2.005  220.243   60.486    0.429    0.302
  515.000    1.981  219.953   61.193    0.441    0.296
  515.250    1.952  219.876   64.737    0.435    0.285
  515.500    1.936  219.797   65.698    0.423    0.270
  515.750    1.935  219.821   66.092    0.429    0.266
  516.000    1.948  219.962   65.731    0.438    0.281
  516.250    2.017  220.411   65.556    0.429    0.273
  516.500    2.096  220.425   65.257    0.418    0.262
  516.750    2.223  220.562   64.703    0.424    0.253
  517.000    2.362  220.795   63.587    0.429    0.239
  517.250    2.542  220.503   62.530    0.410    0.200
  517.500    2.777  221.581   62.294    0.371    0.198
  517.750    3.167  223.392   61.050    0.342    0.180
  518.000    3.576  225.094   59.363    0.314    0.151
  518.250    4.367  226.179   56.481    0.269    0.119
  518.500    5.254  226.623   54.039    0.239    0.097
  518.750    6.204  226.958   52.480    0.222    0.063
  519.000    7.478  226.568   51.046    0.202    0.042
  519.250    9.029  226.484   50.243    0.182    0.019
