~VERSION INFORMATION
 VERS.                 2.0:   CWLS LOG ASCII STANDARD -VERSION 2.0
 WRAP.                  NO:   ONE LINE PER DEPTH STEP
~WELL INFORMATION BLOCK
#MNEM.UNIT           DATA                    DESCRIPTION OF MNEMONIC
#---------    -------------------            -------------------------------
# Generated from Intellog Unique Number	CN_91_93/WELL/2803
WELL.         PARAMOUNT RESOURCES LTD.       : Well_name    - WELL
LOC .         00/16-33-093-21W4/0            : Location     - LOCATION
UWI .         00/16-33-093-21W4/0            : Uwi          - UNIQUE WELL ID
ENTR.         JOETTE                         : Entered      - ENTERED BY
SRVC.         COMPUTALOG                     : Scn          - SERVICE COMPANY
DATE.         03/24/92                       : Date         - LOG DATE
STRT.M        190                            : top_depth    - START DEPTH
STOP.M        360                            : bot_depth    - STOP DEPTH
STEP.M        0.25                           : increment    - STEP LENGTH
 NULL. -999.2500:NULL Value
~CURVE INFORMATION BLOCK
#MNEM UNIT       ERCB CURVE CODE    CURVE DESCRIPTION
#-----------   ------------------   ----------------------------------
DEPT.M        00 001 00 00         : DEPTH        - DEPTH
CALI.MM       00 280 01 00         : CAL          - CALIPER
GR  .API      00 310 00 00         : GR           - GAMMA RAY
NPHI.V/V      00 330 00 00         : PHIN         - NEUTRON POROSITY (SANDSTONE)
DPHI.V/V      00 890 00 00         : PHID         - DENSITY POROSITY (SANDSTONE)
ILD .OHMM     00 120 00 00         : RESD         - DEEP RESISTIVITY (DIL)
~PARAMETER INFORMATION
#MNEM.UNIT           DATA             DESCRIPTION OF MNEMONIC
#---------         -----------     ------------------------------
GL  .M        445.9                : gl           - GROUND LEVEL ELEVATION
EREF.M        449.3                : kb           - ELEVATION OF DEPTH REFERENCE
DATM.M        449.3                : datum        - DATUM ELEVATION
TDD .M        359.4                : tdd          - TOTAL DEPTH DRILLER
RUN .         ONE                  : Run          - RUN NUMBER
ENG .         BILL                 : Engineer     - RECORDING ENGINEER
WIT .         JIM                  : Witness      - WITNESSED BY
MUD .         GEL                  : Mud_type     - MUD TYPE
MATR.         SANDSTONE            : Logunit      - NEUTRON MATRIX
TMAX.C        29                   : BHT          - MAXIMUM RECORDED TEMPERATURE
BHTD.M        359.4                : BHTDEP       - MAXIMUM RECORDED TEMPERATURE
RMT .C        11                   : MDTP         - TEMPERATURE OF MUD
MUDD.KG/M     1110                 : MWT          - MUD DENSITY
NEUT.         1                    : NEUTRON      - NEUTRON TYPE
RESI.         0                    : RESIST       - RESISTIVITY TYPE
RM  .OHMM     3.2                  : RM           - RESISTIVITY OF MUD
RMC .OHMM     3.2                  : RMC          - RESISTIVITY OF MUD CAKE
RMF .OHMM     3.2                  : RMF          - RESISTIVITY OF MUD FILTRATE
SUFT.C        4                    : SUFT         - SURFACE TEMPERATURE
~A  DEPTH      CAL       GR     PHIN     PHID     RESD
# ...
  336.000  170.924  122.856    0.364    0.206   11.011
  336.250  171.788  122.776    0.369    0.207   10.971
  336.500  171.734  122.743    0.368    0.205   10.940
  336.750  171.573  122.064    0.364    0.197   10.900
  337.000  171.519  117.698    0.380    0.191   10.877
  337.250  171.412  112.701    0.376    0.178   10.845
  337.500  171.277  114.481    0.362    0.170   10.404
  337.750  171.143  115.015    0.359    0.159   10.168
  338.000  171.063  113.753    0.366    0.156    9.768
  338.250  170.982  113.074    0.383    0.190    8.829
  338.500  170.848  115.452    0.393    0.204    8.475
  338.750  170.767  119.075    0.382    0.207    8.457
  339.000  170.767  118.412    0.382    0.198   10.425
  339.250  169.501  102.353    0.387    0.189   10.806
  339.500  168.397  105.362    0.369    0.169   10.366
  339.750  167.292  110.229    0.357    0.065    9.383
  340.000  164.085  115.696    0.339    0.144    8.336
  340.250  157.832  119.949    0.400    0.192    6.585
  340.500  155.676  126.645    0.418    0.219    5.411
  340.750  157.617  125.335    0.427    0.217    4.891
  341.000  159.558  122.829    0.428    0.210    5.380
  341.250  160.502  112.301    0.428    0.203    6.767
  341.500  163.414  109.180    0.422    0.197    7.877
  341.750  164.357  106.011    0.411    0.204    9.000
  342.000  165.220  104.733    0.402    0.211   10.882
  342.250  165.194  101.612    0.397    0.205   11.499
  342.500  165.086   95.370    0.393    0.197   10.820
  342.750  165.976   88.562    0.356    0.172    9.985
  343.000  166.947   90.341    0.302    0.148    9.395
  343.250  168.888   98.896    0.341    0.097    9.188
  343.500  171.853  109.894    0.360    0.131    8.974
  343.750  171.719  112.886    0.383    0.150    8.961
  344.000  171.638  113.468    0.422    0.169    9.109
  344.250  170.480  114.633    0.429    0.183    9.261
  344.500  170.346  117.026    0.423    0.182    9.408
  344.750  170.292  120.018    0.408    0.189    9.578
  345.000  171.209  119.356    0.405    0.200   10.114
  345.250  171.101  114.989    0.402    0.197   10.889
  345.500  169.970  111.238    0.395    0.190   11.523
  345.750  164.687  107.470    0.371    0.175   12.414
  346.000  163.610  108.020    0.350    0.092   12.867
  346.250  162.451  111.028    0.317    0.181   12.089
  346.500  163.368  114.651    0.335    0.189   11.840
  346.750  163.287  116.446    0.338    0.189   11.350
  347.000  164.204  119.455    0.344    0.187   11.325
  347.250  165.121  121.832    0.352    0.179   11.285
  347.500  166.065  122.415    0.357    0.177   11.916
  347.750  167.979  122.334    0.359    0.172   12.360
  348.000  168.923  122.270    0.359    0.167   13.061
  348.250  170.864  121.607    0.375    0.161   14.357
  348.500  173.802  120.912    0.379    0.151   17.359
  348.750  174.746  119.618    0.366    0.143   19.095
  349.000  174.611  115.268    0.352    0.138   22.212
  349.250  172.482  104.756    0.334    0.125   20.884
  349.500  169.276  101.619    0.311    0.042   20.048
  349.750  168.171  107.700    0.289    0.175   19.607
  350.000  167.012  113.781    0.294    0.192   19.190
  350.250  166.905  117.404    0.319    0.186   18.030
  350.500  167.875  120.428    0.338    0.173   17.295
  350.750  167.741  122.191    0.347    0.164   17.258
  351.000  168.631  119.070    0.353    0.177   17.888
  351.250  168.577  116.548    0.366    0.173   19.271
  351.500  169.467  112.780    0.367    0.157   21.582
  351.750  168.336  110.872    0.355    0.135   23.235
  352.000  167.204  110.209    0.342    0.111   23.655
  352.250  166.073  111.358    0.332    0.197   24.013
  352.500  164.968  112.522    0.330    0.212   23.979
  352.750  164.807  110.614    0.331    0.217   23.875
  353.000  164.699  109.935    0.319    0.209   23.367
  353.250  165.670  111.714    0.301    0.184   22.870
  353.500  168.608  113.494    0.290    0.168   21.518
  353.750  170.576  114.060    0.294    0.183   18.711
  354.000  173.568  112.750    0.327    0.202   15.982
  354.250  178.555  110.842    0.338    0.211   14.189
  354.500  181.520  108.934    0.365    0.219   13.095
  354.750  180.416  110.729    0.388    0.240   12.543
  355.000  175.160  114.368    0.392    0.186   12.516
  355.250  169.932  116.762    0.389    0.062   12.480
  355.500  166.752  117.927    0.384    0.131   11.972
  355.750  164.569  116.617    0.369    0.154   11.049
  356.000  163.491  114.725    0.361    0.150   10.204
  356.250  163.357  115.874    0.349    0.144    9.965
  356.500  164.274   99.217    0.341    0.118   10.138
  356.750  164.166   96.063    0.342    0.102   10.116
  357.000  164.032   94.171    0.357    0.138   10.277
  357.250  163.951   94.722    0.367    0.162   10.455
  357.500  163.871   95.272    0.360    0.156   10.417
  357.750  162.686   96.452    0.342    0.145   10.598
  358.000  162.632   98.216    0.338    0.134   10.568
  358.250  162.551  100.011    0.345    0.124   10.335
  358.500  161.420  103.019    0.343    0.123   10.335
  358.750  160.261  106.027    0.334    0.125    9.872
  359.000  160.181  108.389    0.333    0.128    9.857
  359.250  159.022  108.955    0.334    0.128    9.829
  359.500  158.915  109.537    0.361    0.128    9.787
  359.750  158.807  110.055    0.390    0.131    9.759
  360.000  158.727  109.392    0.435    0.131    9.935
