~VERSION INFORMATION
 VERS.                 2.0:   CWLS LOG ASCII STANDARD -VERSION 2.0
 WRAP.                  NO:   ONE LINE PER DEPTH STEP
~WELL INFORMATION BLOCK
#MNEM.UNIT           DATA                    DESCRIPTION OF MNEMONIC
#---------    -------------------            -------------------------------
# Generated from Intellog Unique Number	CS_73_76/WELL/3271
WELL.         DOME LEISMER                   : Well_name    - WELL
LOC .         00/12-13-076-10W4/0            : Location     - LOCATION
UWI .         00/12-13-076-10W4/0            : Uwi          - UNIQUE WELL ID
ENTR.         SP                             : Entered      - ENTERED BY
SRVC.         SCHLUMBERGER                   : Scn          - SERVICE COMPANY
STRT.M        250                            : top_depth    - START DEPTH
STOP.M        460                            : bot_depth    - STOP DEPTH
STEP.M        0.25                           : increment    - STEP LENGTH
 NULL. -999.2500:NULL Value
~CURVE INFORMATION BLOCK
#MNEM UNIT       ERCB CURVE CODE    CURVE DESCRIPTION
#-----------   ------------------   ----------------------------------
DEPT.M        00 001 00 00         : DEPTH        - DEPTH
DPHI.V/V      00 890 00 00         : PHID         - DENSITY POROSITY (LIMESTONE)
NPHI.V/V      00 330 00 00         : PHIN         - NEUTRON POROSITY (LIMESTONE)
GR  .API      00 310 00 00         : GR           - GAMMA RAY
ILD .OHMM     00 120 00 00         : RESD         - DEEP RESISTIVITY (DIL)
~PARAMETER INFORMATION
#MNEM.UNIT           DATA             DESCRIPTION OF MNEMONIC
#---------         -----------     ------------------------------
GL  .M        662.72               : gl           - GROUND LEVEL ELEVATION
EREF.M        667                  : kb           - ELEVATION OF DEPTH REFERENCE
DATM.M        667                  : datum        - DATUM ELEVATION
TDD .M        465                  : tdd          - TOTAL DEPTH DRILLER
RUN .         ONE                  : Run          - RUN NUMBER
ENG .         BILL                 : Engineer     - RECORDING ENGINEER
WIT .         JIM                  : Witness      - WITNESSED BY
MUD .         GEL                  : Mud_type     - MUD TYPE
MATR.         LIMESTONE            : Logunit      - NEUTRON MATRIX
TMAX.C        23                   : BHT          - MAXIMUM RECORDED TEMPERATURE
BHTD.M        465                  : BHTDEP       - MAXIMUM RECORDED TEMPERATURE
MATR.         1                    : LOGUNIT      - NEUTRON MATRIX
RMT .C        25                   : MDTP         - TEMPERATURE OF MUD
NEUT.         1                    : NEUTRON      - NEUTRON TYPE
RESI.         0                    : RESIST       - RESISTIVITY TYPE
RMC .OHMM     0.25                 : RMC          - RESISTIVITY OF MUD CAKE
RMF .OHMM     0.25                 : RMF          - RESISTIVITY OF MUD FILTRATE
SUFT.C        15                   : SUFT         - SURFACE TEMPERATURE
~A  DEPTH     PHID     PHIN       GR     RESD
# ...
  424.000    0.208    0.476   91.288    3.888
  424.250    0.211    0.483   88.847    3.886
  424.500    0.211    0.488   98.046    3.884
  424.750    0.201    0.501   98.659    3.955
  425.000    0.203    0.492  101.116    3.954
  425.250    0.190    0.476  104.185    4.027
  425.500    0.170    0.491   98.688    4.025
  425.750    0.182    0.517   95.630    3.948
  426.000    0.214    0.513   96.864    3.729
  426.250    0.207    0.501   95.034    3.657
  426.500    0.205    0.524   90.144    3.655
  426.750    0.199    0.520   87.703    3.939
  427.000    0.163    0.496   87.711    3.937
  427.250    0.134    0.478   92.009    4.086
  427.500    0.170    0.505   93.849    4.161
  427.750    0.198    0.514   96.919    4.238
  428.000    0.191    0.503   94.477    4.156
  428.250    0.172    0.497   96.323    4.077
  428.500    0.182    0.516   93.270    3.924
  428.750    0.212    0.530   93.891    3.777
  429.000    0.219    0.528   95.123    3.704
  429.250    0.225    0.500   93.293    3.703
  429.500    0.229    0.502   93.302    3.771
  429.750    0.230    0.526   93.922    4.064
  430.000    0.228    0.549   90.255    4.811
  430.250    0.210    0.571   71.896    5.805
  430.500    0.100    0.514   65.781    8.141
  430.750    0.037    0.331   62.116    8.940
  431.000    0.053    0.366   66.410   10.991
  431.250    0.168    0.384   70.092   12.067
  431.500    0.220    0.402   65.202   12.762
  431.750    0.246    0.416   62.148   13.752
  432.000    0.278    0.426   57.260   14.273
  432.250    0.279    0.373   58.492   15.672
  432.500    0.253    0.369   64.623   16.265
  432.750    0.240    0.380   71.366   15.656
  433.000    0.240    0.398   70.761   14.787
  433.250    0.248    0.395   73.831   13.969
  433.500    0.238    0.404   78.124   13.194
  433.750    0.233    0.419   79.969   12.701
  434.000    0.250    0.424   81.200   12.694
  434.250    0.253    0.420   86.106   12.685
  434.500    0.258    0.441   83.054   13.167
  434.750    0.279    0.436   75.714   15.885
  435.000    0.291    0.420   70.825   16.794
  435.250    0.289    0.409   73.893   16.477
  435.500    0.272    0.421   81.860   15.563
  435.750    0.258    0.416   87.378   14.700
  436.000    0.241    0.403   92.284   13.886
  436.250    0.226    0.393   99.639   12.873
  436.500    0.228    0.380  109.443   11.931
  436.750    0.253    0.417   97.207   11.486
  437.000    0.286    0.474   69.663   12.852
  437.250    0.307    0.449   50.079   15.800
  437.500    0.312    0.379   53.149   24.804
  437.750    0.314    0.357   64.177   36.129
  438.000    0.306    0.337   89.287   49.723
  438.250    0.286    0.326  107.052   46.094
  438.500    0.252    0.355   99.711   36.755
  438.750    0.242    0.373   86.863   31.010
  439.000    0.247    0.388   70.952   27.169
  439.250    0.250    0.385   57.490   25.664
  439.500    0.263    0.373   61.785   24.702
  439.750    0.249    0.355   64.854   24.226
  440.000    0.213    0.378   60.576   25.144
  440.250    0.247    0.401   54.462   30.335
  440.500    0.301    0.396   54.471   35.916
  440.750    0.300    0.392   52.030   46.718
  441.000    0.299    0.381   51.423   56.363
  441.250    0.307    0.390   57.556   49.379
  441.500    0.278    0.382   63.073   40.121
  441.750    0.205    0.370   71.040   31.397
  442.000    0.121    0.358   67.375   16.548
  442.250    0.164    0.377   55.137   13.961
  442.500    0.305    0.422   53.922   15.044
  442.750    0.303    0.437   52.092   16.835
  443.000    0.306    0.428   51.488   20.696
  443.250    0.318    0.407   53.333   29.025
  443.500    0.317    0.423   57.015   34.366
  443.750    0.322    0.430   61.921   38.454
  444.000    0.328    0.417   66.826   37.012
  444.250    0.313    0.409   65.610   33.667
  444.500    0.302    0.417   63.782   32.405
  444.750    0.301    0.421   64.402   31.789
  445.000    0.295    0.409   65.633   31.180
  445.250    0.280    0.407   63.194   32.972
  445.500    0.285    0.396   64.427   29.434
  445.750    0.282    0.379   67.495   26.277
  446.000    0.253    0.367   72.400   24.359
  446.250    0.240    0.400   67.510   23.446
  446.500    0.275    0.377   63.846   23.434
  446.750    0.282    0.392   60.793   30.482
  447.000    0.299    0.409   57.128   35.416
  447.250    0.306    0.396   53.461   50.617
  447.500    0.313    0.399   55.307   64.607
  447.750    0.319    0.417   57.763   88.924
  448.000    0.317    0.419   60.221   99.493
  448.250    0.314    0.423   62.064   80.847
  448.500    0.318    0.420   63.298   70.838
  448.750    0.315    0.406   62.081   56.482
  449.000    0.309    0.401   60.864   47.659
  449.250    0.313    0.406   62.098   36.600
  449.500    0.307    0.418   64.553   29.737
  449.750    0.293    0.434   70.684   25.568
  450.000    0.276    0.441   78.652   21.169
  450.250    0.272    0.422   82.946   18.201
  450.500    0.256    0.417   85.403   15.945
  450.750    0.246    0.435   89.086   14.235
  451.000    0.245    0.428   92.153   13.196
  451.250    0.245    0.414   95.835   12.004
  451.500    0.230    0.405   96.454   11.128
  451.750    0.221    0.397   94.013   10.511
  452.000    0.209    0.381   95.861   10.310
  452.250    0.200    0.378   94.031   10.112
  452.500    0.199    0.377   93.425   10.106
  452.750    0.208    0.374   93.435   10.101
  453.000    0.225    0.388   93.441    9.541
  453.250    0.230    0.399   95.898    9.359
  453.500    0.228    0.408  106.315    9.178
  453.750    0.208    0.407  109.996    9.004
  454.000    0.211    0.397  108.167    8.666
  454.250    0.208    0.419  105.727    8.993
  454.500    0.197    0.436   76.958    9.690
  454.750    0.129    0.458   60.436   11.261
  455.000    0.106    0.419   36.566   18.708
  455.250    0.018    0.172   26.165   25.749
  455.500    0.037    0.150   20.051   33.493
  455.750    0.064    0.184   20.060   39.651
  456.000    0.085    0.213   20.679   41.153
  456.250    0.088    0.230   20.689   39.611
  456.500    0.077    0.220   19.472   37.412
  456.750    0.078    0.199   15.807   38.824
  457.000    0.072    0.182   12.139   40.296
  457.250    0.066    0.180   10.311   41.818
  457.500    0.067    0.185   11.544   41.018
  457.750    0.075    0.199   11.553   38.742
  458.000    0.077    0.205   10.335   37.288
  458.250    0.089    0.211   10.345   36.574
  458.500    0.101    0.215   10.351   36.554
  458.750    0.098    0.215   10.359   35.857
  459.000    0.100    0.214   10.981   35.171
  459.250    0.104    0.214   10.990   35.150
  459.500    0.119    0.214   11.609   34.481
  459.750    0.121    0.212   11.005   34.459
  460.000    0.117    0.212   10.402   33.795
