~VERSION INFORMATION
 VERS.                 2.0:   CWLS LOG ASCII STANDARD -VERSION 2.0
 WRAP.                  NO:   ONE LINE PER DEPTH STEP
~WELL INFORMATION BLOCK
#MNEM.UNIT           DATA                    DESCRIPTION OF MNEMONIC
#---------    -------------------            -------------------------------
# Generated from Intellog Unique Number	CX_WELLS/WELL/2766
WELL.         NEWBY                          : Well_name    - WELL
LOC .         00/16-07-081-03W4/0            : Location     - LOCATION
UWI .         00/16-07-081-03W400            : Uwi          - UNIQUE WELL ID
ENTR.         T                              : Entered      - ENTERED BY
SRVC.         SCHLUMBERGER                   : Scn          - SERVICE COMPANY
STRT.M        150                            : top_depth    - START DEPTH
STOP.M        250                            : bot_depth    - STOP DEPTH
STEP.M        0.25                           : increment    - STEP LENGTH
 NULL. -999.2500:NULL Value
~CURVE INFORMATION BLOCK
#MNEM UNIT       ERCB CURVE CODE    CURVE DESCRIPTION
#-----------   ------------------   ----------------------------------
DEPT.M        00 001 00 00         : DEPTH        - DEPTH
GR  .API      00 310 00 00         : GR           - GAMMA RAY
NPHI.V/V      00 330 00 00         : PHIN         - NEUTRON POROSITY (SANDSTONE)
DPHI.V/V      00 890 00 00         : PHID         - DENSITY POROSITY (SANDSTONE)
ILD .OHMM     00 120 00 00         : RESD         - DEEP RESISTIVITY (DLL)
~PARAMETER INFORMATION
#MNEM.UNIT           DATA             DESCRIPTION OF MNEMONIC
#---------         -----------     ------------------------------
GL  .M        453                  : gl           - GROUND LEVEL ELEVATION
EREF.M        457.9                : kb           - ELEVATION OF DEPTH REFERENCE
DATM.M        457.9                : datum        - DATUM ELEVATION
TDD .M        258                  : tdd          - TOTAL DEPTH DRILLER
RUN .         ONE                  : Run          - RUN NUMBER
ENG .         BILL                 : Engineer     - RECORDING ENGINEER
WIT .         JIM                  : Witness      - WITNESSED BY
MUD .         GEL                  : Mud_type     - MUD TYPE
MATR.         SANDSTONE            : Logunit      - NEUTRON MATRIX
TMAX.C        18                   : BHT          - MAXIMUM RECORDED TEMPERATURE
BHTD.M        258                  : BHTDEP       - MAXIMUM RECORDED TEMPERATURE
MATR.         1                    : LOGUNIT      - NEUTRON MATRIX
RMT .C        10                   : MDTP         - TEMPERATURE OF MUD
NEUT.         1                    : NEUTRON      - NEUTRON TYPE
RESI.         2.6                  : RESIST       - RESISTIVITY TYPE
RMC .OHMM     0.25                 : RMC          - RESISTIVITY OF MUD CAKE
RMF .OHMM     2.9                  : RMF          - RESISTIVITY OF MUD FILTRATE
SUFT.C        4                    : SUFT         - SURFACE TEMPERATURE
~A  DEPTH       GR     PHIN     PHID     RESD
# ...
  193.500   79.206    0.368    0.303    2.758
  193.750   77.953    0.370    0.305    2.804
  194.000   78.517    0.373    0.308    2.800
  194.250   79.070    0.375    0.305    2.743
  194.500   80.209    0.373    0.301    2.684
  194.750   81.372    0.372    0.300    2.678
  195.000   82.523    0.372    0.294    2.674
  195.250   84.859    0.379    0.286    2.720
  195.500   86.010    0.397    0.275    2.819
  195.750   88.945    0.388    0.287    2.866
  196.000   90.695    0.380    0.302    2.863
  196.250   91.247    0.374    0.298    2.803
  196.500   91.202    0.400    0.299    2.744
  196.750   86.369    0.402    0.306    2.686
  197.000   83.343    0.407    0.314    2.683
  197.250   80.904    0.399    0.327    2.676
  197.500   72.459    0.385    0.334    2.671
  197.750   70.618    0.368    0.333    2.519
  198.000   72.379    0.361    0.325    2.328
  198.250   77.120    0.370    0.314    2.416
  198.500   83.634    0.390    0.299    2.649
  198.750   83.013    0.364    0.289    2.852
  199.000   80.573    0.353    0.301    3.013
  199.250   85.913    0.359    0.309    3.123
  199.500   94.843    0.405    0.279    3.178
  199.750  103.174    0.413    0.272    3.172
  200.000  107.916    0.428    0.258    3.105
  200.250  104.268    0.431    0.260    3.101
  200.500   99.447    0.429    0.265    3.036
  200.750   91.612    0.428    0.275    2.807
  201.000   85.582    0.428    0.286    2.699
  201.250   80.738    0.427    0.291    2.402
  201.500   80.681    0.427    0.307    2.224
  201.750   83.041    0.424    0.326    2.137
  202.000   87.770    0.378    0.331    2.093
  202.250   93.121    0.370    0.317    2.089
  202.500   97.253    0.375    0.303    2.249
  202.750   93.030    0.415    0.290    2.375
  203.000   86.403    0.432    0.284    2.238
  203.250   77.382    0.421    0.303    2.151
  203.500   74.333    0.392    0.329    2.108
  203.750   78.476    0.385    0.338    2.100
  204.000   82.619    0.393    0.324    2.138
  204.250   86.163    0.399    0.318    2.135
  204.500   89.098    0.407    0.309    2.171
  204.750   86.670    0.415    0.304    2.087
  205.000   82.436    0.411    0.314    1.967
  205.250   77.604    0.381    0.333    1.927
  205.500   69.170    0.379    0.347    1.815
  205.750   66.132    0.402    0.349    1.745
  206.000   66.674    0.420    0.349    1.677
  206.250   67.238    0.392    0.355    1.612
  206.500   68.377    0.386    0.360    1.608
  206.750   68.320    0.380    0.359    1.606
  207.000   68.885    0.411    0.354    1.571
  207.250   69.437    0.439    0.352    1.598
  207.500   65.203    0.445    0.354    1.626
  207.750   71.739    0.414    0.359    1.750
  208.000   86.055    0.379    0.353    1.884
  208.250   94.996    0.367    0.337    2.029
  208.500  107.516    0.392    0.317    2.312
  208.750  114.650    0.416    0.289    2.684
  209.000  119.979    0.424    0.266    3.000
  209.250  123.535    0.434    0.245    3.171
  209.500  121.095    0.445    0.233    3.045
  209.750  116.861    0.451    0.231    2.984
  210.000  109.613    0.462    0.235    2.760
  210.250  104.193    0.470    0.247    2.456
  210.500   98.762    0.446    0.272    2.275
  210.750   91.525    0.410    0.301    1.989
  211.000   84.897    0.371    0.317    1.805
  211.250   84.840    0.361    0.336    1.801
  211.500   90.191    0.368    0.338    1.867
  211.750   94.921    0.389    0.304    1.898
  212.000   90.100    0.407    0.275    1.789
  212.250   81.666    0.417    0.276    1.720
  212.500   75.027    0.426    0.300    1.562
  212.750   71.403    0.400    0.309    1.473
  213.000   68.354    0.377    0.333    1.415
  213.250   68.884    0.371    0.352    1.412
  213.500   68.861    0.366    0.352    1.437
  213.750   68.804    0.364    0.354    1.461
  214.000   66.975    0.365    0.358    1.459
  214.250   65.732    0.370    0.355    1.455
  214.500   65.675    0.402    0.350    1.452
  214.750   68.621    0.410    0.341    1.422
  215.000   72.776    0.415    0.333    1.392
  215.250   72.719    0.391    0.333    1.389
  215.500   69.083    0.385    0.334    1.361
  215.750   67.841    0.378    0.338    1.358
  216.000   67.185    0.378    0.342    1.356
  216.250   67.140    0.382    0.347    1.327
  216.500   67.681    0.383    0.352    1.325
  216.750   67.658    0.376    0.354    1.322
  217.000   67.601    0.374    0.353    1.345
  217.250   68.741    0.376    0.350    1.421
  217.500   71.100    0.373    0.344    1.558
  217.750   75.243    0.364    0.338    1.678
  218.000   78.201    0.359    0.322    1.807
  218.250   88.327    0.368    0.287    1.982
  218.500   94.265    0.406    0.279    2.301
  218.750   73.265    0.418    0.296    2.574
  219.000   66.039    0.393    0.323    2.769
  219.250   57.007    0.386    0.354    2.764
  219.500   53.360    0.375    0.357    2.707
  219.750   51.531    0.367    0.351    2.651
  220.000   49.678    0.375    0.342    2.646
  220.250   48.425    0.383    0.355    2.691
  220.500   56.181    0.385    0.364    2.787
  220.750   64.512    0.386    0.365    2.837
  221.000   67.458    0.386    0.363    2.832
  221.250   66.814    0.384    0.362    2.879
  221.500   66.159    0.379    0.362    2.875
  221.750   66.113    0.375    0.363    2.814
  222.000   65.469    0.371    0.361    2.810
  222.250   64.814    0.375    0.359    2.804
  222.500   64.768    0.377    0.356    2.958
  222.750   64.734    0.377    0.352    3.069
  223.000   64.688    0.372    0.349    3.122
  223.250   64.643    0.370    0.346    2.889
  223.500   65.782    0.371    0.345    2.673
  223.750   69.316    0.363    0.345    2.207
  224.000   71.663    0.368    0.347    1.857
  224.250   71.606    0.381    0.345    2.077
  224.500   70.985    0.401    0.347    2.753
  224.750   64.956    0.394    0.349    3.137
  225.000   52.333    0.378    0.348    3.015
  225.250   48.698    0.362    0.346    2.843
  225.500   56.431    0.365    0.346    2.784
  225.750   62.967    0.365    0.347    2.779
  226.000   66.500    0.366    0.355    2.772
  226.250   65.868    0.368    0.360    2.767
  226.500   64.027    0.369    0.363    2.761
  226.750   63.360    0.373    0.360    2.756
  227.000   63.326    0.378    0.358    2.699
  227.250   62.084    0.388    0.356    2.402
  227.500   57.838    0.389    0.358    2.267
  227.750   55.399    0.384    0.360    2.136
  228.000   54.743    0.382    0.363    2.092
  228.250   55.319    0.380    0.365    2.088
  228.500   55.273    0.381    0.364    2.125
  228.750   55.228    0.385    0.364    2.121
  229.000   54.561    0.387    0.367    2.198
  229.250   54.527    0.386    0.374    2.651
  229.500   54.458    0.384    0.374    3.021
  229.750   54.436    0.378    0.365    2.958
  230.000   56.185    0.375    0.359    2.636
  230.250   59.120    0.373    0.355    2.436
  230.500   62.066    0.369    0.353    2.478
  230.750   63.816    0.347    0.349    2.338
  231.000   63.781    0.357    0.345    2.044
  231.250   63.736    0.381    0.340    1.786
  231.500   63.690    0.382    0.338    2.237
  231.750   64.231    0.373    0.337    2.550
  232.000   64.186    0.358    0.340    2.495
  232.250   63.530    0.345    0.348    2.399
  232.500   62.886    0.357    0.351    2.303
  232.750   61.057    0.404    0.353    2.258
  233.000   57.410    0.407    0.354    2.129
  233.250   54.959    0.399    0.358    2.006
  233.500   56.709    0.374    0.363    1.857
  233.750   57.871    0.374    0.368    1.751
  234.000   58.424    0.381    0.373    1.590
  234.250   58.977    0.382    0.368    1.443
  234.500   58.931    0.382    0.361    1.676
  234.750   58.874    0.381    0.346    2.099
  235.000   58.829    0.375    0.338    2.629
  235.250   58.794    0.372    0.340    2.725
  235.500   58.749    0.373    0.342    2.383
  235.750   58.082    0.375    0.336    1.894
  236.000   58.635    0.375    0.333    1.820
  236.250   60.384    0.372    0.340    2.074
  236.500   62.743    0.372    0.342    2.069
  236.750   66.277    0.374    0.334    2.146
