~VERSION INFORMATION
 VERS.                 2.0:   CWLS LOG ASCII STANDARD -VERSION 2.0
 WRAP.                  NO:   ONE LINE PER DEPTH STEP
~WELL INFORMATION BLOCK
#MNEM.UNIT           DATA                    DESCRIPTION OF MNEMONIC
#---------    -------------------            -------------------------------
# Generated from Intellog Unique Number	CS_69_70/WELL/2879
WELL.         HUSKY OIL PRODUCTION LTD.      : Well_name    - WELL
LOC .         00/12-28-069-08W4/0            : Location     - LOCATION
UWI .         00/12-28-069-08W4/0            : Uwi          - UNIQUE WELL ID
ENTR.         JOETTE                         : Entered      - ENTERED BY
SRVC.         SCHLUMBERGER                   : Scn          - SERVICE COMPANY
DATE.         05/15/92                       : Date         - LOG DATE
STRT.M        325                            : top_depth    - START DEPTH
STOP.M        575                            : bot_depth    - STOP DEPTH
STEP.M        0.25                           : increment    - STEP LENGTH
 NULL. -999.2500:NULL Value
~CURVE INFORMATION BLOCK
#MNEM UNIT       ERCB CURVE CODE    CURVE DESCRIPTION
#-----------   ------------------   ----------------------------------
DEPT.M        00 001 00 00         : DEPTH        - DEPTH
GR  .API      00 310 00 00         : GR           - GAMMA RAY
CALI.MM       00 280 01 00         : CAL          - CALIPER
ILD .OHMM     00 120 00 00         : RESD         - DEEP RESISTIVITY (DIL)
DPHI.V/V      00 890 00 00         : PHID         - DENSITY POROSITY (SANDSTONE)
NPHI.V/V      00 330 00 00         : PHIN         - NEUTRON POROSITY (SANDSTONE)
~PARAMETER INFORMATION
#MNEM.UNIT           DATA             DESCRIPTION OF MNEMONIC
#---------         -----------     ------------------------------
GL  .M        662.9                : gl           - GROUND LEVEL ELEVATION
EREF.M        666.9                : kb           - ELEVATION OF DEPTH REFERENCE
DATM.M        666.9                : datum        - DATUM ELEVATION
TDD .M        580                  : tdd          - TOTAL DEPTH DRILLER
RUN .         ONE                  : Run          - RUN NUMBER
ENG .         BILL                 : Engineer     - RECORDING ENGINEER
WIT .         JIM                  : Witness      - WITNESSED BY
MUD .         GEL                  : Mud_type     - MUD TYPE
MATR.         SANDSTONE            : Logunit      - NEUTRON MATRIX
TMAX.C        26                   : BHT          - MAXIMUM RECORDED TEMPERATURE
BHTD.M        580                  : BHTDEP       - MAXIMUM RECORDED TEMPERATURE
RMT .C        18                   : MDTP         - TEMPERATURE OF MUD
MUDD.KG/M     1080                 : MWT          - MUD DENSITY
NEUT.         1                    : NEUTRON      - NEUTRON TYPE
RESI.         0                    : RESIST       - RESISTIVITY TYPE
RM  .OHMM     8.55                 : RM           - RESISTIVITY OF MUD
RMC .OHMM     8.57                 : RMC          - RESISTIVITY OF MUD CAKE
RMF .OHMM     8.57                 : RMF          - RESISTIVITY OF MUD FILTRATE
SUFT.C        4                    : SUFT         - SURFACE TEMPERATURE
~A  DEPTH       GR      CAL     RESD     PHID     PHIN
# ...
  434.500   71.334  152.341    6.415    0.311    0.453
  434.750   77.436  153.403    6.423    0.284    0.437
  435.000   88.383  154.522    6.428    0.275    0.422
  435.250   90.261  156.646    6.803    0.261    0.410
  435.500   86.709  156.788    7.610    0.263    0.406
  435.750   83.776  154.946    8.201    0.260    0.424
  436.000   82.034  154.025    9.521    0.251    0.460
  436.250   77.240  151.121   11.261    0.251    0.478
  436.500   67.653  151.206   12.595    0.163    0.360
  436.750   59.273  152.325   13.573    0.118    0.169
  437.000   52.100  156.461   14.908    0.024    0.185
  437.250   49.151  159.620   13.110    0.015    0.282
  437.500   54.649  161.773   11.526    0.057    0.290
  437.750   60.148  161.829    9.953    0.077    0.291
  438.000   67.457  160.965    8.435    0.110    0.340
  438.250   74.800  160.072    7.280    0.107    0.405
  438.500   76.075  159.152    5.945    0.131    0.419
  438.750   74.316  156.276    5.132    0.180    0.430
  439.000   75.004  153.372    4.684    0.234    0.436
  439.250   78.693  155.525    4.518    0.253    0.437
  439.500   83.605  157.649    4.523    0.271    0.432
  439.750   84.880  158.797    4.612    0.264    0.427
  440.000   82.517  159.859    4.617    0.259    0.427
  440.250   79.568  159.972    4.708    0.260    0.435
  440.500   80.859  161.119    4.712    0.263    0.442
  440.750   83.324  160.227    4.718    0.261    0.448
  441.000   87.616  158.328    4.724    0.258    0.461
  441.250   88.287  156.458    4.728    0.263    0.463
  441.500   84.752  155.509    4.731    0.265    0.467
  441.750   81.785  152.633    4.737    0.265    0.476
  442.000   80.663  151.713    4.742    0.265    0.456
  442.250   83.731  150.848    4.747    0.257    0.440
  442.500   88.661  151.967    4.665    0.249    0.437
  442.750   82.660  156.103    4.670    0.252    0.447
  443.000   74.280  159.262    4.676    0.256    0.453
  443.250   73.745  159.347    4.679    0.257    0.454
  443.500   78.657  159.460    4.686    0.257    0.439
  443.750   84.759  159.601    4.689    0.257    0.422
  444.000   87.878  159.715    4.696    0.255    0.436
  444.250   88.516  159.828    4.698    0.253    0.470
  444.500   86.773  159.913    4.791    0.251    0.471
  444.750   83.221  160.054    4.796    0.251    0.441
  445.000   82.099  161.201    4.891    0.250    0.435
  445.250   82.753  161.286    4.988    0.247    0.436
  445.500   84.028  161.286    5.086    0.241    0.455
  445.750   85.923  156.540    5.188    0.236    0.464
  446.000   87.215  159.643    5.099    0.235    0.475
  446.250   88.490  159.699    5.008    0.236    0.476
  446.500   88.557  159.869    4.404    0.242    0.462
  446.750   88.005  159.954    3.874    0.247    0.446
  447.000   87.469  161.073    3.535    0.255    0.437
  447.250   89.968  162.192    3.286    0.288    0.434
  447.500   91.243  165.322    2.943    0.395    0.454
  447.750   89.483  173.481    2.686    0.407    0.493
  448.000   82.310  187.703    2.406    0.337    0.518
  448.250   84.188  206.925    2.236    0.326    0.546
  448.500   87.273  214.135    1.967    0.327    0.543
  448.750   84.944  215.225    1.897    0.364    0.531
  449.000   84.409  217.350    1.935    0.398    0.571
  449.250   85.684  220.480    1.974    0.408    0.582
  449.500   87.562  225.622    2.012    0.401    0.594
  449.750   87.647  231.770    2.090    0.402    0.600
  450.000   88.921  228.894    2.212    0.408    0.587
  450.250   88.369  223.978    2.256    0.403    0.570
  450.500   80.575  218.029    2.258    0.385    0.563
  450.750   80.040  212.108    2.260    0.373    0.553
  451.000   81.952  206.186    2.262    0.374    0.538
  451.250   78.986  204.288    2.182    0.398    0.524
  451.500   76.053  210.492    2.267    0.422    0.530
  451.750   77.328  212.560    2.583    0.443    0.560
  452.000   79.189  215.719    2.889    0.457    0.570
  452.250   82.878  214.826    3.001    0.431    0.565
  452.500   82.342  210.945    3.177    0.395    0.550
  452.750   76.996  203.990    3.362    0.395    0.489
  453.000   74.650  197.034    3.427    0.402    0.456
  453.250   77.719  183.067    3.764    0.307    0.479
  453.500   80.820  169.100    4.133    0.284    0.489
  453.750   78.458  164.185    4.455    0.274    0.478
  454.000   76.732  164.326    4.626    0.237    0.448
  454.250   80.421  164.439    4.717    0.227    0.443
  454.500   80.489  164.524    4.725    0.236    0.437
  454.750   76.316  164.666    4.728    0.246    0.440
  455.000   75.780  162.796    4.733    0.246    0.444
  455.250   80.106  161.847    4.567    0.241    0.440
  455.500   82.571  162.016    4.487    0.235    0.448
  455.750   81.432  163.135    4.410    0.232    0.447
  456.000   79.689  164.226    4.334    0.231    0.449
  456.250   80.361  164.311    4.259    0.227    0.457
  456.500   82.842  165.458    4.185    0.228    0.445
  456.750   86.531  165.571    4.189    0.242    0.433
  457.000   86.012  163.701    4.272    0.254    0.434
  457.250   85.460  160.740    4.690    0.255    0.439
  457.500   84.338  157.893    5.150    0.249    0.446
  457.750   84.389  156.972    6.089    0.248    0.439
  458.000   83.887  156.051    7.200    0.248    0.444
  458.250   82.731  156.193    7.623    0.241    0.464
  458.500   73.730  156.334    7.349    0.193    0.382
  458.750   58.109  156.419    6.228    0.148    0.244
  459.000   51.522  156.419    5.377    0.099    0.211
  459.250   55.227  157.736    4.558    0.030    0.372
  459.500   61.330  157.764    4.237    0.230    0.418
  459.750   71.656  156.900    4.162    0.250    0.440
  460.000   82.603  156.007    4.167    0.261    0.431
  460.250   85.085  156.092    4.094    0.262    0.423
  460.500   85.756  157.239    4.100    0.261    0.432
  460.750   82.824  157.324    4.103    0.258    0.426
  461.000   82.874  159.477    4.107    0.265    0.427
  461.250   84.149  164.647    4.037    0.271    0.439
  461.500   89.665  169.761    3.966    0.261    0.429
  461.750   97.578  171.886    3.897    0.253    0.416
  462.000   83.766  161.941    3.829    0.260    0.404
  462.250   82.058  153.031    3.764    0.264    0.403
  462.500   83.299  154.122    3.768    0.260    0.414
  462.750   88.194  157.281    3.703    0.261    0.430
  463.000   82.228  161.417    3.705    0.328    0.441
  463.250   78.692  165.553    3.641    0.358    0.444
  463.500   78.777  169.661    3.579    0.392    0.438
  463.750   78.811  173.853    3.517    0.356    0.427
  464.000   78.275  169.887    3.271    0.303    0.418
  464.250   73.516  158.965    3.155    0.280    0.410
  464.500   68.153  154.021    2.879    0.309    0.405
  464.750   64.600  150.140    2.828    0.316    0.410
  465.000   66.478  149.247    2.533    0.309    0.438
  465.250   68.373  150.395    2.270    0.302    0.440
  465.500   69.045  151.485    2.072    0.308    0.432
  465.750   69.130  154.644    1.998    0.452    0.441
  466.000   69.163  157.774    2.037    0.487    0.456
  466.250   68.025  200.128    2.197    0.480    0.464
  466.500   63.885  207.281    2.324    0.469    0.470
  466.750   63.936  213.429    2.599    0.509    0.471
  467.000   67.625  226.645    2.909    0.494    0.465
  467.250   71.330  215.695    3.077    0.408    0.461
  467.500   70.191  187.619    3.080    0.346    0.452
  467.750   72.087  170.635    3.142    0.313    0.437
  468.000   73.965  157.646    3.144    0.294    0.434
  468.250   75.240  158.764    3.147    0.282    0.435
  468.500   75.307  166.952    3.151    0.273    0.436
  468.750   76.582  174.133    3.154    0.309    0.435
  469.000   77.840  179.247    2.987    0.330    0.431
  469.250   80.322  185.394    2.677    0.424    0.429
  469.500   83.424  199.616    2.534    0.459    0.455
  469.750   75.630  218.838    2.536    0.493    0.493
  470.000   69.680  226.020    2.944    0.437    0.494
  470.250   69.765  219.121    3.354    0.395    0.492
  470.500   69.816  222.251    3.616    0.382    0.496
  470.750   70.488  229.376    3.970    0.387    0.493
