~VERSION INFORMATION
 VERS.                 2.0:   CWLS LOG ASCII STANDARD -VERSION 2.0
 WRAP.                  NO:   ONE LINE PER DEPTH STEP
~WELL INFORMATION BLOCK
#MNEM.UNIT           DATA                    DESCRIPTION OF MNEMONIC
#---------    -------------------            -------------------------------
# Generated from Intellog Unique Number	CW_79_81/WELL/2483
WELL.         TEXEX WABASCA                  : Well_name    - WELL
LOC .         00/11-10-081-25W4/0            : Location     - LOCATION
UWI .         00/11-10-081-25W4/0            : Uwi          - UNIQUE WELL ID
ENTR.         MAX                            : Entered      - ENTERED BY
SRVC.         WESTERN ATLAS                  : Scn          - SERVICE COMPANY
STRT.M        213.36                         : top_depth    - START DEPTH
STOP.M        469.11                         : bot_depth    - STOP DEPTH
STEP.M        0.25                           : increment    - STEP LENGTH
 NULL. -999.2500:NULL Value
~CURVE INFORMATION BLOCK
#MNEM UNIT       ERCB CURVE CODE    CURVE DESCRIPTION
#-----------   ------------------   ----------------------------------
DEPT.M        00 001 00 00         : DEPTH        - DEPTH
ILD .OHMM     00 120 00 00         : RESD         - DEEP RESISTIVITY (DIL)
NPHI.V/V      00 330 00 00         : PHIN         - NEUTRON POROSITY (SANDSTONE)
DPHI.V/V      00 890 00 00         : PHID         - DENSITY POROSITY (SANDSTONE)
GR  .API      00 310 00 00         : GR           - GAMMA RAY
CALI.MM       00 280 01 00         : CAL          - CALIPER
~PARAMETER INFORMATION
#MNEM.UNIT           DATA             DESCRIPTION OF MNEMONIC
#---------         -----------     ------------------------------
GL  .M        595.884              : gl           - GROUND LEVEL ELEVATION
EREF.M        599.542              : kb           - ELEVATION OF DEPTH REFERENCE
DATM.M        595.884              : datum        - DATUM ELEVATION
TDD .M        466.039              : tdd          - TOTAL DEPTH DRILLER
RUN .         ONE                  : Run          - RUN NUMBER
ENG .         BILL                 : Engineer     - RECORDING ENGINEER
WIT .         JIM                  : Witness      - WITNESSED BY
MUD .         GEL                  : Mud_type     - MUD TYPE
MATR.         SANDSTONE            : Logunit      - NEUTRON MATRIX
TMAX.C        27.2222              : BHT          - MAXIMUM RECORDED TEMPERATURE
BHTD.M        466.039              : BHTDEP       - MAXIMUM RECORDED TEMPERATURE
MATR.         1                    : LOGUNIT      - NEUTRON MATRIX
RMT .C        12.2222              : MDTP         - TEMPERATURE OF MUD
NEUT.         1                    : NEUTRON      - NEUTRON TYPE
RESI.         0                    : RESIST       - RESISTIVITY TYPE
RMC .OHMM     10                   : RMC          - RESISTIVITY OF MUD CAKE
RMF .OHMM     10                   : RMF          - RESISTIVITY OF MUD FILTRATE
SUFT.C        -20.5556             : SUFT         - SURFACE TEMPERATURE
~A  DEPTH     RESD     PHIN     PHID       GR      CAL
# ...
  286.360   11.761    0.351    0.292   36.141  200.572
  286.610   10.303    0.352    0.291   35.928  200.143
  286.860    9.148    0.352    0.296   34.929  200.116
  287.110    8.319    0.350    0.296   33.030  200.490
  287.360    7.315    0.345    0.296   35.549  201.461
  287.610    6.729    0.341    0.298   39.421  203.233
  287.860    6.549    0.339    0.300   42.352  204.509
  288.110    6.668    0.339    0.302   42.462  202.317
  288.360    7.353    0.340    0.306   40.729  201.459
  288.610    7.892    0.339    0.312   41.186  201.035
  288.860    8.081    0.334    0.317   39.873  200.307
  289.110    7.960    0.330    0.318   37.854  199.883
  289.360    7.647    0.327    0.312   37.074  200.160
  289.610    7.259    0.330    0.295   40.797  201.408
  289.860    7.203    0.334    0.292   42.992  201.797
  290.110    7.303    0.344    0.296   42.270  201.770
  290.360    7.327    0.352    0.307   41.902  201.746
  290.610    7.218    0.355    0.317   41.770  201.923
  290.860    6.971    0.356    0.320   41.754  202.597
  291.110    6.577    0.368    0.315   42.228  204.659
  291.360    6.333    0.392    0.308   44.666  207.127
  291.610    6.018    0.409    0.305   46.304  209.100
  291.860    5.625    0.413    0.303   48.293  212.867
  292.110    5.132    0.410    0.302   51.224  218.627
  292.360    4.609    0.404    0.300   52.859  221.796
  292.610    4.064    0.394    0.291   48.126  213.401
  292.860    3.717    0.388    0.266   48.112  215.453
  293.110    3.380    0.382    0.267   53.751  223.808
  293.360    3.180    0.377    0.271   54.620  219.295
  293.610    3.178    0.377    0.281   52.132  212.085
  293.860    3.381    0.380    0.296   47.051  206.870
  294.110    3.913    0.383    0.321   39.390  202.682
  294.360    5.076    0.386    0.348   38.887  201.822
  294.610    6.780    0.392    0.349   38.636  201.799
  294.860    8.169    0.399    0.344   38.916  199.382
  295.110    9.117    0.403    0.340   39.608  197.562
  295.360    9.733    0.405    0.336   40.357  197.038
  295.610    9.985    0.406    0.329   40.574  196.376
  295.860   10.207    0.405    0.334   40.560  197.181
  296.110   10.351    0.407    0.336   40.547  197.153
  296.360   10.553    0.405    0.336   40.355  197.429
  296.610   10.740    0.401    0.336   39.868  197.404
  296.860   10.948    0.395    0.337   39.145  196.978
  297.110   11.412    0.386    0.339   38.470  196.550
  297.360   11.755    0.381    0.346   38.701  196.519
  297.610   11.920    0.373    0.346   37.271  196.898
  297.860   12.087    0.366    0.347   36.197  197.568
  298.110   11.994    0.363    0.346   36.418  198.141
  298.360   11.649    0.364    0.344   37.817  198.815
  298.610   11.262    0.363    0.343   39.606  200.628
  298.860   11.009    0.370    0.345   41.552  201.849
  299.110   10.614    0.371    0.346   42.245  201.821
  299.360   10.290    0.369    0.344   42.937  202.396
  299.610   10.103    0.364    0.341   43.276  202.574
  299.860   10.026    0.358    0.338   43.203  202.053
  300.110    9.919    0.354    0.339   42.801  201.222
  300.360    9.767    0.351    0.338   42.049  201.196
  300.610    9.624    0.353    0.336   41.564  201.171
  300.860    9.482    0.357    0.335   41.077  200.545
  301.110    9.377    0.358    0.332   40.591  199.524
  301.360    9.322    0.356    0.331   39.988  198.505
  301.610    9.303    0.356    0.331   38.929  197.908
  301.860    9.229    0.363    0.330   38.419  197.045
  302.110    9.160    0.375    0.327   38.406  196.227
  302.360    9.139    0.381    0.327   38.214  195.702
  302.610    9.135    0.386    0.327   37.963  195.275
  302.860    9.131    0.391    0.326   37.655  194.950
  303.110    9.140    0.397    0.325   37.165  194.922
  303.360    9.204    0.401    0.323   37.150  194.899
  303.610    9.200    0.398    0.322   37.135  194.472
  303.860    9.196    0.394    0.322   37.825  194.646
  304.110    9.192    0.390    0.322   38.636  194.820
  304.360    9.155    0.389    0.322   39.448  194.895
  304.610    9.020    0.386    0.320   40.706  195.680
  304.860    9.017    0.381    0.314   41.183  197.725
  305.110    9.011    0.376    0.313   41.875  198.506
  305.360    9.008    0.372    0.312   41.683  198.680
  305.610    9.037    0.370    0.312   41.197  197.856
  305.860    9.099    0.369    0.312   40.652  196.534
  306.110    9.173    0.366    0.312   39.878  196.023
  306.360    9.238    0.363    0.313   39.615  195.579
  306.610    9.234    0.356    0.313   39.367  195.155
  306.860    9.280    0.355    0.312   38.940  194.431
  307.110    9.309    0.357    0.310   38.452  194.008
  307.360    9.305    0.359    0.308   38.082  194.583
  307.610    9.286    0.359    0.301   38.263  197.362
  307.860    9.213    0.363    0.288   39.228  199.409
  308.110    9.012    0.377    0.285   41.807  200.185
  308.360    8.671    0.390    0.282   44.914  201.559
  308.610    8.147    0.398    0.278   47.020  204.128
  308.860    7.407    0.399    0.272   47.830  206.996
  309.110    6.202    0.395    0.266   48.332  207.928
  309.360    5.122    0.401    0.260   48.564  208.733
  309.610    4.390    0.404    0.254   48.782  207.912
  309.860    3.989    0.408    0.258   49.181  202.301
  310.110    3.823    0.411    0.263   49.992  198.086
  310.360    3.834    0.414    0.265   50.859  197.561
  310.610    4.009    0.418    0.264   50.694  199.124
  310.860    4.192    0.418    0.260   49.942  199.098
  311.110    4.250    0.415    0.263   51.107  199.474
  311.360    4.218    0.413    0.263   51.032  199.250
  311.610    4.110    0.412    0.260   51.369  199.225
  311.860    3.971    0.412    0.256   53.005  199.699
  312.110    3.851    0.414    0.256   55.413  200.300
  312.360    3.821    0.420    0.276   52.207  199.443
  312.610    3.902    0.419    0.280   54.075  200.610
  312.860    4.157    0.412    0.271   54.004  200.585
  313.110    4.603    0.404    0.261   52.103  200.362
  313.360    5.306    0.399    0.269   49.259  200.834
  313.610    6.585    0.406    0.312   46.532  202.798
  313.860    7.545    0.410    0.319   43.569  202.774
  314.110    8.099    0.412    0.314   42.378  202.353
  314.360    8.652    0.416    0.310   41.716  201.327
  314.610    9.099    0.420    0.305   41.465  200.303
  314.860    9.363    0.423    0.300   41.449  199.581
  315.110    9.426    0.424    0.304   41.334  199.069
  315.360    9.422    0.424    0.336   40.826  198.630
  315.610    9.418    0.420    0.335   40.813  198.604
  315.860    9.312    0.412    0.329   41.151  198.875
  316.110    9.109    0.405    0.321   41.725  199.048
  316.360    8.798    0.402    0.317   42.300  200.322
  316.610    8.154    0.405    0.333   42.518  221.277
  316.860    7.240    0.410    0.331   42.503  300.242
  317.110    6.780    0.412    0.316   43.665  238.763
  317.360    6.456    0.407    0.303   44.299  207.501
  317.610    6.318    0.397    0.294   45.816  197.298
  317.860    6.394    0.386    0.292   48.099  197.973
  318.110    6.858    0.379    0.297   49.494  198.341
  318.360    7.620    0.377    0.307   49.478  198.312
  318.610    8.354    0.382    0.342   47.108  197.092
  318.860    8.789    0.380    0.354   46.858  194.372
  319.110    9.011    0.375    0.355   47.903  192.152
  319.360    9.089    0.369    0.351   49.242  191.730
  319.610    8.964    0.366    0.340   49.648  193.860
  319.860    8.697    0.376    0.318   49.385  194.663
  320.110    8.321    0.382    0.266   49.845  195.034
  320.360    8.365    0.389    0.207   50.656  195.410
  320.610    8.271    0.395    0.198   51.348  196.184
  320.860    7.904    0.400    0.242   52.157  197.257
  321.110    7.492    0.396    0.276   54.269  198.110
  321.360    7.378    0.385    0.264   55.481  198.500
  321.610    7.321    0.383    0.254   54.288  198.871
  321.860    7.266    0.392    0.250   52.740  199.244
  322.110    7.185    0.402    0.247   52.253  199.420
  322.360    7.027    0.409    0.240   53.182  199.496
  322.610    6.645    0.412    0.232   55.256  199.782
