~VERSION INFORMATION
 VERS.                 2.0:   CWLS LOG ASCII STANDARD -VERSION 2.0
 WRAP.                  NO:   ONE LINE PER DEPTH STEP
~WELL INFORMATION BLOCK
#MNEM.UNIT           DATA                    DESCRIPTION OF MNEMONIC
#---------    -------------------            -------------------------------
# Generated from Intellog Unique Number	CS_73_76/WELL/3243
WELL.         SIEBENS OIL GAS LID.           : Well_name    - WELL
LOC .         00/10-26-076-09W4/0            : Location     - LOCATION
UWI .         00/10-26-076-09W4/0            : Uwi          - UNIQUE WELL ID
ENTR.         SP                             : Entered      - ENTERED BY
SRVC.         SCHLUMBERGER                   : Scn          - SERVICE COMPANY
STRT.M        240.792                        : top_depth    - START DEPTH
STOP.M        463.042                        : bot_depth    - STOP DEPTH
STEP.M        0.25                           : increment    - STEP LENGTH
 NULL. -999.2500:NULL Value
~CURVE INFORMATION BLOCK
#MNEM UNIT       ERCB CURVE CODE    CURVE DESCRIPTION
#-----------   ------------------   ----------------------------------
DEPT.M        00 001 00 00         : DEPTH        - DEPTH
GR  .API      00 310 00 00         : GR           - GAMMA RAY
DPHI.V/V      00 890 00 00         : PHID         - DENSITY POROSITY (SANDSTONE)
NPHI.V/V      00 330 00 00         : PHIN         - NEUTRON POROSITY (SANDSTONE)
ILD .OHMM     00 120 00 00         : RESD         - DEEP RESISTIVITY (DIL)
~PARAMETER INFORMATION
#MNEM.UNIT           DATA             DESCRIPTION OF MNEMONIC
#---------         -----------     ------------------------------
GL  .M        650.748              : gl           - GROUND LEVEL ELEVATION
EREF.M        654.406              : kb           - ELEVATION OF DEPTH REFERENCE
DATM.M        650.748              : datum        - DATUM ELEVATION
TDD .M        473.659              : tdd          - TOTAL DEPTH DRILLER
RUN .         ONE                  : Run          - RUN NUMBER
ENG .         BILL                 : Engineer     - RECORDING ENGINEER
WIT .         JIM                  : Witness      - WITNESSED BY
MUD .         GEL                  : Mud_type     - MUD TYPE
MATR.         SANDSTONE            : Logunit      - NEUTRON MATRIX
TMAX.C        15.5556              : BHT          - MAXIMUM RECORDED TEMPERATURE
BHTD.M        473.659              : BHTDEP       - MAXIMUM RECORDED TEMPERATURE
MATR.         1                    : LOGUNIT      - NEUTRON MATRIX
RMT .C        25                   : MDTP         - TEMPERATURE OF MUD
NEUT.         1                    : NEUTRON      - NEUTRON TYPE
RESI.         0                    : RESIST       - RESISTIVITY TYPE
RMC .OHMM     0.25                 : RMC          - RESISTIVITY OF MUD CAKE
RMF .OHMM     0.25                 : RMF          - RESISTIVITY OF MUD FILTRATE
SUFT.C        15                   : SUFT         - SURFACE TEMPERATURE
~A  DEPTH       GR     PHID     PHIN     RESD
# ...
  284.292   57.584    0.280    0.402   19.330
  284.542   55.979    0.289    0.399   19.755
  284.792   55.063    0.287    0.404   19.752
  285.042   54.396    0.280    0.406   19.832
  285.292   54.845    0.281    0.407   20.144
  285.542   56.110    0.288    0.407   20.572
  285.792   58.839    0.293    0.407   20.638
  286.042   60.258    0.289    0.403   20.950
  286.292   59.703    0.287    0.397   21.130
  286.542   58.298    0.281    0.393   21.768
  286.792   56.844    0.273    0.390   22.098
  287.042   57.442    0.286    0.396   22.870
  287.292   59.006    0.292    0.404   22.587
  287.542   56.383    0.300    0.411   22.597
  287.792   56.116    0.313    0.414   23.143
  288.042   56.075    0.306    0.418   22.653
  288.292   56.709    0.318    0.419   22.668
  288.542   56.700    0.310    0.422   22.573
  288.792   56.098    0.311    0.432   22.286
  289.042   55.155    0.315    0.433   22.263
  289.292   54.408    0.320    0.428   22.777
  289.542   56.550    0.323    0.429   22.718
  289.792   57.491    0.329    0.431   23.242
  290.042   59.124    0.336    0.435   23.258
  290.292   59.628    0.329    0.436   23.657
  290.542   59.274    0.321    0.434   23.478
  290.792   59.726    0.315    0.430   23.234
  291.042   61.293    0.319    0.425   22.578
  291.292   62.966    0.318    0.428   21.454
  291.542   63.877    0.324    0.428   20.868
  291.792   64.553    0.327    0.425   20.862
  292.042   63.561    0.333    0.429   21.494
  292.292   62.134    0.323    0.437   22.468
  292.542   61.456    0.316    0.441   23.125
  292.792   61.586    0.318    0.434   24.379
  293.042   62.087    0.325    0.429   25.098
  293.292   63.299    0.328    0.430   26.055
  293.542   64.622    0.314    0.430   27.700
  293.792   65.709    0.327    0.426   28.973
  294.042   66.596    0.332    0.430   29.970
  294.292   66.892    0.333    0.425   30.925
  294.542   67.210    0.336    0.431   30.909
  294.792   68.951    0.350    0.456   30.777
  295.042   69.877    0.357    0.470   30.414
  295.292   68.893    0.346    0.465   29.537
  295.542   66.707    0.335    0.456   28.669
  295.792   66.304    0.337    0.451   28.295
  296.042   66.604    0.340    0.438   28.046
  296.292   67.767    0.338    0.430   27.779
  296.542   69.758    0.353    0.438   27.375
  296.792   72.463    0.344    0.441   26.860
  297.042   72.267    0.332    0.429   26.378
  297.292   72.737    0.342    0.425   26.058
  297.542   73.779    0.335    0.438   25.953
  297.792   74.118    0.332    0.452   25.962
  298.042   74.774    0.342    0.446   25.436
  298.292   74.791    0.332    0.426   26.139
  298.542   73.595    0.321    0.422   26.961
  298.792   72.285    0.322    0.438   28.042
  299.042   70.175    0.329    0.448   29.794
  299.292   67.727    0.337    0.457   30.210
  299.542   66.782    0.345    0.462   30.273
  299.792   67.412    0.360    0.467   29.647
  300.042   65.394    0.369    0.470   29.764
  300.292   63.408    0.364    0.474   29.124
  300.542   62.120    0.356    0.468   29.203
  300.792   62.455    0.350    0.464   29.634
  301.042   64.150    0.348    0.461   29.951
  301.292   65.701    0.342    0.465   30.354
  301.542   66.479    0.342    0.468   31.000
  301.792   64.919    0.358    0.462   30.962
  302.042   64.011    0.349    0.453   31.022
  302.292   63.038    0.348    0.444   30.443
  302.542   62.104    0.348    0.450   29.854
  302.792   62.162    0.347    0.456   29.979
  303.042   62.409    0.351    0.456   29.343
  303.292   62.733    0.361    0.446   29.416
  303.542   63.102    0.354    0.440   29.492
  303.792   64.841    0.349    0.441   28.872
  304.042   65.761    0.352    0.455   28.948
  304.292   66.016    0.347    0.472   28.968
  304.542   64.844    0.342    0.465   28.985
  304.792   63.348    0.331    0.460   29.000
  305.042   64.073    0.342    0.454   29.018
  305.292   63.248    0.353    0.458   29.041
  305.542   61.720    0.348    0.454   29.055
  305.792   60.866    0.360    0.463   29.081
  306.042   61.592    0.349    0.472   29.096
  306.292   61.947    0.348    0.470   29.104
  306.542   63.718    0.362    0.478   28.923
  306.792   63.965    0.368    0.483   28.631
  307.042   63.924    0.368    0.487   28.699
  307.292   64.833    0.362    0.481   28.089
  307.542   65.164    0.367    0.472   28.161
  307.792   65.831    0.368    0.485   28.183
  308.042   65.836    0.365    0.488   28.202
  308.292   64.686    0.363    0.486   28.218
  308.542   63.653    0.364    0.473   28.234
  308.792   62.583    0.362    0.465   28.259
  309.042   61.085    0.355    0.470   28.273
  309.292   60.595    0.351    0.483   28.293
  309.542   60.962    0.346    0.483   28.312
  309.792   61.406    0.341    0.484   28.345
  310.042   62.409    0.334    0.488   28.540
  310.292   63.397    0.344    0.492   28.891
  310.542   64.450    0.345    0.486   28.855
  310.792   64.713    0.338    0.480   29.486
  311.042   65.746    0.333    0.474   30.020
  311.292   66.073    0.326    0.466   30.379
  311.542   65.810    0.334    0.456   30.609
  311.792   65.793    0.336    0.454   30.694
  312.042   65.811    0.325    0.453   30.106
  312.292   65.866    0.318    0.445   29.511
  312.542   66.403    0.318    0.458   28.240
  312.792   66.006    0.324    0.474   27.534
  313.042   63.953    0.314    0.471   27.003
  313.292   62.552    0.324    0.464   26.599
  313.542   61.527    0.331    0.468   26.050
  313.792   62.199    0.346    0.467   26.122
  314.042   61.904    0.336    0.467   26.136
  314.292   60.050    0.334    0.466   26.126
  314.542   58.649    0.339    0.460   26.630
  314.792   57.339    0.343    0.454   26.939
  315.042   56.088    0.332    0.443   27.174
  315.292   55.625    0.336    0.436   27.246
  315.542   56.312    0.325    0.433   26.595
  315.792   59.421    0.319    0.440   24.172
  316.042   61.937    0.325    0.451   21.834
  316.292   63.789    0.311    0.466   19.238
  316.542   63.396    0.304    0.476   20.001
  316.792   62.421    0.314    0.456   22.573
  317.042   61.415    0.337    0.447   24.645
  317.292   61.001    0.346    0.440   27.813
  317.542   61.370    0.353    0.446   29.601
  317.792   60.362    0.348    0.444   30.688
  318.042   58.177    0.343    0.438   31.728
  318.292   57.761    0.339    0.442   30.818
  318.542   57.431    0.335    0.442   30.586
  318.792   57.877    0.329    0.428   30.090
  319.042   58.682    0.322    0.433   30.256
  319.292   58.643    0.327    0.442   31.914
  319.542   58.258    0.328    0.440   33.362
  319.792   57.503    0.312    0.434   34.732
  320.042   55.639    0.297    0.406   36.301
  320.292   52.688    0.260    0.342   36.739
  320.542   56.498    0.169    0.293   36.829
  320.792   58.681    0.233    0.338   36.378
  321.042   55.047    0.294    0.419   35.077
  321.292   52.344    0.315    0.422   32.215
  321.542   49.848    0.258    0.386   30.410
  321.792   50.319    0.211    0.339   30.028
  322.042   54.102    0.142    0.291   30.430
  322.292   57.211    0.160    0.327   32.479
  322.542   58.903    0.238    0.351   33.568
  322.792   56.798    0.267    0.379   34.630
  323.042   56.273    0.246    0.308   35.447
  323.292   56.546    0.198    0.268   32.608
  323.542   58.611    0.146    0.237   29.434
  323.792   58.214    0.131    0.294   27.383
  324.042   56.644    0.230    0.350   26.265
  324.292   54.630    0.219    0.405   25.474
  324.542   53.708    0.147    0.319   24.758
  324.792   56.811    0.092    0.244   23.413
  325.042   60.939    0.059    0.279   20.746
  325.292   63.069    0.156    0.354   17.849
  325.542   65.338    0.241    0.457   16.032
  325.792   66.261    0.304    0.479   14.032
  326.042   68.252    0.320    0.486   12.169
  326.292   71.889    0.323    0.483   11.386
  326.542   76.426    0.326    0.506    9.763
  326.792   84.087    0.312    0.515    6.420
  327.042   91.428    0.286    0.495    4.548
  327.292   96.942    0.257    0.513    3.259
  327.542  102.867    0.231    0.527    3.005
