~VERSION INFORMATION
 VERS.                 2.0:   CWLS LOG ASCII STANDARD -VERSION 2.0
 WRAP.                  NO:   ONE LINE PER DEPTH STEP
~WELL INFORMATION BLOCK
#MNEM.UNIT           DATA                    DESCRIPTION OF MNEMONIC
#---------    -------------------            -------------------------------
# Generated from Intellog Unique Number	CN_91_93/WELL/2811
WELL.         11-14-093-21W4                 : Well_name    - WELL
LOC .         00/11-14-093-21W4/0            : Location     - LOCATION
UWI .         00/11-14-093-21W4/0            : Uwi          - UNIQUE WELL ID
ENTR.         JOETTE                         : Entered      - ENTERED BY
SRVC.         SCHLUMBERGER                   : Scn          - SERVICE COMPANY
DATE.         03/24/92                       : Date         - LOG DATE
STRT.F        250                            : top_depth    - START DEPTH
STOP.F        889.764                        : bot_depth    - STOP DEPTH
STEP.F        0.82                           : increment    - STEP LENGTH
 NULL. -999.2500:NULL Value
~CURVE INFORMATION BLOCK
#MNEM UNIT       ERCB CURVE CODE    CURVE DESCRIPTION
#-----------   ------------------   ----------------------------------
DEPT.F        00 001 00 00         : DEPTH        - DEPTH
CALI.IN       00 280 01 00         : CAL          - CALIPER
GR  .API      00 310 00 00         : GR           - GAMMA RAY
NPHI.V/V      00 330 00 00         : PHIN         - NEUTRON POROSITY (SANDSTONE)
DPHI.V/V      00 890 00 00         : PHID         - DENSITY POROSITY (SANDSTONE)
ILD .OHMM     00 120 00 00         : RESD         - DEEP RESISTIVITY (DIL)
~PARAMETER INFORMATION
#MNEM.UNIT           DATA             DESCRIPTION OF MNEMONIC
#---------         -----------     ------------------------------
GL  .M        548.64               : gl           - GROUND LEVEL ELEVATION
EREF.M        550.469              : kb           - ELEVATION OF DEPTH REFERENCE
DATM.M        550.469              : datum        - DATUM ELEVATION
TDD .M        383.134              : tdd          - TOTAL DEPTH DRILLER
RUN .         ONE                  : Run          - RUN NUMBER
ENG .         BILL                 : Engineer     - RECORDING ENGINEER
WIT .         JIM                  : Witness      - WITNESSED BY
MUD .         GEL                  : Mud_type     - MUD TYPE
MATR.         SANDSTONE            : Logunit      - NEUTRON MATRIX
TMAX.F        69.8                 : BHT          - MAXIMUM RECORDED TEMPERATURE
BHTD.F        1257                 : BHTDEP       - MAXIMUM RECORDED TEMPERATURE
RMT .F        65                   : MDTP         - TEMPERATURE OF MUD
MUDD.LB/G     9.2                  : MWT          - MUD DENSITY
NEUT.         1                    : NEUTRON      - NEUTRON TYPE
RESI.         0                    : RESIST       - RESISTIVITY TYPE
RM  .OHMM     3.85                 : RM           - RESISTIVITY OF MUD
RMC .OHMM     3.85                 : RMC          - RESISTIVITY OF MUD CAKE
RMF .OHMM     3.85                 : RMF          - RESISTIVITY OF MUD FILTRATE
SUFT.F        39.2                 : SUFT         - SURFACE TEMPERATURE
~A  DEPTH      CAL       GR     PHIN     PHID     RESD
  250.000    9.122  121.807    0.530    0.310    4.667
  250.820    9.168  119.998    0.537    0.332    4.586
  251.640    9.212  118.178    0.552    0.332    4.507
  252.461    9.297  123.808    0.564    0.332    4.510
  253.281    9.424  126.315    0.538    0.329    4.430
  254.101    9.592  125.742    0.532    0.317    4.436
  254.921    9.554  122.079    0.536    0.302    4.438
  255.741    9.434  125.215    0.535    0.280    4.445
  256.562    9.353  127.137    0.526    0.277    4.448
  257.382    9.315  118.519    0.525    0.297    4.536
  258.202    9.360  122.901    0.529    0.321    4.623
  259.022    9.362  127.273    0.559    0.322    4.715
  259.843    9.366  129.172    0.558    0.320    4.806
  260.663    9.371  128.600    0.554    0.316    4.901
  261.483    9.332  126.196    0.544    0.321    4.908
  262.303    9.212  124.994    0.538    0.326    5.003
  263.123    9.214  123.174    0.534    0.330    5.100
  263.944    9.340  117.668    0.525    0.333    5.202
  264.764    9.550  115.848    0.516    0.329    5.506
  265.584    9.553  117.141    0.518    0.320    5.611
  266.404    9.393  117.175    0.520    0.307    5.939
  267.224    9.354  115.984    0.515    0.305    6.169
  268.045    9.357  118.513    0.501    0.310    6.410
  268.865    9.402  122.267    0.496    0.319    6.416
  269.685    9.404  124.784    0.498    0.313    6.302
  270.505    9.409  125.448    0.513    0.302    6.078
  271.325    9.411  121.167    0.534    0.299    5.755
  272.146    9.414  119.988    0.528    0.320    5.550
  272.966    9.375  121.887    0.520    0.325    5.454
  273.786    9.338  125.023    0.508    0.326    5.457
  274.606    9.299  129.405    0.503    0.328    5.669
  275.427    9.220  128.226    0.509    0.322    5.998
  276.247    9.182  125.799    0.516    0.323    6.467
  277.067    9.185  128.306    0.515    0.326    6.719
  277.887    9.188  125.879    0.511    0.310    6.725
  278.707    9.233  122.228    0.530    0.303    6.484
  279.528    9.276  122.273    0.519    0.310    6.027
  280.348    9.279  123.554    0.527    0.321    5.812
  281.168    9.324  124.206    0.533    0.326    5.817
  281.988    9.369  121.780    0.532    0.322    6.154
  282.808    9.413  111.319    0.525    0.320    8.448
  283.629    9.457   88.497    0.516    0.334    9.276
  284.449    9.543   63.193    0.494    0.333   13.211
  285.269    9.629   52.114    0.483    0.323   18.127
  286.089    9.632   46.597    0.460    0.318   21.847
  286.909    9.429   41.698    0.452    0.343   32.286
  287.730    9.104   38.035    0.449    0.341   35.456
  288.550    9.148   33.755    0.430    0.336   39.667
  289.370    9.232   28.856    0.425    0.360   44.377
  290.190    9.318   25.811    0.422    0.371   47.849
  291.010    9.322   22.766    0.410    0.363   47.021
  291.831    9.284   21.576    0.402    0.362   45.337
  292.651    9.245   21.632    0.398    0.359   43.734
  293.471    9.207   21.689    0.403    0.351   42.958
  294.291    9.293   21.723    0.408    0.352   42.223
  295.112    9.296   21.769    0.412    0.364   42.251
  295.932    9.299   21.207    0.402    0.368   42.288
  296.752    9.137   20.623    0.383    0.359   43.118
  297.572    8.852   20.062    0.401    0.351   43.964
  298.392    8.855   20.725    0.406    0.363   45.667
  299.213    8.940   23.243    0.410    0.366   47.435
  300.033    9.025   23.906    0.398    0.359   49.293
  300.853    9.070   22.716    0.396    0.354   51.191
  301.673    9.074   21.525    0.394    0.351   52.184
  302.493    9.118   24.065    0.391    0.353   52.184
  303.314    9.163   24.717    0.392    0.357   48.578
  304.134    9.289   24.774    0.398    0.360   45.968
  304.954    9.498   24.201    0.406    0.366   46.008
  305.774    9.543   24.853    0.418    0.382   49.608
  306.594    9.381   26.764    0.413    0.389   50.570
  307.415    9.343   28.686    0.395    0.374   49.684
  308.235    9.510   28.709    0.395    0.359   46.160
  309.055    9.761   27.518    0.404    0.357   40.572
  309.875   10.218   25.092    0.408    0.363   42.153
  310.696    9.685   23.924    0.387    0.350   44.615
  311.516   10.677   23.958    0.387    0.359   46.332
  312.336   10.722   25.251    0.395    0.356   48.137
  313.156   10.230   25.903    0.401    0.351   48.137
  313.976    9.615   27.195    0.381    0.357   40.813
  314.797    9.453   29.095    0.393    0.361   44.801
  315.617    9.498   30.365    0.404    0.361   40.876
  316.437    9.832   32.276    0.415    0.370   37.985
  317.257    9.751   32.333    0.425    0.392   37.319
  318.077    9.589   31.760    0.437    0.396   36.665
  318.898    9.305   31.176    0.412    0.388   36.698
  319.718    9.967   29.997    0.388    0.366   38.118
  320.538   11.124   28.188    0.386    0.352   39.603
  321.358   10.962   26.997    0.410    0.361   41.155
  322.178    9.894   27.054    0.422    0.379   41.944
  322.999    9.114   28.335    0.439    0.387   41.981
  323.819    8.870   30.224    0.431    0.389   39.742
  324.639    9.121   32.134    0.410    0.389   35.594
  325.459   10.031   31.562    0.413    0.369   33.689
  326.280   10.281   30.989    0.420    0.366   31.892
  327.100   10.654   30.416    0.431    0.379   31.927
  327.920   11.153   29.844    0.444    0.387   33.785
  328.740   11.156   31.137    0.454    0.387   35.750
  329.560   10.994   34.283    0.448    0.376   35.124
  330.381   10.049   37.419    0.439    0.355   29.747
  331.201    9.805   41.172    0.438    0.334   23.392
  332.021    9.437   47.387    0.443    0.333   19.090
  332.841    9.152   61.040    0.473    0.341   16.171
  333.661    9.031   64.175    0.467    0.343   15.309
  334.482    8.994   62.367    0.463    0.344   15.905
  335.302    8.996   61.794    0.459    0.332   16.210
  336.122    9.040   64.952    0.457    0.341   17.814
  336.942    9.087   63.762    0.453    0.357   18.846
  337.762    9.088   60.706    0.451    0.368   19.942
  338.583    9.010   55.189    0.454    0.376   21.107
  339.403    9.012   50.301    0.458    0.379   21.919
  340.223    9.016   46.627    0.461    0.377   22.783
  341.043    9.061   39.874    0.470    0.374   22.798
  341.864    9.106   35.594    0.471    0.381   22.393
  342.684    9.108   35.021    0.465    0.385   22.408
  343.504    9.069   38.157    0.463    0.377   22.020
  344.324    8.991   43.169    0.463    0.373   22.045
  345.144    8.951   45.675    0.460    0.371   22.054
  345.965    8.873   48.822    0.455    0.373   22.078
  346.785    8.835   49.474    0.452    0.378   22.512
  347.605    8.838   49.542    0.453    0.385   22.531
  348.425    8.841   48.969    0.458    0.386   22.974
  349.245    8.886   50.869    0.465    0.378   22.999
  350.066    8.889   53.375    0.463    0.365   21.777
  350.886    8.891   55.904    0.455    0.354   20.998
  351.706    8.854   55.331    0.448    0.348   19.513
  352.526    8.857   53.522    0.447    0.361   19.175
  353.346    8.860   54.804    0.449    0.359   19.188
  354.167    8.822   55.467    0.454    0.360   20.693
  354.987    8.826   54.277    0.461    0.369   22.302
  355.807    8.827   49.996    0.467    0.377   24.036
  356.627    8.831   43.872    0.470    0.379   26.897
  357.448    8.793   40.816    0.477    0.374   29.544
  358.268    8.797   37.154    0.477    0.379   30.681
  359.088    8.799   34.727    0.463    0.392   31.290
  359.908    8.762   33.536    0.451    0.387   31.897
  360.728    8.764   32.986    0.452    0.385   31.352
  361.549    8.767   31.796    0.449    0.386   30.796
  362.369    8.771   30.605    0.443    0.382   30.256
  363.189    8.733   29.426    0.442    0.371   30.283
  364.009    8.736   29.460    0.440    0.374   30.323
  364.829    8.739   29.494    0.434    0.382   30.343
  365.650    8.742   30.157    0.432    0.386   30.363
  366.470    8.745   30.843    0.440    0.383   29.843
  367.290    8.790   32.125    0.458    0.381   29.863
  368.110    8.835   32.788    0.457    0.379   29.353
  368.930    8.920   32.822    0.447    0.386   28.832
