~VERSION INFORMATION
 VERS.                 2.0:   CWLS LOG ASCII STANDARD -VERSION 2.0
 WRAP.                  NO:   ONE LINE PER DEPTH STEP
~WELL INFORMATION BLOCK
#MNEM.UNIT           DATA                    DESCRIPTION OF MNEMONIC
#---------    -------------------            -------------------------------
# Generated from Intellog Unique Number	CS_73_76/WELL/3255
WELL.         HOME OIL COMPANY LIMITED       : Well_name    - WELL
LOC .         00/11-01-076-06W4/0            : Location     - LOCATION
UWI .         00/11-01-076-06W4/0            : Uwi          - UNIQUE WELL ID
ENTR.         SP                             : Entered      - ENTERED BY
SRVC.         SCHLUMBERGER                   : Scn          - SERVICE COMPANY
STRT.M        182                            : top_depth    - START DEPTH
STOP.M        415                            : bot_depth    - STOP DEPTH
STEP.M        0.25                           : increment    - STEP LENGTH
 NULL. -999.2500:NULL Value
~CURVE INFORMATION BLOCK
#MNEM UNIT       ERCB CURVE CODE    CURVE DESCRIPTION
#-----------   ------------------   ----------------------------------
DEPT.M        00 001 00 00         : DEPTH        - DEPTH
ILD .OHMM     00 120 00 00         : RESD         - DEEP RESISTIVITY (DIL)
DPHI.V/V      00 890 00 00         : PHID         - DENSITY POROSITY (LIMESTONE)
NPHI.V/V      00 330 00 00         : PHIN         - NEUTRON POROSITY (LIMESTONE)
GR  .API      00 310 00 00         : GR           - GAMMA RAY
~PARAMETER INFORMATION
#MNEM.UNIT           DATA             DESCRIPTION OF MNEMONIC
#---------         -----------     ------------------------------
GL  .M        595.55               : gl           - GROUND LEVEL ELEVATION
EREF.M        599.05               : kb           - ELEVATION OF DEPTH REFERENCE
DATM.M        595.55               : datum        - DATUM ELEVATION
TDD .M        423                  : tdd          - TOTAL DEPTH DRILLER
RUN .         ONE                  : Run          - RUN NUMBER
ENG .         BILL                 : Engineer     - RECORDING ENGINEER
WIT .         JIM                  : Witness      - WITNESSED BY
MUD .         GEL                  : Mud_type     - MUD TYPE
MATR.         LIMESTONE            : Logunit      - NEUTRON MATRIX
TMAX.C        20.5                 : BHT          - MAXIMUM RECORDED TEMPERATURE
BHTD.M        423                  : BHTDEP       - MAXIMUM RECORDED TEMPERATURE
MATR.         1                    : LOGUNIT      - NEUTRON MATRIX
RMT .C        25                   : MDTP         - TEMPERATURE OF MUD
NEUT.         1                    : NEUTRON      - NEUTRON TYPE
RESI.         0                    : RESIST       - RESISTIVITY TYPE
RMC .OHMM     0.25                 : RMC          - RESISTIVITY OF MUD CAKE
RMF .OHMM     0.25                 : RMF          - RESISTIVITY OF MUD FILTRATE
SUFT.C        15                   : SUFT         - SURFACE TEMPERATURE
~A  DEPTH     RESD     PHID     PHIN       GR
  182.000    2.025    0.235    0.531   98.384
  182.250    2.142    0.237    0.538   99.609
  182.500    2.677    0.246    0.544   91.723
  182.750    3.882    0.253    0.530   88.087
  183.000    5.130    0.252    0.501   87.488
  183.250    5.228    0.259    0.511   92.963
  183.500    4.678    0.263    0.524   96.010
  183.750    4.109    0.235    0.534   96.018
  184.000    3.816    0.226    0.538   92.992
  184.250    3.817    0.219    0.532   93.002
  184.500    4.113    0.208    0.510   92.404
  184.750    4.269    0.216    0.496   91.804
  185.000    4.351    0.219    0.505   89.384
  185.250    4.433    0.211    0.519   83.319
  185.500    4.777    0.208    0.415   74.826
  185.750    5.052    0.208    0.394   60.259
  186.000    5.754    0.389    0.357   48.729
  186.250    7.192    0.425    0.396   39.021
  186.500   11.445    0.360    0.433   42.070
  186.750   16.291    0.315    0.441   45.112
  187.000   20.363    0.302    0.447   53.016
  187.250   16.300    0.288    0.469   62.135
  187.500   11.891    0.293    0.504   75.504
  187.750    8.358    0.250    0.470   87.661
  188.000    6.567    0.245    0.481   91.920
  188.250    5.356    0.259    0.494   93.753
  188.500    4.617    0.250    0.489   93.154
  188.750    4.056    0.238    0.495   90.732
  189.000    4.795    0.211    0.489   87.097
  189.250    6.106    0.174    0.419   80.427
  189.500    8.069    0.250    0.429   77.400
  189.750   10.864    0.304    0.446   82.267
  190.000   14.357    0.295    0.450   84.100
  190.250   18.282    0.293    0.436   84.715
  190.500   22.018    0.285    0.427   86.545
  190.750   21.221    0.255    0.435   88.376
  191.000   18.989    0.232    0.419   90.206
  191.250   16.992    0.214    0.419   93.859
  191.500   15.490    0.211    0.430   95.692
  191.750   14.385    0.223    0.432   98.129
  192.000   13.864    0.245    0.436   95.102
  192.250   14.128    0.273    0.436   90.859
  192.500   14.397    0.285    0.424   87.831
  192.750   14.947    0.269    0.433   89.055
  193.000   15.515    0.266    0.429   86.028
  193.250   16.409    0.268    0.426   78.141
  193.500   17.680    0.277    0.422   68.435
  193.750   19.048    0.265    0.405   60.547
  194.000   20.522    0.285    0.406   64.809
  194.250   21.304    0.297    0.416   69.068
  194.500   22.116    0.304    0.426   69.077
  194.750   22.537    0.331    0.435   66.052
  195.000   23.834    0.337    0.443   63.023
  195.250   25.680    0.343    0.449   60.602
  195.500   26.659    0.351    0.456   57.575
  195.750   27.166    0.336    0.461   57.587
  196.000   26.674    0.327    0.443   58.200
  196.250   25.707    0.335    0.426   61.245
  196.500   23.434    0.306    0.434   64.898
  196.750   17.095    0.276    0.445   75.838
  197.000   13.433    0.246    0.451   92.245
  197.250   11.159    0.226    0.473   99.542
  197.500    9.621    0.217    0.474   98.339
  197.750    8.610    0.203    0.462   94.705
  198.000    7.995    0.223    0.461   92.282
  198.250    8.456    0.228    0.445   89.253
  198.500    9.455    0.255    0.432   72.258
  198.750   13.711    0.281    0.415   55.262
  199.000   20.255    0.312    0.384   44.340
  199.250   27.270    0.316    0.390   43.742
  199.500   33.460    0.323    0.396   50.433
  199.750   36.725    0.315    0.394   56.517
  200.000   38.839    0.289    0.383   58.951
  200.250   38.138    0.297    0.386   63.212
  200.500   36.081    0.305    0.386   62.006
  200.750   34.773    0.305    0.384   55.336
  201.000   31.699    0.293    0.377   56.558
  201.250   27.843    0.270    0.371   63.249
  201.500   23.564    0.252    0.377   69.330
  201.750   19.216    0.209    0.373   74.804
  202.000   16.568    0.200    0.387   77.850
  202.250   15.386    0.206    0.402   76.037
  202.500   15.974    0.217    0.388   69.972
  202.750   16.582    0.193    0.383   62.695
  203.000   16.587    0.211    0.395   63.310
  203.250   15.691    0.226    0.414   74.253
  203.500   13.280    0.166    0.441   81.548
  203.750   11.033    0.145    0.469   95.525
  204.000    9.337    0.181    0.493  104.036
  204.250    7.903    0.168    0.493  108.296
  204.500    7.339    0.162    0.482  108.306
  204.750    6.690    0.189    0.491  112.568
  205.000    6.099    0.215    0.501  115.003
  205.250    5.664    0.217    0.509  111.977
  205.500    5.358    0.220    0.518  110.163
  205.750    5.069    0.217    0.520  113.210
  206.000    4.708    0.194    0.532  113.828
  206.250    4.372    0.209    0.545  113.228
  206.500    3.986    0.221    0.566  110.807
  206.750    3.771    0.239    0.559  107.781
  207.000    3.914    0.237    0.544  102.930
  207.250    4.459    0.221    0.503   93.830
  207.500    5.573    0.197    0.416   87.765
  207.750    6.966    0.198    0.399   82.919
  208.000    9.037    0.207    0.400   82.317
  208.250   11.088    0.206    0.404   81.113
  208.500   11.946    0.229    0.399   79.906
  208.750   12.174    0.233    0.413   76.273
  209.000   11.306    0.221    0.425   78.711
  209.250   10.896    0.221    0.439   78.719
  209.500   10.309    0.236    0.447   75.694
  209.750   10.902    0.256    0.443   73.271
  210.000   11.966    0.260    0.445   69.029
  210.250   12.892    0.267    0.453   67.218
  210.500   13.890    0.270    0.455   67.833
  210.750   14.966    0.289    0.424   63.592
  211.000   16.426    0.307    0.430   58.741
  211.250   18.029    0.322    0.426   50.855
  211.500   21.714    0.332    0.403   44.790
  211.750   26.152    0.340    0.403   41.157
  212.000   30.916    0.335    0.418   42.992
  212.250   36.550    0.346    0.429   42.996
  212.500   40.118    0.335    0.406   41.790
  212.750   40.881    0.300    0.390   42.408
  213.000   37.964    0.275    0.389   50.919
  213.250   31.539    0.266    0.421   60.036
  213.500   28.751    0.283    0.436   57.012
  213.750   27.200    0.294    0.420   53.377
  214.000   25.261    0.289    0.408   55.207
  214.250   22.187    0.265    0.405   62.503
  214.500   19.488    0.240    0.414   70.407
  214.750   16.803    0.251    0.424   78.918
  215.000   15.317    0.239    0.412   77.106
  215.250   13.706    0.256    0.416   75.898
  215.500   13.210    0.250    0.412   76.516
  215.750   12.970    0.250    0.407   75.917
  216.000   12.975    0.245    0.402   74.103
  216.250   12.978    0.239    0.412   72.900
  216.500   12.983    0.236    0.423   72.302
  216.750   13.229    0.249    0.417   72.918
  217.000   13.234    0.239    0.418   74.747
  217.250   13.484    0.229    0.429   77.186
  217.500   13.488    0.235    0.415   80.230
  217.750   13.744    0.220    0.409   79.632
  218.000   14.007    0.234    0.406   78.427
  218.250   14.273    0.246    0.412   74.792
  218.500   14.544    0.234    0.415   69.943
  218.750   15.382    0.226    0.406   68.130
  219.000   15.968    0.215    0.414   69.962
  219.250   16.887    0.210    0.394   69.362
  219.500   18.194    0.217    0.394   66.945
  219.750   19.242    0.251    0.417   65.131
  220.000   19.975    0.265    0.425   66.354
  220.250   20.355    0.268    0.406   68.792
  220.500   20.361    0.277    0.414   71.839
  220.750   19.624    0.291    0.413   74.277
  221.000   19.268    0.274    0.403   76.106
  221.250   17.565    0.265    0.392   78.545
  221.500   16.311    0.225    0.399   82.200
  221.750   15.434    0.248    0.415   85.243
  222.000   15.153    0.242    0.430   87.680
  222.250   15.156    0.245    0.428   88.298
  222.500   15.735    0.258    0.398   85.270
  222.750   16.334    0.227    0.402   81.635
  223.000   16.957    0.231    0.409   80.430
  223.250   17.934    0.254    0.410   79.227
  223.500   17.937    0.273    0.402   77.413
  223.750   18.279    0.287    0.414   76.812
  224.000   17.619    0.278    0.401   78.037
  224.250   17.298    0.241    0.395   82.297
  224.500   16.365    0.226    0.387   87.773
  224.750   15.198    0.232    0.392   90.819
  225.000   14.114    0.240    0.403   93.865
  225.250   12.866    0.235    0.407   95.693
