~VERSION INFORMATION
 VERS.                 2.0:   CWLS LOG ASCII STANDARD -VERSION 2.0
 WRAP.                  NO:   ONE LINE PER DEPTH STEP
~WELL INFORMATION BLOCK
#MNEM.UNIT           DATA                    DESCRIPTION OF MNEMONIC
#---------    -------------------            -------------------------------
# Generated from Intellog Unique Number	CS_71_72/WELL/888
WELL.         MAYNARD ET AL TWEEDIE          : Well_name    - WELL
LOC .         00/11-06-072-12W4/0            : Location     - LOCATION
UWI .         00/11-06-072-12W4/0            : Uwi          - UNIQUE WELL ID
ENTR.         SP                             : Entered      - ENTERED BY
SRVC.         SCHLUMBERGER                   : Scn          - SERVICE COMPANY
STRT.M        290                            : top_depth    - START DEPTH
STOP.M        525                            : bot_depth    - STOP DEPTH
STEP.M        0.25                           : increment    - STEP LENGTH
 NULL. -999.2500:NULL Value
~CURVE INFORMATION BLOCK
#MNEM UNIT       ERCB CURVE CODE    CURVE DESCRIPTION
#-----------   ------------------   ----------------------------------
DEPT.M        00 001 00 00         : DEPTH        - DEPTH
ILD .OHMM     00 120 00 00         : RESD         - DEEP RESISTIVITY (DIL)
DPHI.V/V      00 890 00 00         : PHID         - DENSITY POROSITY (LIMESTONE)
NPHI.V/V      00 330 00 00         : PHIN         - NEUTRON POROSITY (LIMESTONE)
GR  .API      00 310 00 00         : GR           - GAMMA RAY
~PARAMETER INFORMATION
#MNEM.UNIT           DATA             DESCRIPTION OF MNEMONIC
#---------         -----------     ------------------------------
GL  .M        620.85               : gl           - GROUND LEVEL ELEVATION
EREF.M        624.2                : kb           - ELEVATION OF DEPTH REFERENCE
DATM.M        620.85               : datum        - DATUM ELEVATION
TDD .M        540                  : tdd          - TOTAL DEPTH DRILLER
RUN .         ONE                  : Run          - RUN NUMBER
ENG .         BILL                 : Engineer     - RECORDING ENGINEER
WIT .         JIM                  : Witness      - WITNESSED BY
MUD .         GEL                  : Mud_type     - MUD TYPE
MATR.         LIMESTONE            : Logunit      - NEUTRON MATRIX
TMAX.C        20                   : BHT          - MAXIMUM RECORDED TEMPERATURE
BHTD.M        540                  : BHTDEP       - MAXIMUM RECORDED TEMPERATURE
MATR.         1                    : LOGUNIT      - NEUTRON MATRIX
RMT .C        25                   : MDTP         - TEMPERATURE OF MUD
NEUT.         1                    : NEUTRON      - NEUTRON TYPE
RESI.         0                    : RESIST       - RESISTIVITY TYPE
RMC .OHMM     0.25                 : RMC          - RESISTIVITY OF MUD CAKE
RMF .OHMM     0.25                 : RMF          - RESISTIVITY OF MUD FILTRATE
SUFT.C        15                   : SUFT         - SURFACE TEMPERATURE
~A  DEPTH     RESD     PHID     PHIN       GR
# ...
  377.000    7.964    0.293    0.465   80.184
  377.250    7.724    0.289    0.475   81.412
  377.500    7.645    0.294    0.469   82.638
  377.750    7.485    0.302    0.458   80.831
  378.000    7.325    0.300    0.453   79.629
  378.250    7.085    0.293    0.448   81.465
  378.500    7.006    0.290    0.447   82.080
  378.750    6.929    0.295    0.450   82.091
  379.000    6.850    0.297    0.457   80.890
  379.250    6.853    0.295    0.459   80.904
  379.500    6.935    0.291    0.459   82.740
  379.750    7.018    0.291    0.457   83.357
  380.000    7.264    0.294    0.452   83.975
  380.250    7.509    0.301    0.449   85.206
  380.500    7.755    0.294    0.443   82.785
  380.750    7.920    0.291    0.440   83.407
  381.000    7.921    0.296    0.441   86.454
  381.250    7.924    0.291    0.452   90.109
  381.500    7.845    0.286    0.453   94.373
  381.750    7.766    0.284    0.447   89.528
  382.000    7.849    0.283    0.444   85.898
  382.250    8.257    0.260    0.440   86.517
  382.500    8.907    0.238    0.432   87.744
  382.750    9.719    0.216    0.408   85.938
  383.000   11.098    0.179    0.385   82.909
  383.250   13.044    0.145    0.321   75.635
  383.500   17.500    0.115    0.246   68.968
  383.750   23.413    0.094    0.208   62.907
  384.000   24.226    0.098    0.194   56.844
  384.250   24.147    0.131    0.181   56.855
  384.500   16.376    0.176    0.259   65.977
  384.750   14.030    0.197    0.298   81.781
  385.000   11.603    0.235    0.344   88.471
  385.250    9.986    0.264    0.376   90.309
  385.500    8.936    0.299    0.411   89.717
  385.750    7.886    0.308    0.438   89.727
  386.000    7.240    0.303    0.449   90.351
  386.250    6.838    0.302    0.462   91.578
  386.500    6.516    0.303    0.477   92.192
  386.750    6.277    0.304    0.483   94.026
  387.000    6.198    0.310    0.480   94.039
  387.250    6.199    0.462    0.476   92.839
  387.500    6.283    0.301    0.469   91.632
  387.750    6.448    0.300    0.462   89.221
  388.000    6.531    0.300    0.455   87.407
  388.250    6.695    0.312    0.452   86.202
  388.500    6.942    0.322    0.457   83.790
  388.750    7.187    0.327    0.461   83.190
  389.000    7.269    0.330    0.453   78.951
  389.250    7.516    0.331    0.448   78.965
  389.500    7.598    0.327    0.441   81.406
  389.750    7.763    0.317    0.438   80.813
  390.000    7.765    0.313    0.435   79.003
  390.250    7.767    0.314    0.441   77.801
  390.500    7.770    0.323    0.454   79.031
  390.750    7.691    0.326    0.458   79.644
  391.000    7.614    0.328    0.457   84.517
  391.250    7.535    0.317    0.458   88.175
  391.500    7.456    0.311    0.459   86.362
  391.750    7.297    0.297    0.462   90.628
  392.000    7.298    0.290    0.463   91.244
  392.250    7.139    0.294    0.465   89.434
  392.500    7.060    0.294    0.463   91.879
  392.750    6.902    0.289    0.461   92.499
  393.000    6.824    0.281    0.464   91.902
  393.250    6.825    0.278    0.466   93.742
  393.500    6.504    0.275    0.459   94.966
  393.750    6.425    0.278    0.458   96.194
  394.000    6.427    0.277    0.459   96.813
  394.250    6.348    0.279    0.461   98.037
  394.500    6.431    0.284    0.456   98.048
  394.750    6.596    0.287    0.458   92.595
  395.000    6.842    0.290    0.466   95.040
  395.250    6.925    0.290    0.464   96.872
  395.500    7.009    0.285    0.448   97.489
  395.750    7.091    0.279    0.442   93.858
  396.000    7.094    0.275    0.439   96.303
  396.250    7.097    0.268    0.442   97.526
  396.500    7.099    0.265    0.461   99.361
  396.750    7.101    0.271    0.474   95.731
  397.000    7.184    0.265    0.471   92.709
  397.250    7.189    0.256    0.465   90.899
  397.500    7.190    0.250    0.454   93.336
  397.750    7.191    0.245    0.448   97.603
  398.000    6.951    0.240    0.454   94.576
  398.250    6.791    0.239    0.462   94.592
  398.500    6.551    0.250    0.466   97.644
  398.750    6.392    0.248    0.468   98.867
  399.000    6.314    0.231    0.468   99.483
  399.250    6.315    0.224    0.464   96.462
  399.500    6.481    0.212    0.461   97.689
  399.750    6.563    0.206    0.446  100.740
  400.000    6.728    0.207    0.437  101.963
  400.250    6.892    0.208    0.438  101.976
  400.500    7.056    0.207    0.423   99.556
  400.750    7.139    0.200    0.403   93.498
  401.000    7.304    0.202    0.386   88.650
  401.250    7.387    0.209    0.378   86.233
  401.500    7.228    0.221    0.370   96.574
  401.750    7.068    0.243    0.407   99.011
  402.000    6.666    0.256    0.439  102.673
  402.250    6.425    0.247    0.459  103.288
  402.500    6.104    0.246    0.471  100.869
  402.750    5.783    0.241    0.480  109.394
  403.000    5.542    0.239    0.481  111.834
  403.250    5.463    0.241    0.472  108.801
  403.500    5.466    0.244    0.470  102.135
  403.750    5.469    0.251    0.475   99.716
  404.000    5.552    0.265    0.478  101.551
  404.250    5.635    0.272    0.484  101.566
  404.500    5.718    0.260    0.487  100.968
  404.750    5.883    0.257    0.479  102.198
  405.000    5.966    0.252    0.475  103.423
  405.250    6.050    0.250    0.469  104.043
  405.500    6.133    0.257    0.467  104.053
  405.750    6.135    0.264    0.460  104.072
  406.000    5.976    0.273    0.456  103.470
  406.250    5.573    0.279    0.470  101.054
  406.500    4.928    0.289    0.493  104.105
  406.750    4.283    0.299    0.513  108.977
  407.000    3.718    0.305    0.530  113.240
  407.250    2.991    0.305    0.536  116.285
  407.500    2.184    0.302    0.552  114.480
  407.750    1.943    0.303    0.569  112.667
  408.000    1.946    0.314    0.558  111.463
  408.250    2.029    0.306    0.531  112.085
  408.500    2.274    0.290    0.539  109.061
  408.750    2.763    0.276    0.514  103.608
  409.000    3.089    0.270    0.492  100.587
  409.250    3.740    0.268    0.485  100.593
  409.500    3.985    0.264    0.485  103.041
  409.750    4.554    0.257    0.497  103.655
  410.000    4.799    0.257    0.504  103.669
  410.250    5.126    0.262    0.502  103.072
  410.500    5.209    0.264    0.499   98.832
  410.750    5.132    0.269    0.502   98.847
  411.000    5.052    0.274    0.509  104.328
  411.250    5.054    0.276    0.514  106.157
  411.500    4.977    0.270    0.516  101.922
  411.750    4.979    0.269    0.505  100.113
  412.000    4.981    0.272    0.490   98.911
  412.250    4.982    0.276    0.479   97.709
  412.500    4.906    0.279    0.474   96.508
  412.750    4.989    0.294    0.470   95.301
  413.000    4.911    0.302    0.473   93.490
  413.250    4.913    0.301    0.480   92.896
  413.500    4.915    0.300    0.486  100.197
  413.750    4.917    0.307    0.476   96.568
  414.000    4.919    0.313    0.465   94.152
  414.250    4.841    0.317    0.450   92.338
  414.500    4.842    0.318    0.442   85.062
  414.750    4.845    0.323    0.435   80.822
  415.000    4.847    0.313    0.430   80.229
  415.250    4.931    0.303    0.411   82.064
  415.500    5.095    0.277    0.362   82.073
  415.750    5.259    0.213    0.315   76.014
  416.000    6.072    0.177    0.272   66.916
  416.250    6.802    0.150    0.218   60.248
  416.500    7.696    0.133    0.204   68.763
  416.750    7.941    0.175    0.266   82.138
  417.000    7.538    0.215    0.331   88.829
  417.250    6.732    0.252    0.401   93.091
  417.500    6.006    0.278    0.429   96.749
  417.750    5.522    0.270    0.442  100.403
  418.000    5.120    0.261    0.447  105.275
  418.250    4.798    0.252    0.450  102.253
  418.500    4.638    0.249    0.453  101.050
  418.750    4.397    0.255    0.464  101.060
  419.000    4.319    0.270    0.474  101.073
  419.250    4.241    0.278    0.484  100.479
  419.500    4.244    0.287    0.495   96.243
  419.750    4.327    0.292    0.495   92.001
  420.000    4.329    0.293    0.490   87.154
  420.250    4.332    0.294    0.489   85.954
