~VERSION INFORMATION
 VERS.                 2.0:   CWLS LOG ASCII STANDARD -VERSION 2.0
 WRAP.                  NO:   ONE LINE PER DEPTH STEP
~WELL INFORMATION BLOCK
#MNEM.UNIT           DATA                    DESCRIPTION OF MNEMONIC
#---------    -------------------            -------------------------------
# Generated from Intellog Unique Number	CS_73_76/WELL/851
WELL.         BOW VALLEY INDUSTRIES LTD.     : Well_name    - WELL
LOC .         00/11-30-073-13W4/0            : Location     - LOCATION
UWI .         00/11-30-073-13W4/0            : Uwi          - UNIQUE WELL ID
ENTR.         SP                             : Entered      - ENTERED BY
SRVC.         SCHLUMBERGER                   : Scn          - SERVICE COMPANY
STRT.M        325                            : top_depth    - START DEPTH
STOP.M        557                            : bot_depth    - STOP DEPTH
STEP.M        0.25                           : increment    - STEP LENGTH
 NULL. -999.2500:NULL Value
~CURVE INFORMATION BLOCK
#MNEM UNIT       ERCB CURVE CODE    CURVE DESCRIPTION
#-----------   ------------------   ----------------------------------
DEPT.M        00 001 00 00         : DEPTH        - DEPTH
ILD .OHMM     00 120 00 00         : RESD         - DEEP RESISTIVITY (DIL)
DPHI.V/V      00 890 00 00         : PHID         - DENSITY POROSITY (LIMESTONE)
NPHI.V/V      00 330 00 00         : PHIN         - NEUTRON POROSITY (LIMESTONE)
GR  .API      00 310 00 00         : GR           - GAMMA RAY
~PARAMETER INFORMATION
#MNEM.UNIT           DATA             DESCRIPTION OF MNEMONIC
#---------         -----------     ------------------------------
GL  .M        672.66               : gl           - GROUND LEVEL ELEVATION
EREF.M        676.31               : kb           - ELEVATION OF DEPTH REFERENCE
DATM.M        672.31               : datum        - DATUM ELEVATION
TDD .M        665                  : tdd          - TOTAL DEPTH DRILLER
RUN .         ONE                  : Run          - RUN NUMBER
ENG .         BILL                 : Engineer     - RECORDING ENGINEER
WIT .         JIM                  : Witness      - WITNESSED BY
MUD .         GEL                  : Mud_type     - MUD TYPE
MATR.         LIMESTONE            : Logunit      - NEUTRON MATRIX
TMAX.C        24                   : BHT          - MAXIMUM RECORDED TEMPERATURE
BHTD.M        665                  : BHTDEP       - MAXIMUM RECORDED TEMPERATURE
MATR.         1                    : LOGUNIT      - NEUTRON MATRIX
RMT .C        25                   : MDTP         - TEMPERATURE OF MUD
NEUT.         1                    : NEUTRON      - NEUTRON TYPE
RESI.         0                    : RESIST       - RESISTIVITY TYPE
RMC .OHMM     0.25                 : RMC          - RESISTIVITY OF MUD CAKE
RMF .OHMM     0.25                 : RMF          - RESISTIVITY OF MUD FILTRATE
SUFT.C        15                   : SUFT         - SURFACE TEMPERATURE
~A  DEPTH     RESD     PHID     PHIN       GR
# ...
  455.500    5.407    0.201    0.453   89.710
  455.750    5.211    0.224    0.446   91.530
  456.000    5.215    0.230    0.450   90.337
  456.250    5.216    0.229    0.451   92.159
  456.500    5.418    0.218    0.435   92.780
  456.750    5.735    0.205    0.432   92.185
  457.000    5.845    0.208    0.430   91.596
  457.250    5.958    0.214    0.413   89.808
  457.500    6.075    0.221    0.407   88.011
  457.750    6.077    0.236    0.428   84.415
  458.000    6.081    0.244    0.443   83.217
  458.250    5.971    0.249    0.434   80.224
  458.500    5.864    0.250    0.427   78.430
  458.750    5.867    0.251    0.440   77.837
  459.000    5.980    0.240    0.440   77.853
  459.250    5.982    0.257    0.446   76.659
  459.500    6.216    0.250    0.458   75.470
  459.750    6.219    0.244    0.463   74.278
  460.000    6.222    0.245    0.439   73.085
  460.250    6.109    0.248    0.426   72.499
  460.500    6.112    0.252    0.429   73.717
  460.750    6.114    0.261    0.431   74.935
  461.000    5.894    0.263    0.431   75.551
  461.250    5.896    0.266    0.429   74.964
  461.500    5.789    0.260    0.425   74.976
  461.750    5.685    0.257    0.423   76.798
  462.000    5.582    0.256    0.432   76.811
  462.250    5.585    0.257    0.437   75.619
  462.500    5.485    0.257    0.436   76.236
  462.750    5.385    0.255    0.430   74.446
  463.000    5.190    0.251    0.432   73.253
  463.250    5.003    0.247    0.448   72.059
  463.500    5.004    0.255    0.454   73.280
  463.750    4.823    0.264    0.466   75.099
  464.000    5.104    0.267    0.457   77.524
  464.250    5.107    0.268    0.447   79.346
  464.500    5.109    0.263    0.452   79.959
  464.750    5.112    0.269    0.449   78.168
  465.000    5.212    0.262    0.441   78.783
  465.250    5.214    0.258    0.447   80.603
  465.500    5.216    0.252    0.451   82.425
  465.750    5.318    0.256    0.448   82.440
  466.000    5.223    0.254    0.440   81.853
  466.250    5.224    0.252    0.439   81.264
  466.500    5.130    0.247    0.438   78.865
  466.750    5.134    0.246    0.437   80.087
  467.000    5.041    0.252    0.437   82.509
  467.250    4.949    0.252    0.437   84.328
  467.500    4.860    0.246    0.446   86.150
  467.750    4.684    0.243    0.460   85.562
  468.000    4.600    0.235    0.471   85.576
  468.250    4.601    0.231    0.472   87.396
  468.500    4.691    0.233    0.471   89.220
  468.750    5.059    0.236    0.468   89.833
  469.000    5.254    0.231    0.466   83.822
  469.250    5.993    0.185    0.460   77.209
  469.500    6.341    0.161    0.466   71.803
  469.750    7.371    0.126    0.377   69.407
  470.000    7.799    0.105    0.327   70.020
  470.250    8.255    0.139    0.334   71.242
  470.500    8.258    0.178    0.410   67.039
  470.750    8.109    0.119    0.354   62.230
  471.000    7.670    0.083    0.307   65.861
  471.250    7.255    0.115    0.271   74.912
  471.500    6.993    0.170    0.343   81.549
  471.750    6.997    0.133    0.362   73.732
  472.000    6.999    0.098    0.302   67.721
  472.250    7.271    0.076    0.296   73.159
  472.500    7.552    0.151    0.358   75.580
  472.750    7.555    0.177    0.389   76.197
  473.000    6.756    0.184    0.411   79.827
  473.250    5.929    0.223    0.430   82.851
  473.500    5.301    0.244    0.437   85.275
  473.750    4.923    0.251    0.446   85.289
  474.000    4.834    0.255    0.451   85.908
  474.250    4.746    0.236    0.449   87.124
  474.500    4.749    0.229    0.438   89.552
  474.750    4.751    0.221    0.431   90.766
  475.000    4.753    0.218    0.444   90.778
  475.250    4.755    0.225    0.458   87.181
  475.500    4.848    0.230    0.436   85.385
  475.750    5.228    0.218    0.416   86.004
  476.000    5.639    0.213    0.424   87.220
  476.250    5.968    0.223    0.444   89.644
  476.500    6.196    0.206    0.465   84.839
  476.750    6.807    0.189    0.472   77.020
  477.000    7.620    0.142    0.452   70.406
  477.250    8.218    0.071    0.290   61.382
  477.500    7.920    0.040    0.253   65.011
  477.750    7.215    0.134    0.324   77.077
  478.000    6.216    0.169    0.391   83.112
  478.250    5.989    0.199    0.427   87.343
  478.500    5.457    0.209    0.450   87.960
  478.750    5.260    0.207    0.436   89.181
  479.000    5.263    0.198    0.429   89.794
  479.250    5.265    0.194    0.426   88.604
  479.500    5.367    0.214    0.423   91.632
  479.750    5.370    0.214    0.424   92.847
  480.000    5.474    0.213    0.429   92.258
  480.250    5.477    0.215    0.423   93.478
  480.500    5.480    0.214    0.411   95.299
  480.750    5.482    0.208    0.410   98.331
  481.000    5.383    0.205    0.401   98.942
  481.250    5.285    0.211    0.390   99.555
  481.500    5.002    0.210    0.383   95.353
  481.750    4.911    0.199    0.407   85.728
  482.000    4.821    0.188    0.424   76.705
  482.250    4.647    0.170    0.441   79.734
  482.500    4.477    0.195    0.436   83.968
  482.750    4.157    0.212    0.423   85.784
  483.000    3.787    0.220    0.430   87.604
  483.250    3.516    0.216    0.441   88.823
  483.500    3.028    0.231    0.435   89.438
  483.750    2.658    0.249    0.442   85.239
  484.000    2.333    0.274    0.475   83.442
  484.250    2.207    0.261    0.499   80.449
  484.500    2.166    0.257    0.493   78.653
  484.750    2.088    0.254    0.490   81.076
  485.000    2.051    0.251    0.504   84.705
  485.250    2.014    0.241    0.518   86.523
  485.500    2.015    0.236    0.531   87.142
  485.750    2.015    0.232    0.518   87.757
  486.000    2.093    0.227    0.514   88.974
  486.250    2.300    0.228    0.507   85.378
  486.500    2.527    0.233    0.511   83.579
  486.750    3.048    0.223    0.506   80.580
  487.000    3.678    0.205    0.427   78.184
  487.250    3.966    0.196    0.403   78.199
  487.500    4.439    0.198    0.385   78.814
  487.750    4.698    0.200    0.398   78.832
  488.000    4.880    0.197    0.407   78.845
  488.250    4.975    0.194    0.416   79.462
  488.500    5.167    0.189    0.410   81.284
  488.750    5.368    0.192    0.400   83.707
  489.000    5.681    0.201    0.423   86.130
  489.250    6.012    0.197    0.447   84.333
  489.500    6.243    0.116    0.383   74.106
  489.750    6.017    0.079    0.348   72.920
  490.000    5.281    0.146    0.327   75.944
  490.250    4.811    0.179    0.353   78.365
  490.500    4.384    0.196    0.382   81.994
  490.750    3.995    0.208    0.418   86.223
  491.000    3.849    0.212    0.420   89.249
  491.250    3.641    0.213    0.427   86.851
  491.500    3.575    0.209    0.440   85.661
  491.750    3.511    0.202    0.452   88.689
  492.000    3.513    0.193    0.461   90.511
  492.250    3.514    0.194    0.462   89.320
  492.500    3.517    0.198    0.466   89.331
  492.750    3.518    0.198    0.475   88.139
  493.000    3.454    0.188    0.460   85.746
  493.250    3.393    0.169    0.444   88.776
  493.500    3.394    0.182    0.453   89.988
  493.750    3.270    0.187    0.481   91.206
  494.000    3.152    0.184    0.456   90.621
  494.250    3.095    0.188    0.444   90.631
  494.500    3.097    0.173    0.459   91.850
  494.750    3.041    0.172    0.492   86.445
  495.000    2.986    0.178    0.492   85.254
  495.250    2.932    0.199    0.465   89.483
  495.500    2.826    0.201    0.481   90.703
  495.750    2.624    0.192    0.490   93.130
  496.000    2.576    0.192    0.499   94.343
  496.250    2.483    0.193    0.515   93.154
  496.500    2.438    0.191    0.513   90.153
  496.750    2.439    0.196    0.508   90.775
  497.000    2.533    0.191    0.515   95.607
  497.250    2.889    0.185    0.516   98.027
  497.500    3.552    0.191    0.502   98.040
  497.750    4.285    0.183    0.469   94.440
  498.000    4.708    0.177    0.413   93.251
  498.250    5.575    0.173    0.432   90.252
  498.500    6.726    0.167    0.421   79.420
  498.750    8.425    0.149    0.363   69.794
