~VERSION INFORMATION
 VERS.                 2.0:   CWLS LOG ASCII STANDARD -VERSION 2.0
 WRAP.                  NO:   ONE LINE PER DEPTH STEP
~WELL INFORMATION BLOCK
#MNEM.UNIT           DATA                    DESCRIPTION OF MNEMONIC
#---------    -------------------            -------------------------------
# Generated from Intellog Unique Number	CC_80_83/WELL/2366
NULL.         -999.25                        : NULL_VALUE
WELL.         CHEVRON CAN OXY LGAR           : Well_name    - WELL              
LOC .         10-23-082-16W4                 : Location     - LOCATION          
UWI .         00/10-23-082-16W400            : Uwi          - UNIQUE WELL ID    
ENTR.         RJA                            : Entered      - ENTERED BY        
SRVC.         SCHLUMBERGER                   : Scn          - SERVICE COMPANY   
DATE.         18 FEB 74                      : Date         - LOG DATE
STRT.M        94.488                         : top_depth    - START DEPTH       
STOP.M        286.511                        : bot_depth    - STOP DEPTH        
STEP.M        0.3048                         : increment    - STEP LENGTH       
~CURVE INFORMATION BLOCK
#MNEM UNIT       ERCB CURVE CODE    CURVE DESCRIPTION
#-----------   ------------------   ----------------------------------
DEPT.M        00 001 00 00         : DEPTH        - DEPTH                       
DPHI.V/V      00 890 00 00         : PHID         - DENSITY POROSITY (LIMESTONE)
NPHI.V/V      00 330 00 00         : PHIN         - NEUTRON POROSITY (LIMESTONE)
GR  .API      00 310 00 00         : GR           - GAMMA RAY                   
ILD .OHMM     00 120 00 00         : RESD         - DEEP RESISTIVITY (DIL)      
~PARAMETER INFORMATION       
#MNEM.UNIT           DATA             DESCRIPTION OF MNEMONIC
#---------         -----------     ------------------------------
GL  .M        550.774              : gl           - GROUND LEVEL ELEVATION      
EREF.M        554.126              : kb           - ELEVATION OF DEPTH REFERENCE
DATM.M        554.126              : datum        - DATUM ELEVATION             
TDD .M        287.731              : tdd          - TOTAL DEPTH DRILLER         
RUN .         ONE                  : Run          - RUN NUMBER                  
ENG .         BILL                 : Engineer     - RECORDING ENGINEER          
WIT .         JIM                  : Witness      - WITNESSED BY                
MUD .         GEL                  : Mud_type     - MUD TYPE                    
MATR.         LIMESTONE            : Logunit      - NEUTRON MATRIX              
TMAX.C        18.3333              : BHT          - MAXIMUM RECORDED TEMPERATURE
BHTD.M        287.731              : BHTDEP       - MAXIMUM RECORDED TEMPERATURE
MATR.         1                    : LOGUNIT      - NEUTRON MATRIX              
RMT .C        25                   : MDTP         - TEMPERATURE OF MUD          
NEUT.         1                    : NEUTRON      - NEUTRON TYPE                
RESI.         0                    : RESIST       - RESISTIVITY TYPE            
RMC .OHMM     0.25                 : RMC          - RESISTIVITY OF MUD CAKE     
RMF .OHMM     0.25                 : RMF          - RESISTIVITY OF MUD FILTRATE 
SUFT.C        4                    : SUFT         - SURFACE TEMPERATURE         
~A  DEPTH     PHID     PHIN       GR     RESD
# ...
  200.557    0.264    0.518   72.645    6.934
  200.862    0.294    0.559   72.812    6.408
  201.167    0.302    0.585   73.710    6.087
  201.472    0.309    0.579   70.145    6.201
  201.776    0.344    0.577   64.899    6.978
  202.081    0.357    0.553   62.573    7.895
  202.386    0.347    0.534   62.367    9.048
  202.691    0.354    0.499   57.612    9.813
  202.996    0.355    0.496   57.588   10.071
  203.300    0.347    0.555   59.923   10.054
  203.605    0.342    0.548   63.012    9.928
  203.910    0.333    0.539   63.789    9.929
  204.215    0.343    0.586   63.453   10.005
  204.520    0.347    0.555   62.193   10.081
  204.824    0.351    0.583   60.482   10.045
  205.129    0.337    0.602   63.073   10.010
  205.434    0.361    0.582   61.614   10.143
  205.739    0.365    0.571   58.855   10.125
  206.044    0.355    0.568   57.403    9.815
  206.348    0.361    0.600   58.309    9.358
  206.653    0.341    0.619   61.452    9.071
  206.958    0.332    0.595   60.807    9.040
  207.263    0.314    0.551   66.621    9.142
  207.568    0.274    0.503   65.604    9.382
  207.872    0.249    0.574   60.047    9.436
  208.177    0.323    0.577   62.692    9.215
  208.482    0.334    0.559   62.173    8.916
  208.787    0.328    0.542   67.184    8.611
  209.091    0.330    0.559   67.898    8.597
  209.396    0.350    0.606   66.320    8.662
  209.701    0.334    0.568   66.239    8.744
  210.006    0.338    0.547   73.173    8.826
  210.311    0.319    0.542   78.799    8.763
  210.615    0.307    0.522   79.776    8.464
  210.920    0.282    0.585   77.637    7.937
  211.225    0.288    0.579   78.112    7.362
  211.530    0.296    0.605   84.170    7.149
  211.835    0.288    0.631   86.323    6.930
  212.139    0.284    0.628   82.760    6.620
  212.444    0.277    0.617   84.968    6.312
  212.749    0.284    0.616   86.679    5.865
  213.054    0.285    0.624   89.141    5.685
  213.359    0.268    0.622   90.730    5.431
  213.663    0.279    0.601   90.207    5.216
  213.968    0.284    0.587   83.598    5.122
  214.273    0.284    0.563   80.151    5.404
  214.578    0.309    0.490   77.142    6.228
  214.883    0.325    0.450   72.091    7.270
  215.187    0.331    0.489   70.693    8.135
  215.492    0.300    0.576   74.270    9.037
  215.797    0.242    0.538   68.466   10.262
  216.102    0.142    0.293   62.417   11.654
  216.407    0.082    0.263   59.713   13.137
  216.711    0.101    0.447   65.532   13.632
  217.016    0.232    0.585   76.079   13.288
  217.321    0.316    0.573   78.782   10.676
  217.626    0.311    0.566   77.638    8.900
  217.931    0.311    0.560   76.998    8.164
  218.235    0.301    0.549   77.462    8.046
  218.540    0.306    0.528   74.953    8.107
  218.845    0.293    0.492   73.499    9.005
  219.150    0.267    0.400   69.931   11.069
  219.454    0.153    0.304   65.555   12.922
  219.759    0.098    0.540   64.912   12.900
  220.064    0.186    0.547   76.015   10.157
  220.369    0.279    0.536   78.099    8.071
  220.674    0.252    0.513   79.440    7.176
  220.978    0.247    0.500   83.767    6.867
  221.283    0.271    0.538   86.726    6.843
  221.588    0.265    0.560   82.784    6.946
  221.893    0.271    0.553   81.269    7.063
  222.198    0.261    0.563   80.747    7.117
  222.502    0.269    0.586   81.276    7.237
  222.807    0.254    0.572   81.450    7.510
  223.112    0.263    0.564   80.233    8.040
  223.417    0.273    0.587   80.084    9.081
  223.722    0.290    0.585   77.571    9.812
  224.026    0.285    0.557   75.570   10.467
  224.331    0.274    0.463   75.346   10.623
  224.636    0.265    0.499   82.219    9.585
  224.941    0.247    0.535   82.816    8.079
  225.246    0.249    0.538   85.275    7.249
  225.550    0.220    0.551   91.534    6.773
  225.855    0.263    0.520   93.185    6.578
  226.160    0.259    0.519   90.669    6.543
  226.465    0.252    0.564   85.122    6.520
  226.770    0.252    0.582   85.477    6.557
  227.074    0.257    0.561   86.678    6.619
  227.379    0.243    0.581   87.399    6.743
  227.684    0.252    0.607   83.964    6.844
  227.989    0.268    0.579   92.197    6.934
  228.294    0.265    0.512   96.837    6.948
  228.598    0.253    0.503   93.592    6.937
  228.903    0.244    0.542   91.935    6.887
  229.208    0.235    0.590   90.552    6.726
  229.513    0.253    0.550   91.641    6.568
  229.818    0.255    0.545   92.481    6.379
  230.122    0.264    0.588   89.228    6.218
  230.427    0.270    0.629   82.992    6.105
  230.732    0.264    0.608   77.870    6.118
  231.037    0.320    0.567   76.284    6.164
  231.341    0.285    0.593   80.425    6.385
  231.646    0.290    0.555   80.406    7.092
  231.951    0.292    0.512   76.024    7.806
  232.256    0.292    0.511   74.819    7.981
  232.561    0.304    0.547   76.718    7.751
  232.865    0.289    0.556   72.490    7.639
  233.170    0.281    0.575   70.829    7.927
  233.475    0.270    0.542   66.951    8.566
  233.780    0.270    0.504   59.591    9.945
  234.085    0.198    0.295   53.474   11.355
  234.389    0.041    0.249   54.009   12.754
  234.694    0.053    0.293   69.278   14.671
  234.999    0.178    0.405   75.654   17.064
  235.304    0.135    0.343   73.573   15.199
  235.609    0.067    0.263   63.976   14.518
  235.913    0.100    0.409   71.097   12.931
  236.218    0.224    0.438   67.973   10.238
  236.523    0.200    0.379   68.438    9.444
  236.828    0.255    0.480   76.182    8.954
  237.133    0.303    0.514   76.719    8.681
  237.437    0.292    0.538   80.484    8.698
  237.742    0.284    0.528   80.456    8.812
  238.047    0.289    0.513   77.014    8.944
  238.352    0.295    0.533   84.136    9.146
  238.657    0.292    0.528   81.748    9.318
  238.961    0.295    0.570   77.994    9.066
  239.266    0.279    0.544   78.470    7.942
  239.571    0.264    0.556   81.612    6.276
  239.876    0.243    0.566   82.147    5.378
  240.181    0.241    0.611   84.170    4.952
  240.485    0.241    0.601   90.117    4.818
  240.790    0.251    0.571   92.511    4.917
  241.095    0.241    0.601   92.982    5.188
  241.400    0.265    0.559   88.115    5.585
  241.704    0.255    0.574   82.623    6.878
  242.009    0.245    0.450   78.739    7.970
  242.314    0.269    0.393   72.562    9.886
  242.619    0.238    0.330   67.374   12.794
  242.924    0.102    0.316   71.082   14.799
  243.228    0.148    0.430   81.439   13.675
  243.533    0.271    0.489   87.192    8.461
  243.838    0.273    0.538   91.018    6.601
  244.143    0.244    0.587   94.411    5.553
  244.448    0.245    0.624   97.370    5.038
  244.752    0.254    0.605   98.027    5.375
  245.057    0.239    0.573   94.463    5.775
  245.362    0.220    0.545   95.180    6.547
  245.667    0.247    0.553   94.227    6.831
  245.972    0.238    0.546   92.089    6.845
  246.276    0.246    0.529   94.176    6.550
  246.581    0.255    0.535   96.820    6.211
  246.886    0.243    0.567   99.410    5.846
  247.191    0.234    0.598  100.311    5.719
  247.496    0.235    0.590   98.302    5.626
  247.800    0.251    0.580   99.084    5.648
  248.105    0.233    0.574  101.296    5.850
  248.410    0.234    0.491   99.720    6.403
  248.715    0.205    0.469   91.120    8.272
  249.020    0.182    0.424   88.543   10.337
  249.324    0.171    0.407   87.775   12.405
  249.629    0.169    0.442   90.912   10.591
  249.934    0.220    0.453   93.002    8.976
  250.239    0.229    0.482   97.823    7.428
  250.544    0.241    0.498   98.484    6.726
  250.848    0.210    0.516   97.094    6.193
  251.153    0.235    0.563   98.804    6.391
  251.458    0.246    0.551   94.246    7.217
  251.763    0.242    0.461   88.388    8.662
  252.067    0.256    0.467   84.693    9.710
  252.372    0.250    0.480   82.552   10.570
  252.677    0.231    0.470   85.887   10.552
  252.982    0.220    0.478   87.846   10.267
  253.287    0.251    0.472   85.331   10.155
