~VERSION INFORMATION
 VERS.                 2.0:   CWLS LOG ASCII STANDARD -VERSION 2.0
 WRAP.                  NO:   ONE LINE PER DEPTH STEP
~WELL INFORMATION BLOCK
#MNEM.UNIT           DATA                    DESCRIPTION OF MNEMONIC
#---------    -------------------            -------------------------------
# Generated from Intellog Unique Number	CW_79_81/WELL/913
WELL.         HOMESTEAD ET AL WEAVER         : Well_name    - WELL
LOC .         00/11-25-080-01W5/0            : Location     - LOCATION
UWI .         00/11-25-080-01W5/0            : Uwi          - UNIQUE WELL ID
ENTR.         MAX                            : Entered      - ENTERED BY
SRVC.         SCHLUMBERGER                   : Scn          - SERVICE COMPANY
STRT.M        260                            : top_depth    - START DEPTH
STOP.M        505                            : bot_depth    - STOP DEPTH
STEP.M        0.25                           : increment    - STEP LENGTH
 NULL. -999.2500:NULL Value
~CURVE INFORMATION BLOCK
#MNEM UNIT       ERCB CURVE CODE    CURVE DESCRIPTION
#-----------   ------------------   ----------------------------------
DEPT.M        00 001 00 00         : DEPTH        - DEPTH
ILD .OHMM     00 120 00 00         : RESD         - DEEP RESISTIVITY (DIL)
NPHI.V/V      00 330 00 00         : PHIN         - NEUTRON POROSITY (SANDSTONE)
DPHI.V/V      00 890 00 00         : PHID         - DENSITY POROSITY (SANDSTONE)
CALI.MM       00 280 01 00         : CAL          - CALIPER
GR  .API      00 310 00 00         : GR           - GAMMA RAY
~PARAMETER INFORMATION
#MNEM.UNIT           DATA             DESCRIPTION OF MNEMONIC
#---------         -----------     ------------------------------
GL  .M        580                  : gl           - GROUND LEVEL ELEVATION
EREF.M        583.67               : kb           - ELEVATION OF DEPTH REFERENCE
DATM.M        580                  : datum        - DATUM ELEVATION
TDD .M        515                  : tdd          - TOTAL DEPTH DRILLER
RUN .         ONE                  : Run          - RUN NUMBER
ENG .         BILL                 : Engineer     - RECORDING ENGINEER
WIT .         JIM                  : Witness      - WITNESSED BY
MUD .         GEL                  : Mud_type     - MUD TYPE
MATR.         SANDSTONE            : Logunit      - NEUTRON MATRIX
TMAX.C        24                   : BHT          - MAXIMUM RECORDED TEMPERATURE
BHTD.M        515                  : BHTDEP       - MAXIMUM RECORDED TEMPERATURE
RMT .C        16                   : MDTP         - TEMPERATURE OF MUD
MUDD.KG/M     1100                 : MWT          - MUD DENSITY
NEUT.         1                    : NEUTRON      - NEUTRON TYPE
RESI.         0                    : RESIST       - RESISTIVITY TYPE
RM  .OHMM     6.62                 : RM           - RESISTIVITY OF MUD
RMC .OHMM     0                    : RMC          - RESISTIVITY OF MUD CAKE
RMF .OHMM     4.5                  : RMF          - RESISTIVITY OF MUD FILTRATE
SUFT.C        4                    : SUFT         - SURFACE TEMPERATURE
~A  DEPTH     RESD     PHIN     PHID      CAL       GR
# ...
  479.000    7.488    0.426    0.211  172.824   88.646
  479.250    6.942    0.422    0.179  165.291   95.216
  479.500    6.746    0.447    0.195  171.741   99.688
  479.750    6.614    0.475    0.231  171.706  105.959
  480.000    6.797    0.485    0.226  168.665  105.932
  480.250    7.181    0.512    0.214  165.628  102.914
  480.500    7.446    0.499    0.174  165.594   95.095
  480.750    7.371    0.462    0.101  165.050   83.379
  481.000    7.229    0.343    0.043  165.010   80.961
  481.250    7.637    0.314    0.070  164.476   88.727
  481.500    8.533    0.340    0.117  163.932   95.600
  481.750    9.187    0.392    0.210  163.888   97.974
  482.000    8.760    0.411    0.230  162.350   96.748
  482.250    8.432    0.411    0.246  159.813   88.932
  482.500    8.424    0.387    0.227  159.279   85.611
  482.750    8.495    0.365    0.221  160.234   85.285
  483.000    8.726    0.361    0.205  160.694   84.365
  483.250    8.883    0.360    0.202  160.649   82.843
  483.500    9.211    0.365    0.196  160.620   78.623
  483.750    9.378    0.362    0.192  161.080   75.300
  484.000    9.457    0.366    0.177  161.530   76.775
  484.250    9.273    0.390    0.191  162.989   82.146
  484.500    9.179    0.397    0.216  163.449   83.021
  484.750    9.343    0.397    0.231  163.415   80.597
  485.000    9.510    0.387    0.254  163.870   76.674
  485.250    9.680    0.381    0.270  163.830   75.152
  485.500    9.762    0.375    0.252  164.290   76.630
  485.750    9.663    0.369    0.226  164.256   78.707
  486.000    9.388    0.361    0.211  164.216   78.680
  486.250    9.037    0.362    0.215  164.172   77.752
  486.500    8.861    0.368    0.215  163.134   77.734
  486.750    8.853    0.366    0.217  160.092   77.707
  487.000    8.763    0.365    0.220  158.059   78.586
  487.250    8.591    0.358    0.216  157.515   81.256
  487.500    8.427    0.363    0.214  157.976   85.429
  487.750    8.034    0.370    0.210  158.935   93.198
  488.000    7.732    0.398    0.202  159.895   96.474
  488.250    7.442    0.431    0.205  162.857  103.344
  488.500    7.232    0.506    0.219  163.312  107.816
  488.750    7.091    0.498    0.228  162.774  106.290
  489.000    6.889    0.462    0.206  161.236  105.371
  489.250    6.693    0.379    0.164  159.198  105.047
  489.500    6.442    0.370    0.150  157.660  105.021
  489.750    6.318    0.368    0.126  158.120  103.202
  490.000    6.253    0.366    0.131  161.078   99.881
  490.250    5.962    0.364    0.114  161.533   94.460
  490.500    5.528    0.365    0.101  160.994   93.531
  490.750    5.031    0.374    0.099  158.457   93.813
  491.000    4.709    0.380    0.157  156.924   99.184
  491.250    5.117    0.387    0.175  157.878  105.754
  491.500    5.718    0.393    0.175  160.337  112.024
  491.750    6.570    0.407    0.174  159.293  114.096
  492.000    7.273    0.424    0.174  159.259  109.879
  492.250    7.543    0.429    0.184  161.207  104.757
  492.500    7.678    0.423    0.181  162.177  101.736
  492.750    7.671    0.436    0.162  162.132  101.116
  493.000    7.452    0.463    0.144  162.098  100.194
  493.250    6.910    0.511    0.124  162.553   98.968
  493.500    5.519    0.506    0.106  161.520   98.941
  493.750    4.839    0.505    0.098  160.481  100.120
  494.000    4.446    0.512    0.150  160.437  103.692
  494.250    4.009    0.524    0.170  161.396  109.061
  494.500    3.449    0.537    0.164  161.856  109.633
  494.750    3.289    0.522    0.151  163.805  110.809
  495.000    3.255    0.503    0.182  164.770  111.990
  495.250    3.314    0.484    0.170  167.727  111.361
  495.500    3.469    0.487    0.163  168.692  109.242
  495.750    3.531    0.499    0.161  169.647  109.515
  496.000    3.462    0.487    0.153  170.601  111.290
  496.250    3.395    0.484    0.155  173.064  113.667
  496.500    3.330    0.482    0.169  175.518  117.539
  496.750    3.358    0.478    0.185  172.486  119.317
  497.000    3.514    0.478    0.197  169.949  119.890
  497.250    3.512    0.482    0.189  169.904  119.863
  497.500    3.349    0.490    0.161  170.365  119.540
  497.750    3.193    0.491    0.139  172.823  119.216
  498.000    3.220    0.490    0.135  173.787  120.991
  498.250    3.498    0.507    0.134  168.753  124.567
  498.500    3.837    0.537    0.148  161.215  132.932
  498.750    4.248    0.572    0.155  161.670  136.508
  499.000    4.659    0.561    0.165  162.640  141.280
  499.250    4.877    0.527    0.159  161.592  143.651
  499.500    5.105    0.510    0.153  161.547  143.028
  499.750    5.294    0.490    0.166  162.012  122.027
  500.000    5.699    0.469    0.164  161.978  104.617
  500.250    6.250    0.421    0.153  163.432   89.005
  500.500    6.792    0.380    0.143  162.393   77.892
  500.750    7.805    0.322    0.132  162.354   60.782
  501.000    9.223    0.293    0.111  161.820   46.072
  501.250   14.019    0.247    0.107  161.276   32.258
  501.500   18.019    0.244    0.104  161.236   24.742
  501.750   21.293    0.252    0.110  159.199   22.920
  502.000   21.877    0.268    0.120  155.158   19.893
  502.250   21.056    0.276    0.137  155.124   17.472
  502.500   20.267    0.288    0.146  156.079   16.249
  502.750   18.964    0.297    0.152  157.538   16.822
  503.000   17.750    0.305    0.172  158.997   17.704
  503.250   16.615    0.314    0.210  159.457   19.178
  503.500   14.704    0.330    0.218  157.914   22.751
  503.750   12.537    0.339    0.237  156.880   28.422
  504.000   10.689    0.356    0.263  156.341   31.695
  504.250   10.193    0.373    0.244  156.302   32.271
  504.500   10.571    0.381    0.221  156.258   29.250
  504.750   11.810    0.287    0.162  156.218   21.728
  505.000   13.700    0.257    0.132  156.174   21.108
