~VERSION INFORMATION
 VERS.                 2.0:   CWLS LOG ASCII STANDARD -VERSION 2.0
 WRAP.                  NO:   ONE LINE PER DEPTH STEP
~WELL INFORMATION BLOCK
#MNEM.UNIT           DATA                    DESCRIPTION OF MNEMONIC
#---------    -------------------            -------------------------------
# Generated from Intellog Unique Number	CS_69_70/WELL/900
WELL.         ET AL HEART LAKE               : Well_name    - WELL
LOC .         00/12-13-069-11W4/0            : Location     - LOCATION
UWI .         00/12-13-069-11W4/0            : Uwi          - UNIQUE WELL ID
ENTR.         SP                             : Entered      - ENTERED BY
SRVC.         SCHLUMBERGER                   : Scn          - SERVICE COMPANY
STRT.M        300                            : top_depth    - START DEPTH
STOP.M        495                            : bot_depth    - STOP DEPTH
STEP.M        0.25                           : increment    - STEP LENGTH
 NULL. -999.2500:NULL Value
~CURVE INFORMATION BLOCK
#MNEM UNIT       ERCB CURVE CODE    CURVE DESCRIPTION
#-----------   ------------------   ----------------------------------
DEPT.M        00 001 00 00         : DEPTH        - DEPTH
ILD .OHMM     00 120 00 00         : RESD         - DEEP RESISTIVITY (DIL)
DPHI.V/V      00 890 00 00         : PHID         - DENSITY POROSITY (LIMESTONE)
NPHI.V/V      00 330 00 00         : PHIN         - NEUTRON POROSITY (LIMESTONE)
GR  .API      00 310 00 00         : GR           - GAMMA RAY
~PARAMETER INFORMATION
#MNEM.UNIT           DATA             DESCRIPTION OF MNEMONIC
#---------         -----------     ------------------------------
GL  .M        617.8                : gl           - GROUND LEVEL ELEVATION
EREF.M        621                  : kb           - ELEVATION OF DEPTH REFERENCE
DATM.M        617.8                : datum        - DATUM ELEVATION
TDD .M        498                  : tdd          - TOTAL DEPTH DRILLER
RUN .         ONE                  : Run          - RUN NUMBER
ENG .         BILL                 : Engineer     - RECORDING ENGINEER
WIT .         JIM                  : Witness      - WITNESSED BY
MUD .         GEL                  : Mud_type     - MUD TYPE
MATR.         LIMESTONE            : Logunit      - NEUTRON MATRIX
TMAX.C        23                   : BHT          - MAXIMUM RECORDED TEMPERATURE
BHTD.M        498                  : BHTDEP       - MAXIMUM RECORDED TEMPERATURE
MATR.         1                    : LOGUNIT      - NEUTRON MATRIX
RMT .C        25                   : MDTP         - TEMPERATURE OF MUD
NEUT.         1                    : NEUTRON      - NEUTRON TYPE
RESI.         0                    : RESIST       - RESISTIVITY TYPE
RMC .OHMM     0.25                 : RMC          - RESISTIVITY OF MUD CAKE
RMF .OHMM     0.25                 : RMF          - RESISTIVITY OF MUD FILTRATE
SUFT.C        15                   : SUFT         - SURFACE TEMPERATURE
~A  DEPTH     RESD     PHID     PHIN       GR
# ...
  387.000    7.767    0.309    0.449   67.906
  387.250    7.752    0.327    0.458   69.779
  387.500    7.738    0.326    0.467   71.041
  387.750    7.724    0.318    0.461   71.690
  388.000    7.754    0.314    0.457   71.855
  388.250    7.799    0.320    0.475   71.592
  388.500    7.903    0.327    0.487   71.328
  388.750    8.270    0.331    0.446   71.007
  389.000    9.038    0.333    0.402   70.500
  389.250   10.335    0.338    0.368   70.296
  389.500   11.210    0.338    0.341   69.791
  389.750   11.909    0.332    0.384   68.918
  390.000   11.149    0.327    0.429   68.289
  390.250    9.714    0.328    0.468   68.149
  390.500    8.592    0.345    0.468   68.864
  390.750    7.745    0.350    0.477   73.416
  391.000    7.155    0.322    0.469   77.359
  391.250    6.838    0.273    0.462   81.179
  391.500    6.749    0.283    0.463   83.842
  391.750    6.943    0.300    0.483   85.104
  392.000    7.238    0.309    0.497   76.733
  392.250    7.911    0.312    0.472   73.117
  392.500    9.556    0.315    0.443   70.968
  392.750   11.964    0.281    0.453   66.131
  393.000   15.008    0.135    0.322   61.358
  393.250   19.887    0.080    0.187   56.827
  393.500   23.572    0.037    0.140   53.032
  393.750   25.280    0.010    0.121   49.721
  394.000   23.486   -0.009    0.111   47.752
  394.250   21.012   -0.012    0.111   48.344
  394.500   17.104    0.078    0.192   59.723
  394.750   13.407    0.241    0.344   68.055
  395.000   10.450    0.270    0.378   74.008
  395.250    8.901    0.285    0.410   75.880
  395.500    8.008    0.298    0.421   75.861
  395.750    7.829    0.312    0.429   74.806
  396.000    7.669    0.321    0.446   72.957
  396.250    7.512    0.326    0.464   71.842
  396.500    7.289    0.335    0.458   70.726
  396.750    7.086    0.342    0.453   70.159
  397.000    6.875    0.303    0.459   72.578
  397.250    6.658    0.261    0.451   78.287
  397.500    6.559    0.240    0.460   82.293
  397.750    6.340    0.228    0.467   85.076
  398.000    6.293    0.219    0.460   86.766
  398.250    6.548    0.220    0.448   84.613
  398.500    6.548    0.223    0.438   83.495
  398.750    6.499    0.219    0.440   86.281
  399.000    6.378    0.218    0.452   90.529
  399.250    6.236    0.217    0.460   94.897
  399.500    6.108    0.206    0.455   97.928
  399.750    5.949    0.203    0.455  100.835
  400.000    5.794    0.217    0.464   96.914
  400.250    5.773    0.235    0.455   88.850
  400.500    5.917    0.252    0.449   85.539
  400.750    6.076    0.263    0.452   83.448
  401.000    6.204    0.278    0.468   82.454
  401.250    6.216    0.295    0.459   84.752
  401.500    6.193    0.273    0.443   87.958
  401.750    6.089    0.249    0.426   90.318
  402.000    5.930    0.234    0.426   91.949
  402.250    5.787    0.238    0.458   93.636
  402.500    5.700    0.236    0.466   92.094
  402.750    5.658    0.227    0.461   88.357
  403.000    5.637    0.219    0.459   87.973
  403.250    5.584    0.214    0.469   91.550
  403.500    5.511    0.213    0.480   94.453
  403.750    5.398    0.215    0.477   95.838
  404.000    5.218    0.219    0.462   96.609
  404.250    4.978    0.218    0.454   96.716
  404.500    4.669    0.213    0.451   93.040
  404.750    4.387    0.217    0.469   89.850
  405.000    3.962    0.227    0.473   89.465
  405.250    3.459    0.232    0.477   92.800
  405.500    3.042    0.232    0.514   94.793
  405.750    2.640    0.238    0.557   96.052
  406.000    2.358    0.246    0.581   96.034
  406.250    2.207    0.230    0.569   93.819
  406.500    2.228    0.227    0.541   93.558
  406.750    2.367    0.234    0.529   93.784
  407.000    2.472    0.229    0.522   94.070
  407.250    2.728    0.223    0.518   94.844
  407.500    2.920    0.230    0.523   96.349
  407.750    3.185    0.242    0.501   93.282
  408.000    3.435    0.248    0.475   85.398
  408.250    3.705    0.257    0.460   81.237
  408.500    3.973    0.261    0.456   87.739
  408.750    4.197    0.242    0.467   91.804
  409.000    4.417    0.235    0.481   90.809
  409.250    4.417    0.228    0.492   88.290
  409.500    4.302    0.231    0.489   86.016
  409.750    4.104    0.234    0.471   83.805
  410.000    3.998    0.237    0.460   80.251
  410.250    3.916    0.241    0.455   79.013
  410.500    3.821    0.256    0.455   81.859
  410.750    3.814    0.262    0.462   77.814
  411.000    3.865    0.257    0.473   72.554
  411.250    3.999    0.273    0.480   70.039
  411.500    4.161    0.288    0.473   68.434
  411.750    4.330    0.302    0.467   72.559
  412.000    4.421    0.310    0.460   77.109
  412.250    4.539    0.291    0.455   78.497
  412.500    4.609    0.292    0.460   79.209
  412.750    4.455    0.302    0.481   77.727
  413.000    4.323    0.307    0.472   75.026
  413.250    4.179    0.300    0.461   73.726
  413.500    4.147    0.289    0.451   75.537
  413.750    4.275    0.242    0.435   80.637
  414.000    4.423    0.207    0.424   82.143
  414.250    4.708    0.211    0.437   78.589
  414.500    4.992    0.215    0.443   73.633
  414.750    5.263    0.182    0.449   68.555
  415.000    5.974    0.134    0.433   61.952
  415.250    6.922    0.080    0.262   57.059
  415.500    7.856    0.040    0.233   59.660
  415.750    8.799    0.023    0.275   64.274
  416.000    9.526    0.084    0.330   69.186
  416.250    8.685    0.142    0.350   71.244
  416.500    7.259    0.182    0.368   72.872
  416.750    5.843    0.208    0.388   73.341
  417.000    5.237    0.217    0.412   71.553
  417.250    4.829    0.222    0.405   73.971
  417.500    4.529    0.216    0.418   77.490
  417.750    4.453    0.208    0.428   80.579
  418.000    4.436    0.209    0.419   80.499
  418.250    4.445    0.213    0.393   78.347
  418.500    4.428    0.225    0.407   76.500
  418.750    4.404    0.235    0.428   80.809
  419.000    4.346    0.245    0.441   79.509
  419.250    4.273    0.250    0.453   75.650
  419.500    4.225    0.252    0.466   74.291
  419.750    4.194    0.259    0.488   77.500
  420.000    4.194    0.259    0.467   79.618
  420.250    4.202    0.238    0.455   81.975
  420.500    4.227    0.226    0.450   83.663
  420.750    4.259    0.221    0.454   85.106
  421.000    4.324    0.233    0.462   86.611
  421.250    4.374    0.230    0.454   85.314
  421.500    4.407    0.216    0.464   82.369
  421.750    4.407    0.208    0.476   82.653
  422.000    4.408    0.217    0.468   86.591
  422.250    4.408    0.232    0.466   89.380
  422.500    4.433    0.245    0.465   92.168
  422.750    4.442    0.236    0.456   94.460
  423.000    4.468    0.230    0.448   95.421
  423.250    4.468    0.227    0.442   94.728
  423.500    4.485    0.226    0.444   93.982
  423.750    4.519    0.222    0.448   93.595
  424.000    4.571    0.216    0.461   94.249
  424.250    4.641    0.208    0.474   94.534
  424.500    4.650    0.199    0.459   90.919
  424.750    4.686    0.208    0.449   87.853
  425.000    4.722    0.216    0.445   89.418
  425.250    4.776    0.221    0.451   93.178
  425.500    4.821    0.212    0.444   97.849
  425.750    4.831    0.206    0.438  100.455
  426.000    4.795    0.207    0.432   98.059
  426.250    4.688    0.210    0.428   95.541
  426.500    4.446    0.209    0.450  100.151
  426.750    4.069    0.207    0.504  102.939
  427.000    3.599    0.213    0.536  105.115
  427.250    3.344    0.222    0.548  105.766
  427.500    3.049    0.234    0.552  104.589
  427.750    2.859    0.244    0.549  105.058
  428.000    2.558    0.234    0.559  105.283
  428.250    2.246    0.245    0.579  104.775
  428.500    2.067    0.246    0.595  103.595
  428.750    1.972    0.236    0.606  100.834
  429.000    1.972    0.214    0.604   99.295
  429.250    2.009    0.227    0.586   97.265
  429.500    2.087    0.223    0.568   97.246
  429.750    2.159    0.228    0.547  100.577
  430.000    2.268    0.226    0.514  103.912
  430.250    2.347    0.219    0.524   99.932
