~VERSION INFORMATION
 VERS.                 2.0:   CWLS LOG ASCII STANDARD -VERSION 2.0
 WRAP.                  NO:   ONE LINE PER DEPTH STEP
~WELL INFORMATION BLOCK
#MNEM.UNIT           DATA                    DESCRIPTION OF MNEMONIC
#---------    -------------------            -------------------------------
# Generated from Intellog Unique Number	CS_69_70/WELL/897
NULL.         -999.25                        : NULL_VALUE
WELL.         SULPETRO BRENDA IPIATIK        : Well_name    - WELL              
LOC .         00/11-28-070-09W4/0            : Location     - LOCATION          
UWI .         00/11-28-070-09W4/0            : Uwi          - UNIQUE WELL ID    
ENTR.         SP                             : Entered      - ENTERED BY        
SRVC.         SCHLUMBERGER                   : Scn          - SERVICE COMPANY   
STRT.M        260                            : top_depth    - START DEPTH       
STOP.M        470                            : bot_depth    - STOP DEPTH        
STEP.M        0.25                           : increment    - STEP LENGTH       
~CURVE INFORMATION BLOCK
#MNEM UNIT       ERCB CURVE CODE    CURVE DESCRIPTION
#-----------   ------------------   ----------------------------------
DEPT.M        00 001 00 00         : DEPTH        - DEPTH                       
ILD .OHMM     00 120 00 00         : RESD         - DEEP RESISTIVITY (DIL)      
DPHI.V/V      00 890 00 00         : PHID         - DENSITY POROSITY (LIMESTONE)
NPHI.V/V      00 330 00 00         : PHIN         - NEUTRON POROSITY (LIMESTONE)
GR  .API      00 310 00 00         : GR           - GAMMA RAY                   
~PARAMETER INFORMATION       
#MNEM.UNIT           DATA             DESCRIPTION OF MNEMONIC
#---------         -----------     ------------------------------
GL  .M        605.03               : gl           - GROUND LEVEL ELEVATION      
EREF.M        609.53               : kb           - ELEVATION OF DEPTH REFERENCE
DATM.M        605.03               : datum        - DATUM ELEVATION             
TDD .M        480                  : tdd          - TOTAL DEPTH DRILLER         
RUN .         ONE                  : Run          - RUN NUMBER                  
ENG .         BILL                 : Engineer     - RECORDING ENGINEER          
WIT .         JIM                  : Witness      - WITNESSED BY                
MUD .         GEL                  : Mud_type     - MUD TYPE                    
MATR.         LIMESTONE            : Logunit      - NEUTRON MATRIX              
TMAX.C        20                   : BHT          - MAXIMUM RECORDED TEMPERATURE
BHTD.M        480                  : BHTDEP       - MAXIMUM RECORDED TEMPERATURE
MATR.         1                    : LOGUNIT      - NEUTRON MATRIX              
RMT .C        25                   : MDTP         - TEMPERATURE OF MUD          
NEUT.         1                    : NEUTRON      - NEUTRON TYPE                
RESI.         0                    : RESIST       - RESISTIVITY TYPE            
RMC .OHMM     0.25                 : RMC          - RESISTIVITY OF MUD CAKE     
RMF .OHMM     0.25                 : RMF          - RESISTIVITY OF MUD FILTRATE 
SUFT.C        15                   : SUFT         - SURFACE TEMPERATURE         
~A  DEPTH     RESD     PHID     PHIN       GR
# ...
  303.500    7.149    0.278    0.424   84.768
  303.750    7.431    0.288    0.412   81.990
  304.000    7.581    0.294    0.415   81.314
  304.250    7.593    0.282    0.431   81.959
  304.500    7.450    0.273    0.448   83.867
  304.750    7.365    0.271    0.460   87.757
  305.000    7.294    0.273    0.451   91.526
  305.250    7.157    0.277    0.437   93.314
  305.500    6.569    0.289    0.428   91.796
  305.750    6.097    0.296    0.421   90.461
  306.000    5.637    0.282    0.416   96.633
  306.250    5.280    0.249    0.425   99.621
  306.500    5.347    0.233    0.438   98.166
  306.750    5.631    0.255    0.449   91.603
  307.000    5.951    0.256    0.442   87.564
  307.250    6.301    0.266    0.449   89.592
  307.500    6.659    0.279    0.441   91.018
  307.750    6.608    0.259    0.441   90.644
  308.000    6.544    0.241    0.445   88.405
  308.250    6.591    0.238    0.447   86.649
  308.500    6.901    0.245    0.437   78.945
  308.750    7.499    0.284    0.431   70.822
  309.000    8.015    0.302    0.433   62.997
  309.250    8.470    0.329    0.437   58.479
  309.500    8.738    0.341    0.435   54.499
  309.750    8.849    0.343    0.430   51.900
  310.000    8.929    0.336    0.422   50.506
  310.250    8.892    0.324    0.416   52.591
  310.500    8.839    0.313    0.422   53.898
  310.750    8.722    0.305    0.432   54.486
  311.000    8.687    0.312    0.432   55.189
  311.250    8.715    0.326    0.425   55.415
  311.500    8.810    0.339    0.422   55.822
  311.750    8.905    0.343    0.417   56.109
  312.000    8.952    0.336    0.410   56.635
  312.250    8.998    0.331    0.414   58.482
  312.500    9.079    0.326    0.423   59.367
  312.750    9.211    0.325    0.424   61.696
  313.000    9.344    0.332    0.413   67.746
  313.250    9.290    0.318    0.402   71.998
  313.500    9.235    0.306    0.396   75.705
  313.750    9.129    0.297    0.389   78.272
  314.000    9.075    0.288    0.384   79.582
  314.250    9.072    0.287    0.389   81.188
  314.500    9.018    0.298    0.398   81.714
  314.750    8.948    0.291    0.406   82.121
  315.000    8.666    0.279    0.412   85.290
  315.250    8.394    0.266    0.405   88.459
  315.500    8.115    0.264    0.407   90.786
  315.750    8.037    0.262    0.413   90.591
  316.000    8.094    0.254    0.423   92.558
  316.250    8.001    0.265    0.423   90.200
  316.500    7.678    0.275    0.413   87.965
  316.750    7.273    0.255    0.403   91.913
  317.000    6.954    0.230    0.395   95.742
  317.250    6.648    0.214    0.401   98.431
  317.500    6.451    0.221    0.437   95.054
  317.750    6.354    0.223    0.459   83.985
  318.000    6.653    0.237    0.467   76.703
  318.250    7.243    0.267    0.450   68.878
  318.500    7.901    0.286    0.443   61.355
  318.750    8.634    0.292    0.429   53.471
  319.000    9.210    0.309    0.393   46.550
  319.250    9.697    0.329    0.360   54.584
  319.500    9.986    0.326    0.371   77.275
  319.750   10.150    0.323    0.387  114.322
  320.000   10.146    0.332    0.399  128.424
  320.250   10.049    0.338    0.412  131.472
  320.500    9.897    0.341    0.421  130.796
  320.750    9.784    0.342    0.426  119.249
  321.000    9.926    0.335    0.417  102.414
  321.250   10.184    0.326    0.406  107.746
  321.500   10.545    0.316    0.399  113.438
  321.750   10.819    0.311    0.391   79.245
  322.000   11.141    0.309    0.385   62.711
  322.250   11.096    0.320    0.378   71.703
  322.500   10.847    0.330    0.416   75.715
  322.750   10.526    0.328    0.430   79.604
  323.000   10.101    0.317    0.426   82.834
  323.250    9.305    0.307    0.424   85.943
  323.500    8.636    0.295    0.418   88.451
  323.750    7.971    0.274    0.403   91.921
  324.000    7.397    0.250    0.388   95.210
  324.250    6.981    0.237    0.384   97.477
  324.500    6.699    0.235    0.391   97.824
  324.750    6.477    0.240    0.394   96.247
  325.000    6.379    0.239    0.400   97.012
  325.250    6.282    0.230    0.404   98.137
  325.500    6.280    0.223    0.411   98.245
  325.750    6.254    0.221    0.422   97.689
  326.000    6.321    0.230    0.429   98.035
  326.250    6.390    0.239    0.416   97.480
  326.500    6.568    0.236    0.402   91.156
  326.750    6.903    0.245    0.421   83.633
  327.000    7.391    0.276    0.435   76.772
  327.250    7.884    0.299    0.448   70.750
  327.500    8.210    0.303    0.460   66.531
  327.750    8.486    0.298    0.468   64.472
  328.000    8.609    0.296    0.434   62.296
  328.250    8.767    0.292    0.408   59.338
  328.500    9.613    0.287    0.392   57.222
  328.750    9.774    0.299    0.384   55.645
  329.000   10.427    0.321    0.379   53.647
  329.250   11.289    0.344    0.384   50.990
  329.500   11.799    0.343    0.392   49.412
  329.750   12.355    0.345    0.399   49.399
  330.000   12.652    0.334    0.403   50.158
  330.250   12.765    0.326    0.405   50.269
  330.500   12.690    0.318    0.395   50.435
  330.750   12.497    0.325    0.385   50.539
  331.000   12.469    0.332    0.386   50.104
  331.250   12.465    0.341    0.394   46.907
  331.500   12.438    0.342    0.400   47.733
  331.750   12.409    0.335    0.396   49.219
  332.000   12.359    0.331    0.392   50.105
  332.250   12.309    0.330    0.396   50.331
  332.500   12.395    0.322    0.398   49.777
  332.750   12.322    0.318    0.397   47.900
  333.000   12.386    0.325    0.391   48.426
  333.250   12.405    0.339    0.385   48.892
  333.500   12.422    0.348    0.385   49.596
  333.750   12.441    0.357    0.383   49.642
  334.000   12.437    0.361    0.381   48.846
  334.250   12.432    0.356    0.392   48.291
  334.500   12.405    0.351    0.398   49.358
  334.750   12.354    0.348    0.399   50.422
  335.000   12.349    0.344    0.396   50.951
  335.250   12.252    0.337    0.406   51.176
  335.500   12.249    0.333    0.413   50.738
  335.750   12.176    0.329    0.417   48.803
  336.000   12.081    0.333    0.421   48.910
  336.250   12.076    0.337    0.421   50.094
  336.500   12.027    0.339    0.419   51.279
  336.750   12.000    0.352    0.417   51.927
  337.000   11.929    0.354    0.415   52.154
  337.250   11.814    0.361    0.413   49.735
  337.500   11.678    0.370    0.410   48.581
  337.750   11.631    0.367    0.402   49.704
  338.000   11.563    0.366    0.400   50.472
  338.250   11.452    0.380    0.407   49.977
  338.500   11.384    0.369    0.419   49.182
  338.750   11.316    0.358    0.414   48.567
  339.000   11.249    0.348    0.406   48.792
  339.250   11.203    0.358    0.401   49.615
  339.500   11.116    0.352    0.407   51.279
  339.750   11.112    0.341    0.410   51.987
  340.000   11.088    0.334    0.419   52.689
  340.250   11.042    0.342    0.434   52.681
  340.500   11.058    0.347    0.435   51.761
  340.750   11.013    0.351    0.438   51.752
  341.000   10.907    0.359    0.441   51.377
  341.250   10.842    0.366    0.429   48.657
  341.500   10.758    0.371    0.423   46.962
  341.750   10.693    0.374    0.420   47.127
  342.000   10.591    0.369    0.419   48.855
  342.250   10.607    0.364    0.418   51.422
  342.500   10.584    0.368    0.418   52.609
  342.750   10.540    0.370    0.412   52.834
  343.000   10.537    0.360    0.422   52.640
  343.250   10.532    0.357    0.432   52.262
  343.500   10.568    0.363    0.432   52.487
  343.750   10.602    0.365    0.426   52.536
  344.000   10.560    0.361    0.428   52.760
  344.250   10.556    0.356    0.423   53.165
  344.500   10.571    0.352    0.410   53.513
  344.750   10.606    0.350    0.402   54.938
  345.000   10.681    0.350    0.398   55.585
  345.250   10.818    0.349    0.414   55.089
  345.500   11.036    0.351    0.432   54.172
  345.750   11.239    0.361    0.434   53.799
  346.000   11.446    0.369    0.420   53.362
  346.250   11.742    0.360    0.416   54.070
  346.500   11.914    0.354    0.423   55.017
  346.750   12.020    0.359    0.412   55.602
