~VERSION INFORMATION
 VERS.                 2.0:   CWLS LOG ASCII STANDARD -VERSION 2.0
 WRAP.                  NO:   ONE LINE PER DEPTH STEP
~WELL INFORMATION BLOCK
#MNEM.UNIT           DATA                    DESCRIPTION OF MNEMONIC
#---------    -------------------            -------------------------------
# Generated from Intellog Unique Number	CW_70_72/WELL/1069
NULL.         -999.25                        : NULL_VALUE
WELL.         NORCEN ET AL BLANCHE 14-35     : Well_name    - WELL              
LOC .         14-35-072-02W5                 : Location     - LOCATION          
UWI .         00/14-35-072-02W5/0            : Uwi          - UNIQUE WELL ID    
ENTR.         JAYE                           : Entered      - ENTERED BY        
SRVC.         COMPUTALOG                     : Scn          - SERVICE COMPANY   
DATE.         6 JAN 86                       : Date         - LOG DATE          
STRT.M        375                            : top_depth    - START DEPTH       
STOP.M        615                            : bot_depth    - STOP DEPTH        
STEP.M        0.25                           : increment    - STEP LENGTH       
~CURVE INFORMATION BLOCK
#MNEM UNIT       ERCB CURVE CODE    CURVE DESCRIPTION
#-----------   ------------------   ----------------------------------
DEPT.M        00 001 00 00         : DEPTH        - DEPTH                       
DPHI.V/V      00 890 00 00         : PHID         - DENSITY POROSITY (SANDSTONE)
NPHI.V/V      00 330 00 00         : PHIN         - NEUTRON POROSITY (SANDSTONE)
CALI.MM       00 280 01 00         : CAL          - CALIPER                     
GR  .API      00 310 00 00         : GR           - GAMMA RAY                   
ILD .OHMM     00 120 00 00         : RESD         - DEEP RESISTIVITY (DIL)      
~PARAMETER INFORMATION       
#MNEM.UNIT           DATA             DESCRIPTION OF MNEMONIC
#---------         -----------     ------------------------------
GL  .M        587.75               : gl           - GROUND LEVEL ELEVATION      
EREF.M        591.25               : kb           - ELEVATION OF DEPTH REFERENCE
DATM.M        587.75               : datum        - DATUM ELEVATION             
TDD .M        628                  : tdd          - TOTAL DEPTH DRILLER         
RUN .         ONE                  : Run          - RUN NUMBER                  
ENG .         CALDERWOOD           : Engineer     - RECORDING ENGINEER          
WIT .         HUGHES               : Witness      - WITNESSED BY                
BASE.         EDM                  : Branch       - HOME BASE OF LOGGING UNIT   
MUD .         GEL CHEM             : Mud_type     - MUD TYPE                    
MATR.         SANDSTONE            : Logunit      - NEUTRON MATRIX              
TMAX.C        50                   : BHT          - MAXIMUM RECORDED TEMPERATURE
BHTD.M        633.1                : BHTDEP       - MAXIMUM RECORDED TEMPERATURE
RMT .C        15.6                 : MDTP         - TEMPERATURE OF MUD          
MUDD.KG/M     1170                 : MWT          - MUD DENSITY                 
NEUT.         1                    : NEUTRON      - NEUTRON TYPE                
RESI.         0                    : RESIST       - RESISTIVITY TYPE            
RM  .OHMM     4                    : RM           - RESISTIVITY OF MUD          
RMC .OHMM     5                    : RMC          - RESISTIVITY OF MUD CAKE     
RMF .OHMM     4.8                  : RMF          - RESISTIVITY OF MUD FILTRATE 
SUFT.C        0                    : SUFT         - SURFACE TEMPERATURE         
~A  DEPTH     PHID     PHIN      CAL       GR     RESD
# ...
  521.000    0.159    0.415  212.461   96.510    4.904
  521.250    0.168    0.410  212.383   97.234    5.118
  521.500    0.168    0.403  212.525   99.123    5.330
  521.750    0.159    0.395  212.239   98.624    5.668
  522.000    0.174    0.384  212.165   92.320    6.040
  522.250    0.202    0.393  212.196   80.085    6.350
  522.500    0.194    0.400  212.231   74.814    6.627
  522.750    0.170    0.369  212.148   80.897    6.673
  523.000    0.153    0.354  212.294   84.330    6.580
  523.250    0.145    0.371  212.645   88.926    6.490
  523.500    0.150    0.384  212.998   89.008    6.461
  523.750    0.155    0.396  213.565   84.704    6.505
  524.000    0.148    0.378  213.916   83.755    6.538
  524.250    0.139    0.365  214.056   82.289    6.595
  524.500    0.129    0.356  214.086   79.210    6.590
  524.750    0.140    0.346  214.012   76.390    6.537
  525.000    0.150    0.348  214.257   78.472    6.483
  525.250    0.152    0.359  214.935   82.165    6.418
  525.500    0.150    0.374  215.074   84.827    6.305
  525.750    0.149    0.395  215.319   81.104    6.124
  526.000    0.147    0.405  215.029   79.575    5.984
  526.250    0.148    0.402  214.628   79.913    5.857
  526.500    0.147    0.392  213.920   82.768    5.797
  526.750    0.145    0.383  212.989   85.817    5.707
  527.000    0.143    0.370  212.809   87.254    5.587
  527.250    0.142    0.377  212.836   87.142    5.498
  527.500    0.142    0.392  213.297   88.322    5.445
  527.750    0.148    0.411  213.874   93.368    5.421
  528.000    0.155    0.419  214.000   89.130    5.407
  528.250    0.162    0.413  214.151   85.406    5.393
  528.500    0.161    0.401  214.186   86.650    5.367
  528.750    0.154    0.400  214.207   88.924    5.324
  529.000    0.145    0.399  214.031   89.395    5.279
  529.250    0.139    0.389  213.951   89.604    5.186
  529.500    0.144    0.403  213.871   88.461    5.124
  529.750    0.143    0.418  213.799   89.963    5.102
  530.000    0.144    0.423  213.621   92.880    5.128
  530.250    0.151    0.420  213.648   95.542    5.212
  530.500    0.159    0.411  213.468   91.820    5.490
  530.750    0.168    0.398  213.507   87.387    5.761
  531.000    0.174    0.402  213.751   82.761    6.092
  531.250    0.182    0.408  213.779   79.362    6.468
  531.500    0.182    0.399  214.022   77.251    6.763
  531.750    0.164    0.387  214.059   75.591    6.978
  532.000    0.150    0.372  214.194   74.640    7.172
  532.250    0.124    0.353  214.555   73.497    7.305
  532.500    0.142    0.368  214.903   69.323    7.425
  532.750    0.161    0.374  215.359   70.502    7.475
  533.000    0.179    0.374  215.711   74.324    7.498
  533.250    0.192    0.382  216.170   77.888    7.478
  533.500    0.185    0.385  216.523   74.101    7.375
  533.750    0.177    0.375  217.096   68.250    7.152
  534.000    0.170    0.379  217.232   68.461    6.895
  534.250    0.166    0.384  217.155   77.248    6.486
  534.500    0.174    0.390  217.192   83.652    6.022
  534.750    0.184    0.393  217.325   88.118    5.528
  535.000    0.177    0.396  217.249   92.199    5.211
  535.250    0.159    0.399  217.177   96.472    4.977
  535.500    0.145    0.401  216.782  102.360    4.872
  535.750    0.129    0.407  216.283   99.539    4.850
  536.000    0.120    0.414  215.784   97.622    4.837
  536.250    0.136    0.424  215.492   97.252    4.870
  536.500    0.145    0.438  215.627   97.012    4.969
  536.750    0.153    0.450  215.778   95.159    5.079
  537.000    0.159    0.418  215.700   90.404    5.192
  537.250    0.165    0.404  215.411   91.067    5.277
  537.500    0.169    0.402  215.013   93.022    5.425
  537.750    0.172    0.399  214.514   94.520    5.651
  538.000    0.170    0.396  213.910   88.540    5.853
  538.250    0.167    0.389  213.619   87.977    6.016
  538.500    0.159    0.380  213.322   87.865    6.173
  538.750    0.150    0.371  213.143   88.011    6.286
  539.000    0.141    0.344  212.854   87.964    6.414
  539.250    0.130    0.369  212.463   88.627    6.457
  539.500    0.122    0.387  212.279   76.713    6.406
  539.750    0.137    0.376  212.209   72.990    6.375
  540.000    0.163    0.376  211.921   73.008    6.253
  540.250    0.168    0.383  211.849   78.765    6.073
  540.500    0.155    0.378  211.883   84.844    5.911
  540.750    0.150    0.367  211.904   89.442    5.776
  541.000    0.150    0.373  211.938   93.006    5.664
  541.250    0.149    0.391  212.080   86.059    5.574
  541.500    0.144    0.392  212.212   81.883    5.508
  541.750    0.135    0.397  212.244   85.255    5.392
  542.000    0.126    0.406  212.609   85.788    5.346
  542.250    0.128    0.412  212.958   85.999    5.304
  542.500    0.130    0.394  213.307   88.146    5.269
  542.750    0.134    0.377  213.231   90.743    5.257
  543.000    0.137    0.371  213.159   93.275    5.292
  543.250    0.141    0.381  213.193   95.227    5.379
  543.500    0.146    0.401  213.004   95.502    5.426
  543.750    0.149    0.404  212.720   94.037    5.558
  544.000    0.148    0.398  212.227   89.668    5.680
  544.250    0.148    0.394  212.033   88.073    5.806
  544.500    0.146    0.395  211.750   87.446    5.913
  544.750    0.139    0.397  211.564   88.304    5.987
  545.000    0.129    0.411  211.384   89.159    5.983
  545.250    0.135    0.419  210.987   89.243    5.900
  545.500    0.142    0.417  210.918   89.838    5.785
  545.750    0.145    0.410  210.734   92.822    5.664
  546.000    0.142    0.404  210.452   96.966    5.606
  546.250    0.143    0.395  210.376   95.696    5.667
  546.500    0.148    0.385  210.403   93.069    5.868
  546.750    0.157    0.376  210.432   88.701    6.324
  547.000    0.177    0.398  210.361   86.204    6.905
  547.250    0.192    0.412  210.182   82.674    7.455
  547.500    0.187    0.409  209.888   75.855    7.899
  547.750    0.174    0.397  209.393   72.455    8.244
  548.000    0.171    0.389  209.099   72.537    8.505
  548.250    0.159    0.378  209.024   72.684    8.859
  548.500    0.127    0.366  208.844   71.604    9.245
  548.750    0.101    0.354  208.767   68.203    9.906
  549.000    0.101    0.346  208.481   64.674   10.534
  549.250    0.126    0.340  208.403   67.658   11.056
  549.500    0.150    0.357  208.328   71.352   10.762
  549.750    0.160    0.353  208.255   73.305   10.376
  550.000    0.141    0.341  207.300   73.390    9.761
  550.250    0.128    0.331  207.305   74.988    9.461
  550.500    0.109    0.316  207.699   75.944    9.426
  550.750    0.094    0.306  207.801   75.358    8.961
  551.000    0.114    0.318  208.333   73.435    8.283
  551.250    0.132    0.341  208.650   78.922    7.527
  551.500    0.140    0.355  208.202   86.206    6.539
  551.750    0.148    0.375  207.779   92.774    5.876
  552.000    0.154    0.407  207.446   98.008    5.734
  552.250    0.154    0.404  207.550   90.402    6.114
  552.500    0.127    0.379  207.966   87.013    6.794
  552.750    0.090    0.353  207.870   84.585    7.898
  553.000    0.044    0.324  207.783   81.511    9.028
  553.250    0.025    0.306  207.645   75.119    9.828
  553.500    0.007    0.296  207.838   67.896    9.903
  553.750    0.039    0.287  208.353   63.995    9.505
  554.000    0.099    0.298  209.323   71.593    8.604
  554.250    0.117    0.335  210.274   80.146    7.731
  554.500    0.124    0.356  210.789   85.636    6.754
  554.750    0.129    0.377  210.680   84.738    6.360
  555.000    0.134    0.372  210.240   86.072    6.243
  555.250    0.139    0.361  209.584   86.519    6.303
  555.500    0.139    0.363  209.253   85.874    6.571
  555.750    0.132    0.375  208.954   83.320    6.786
  556.000    0.112    0.373  209.130   80.627    6.983
  556.250    0.081    0.357  209.667   77.756    7.104
  556.500    0.081    0.329  209.786   74.426    7.252
  556.750    0.118    0.336  209.747   71.669    7.390
  557.000    0.134    0.354  209.539   74.606    7.533
  557.250    0.127    0.369  208.802   80.411    7.695
