~VERSION INFORMATION
 VERS.                 2.0:   CWLS LOG ASCII STANDARD -VERSION 2.0
 WRAP.                  NO:   ONE LINE PER DEPTH STEP
~WELL INFORMATION BLOCK
#MNEM.UNIT           DATA                    DESCRIPTION OF MNEMONIC
#---------    -------------------            -------------------------------
# Generated from Intellog Unique Number	CW_76_78/WELL/829
WELL.         GULF POC DROWNED 10-07         : Well_name    - WELL
LOC .         00/10-07-077-21W4/0            : Location     - LOCATION
UWI .         00/10-07-077-21W4/0            : Uwi          - UNIQUE WELL ID
ENTR.         os                             : Entered      - ENTERED BY
SRVC.         SCHLUMBERGER                   : Scn          - SERVICE COMPANY
DATE.         12 MAR 1978                    : Date         - LOG DATE
STRT.M        429.768                        : top_depth    - START DEPTH
STOP.M        637.018                        : bot_depth    - STOP DEPTH
STEP.M        0.25                           : increment    - STEP LENGTH
 NULL. -999.2500:NULL Value
~CURVE INFORMATION BLOCK
#MNEM UNIT       ERCB CURVE CODE    CURVE DESCRIPTION
#-----------   ------------------   ----------------------------------
DEPT.M        00 001 00 00         : DEPTH        - DEPTH
ILD .OHMM     00 120 00 00         : RESD         - DEEP RESISTIVITY (DIL)
NPHI.V/V      00 330 00 00         : PHIN         - NEUTRON POROSITY (SANDSTONE)
DPHI.V/V      00 890 00 00         : PHID         - DENSITY POROSITY (SANDSTONE)
GR  .API      00 310 00 00         : GR           - GAMMA RAY
CALI.MM       00 280 01 00         : CAL          - CALIPER
~PARAMETER INFORMATION
#MNEM.UNIT           DATA             DESCRIPTION OF MNEMONIC
#---------         -----------     ------------------------------
GL  .M        752.856              : gl           - GROUND LEVEL ELEVATION
EREF.M        758.342              : kb           - ELEVATION OF DEPTH REFERENCE
DATM.M        752.856              : datum        - DATUM ELEVATION
TDD .M        641.299              : tdd          - TOTAL DEPTH DRILLER
RUN .         ONE                  : Run          - RUN NUMBER
ENG .         DEROCHIER            : Engineer     - RECORDING ENGINEER
WIT .         ROZENHART            : Witness      - WITNESSED BY
BASE.         EDMONTON             : Branch       - HOME BASE OF LOGGING UNIT
MUD .         GEL CHEM             : Mud_type     - MUD TYPE
MATR.         SANDSTONE            : Logunit      - NEUTRON MATRIX
TMAX.C        22.7778              : BHT          - MAXIMUM RECORDED TEMPERATURE
BHTD.M        640.69               : BHTDEP       - MAXIMUM RECORDED TEMPERATURE
RMT .C        18.3333              : MDTP         - TEMPERATURE OF MUD
MUDD.KG/M     1092                 : MWT          - MUD DENSITY
NEUT.         1                    : NEUTRON      - NEUTRON TYPE
RESI.         0                    : RESIST       - RESISTIVITY TYPE
RM  .OHMM     5.72                 : RM           - RESISTIVITY OF MUD
RMC .OHMM     0.25                 : RMC          - RESISTIVITY OF MUD CAKE
RMF .OHMM     6.77                 : RMF          - RESISTIVITY OF MUD FILTRATE
SUFT.C        4.5                  : SUFT         - SURFACE TEMPERATURE
~A  DEPTH     RESD     PHIN     PHID       GR      CAL
# ...
  575.768    4.803    0.452    0.231   90.984  157.604
  576.018    4.858    0.448    0.227   94.039  156.019
  576.268    4.997    0.440    0.254   96.970  155.595
  576.518    5.054    0.442    0.252   98.093  156.334
  576.768    5.122    0.460    0.244   95.535  156.755
  577.018    5.172    0.468    0.238   90.919  157.177
  577.268    5.222    0.474    0.225   89.359  157.599
  577.518    5.292    0.475    0.227   88.985  156.859
  577.768    5.343    0.465    0.244   89.608  156.541
  578.018    5.405    0.449    0.257   92.975  156.963
  578.268    5.498    0.445    0.250   96.218  157.279
  578.518    5.572    0.447    0.236   96.966  156.856
  578.768    5.657    0.445    0.234   93.348  156.221
  579.018    5.733    0.446    0.258   92.350  156.115
  579.268    5.853    0.463    0.245   91.289  156.325
  579.518    5.976    0.439    0.235   88.482  157.170
  579.768    6.045    0.396    0.231   84.802  157.169
  580.018    5.947    0.376    0.217   85.363  156.006
  580.268    5.950    0.386    0.216   88.481  154.950
  580.518    6.098    0.451    0.232   92.222  154.315
  580.768    6.167    0.434    0.216   94.218  154.525
  581.018    6.320    0.442    0.213   90.912  155.158
  581.268    6.647    0.425    0.202   84.612  156.319
  581.518    7.068    0.401    0.184   81.992  156.847
  581.768    7.773    0.304    0.137   79.434  157.268
  582.018    8.359    0.283    0.114   75.817  156.951
  582.268    8.726    0.340    0.079   80.244  156.844
  582.518    8.697    0.388    0.117   94.464  156.632
  582.768    8.033    0.421    0.164   98.580  156.526
  583.018    7.257    0.414    0.177   99.141  156.842
  583.268    6.715    0.402    0.199  102.696  157.369
  583.518    6.168    0.414    0.187  104.067  157.897
  583.768    5.782    0.417    0.184  108.994  158.001
  584.018    5.657    0.431    0.173  111.863  157.578
  584.268    5.690    0.438    0.165  107.871  157.366
  584.518    5.788    0.431    0.148  110.552  157.260
  584.768    5.855    0.433    0.144  112.672  157.154
  585.018    5.857    0.430    0.161  112.048  156.519
  585.268    5.838    0.426    0.171  110.364  155.779
  585.518    5.839    0.419    0.177  110.114  156.412
  585.768    5.841    0.422    0.162  111.984  156.834
  586.018    5.865    0.428    0.151  113.481  157.255
  586.268    5.835    0.429    0.159  112.482  157.255
  586.518    5.773    0.439    0.182  113.854  156.831
  586.768    5.743    0.449    0.174  115.226  155.985
  587.018    5.745    0.438    0.188  115.163  155.668
  587.268    5.714    0.440    0.172  117.844  155.562
  587.518    5.654    0.426    0.173  117.595  155.561
  587.768    5.625    0.400    0.164  119.029  155.560
  588.018    5.605    0.403    0.160  120.587  155.348
  588.268    5.586    0.421    0.145  120.088  155.347
  588.518    5.557    0.463    0.141  120.337  155.663
  588.768    5.447    0.462    0.154  116.033  155.874
  589.018    5.388    0.448    0.141  118.777  155.662
  589.268    5.213    0.432    0.150  119.961  155.873
  589.518    5.148    0.435    0.151  114.971  156.083
  589.768    5.150    0.444    0.156  113.723  156.505
  590.018    5.218    0.434    0.190  112.725  156.504
  590.268    5.368    0.420    0.189  113.660  156.081
  590.518    5.604    0.399    0.171  113.847  154.813
  590.768    5.774    0.398    0.179  109.169  154.284
  591.018    5.961    0.402    0.193  106.673  154.494
  591.268    6.064    0.391    0.207  105.051  154.916
  591.518    6.033    0.397    0.181  103.866  154.704
  591.768    5.935    0.409    0.178  109.042  153.858
  592.018    5.753    0.415    0.176  116.152  153.012
  592.268    5.649    0.412    0.183  121.640  153.117
  592.518    5.630    0.415    0.182  124.010  153.750
  592.768    5.824    0.417    0.171  125.194  154.172
  593.018    6.102    0.433    0.148  123.572  154.910
  593.268    6.514    0.418    0.152  117.335  155.755
  593.518    7.031    0.367    0.141  100.931  156.282
  593.768    7.477    0.343    0.122  103.113  156.281
  594.018    7.734    0.354    0.118  107.728  155.858
  594.268    7.679    0.369    0.147  110.098  154.907
  594.518    6.797    0.407    0.159  113.528  153.955
  594.768    6.613    0.413    0.153  117.270  154.166
  595.018    6.469    0.405    0.159  121.510  154.587
  595.268    6.508    0.407    0.163  122.134  154.798
  595.518    6.607    0.404    0.168  120.512  155.114
  595.768    6.796    0.398    0.190  116.457  154.585
  596.018    6.990    0.393    0.170  116.394  153.317
  596.268    7.379    0.383    0.166  114.086  153.422
  596.518    7.877    0.383    0.159  110.780  154.160
  596.768    8.440    0.388    0.144  110.717  154.899
  597.018    9.195    0.373    0.144  110.717  155.321
  597.268    9.963    0.357    0.152  106.724  155.742
  597.518   10.733    0.327    0.139  101.797  155.953
  597.768   12.318    0.271    0.082   90.882  155.635
  598.018   12.979    0.293    0.070   86.952  154.684
  598.268   13.202    0.334    0.124   95.995  154.894
  598.518   11.031    0.349    0.146  103.541  155.316
  598.768    9.478    0.369    0.146  110.464  156.160
  599.018    8.404    0.381    0.163  113.457  156.476
  599.268    7.676    0.382    0.174  113.769  156.264
  599.518    7.291    0.389    0.179  115.639  155.524
  599.768    7.027    0.393    0.165  117.947  154.890
  600.018    6.711    0.393    0.167  120.753  154.783
  600.268    6.627    0.394    0.163  119.131  155.310
  600.518    6.388    0.402    0.155  113.579  155.310
  600.768    6.112    0.413    0.162  116.198  155.520
  601.018    5.913    0.418    0.176  119.379  155.520
  601.268    5.828    0.414    0.167  120.252  155.519
  601.518    5.797    0.416    0.154  122.933  156.152
  601.768    5.832    0.438    0.138  119.253  156.785
  602.018    5.900    0.434    0.115  118.192  156.889
  602.268    5.934    0.425    0.093  121.809  156.783
  602.518    5.937    0.423    0.111  125.364  156.149
  602.768    5.895    0.428    0.130  127.671  156.148
  603.018    5.810    0.415    0.152  130.789  156.253
  603.268    5.726    0.414    0.145  128.294  156.780
  603.518    5.551    0.406    0.175  127.732  157.307
  603.768    5.320    0.396    0.174  128.106  157.307
  604.018    5.100    0.400    0.165  128.542  157.306
  604.268    4.870    0.397    0.177  130.911  156.883
  604.518    4.818    0.403    0.184  131.784  156.671
  604.768    4.688    0.426    0.169  128.478  156.776
  605.018    4.411    0.430    0.180  129.351  156.775
  605.268    4.021    0.432    0.169  129.413  157.196
  605.518    3.468    0.431    0.177  126.044  157.196
  605.768    2.860    0.438    0.191  123.424  155.611
  606.018    2.316    0.484    0.203  123.424  153.920
  606.268    1.975    0.540    0.226  120.180  152.969
  606.518    1.629    0.534    0.251  117.623  152.968
  606.768    1.472    0.528    0.232  116.250  153.073
  607.018    1.486    0.519    0.222  112.632  152.966
  607.268    1.783    0.510    0.210  109.575  153.177
  607.518    2.408    0.474    0.212   99.845  152.754
  607.768    3.453    0.376    0.194   89.928  152.647
  608.018    4.462    0.374    0.178   81.757  152.647
  608.268    5.713    0.376    0.166   82.879  152.540
  608.518    6.855    0.363    0.151   83.565  152.751
  608.768    8.332    0.343    0.143   81.693  152.433
  609.018    8.570    0.350    0.153   81.568  152.644
  609.268    8.526    0.369    0.199   87.618  152.643
  609.518    6.941    0.376    0.216   96.661  152.748
  609.768    5.747    0.383    0.188  104.644  152.958
  610.018    4.644    0.398    0.160  111.816  153.169
  610.268    3.939    0.413    0.152  111.129  153.802
  610.518    3.618    0.426    0.159  110.131  154.857
  610.768    3.920    0.445    0.173  108.384  155.595
  611.018    4.481    0.419    0.161  103.644  156.123
  611.268    5.488    0.365    0.148   94.599  156.544
  611.518    6.871    0.342    0.126   87.239  156.755
  611.768    7.584    0.358    0.141   80.441  156.860
  612.018    6.927    0.361    0.203   75.825  157.176
