~VERSION INFORMATION
 VERS.                 2.0:   CWLS LOG ASCII STANDARD -VERSION 2.0
 WRAP.                  NO:   ONE LINE PER DEPTH STEP
~WELL INFORMATION BLOCK
#MNEM.UNIT           DATA                    DESCRIPTION OF MNEMONIC
#---------    -------------------            -------------------------------
# Generated from Intellog Unique Number	CW_70_72/WELL/3022
NULL.         -999.25                        : NULL_VALUE
WELL.         SUNDANCE CANAL 10-20           : Well_name    - WELL              
LOC .         10-20-070-23W4                 : Location     - LOCATION          
UWI .         00/10-20-070-23W4/0            : Uwi          - UNIQUE WELL ID    
ENTR.         jj                             : Entered      - ENTERED BY        
SRVC.         WESTERN ATLAS                  : Scn          - SERVICE COMPANY   
DATE.         18 FEB 77                      : Date         - LOG DATE          
STRT.M        396.24                         : top_depth    - START DEPTH       
STOP.M        579.24                         : bot_depth    - STOP DEPTH        
STEP.M        0.25                           : increment    - STEP LENGTH       
~CURVE INFORMATION BLOCK
#MNEM UNIT       ERCB CURVE CODE    CURVE DESCRIPTION
#-----------   ------------------   ----------------------------------
DEPT.M        00 001 00 00         : DEPTH        - DEPTH                       
ILD .OHMM     00 120 00 00         : RESD         - DEEP RESISTIVITY (DIL)      
CALI.MM       00 280 01 00         : CAL          - CALIPER                     
GR  .API      00 310 00 00         : GR           - GAMMA RAY                   
NPHI.V/V      00 330 00 00         : PHIN         - NEUTRON POROSITY (SANDSTONE)
DPHI.V/V      00 890 00 00         : PHID         - DENSITY POROSITY (SANDSTONE)
~PARAMETER INFORMATION       
#MNEM.UNIT           DATA             DESCRIPTION OF MNEMONIC
#---------         -----------     ------------------------------
GL  .M        626.059              : gl           - GROUND LEVEL ELEVATION      
EREF.M        629.717              : kb           - ELEVATION OF DEPTH REFERENCE
DATM.M        626.059              : datum        - DATUM ELEVATION             
TDD .M        588.264              : tdd          - TOTAL DEPTH DRILLER         
RUN .         ONE                  : Run          - RUN NUMBER                  
ENG .         DALY                 : Engineer     - RECORDING ENGINEER          
BASE.         EDM                  : Branch       - HOME BASE OF LOGGING UNIT   
MUD .         GEL BENDEX           : Mud_type     - MUD TYPE                    
MATR.         SANDSTONE            : Logunit      - NEUTRON MATRIX              
TMAX.C        23.8889              : BHT          - MAXIMUM RECORDED TEMPERATURE
BHTD.M        589.483              : BHTDEP       - MAXIMUM RECORDED TEMPERATURE
RMT .C        14.4444              : MDTP         - TEMPERATURE OF MUD          
MUDD.KG/M     1104                 : MWT          - MUD DENSITY                 
NEUT.         1                    : NEUTRON      - NEUTRON TYPE                
RESI.         0                    : RESIST       - RESISTIVITY TYPE            
RM  .OHMM     6.64                 : RM           - RESISTIVITY OF MUD          
RMC .OHMM     0.25                 : RMC          - RESISTIVITY OF MUD CAKE     
RMF .OHMM     5.99                 : RMF          - RESISTIVITY OF MUD FILTRATE 
SUFT.C        -17                  : SUFT         - SURFACE TEMPERATURE         
~A  DEPTH     RESD      CAL       GR     PHIN     PHID
  396.240    2.709  173.109  108.431    0.509    0.151
  396.490    2.773  173.542  105.282    0.501    0.147
  396.740    2.835  175.932  103.775    0.514    0.156
  396.990    2.903  178.326  107.861    0.554    0.153
  397.240    2.951  178.963  111.702    0.552    0.152
  397.490    2.982  178.780  115.727    0.535    0.148
  397.740    3.037  177.666  116.955    0.523    0.146
  397.990    3.082  176.864  110.222    0.510    0.166
  398.240    3.074  176.271  109.203    0.498    0.162
  398.490    3.044  177.732  109.762    0.494    0.168
  398.740    2.992  174.564  112.267    0.504    0.169
  398.990    2.931  169.850  111.854    0.513    0.168
  399.240    2.902  164.109  109.863    0.520    0.186
  399.490    2.864  164.542  111.334    0.522    0.181
  399.740    2.805  173.415  111.467    0.523    0.150
  399.990    2.732  174.570  111.845    0.532    0.173
  400.240    2.622  173.769  111.433    0.520    0.150
  400.490    2.503  172.761  110.290    0.529    0.166
  400.740    2.469  172.064  107.327    0.545    0.156
  400.990    2.482  171.672  103.388    0.540    0.157
  401.240    3.036  174.679   96.411    0.531    0.169
  401.490    3.804  176.554   92.778    0.549    0.176
  401.740    4.401  175.652   85.073    0.518    0.134
  401.990    4.962  165.791   74.934    0.418    0.119
  402.240    5.482  157.068   72.760    0.380    0.083
  402.490    5.480  154.310   76.905    0.396    0.167
  402.740    5.288  154.125   74.670    0.425    0.185
  402.990    4.973  154.971   75.715    0.433    0.193
  403.240    4.574  156.433   81.199    0.441    0.189
  403.490    4.230  160.263   83.764    0.455    0.179
  403.740    3.933  162.959   81.771    0.453    0.218
  403.990    3.570  162.780   83.851    0.429    0.237
  404.240    3.259  162.284   89.943    0.438    0.234
  404.490    2.992  166.114  102.354    0.511    0.208
  404.740    3.047  180.852  107.350    0.550    0.232
  404.990    3.519  195.077  107.060    0.576    0.248
  405.240    4.155  187.072  109.807    0.512    0.266
  405.490    4.573  173.922  107.147    0.463    0.250
  405.740    4.666  165.092   98.042    0.398    0.148
  405.990    4.672  161.925   89.302    0.381    0.124
  406.240    4.460  161.434   94.058    0.389    0.134
  406.490    4.334  160.836  101.059    0.404    0.153
  406.740    4.207  160.343  105.206    0.401    0.164
  406.990    4.323  160.060  105.037    0.406    0.178
  407.240    4.785  160.391  102.678    0.432    0.169
  407.490    5.208  160.201   94.850    0.460    0.169
  407.740    5.493  159.914   82.830    0.471    0.160
  407.990    5.452  159.115   74.942    0.438    0.165
  408.240    5.211  158.006   70.944    0.398    0.171
  408.490    4.909  157.618   72.718    0.399    0.153
  408.740    4.659  157.845   83.854    0.419    0.133
  408.990    4.439  158.483   91.649    0.434    0.146
  409.240    4.323  159.224   95.246    0.448    0.165
  409.490    4.220  159.964  100.790    0.440    0.200
  409.740    4.163  161.122  104.328    0.425    0.186
  409.990    4.162  161.967  102.397    0.414    0.163
  410.240    4.199  162.707   99.070    0.430    0.180
  410.490    4.236  162.837   96.589    0.456    0.188
  410.740    4.241  161.208   94.351    0.466    0.205
  410.990    4.171  157.834   91.267    0.458    0.197
  411.240    4.017  154.563   89.514    0.444    0.181
  411.490    3.769  154.070   86.793    0.440    0.177
  411.740    3.366  159.446   82.611    0.446    0.168
  411.990    3.148  163.478   70.043    0.457    0.155
  412.240    3.134  165.252   60.272    0.434    0.193
  412.490    3.234  161.671   54.996    0.383    0.221
  412.740    3.399  156.548   60.722    0.354    0.258
  412.990    3.584  153.689   70.338    0.357    0.225
  413.240    3.809  152.270   75.213    0.375    0.200
  413.490    4.025  151.774   79.542    0.390    0.204
  413.740    4.120  152.003   83.079    0.386    0.182
  413.990    4.164  153.466   82.790    0.389    0.203
  414.240    4.157  160.588   80.310    0.407    0.196
  414.490    4.139  159.275   79.596    0.393    0.209
  414.740    4.145  155.284   79.607    0.386    0.206
  414.990    4.190  153.451   80.532    0.386    0.205
  415.240    4.218  152.752   83.097    0.387    0.205
  415.490    4.216  152.360   87.303    0.386    0.196
  415.740    4.145  153.927   89.931    0.384    0.172
  415.990    3.956  156.933   87.755    0.380    0.149
  416.240    3.591  162.410   83.573    0.381    0.184
  416.490    3.352  162.851   82.555    0.394    0.194
  416.740    3.187  159.782   84.269    0.415    0.184
  416.990    3.116  156.612   79.541    0.420    0.194
  417.240    3.379  156.221   74.144    0.393    0.218
  417.490    3.672  155.934   81.452    0.378    0.240
  417.740    3.872  155.956   87.846    0.394    0.200
  417.990    4.108  155.670   93.693    0.402    0.159
  418.240    4.167  155.691   96.197    0.404    0.158
  418.490    4.111  156.740   97.609    0.406    0.150
  418.740    3.967  160.572   95.191    0.413    0.161
  418.990    3.745  161.931   89.247    0.424    0.199
  419.240    3.567  157.841   81.542    0.440    0.218
  419.490    3.442  155.903   80.156    0.444    0.229
  419.740    3.322  155.203   88.254    0.438    0.213
  419.990    3.212  157.284   93.980    0.438    0.207
  420.240    3.083  160.804  100.131    0.468    0.216
  420.490    2.964  158.669  107.378    0.519    0.205
  420.740    2.882  159.409  113.346    0.517    0.146
  420.990    2.832  162.828  119.923    0.500    0.110
  421.240    2.800  175.301  125.770    0.526    0.107
  421.490    2.878  185.511  130.221    0.555    0.176
  421.740    3.174  187.696  131.995    0.544    0.190
  421.990    3.473  191.116  129.699    0.527    0.230
  422.240    4.026  197.723  124.120    0.477    0.255
  422.490    4.505  193.216  115.442    0.452    0.242
  422.740    4.987  173.582  105.792    0.422    0.190
  422.990    5.125  170.000   96.626    0.450    0.148
  423.240    4.892  164.260   85.699    0.504    0.197
  423.490    4.566  155.841   72.524    0.487    0.199
  423.740    4.349  153.497   77.522    0.460    0.151
  423.990    4.152  152.080   82.518    0.448    0.196
  424.240    4.066  153.028   88.729    0.446    0.200
  424.490    3.996  155.415   95.429    0.440    0.185
  424.740    3.951  160.479   99.939    0.450    0.166
  424.990    3.942  176.454  100.743    0.480    0.169
  425.240    3.947  164.847   97.959    0.470    0.205
  425.490    4.019  162.195  100.041    0.452    0.198
  425.740    4.115  170.964  100.660    0.530    0.163
  425.990    4.365  172.424   95.931    0.520    0.220
  426.240    4.666  163.391   84.093    0.479    0.248
  426.490    4.821  158.884   78.087    0.482    0.282
  426.740    4.890  155.818   79.742    0.496    0.262
  426.990    4.736  152.753   84.679    0.451    0.225
  427.240    4.364  152.675   87.669    0.444    0.190
  427.490    3.861  155.782   87.743    0.439    0.200
  427.740    3.479  158.275   86.904    0.434    0.190
  427.990    3.247  159.327   93.421    0.434    0.183
  428.240    3.037  159.965   94.408    0.450    0.168
  428.490    2.925  160.296   90.711    0.481    0.191
  428.740    2.870  160.319   88.050    0.485    0.284
  428.990    2.837  160.338   90.372    0.474    0.244
  429.240    2.873  160.359   97.133    0.478    0.230
  429.490    2.925  162.132   94.655    0.486    0.219
  429.740    3.007  164.314   89.926    0.518    0.208
  429.990    3.125  162.895   86.718    0.484    0.230
  430.240    3.253  159.010   87.643    0.477    0.226
  430.490    3.496  157.384   92.396    0.463    0.214
  430.740    3.764  156.993  101.646    0.460    0.194
  430.990    3.932  161.131  101.783    0.463    0.193
  431.240    4.087  164.754   97.662    0.436    0.215
  431.490    4.177  160.660   97.675    0.461    0.204
  431.740    4.261  156.570  109.601    0.478    0.195
  431.990    4.338  156.280  117.939    0.451    0.184
  432.240    4.410  160.110  123.423    0.435    0.170
  432.490    4.392  164.556  119.181    0.442    0.165
