~VERSION INFORMATION
 VERS.                 2.0:   CWLS LOG ASCII STANDARD -VERSION 2.0
 WRAP.                  NO:   ONE LINE PER DEPTH STEP
~WELL INFORMATION BLOCK
#MNEM.UNIT           DATA                    DESCRIPTION OF MNEMONIC
#---------    -------------------            -------------------------------
# Generated from Intellog Unique Number	CS_71_72/WELL/916
WELL.         AEC IPIATIK PAPA               : Well_name    - WELL
LOC .         00/12-18-071-04W4/0            : Location     - LOCATION
UWI .         00/12-18-071-04W4/0            : Uwi          - UNIQUE WELL ID
ENTR.         SP                             : Entered      - ENTERED BY
SRVC.         SCHLUMBERGER                   : Scn          - SERVICE COMPANY
STRT.M        290                            : top_depth    - START DEPTH
STOP.M        520                            : bot_depth    - STOP DEPTH
STEP.M        0.25                           : increment    - STEP LENGTH
 NULL. -999.2500:NULL Value
~CURVE INFORMATION BLOCK
#MNEM UNIT       ERCB CURVE CODE    CURVE DESCRIPTION
#-----------   ------------------   ----------------------------------
DEPT.M        00 001 00 00         : DEPTH        - DEPTH
ILD .OHMM     00 120 00 00         : RESD         - DEEP RESISTIVITY (DIL)
DPHI.V/V      00 890 00 00         : PHID         - DENSITY POROSITY (LIMESTONE)
NPHI.V/V      00 330 00 00         : PHIN         - NEUTRON POROSITY (LIMESTONE)
GR  .API      00 310 00 00         : GR           - GAMMA RAY
~PARAMETER INFORMATION
#MNEM.UNIT           DATA             DESCRIPTION OF MNEMONIC
#---------         -----------     ------------------------------
GL  .M        669.95               : gl           - GROUND LEVEL ELEVATION
EREF.M        674.21               : kb           - ELEVATION OF DEPTH REFERENCE
DATM.M        669.95               : datum        - DATUM ELEVATION
TDD .M        545                  : tdd          - TOTAL DEPTH DRILLER
RUN .         ONE                  : Run          - RUN NUMBER
ENG .         BILL                 : Engineer     - RECORDING ENGINEER
WIT .         JIM                  : Witness      - WITNESSED BY
MUD .         GEL                  : Mud_type     - MUD TYPE
MATR.         LIMESTONE            : Logunit      - NEUTRON MATRIX
TMAX.C        22                   : BHT          - MAXIMUM RECORDED TEMPERATURE
BHTD.M        545                  : BHTDEP       - MAXIMUM RECORDED TEMPERATURE
MATR.         1                    : LOGUNIT      - NEUTRON MATRIX
RMT .C        25                   : MDTP         - TEMPERATURE OF MUD
NEUT.         1                    : NEUTRON      - NEUTRON TYPE
RESI.         0                    : RESIST       - RESISTIVITY TYPE
RMC .OHMM     0.25                 : RMC          - RESISTIVITY OF MUD CAKE
RMF .OHMM     0.25                 : RMF          - RESISTIVITY OF MUD FILTRATE
SUFT.C        15                   : SUFT         - SURFACE TEMPERATURE
~A  DEPTH     RESD     PHID     PHIN       GR
# ...
  377.000    3.318    0.279    0.496   80.505
  377.250    3.152    0.276    0.506   79.368
  377.500    3.095    0.261    0.504   78.113
  377.750    3.034    0.263    0.511   77.338
  378.000    2.963    0.287    0.521   75.592
  378.250    2.954    0.298    0.502   73.542
  378.500    3.120    0.310    0.478   71.917
  378.750    3.402    0.300    0.468   70.537
  379.000    3.654    0.278    0.456   71.412
  379.250    3.787    0.271    0.447   72.596
  379.500    3.811    0.264    0.454   73.531
  379.750    3.743    0.258    0.469   73.616
  380.000    3.676    0.270    0.479   71.380
  380.250    3.692    0.296    0.503   68.413
  380.500    3.834    0.311    0.507   67.764
  380.750    3.945    0.297    0.491   69.069
  381.000    4.022    0.266    0.476   70.253
  381.250    4.055    0.249    0.467   70.880
  381.500    4.005    0.236    0.481   71.153
  381.750    3.955    0.253    0.514   70.079
  382.000    3.855    0.315    0.527   68.324
  382.250    3.779    0.313    0.509   61.396
  382.500    3.733    0.309    0.490   56.481
  382.750    3.700    0.307    0.475   54.429
  383.000    3.675    0.307    0.465   55.304
  383.250    3.657    0.306    0.467   57.340
  383.500    3.666    0.302    0.469   59.562
  383.750    3.682    0.296    0.466   60.492
  384.000    3.698    0.295    0.465   62.294
  384.250    3.680    0.295    0.472   63.285
  384.500    3.682    0.301    0.476   65.387
  384.750    3.705    0.295    0.461   66.008
  385.000    3.727    0.284    0.453   66.645
  385.250    3.800    0.277    0.457   66.237
  385.500    3.830    0.289    0.465   64.855
  385.750    3.818    0.296    0.469   63.486
  386.000    3.764    0.299    0.473   63.256
  386.250    3.704    0.292    0.481   62.127
  386.500    3.658    0.292    0.491   61.111
  386.750    3.573    0.306    0.511   60.524
  387.000    3.496    0.313    0.517   62.125
  387.250    3.370    0.317    0.504   66.475
  387.500    3.212    0.308    0.496   72.843
  387.750    3.057    0.279    0.495   78.292
  388.000    2.935    0.263    0.510   83.194
  388.250    2.835    0.259    0.534   86.386
  388.500    2.795    0.266    0.549   88.912
  388.750    2.807    0.251    0.585   90.088
  389.000    2.845    0.239    0.574   91.086
  389.250    2.901    0.232    0.557   92.086
  389.500    2.979    0.228    0.559   93.399
  389.750    3.060    0.233    0.566   94.274
  390.000    3.184    0.237    0.572   94.652
  390.250    3.610    0.241    0.586   94.194
  390.500    3.855    0.243    0.577   93.841
  390.750    4.339    0.244    0.566   88.252
  391.000    4.548    0.242    0.540   82.056
  391.250    4.849    0.234    0.523   78.602
  391.500    4.924    0.225    0.510   77.647
  391.750    4.872    0.223    0.505   78.043
  392.000    4.839    0.229    0.499   78.612
  392.250    4.915    0.232    0.503   79.120
  392.500    5.076    0.233    0.509   79.453
  392.750    5.213    0.233    0.497   78.740
  393.000    5.295    0.238    0.485   78.940
  393.250    5.259    0.243    0.478   79.815
  393.500    5.117    0.243    0.478   81.496
  393.750    4.761    0.227    0.477   82.427
  394.000    4.430    0.214    0.479   83.977
  394.250    4.161    0.206    0.496   84.907
  394.500    4.040    0.202    0.520   86.270
  394.750    4.043    0.202    0.519   88.127
  395.000    4.144    0.206    0.504   89.125
  395.250    4.241    0.213    0.492   89.451
  395.500    4.267    0.226    0.505   89.718
  395.750    4.075    0.235    0.526   90.283
  396.000    3.849    0.241    0.536   89.819
  396.250    3.595    0.238    0.534   89.719
  396.500    3.345    0.230    0.525   92.181
  396.750    3.176    0.220    0.521   94.407
  397.000    3.050    0.211    0.532   95.154
  397.250    2.974    0.202    0.545   96.089
  397.500    2.937    0.201    0.542   96.482
  397.750    2.966    0.202    0.520   96.743
  398.000    3.122    0.203    0.528   96.765
  398.250    3.290    0.201    0.538   96.306
  398.500    3.488    0.200    0.526   95.838
  398.750    3.583    0.198    0.515   95.124
  399.000    3.598    0.196    0.510   94.050
  399.250    3.587    0.197    0.514   93.653
  399.500    3.583    0.202    0.535   94.099
  399.750    3.558    0.210    0.547   94.976
  400.000    3.501    0.219    0.560   95.796
  400.250    3.438    0.214    0.554   95.997
  400.500    3.396    0.220    0.568   95.832
  400.750    3.443    0.244    0.585   94.575
  401.000    3.746    0.240    0.573   91.978
  401.250    4.161    0.243    0.575   90.531
  401.500    4.485    0.258    0.586   88.239
  401.750    4.836    0.264    0.573   86.734
  402.000    5.060    0.255    0.538   84.874
  402.250    5.304    0.243    0.516   84.093
  402.500    5.190    0.233    0.505   83.630
  402.750    4.767    0.226    0.496   83.711
  403.000    4.527    0.214    0.490   84.344
  403.250    4.267    0.222    0.488   85.158
  403.500    4.152    0.212    0.494   85.734
  403.750    4.225    0.217    0.507   84.472
  404.000    4.454    0.233    0.520   81.932
  404.250    4.678    0.240    0.511   79.273
  404.500    4.960    0.255    0.494   77.159
  404.750    5.161    0.265    0.490   74.931
  405.000    5.441    0.258    0.494   73.849
  405.250    5.672    0.261    0.500   72.470
  405.500    5.781    0.262    0.490   71.942
  405.750    5.938    0.255    0.470   72.636
  406.000    5.908    0.240    0.460   73.086
  406.250    5.416    0.221    0.460   71.706
  406.500    5.039    0.227    0.468   70.814
  406.750    4.795    0.254    0.466   69.257
  407.000    4.762    0.284    0.470   68.300
  407.250    4.937    0.299    0.479   67.464
  407.500    5.090    0.288    0.493   66.704
  407.750    5.198    0.278    0.489   66.479
  408.000    5.260    0.281    0.478   66.067
  408.250    5.272    0.296    0.468   65.053
  408.500    5.238    0.296    0.468   63.917
  408.750    5.240    0.303    0.483   63.389
  409.000    5.244    0.313    0.473   66.224
  409.250    5.316    0.315    0.483   67.947
  409.500    5.479    0.310    0.503   69.925
  409.750    5.809    0.305    0.516   69.516
  410.000    5.989    0.291    0.505   67.649
  410.250    5.980    0.281    0.489   66.938
  410.500    5.797    0.274    0.469   66.963
  410.750    5.475    0.279    0.451   69.547
  411.000    5.448    0.291    0.458   72.676
  411.250    5.701    0.274    0.493   76.053
  411.500    5.866    0.260    0.484   77.359
  411.750    5.836    0.245    0.479   77.687
  412.000    5.261    0.232    0.478   77.829
  412.250    4.796    0.222    0.479   78.952
  412.500    4.339    0.234    0.490   81.422
  412.750    3.861    0.248    0.498   82.964
  413.000    3.493    0.253    0.507   84.014
  413.250    3.172    0.243    0.531   85.686
  413.500    2.854    0.238    0.558   86.560
  413.750    2.483    0.254    0.575   87.016
  414.000    2.209    0.253    0.590   87.405
  414.250    2.142    0.258    0.604   87.982
  414.500    2.167    0.265    0.587   88.360
  414.750    2.238    0.258    0.576   88.561
  415.000    2.329    0.254    0.592   87.851
  415.250    2.415    0.258    0.600   87.937
  415.500    2.503    0.266    0.581   89.606
  415.750    2.600    0.263    0.562   90.482
  416.000    2.680    0.251    0.548   90.686
  416.250    2.743    0.232    0.530   90.346
  416.500    2.780    0.212    0.545   90.125
  416.750    2.823    0.205    0.562   89.714
  417.000    2.993    0.209    0.573   87.856
  417.250    3.400    0.221    0.558   85.925
  417.500    3.942    0.238    0.539   82.040
  417.750    4.621    0.247    0.514   76.694
  418.000    5.468    0.259    0.490   71.838
  418.250    6.399    0.268    0.457   68.993
  418.500    7.214    0.278    0.442   67.429
  418.750    7.954    0.295    0.417   65.933
  419.000    8.230    0.276    0.416   65.095
  419.250    7.978    0.250    0.438   63.839
  419.500    7.706    0.227    0.438   62.467
  419.750    7.596    0.258    0.434   61.936
  420.000    7.601    0.275    0.441   62.259
  420.250    8.713    0.289    0.448   62.647
