~VERSION INFORMATION
 VERS.                 2.0:   CWLS LOG ASCII STANDARD -VERSION 2.0
 WRAP.                  NO:   ONE LINE PER DEPTH STEP
~WELL INFORMATION BLOCK
#MNEM.UNIT           DATA                    DESCRIPTION OF MNEMONIC
#---------    -------------------            -------------------------------
# Generated from Intellog Unique Number	CS_77_79/WELL/1005
WELL.         HUDSONS BAY OIL AND GAS        : Well_name    - WELL
LOC .         00/11-32-077-11W4/0            : Location     - LOCATION
UWI .         00/11-32-077-11W4/0            : Uwi          - UNIQUE WELL ID
ENTR.         SP                             : Entered      - ENTERED BY
SRVC.         SCHLUMBERGER                   : Scn          - SERVICE COMPANY
STRT.M        274.32                         : top_depth    - START DEPTH
STOP.M        505.82                         : bot_depth    - STOP DEPTH
STEP.M        0.25                           : increment    - STEP LENGTH
 NULL. -999.2500:NULL Value
~CURVE INFORMATION BLOCK
#MNEM UNIT       ERCB CURVE CODE    CURVE DESCRIPTION
#-----------   ------------------   ----------------------------------
DEPT.M        00 001 00 00         : DEPTH        - DEPTH
GR  .API      00 310 00 00         : GR           - GAMMA RAY
DPHI.V/V      00 890 00 00         : PHID         - DENSITY POROSITY (SANDSTONE)
NPHI.V/V      00 330 00 00         : PHIN         - NEUTRON POROSITY (SANDSTONE)
ILD .OHMM     00 120 00 00         : RESD         - DEEP RESISTIVITY (DIL)
~PARAMETER INFORMATION
#MNEM.UNIT           DATA             DESCRIPTION OF MNEMONIC
#---------         -----------     ------------------------------
GL  .M        689.549              : gl           - GROUND LEVEL ELEVATION
EREF.M        10                   : kb           - ELEVATION OF DEPTH REFERENCE
DATM.M        689.549              : datum        - DATUM ELEVATION
TDD .M        504.139              : tdd          - TOTAL DEPTH DRILLER
RUN .         ONE                  : Run          - RUN NUMBER
ENG .         BILL                 : Engineer     - RECORDING ENGINEER
WIT .         JIM                  : Witness      - WITNESSED BY
MUD .         GEL                  : Mud_type     - MUD TYPE
MATR.         SANDSTONE            : Logunit      - NEUTRON MATRIX
TMAX.C        21.1111              : BHT          - MAXIMUM RECORDED TEMPERATURE
BHTD.M        504.139              : BHTDEP       - MAXIMUM RECORDED TEMPERATURE
MATR.         1                    : LOGUNIT      - NEUTRON MATRIX
RMT .C        25                   : MDTP         - TEMPERATURE OF MUD
NEUT.         1                    : NEUTRON      - NEUTRON TYPE
RESI.         0                    : RESIST       - RESISTIVITY TYPE
RMC .OHMM     0.25                 : RMC          - RESISTIVITY OF MUD CAKE
RMF .OHMM     0.25                 : RMF          - RESISTIVITY OF MUD FILTRATE
SUFT.C        15                   : SUFT         - SURFACE TEMPERATURE
~A  DEPTH       GR     PHID     PHIN     RESD
  274.320   99.600    0.305    0.544    2.783
  274.570  101.112    0.310    0.564    2.784
  274.820  101.814    0.315    0.574    2.782
  275.070  103.212    0.309    0.572    2.835
  275.320  100.969    0.303    0.555    2.844
  275.570   98.462    0.289    0.554    2.785
  275.820   98.874    0.285    0.559    2.754
  276.070  101.252    0.289    0.568    2.634
  276.320  105.178    0.289    0.574    2.644
  276.570  106.175    0.288    0.574    2.637
  276.820  103.619    0.278    0.584    2.776
  277.070  100.050    0.264    0.584    2.798
  277.320   97.889    0.273    0.571    2.887
  277.570   96.929    0.278    0.560    2.978
  277.820   95.990    0.278    0.552    3.013
  278.070   95.776    0.278    0.566    2.979
  278.320   97.621    0.281    0.570    2.952
  278.570  100.105    0.291    0.545    2.908
  278.820  100.886    0.277    0.530    2.910
  279.070   99.309    0.274    0.524    2.910
  279.320   97.400    0.276    0.514    2.961
  279.570   94.656    0.264    0.504    3.016
  279.820   94.180    0.257    0.492    3.082
  280.070   96.307    0.250    0.489    3.182
  280.320   96.618    0.251    0.501    3.280
  280.570   94.696    0.258    0.503    3.380
  280.820   93.478    0.267    0.506    3.566
  281.070   96.590    0.243    0.509    3.501
  281.320  101.642    0.232    0.519    3.511
  281.570  104.527    0.231    0.525    3.585
  281.820   99.158    0.240    0.527    3.734
  282.070   99.032    0.239    0.516    3.923
  282.320   96.616    0.206    0.505    3.848
  282.570   97.329    0.172    0.510    3.867
  282.820   99.914    0.192    0.517    4.060
  283.070   98.627    0.231    0.501    4.153
  283.320   98.323    0.229    0.476    4.235
  283.570  100.494    0.239    0.482    4.362
  283.820   99.082    0.253    0.483    4.479
  284.070  102.954    0.247    0.495    4.474
  284.320  105.872    0.237    0.511    4.431
  284.570  106.593    0.232    0.522    4.298
  284.820  105.495    0.241    0.530    4.172
  285.070  104.415    0.240    0.526    4.043
  285.320  103.995    0.247    0.513    4.009
  285.570  101.976    0.254    0.517    3.946
  285.820   99.368    0.259    0.508    3.983
  286.070   98.236    0.253    0.519    4.027
  286.320   99.251    0.263    0.512    4.157
  286.570   99.928    0.255    0.501    4.288
  286.820   98.184    0.247    0.496    4.418
  287.070   96.387    0.241    0.497    4.581
  287.320   92.029    0.227    0.485    4.655
  287.570   90.987    0.206    0.487    5.010
  287.820   90.820    0.221    0.508    5.630
  288.070   86.245    0.277    0.526    6.419
  288.320   79.266    0.281    0.512    7.577
  288.570   76.112    0.304    0.493    9.447
  288.820   76.139    0.322    0.453   11.762
  289.070   78.879    0.337    0.433   11.089
  289.320   87.159    0.359    0.437    9.552
  289.570  104.273    0.368    0.446    8.898
  289.820  118.888    0.432    0.467   10.508
  290.070  113.402    0.496    0.493   13.337
  290.320   86.702    0.552    0.587   16.832
  290.570   49.782    0.592    0.659   21.350
  290.820   43.975    0.507    0.658   26.061
  291.070   43.989    0.364    0.619   28.714
  291.320   47.628    0.336    0.582   29.000
  291.570   50.622    0.326    0.444   29.186
  291.820   55.248    0.318    0.397   28.270
  292.070   54.534    0.328    0.402   28.094
  292.320   51.215    0.336    0.396   26.670
  292.570   50.719    0.331    0.395   25.600
  292.820   50.888    0.337    0.403   24.227
  293.070   52.570    0.346    0.410   23.555
  293.320   55.749    0.352    0.413   23.973
  293.570   58.508    0.338    0.414   23.316
  293.820   60.864    0.333    0.411   22.353
  294.070   62.178    0.327    0.407   21.709
  294.320   63.215    0.337    0.410   21.100
  294.570   62.247    0.347    0.417   20.103
  294.820   61.815    0.338    0.423   19.757
  295.070   66.030    0.328    0.426   18.544
  295.320   67.139    0.310    0.419   17.524
  295.570   68.621    0.308    0.408   15.743
  295.820   76.179    0.310    0.405   13.836
  296.070   84.574    0.299    0.405   12.209
  296.320   91.397    0.257    0.389   11.572
  296.570   92.662    0.240    0.383   12.054
  296.820   95.455    0.230    0.379   14.116
  297.070   96.752    0.229    0.398   17.187
  297.320   94.298    0.252    0.420   19.302
  297.570   82.840    0.271    0.436   21.895
  297.820   74.425    0.284    0.447   23.119
  298.070   68.805    0.304    0.437   24.577
  298.320   72.147    0.315    0.423   25.676
  298.570   74.335    0.339    0.437   25.578
  298.820   80.471    0.360    0.436   24.780
  299.070   84.520    0.351    0.429   23.748
  299.320   84.785    0.349    0.434   22.531
  299.570   83.840    0.361    0.437   20.767
  299.820   83.042    0.351    0.443   20.020
  300.070   85.332    0.345    0.442   19.181
  300.320   88.148    0.348    0.436   18.844
  300.570   92.518    0.337    0.437   18.481
  300.820   95.472    0.323    0.431   18.203
  301.070   95.852    0.313    0.422   18.178
  301.320   97.020    0.297    0.416   18.143
  301.570   99.537    0.274    0.417   17.866
  301.820  100.592    0.268    0.411   17.254
  302.070   95.332    0.264    0.417   16.575
  302.320   92.147    0.251    0.405   14.948
  302.570   93.088    0.249    0.393   12.849
  302.820   93.769    0.241    0.403   10.932
  303.070   95.117    0.260    0.413    9.593
  303.320   94.202    0.280    0.424    8.493
  303.570   93.632    0.294    0.398    7.758
  303.820   99.653    0.286    0.393    7.388
  304.070  101.365    0.185    0.418    6.910
  304.320  102.851    0.148    0.445    6.711
  304.570  107.753    0.126    0.444    6.463
  304.820  112.590    0.142    0.457    6.219
  305.070  116.507    0.158    0.467    5.940
  305.320  117.279    0.151    0.474    5.675
  305.570  116.573    0.183    0.466    5.386
  305.820  118.002    0.176    0.451    5.167
  306.070  121.273    0.186    0.434    4.872
  306.320  122.515    0.162    0.445    4.499
  306.570  121.572    0.193    0.475    4.225
  306.820  119.756    0.207    0.500    4.027
  307.070  118.835    0.227    0.514    3.768
  307.320  121.006    0.213    0.528    3.647
  307.570  123.907    0.194    0.519    3.630
  307.820  126.430    0.195    0.503    3.934
  308.070  126.378    0.208    0.519    4.301
  308.320  125.308    0.219    0.536    5.311
  308.570  122.578    0.231    0.551    7.615
  308.820  120.668    0.245    0.534   11.094
  309.070  116.417    0.254    0.528   13.784
  309.320  107.371    0.269    0.515   14.955
  309.570  102.357    0.279    0.478   15.075
  309.820  104.395    0.281    0.441   15.380
  310.070  103.056    0.270    0.425   15.501
  310.320  101.593    0.261    0.419   16.358
  310.570   96.903    0.257    0.413   16.839
  310.820   94.895    0.269    0.422   16.396
  311.070   92.969    0.285    0.430   11.980
  311.320   90.975    0.301    0.433    8.658
  311.570   90.970    0.310    0.433    7.471
  311.820   98.737    0.292    0.427    6.780
  312.070  104.392    0.278    0.426    7.177
  312.320  112.471    0.240    0.427    7.846
  312.570  117.530    0.212    0.442    8.766
  312.820  118.563    0.209    0.459   10.222
  313.070  118.003    0.206    0.466   11.353
  313.320  118.904    0.214    0.441   12.832
  313.570  117.267    0.232    0.440   13.826
  313.820  115.851    0.239    0.442   13.864
  314.070  113.991    0.245    0.449   13.416
  314.320  108.213    0.259    0.454   13.148
  314.570  105.485    0.264    0.459   11.990
  314.820  103.571    0.275    0.460   11.352
  315.070  101.069    0.293    0.455   10.697
  315.320   99.548    0.307    0.445   10.395
  315.570   98.596    0.284    0.426   10.790
  315.820  101.604    0.274    0.413   11.223
  316.070  106.067    0.259    0.405   12.017
  316.320  108.155    0.240    0.420   12.764
  316.570  108.596    0.261    0.445   13.530
  316.820  107.472    0.260    0.432   13.952
  317.070  106.799    0.243    0.420   14.106
  317.320   96.831    0.235    0.412   14.257
  317.570   87.623    0.231    0.397   14.736
