~VERSION INFORMATION
 VERS.                 2.0:   CWLS LOG ASCII STANDARD -VERSION 2.0
 WRAP.                  NO:   ONE LINE PER DEPTH STEP
~WELL INFORMATION BLOCK
#MNEM.UNIT           DATA                    DESCRIPTION OF MNEMONIC
#---------    -------------------            -------------------------------
# Generated from Intellog Unique Number	CC_80_83/WELL/2327
NULL.         -999.25                        : NULL_VALUE
WELL.         CHEVRON BP GRAND RAPIDS        : Well_name    - WELL
LOC .         10-01-082-17W4                 : Location     - LOCATION          
UWI .         00/10-01-082-17W400            : Uwi          - UNIQUE WELL ID    
ENTR.         JHS                            : Entered      - ENTERED BY        
SRVC.         SCHLUMBERGER                   : Scn          - SERVICE COMPANY   
DATE.         09 FEB 74                      : Date         - LOG DATE
STRT.M        152.4                          : top_depth    - START DEPTH       
STOP.M        289.559                        : bot_depth    - STOP DEPTH        
STEP.M        0.305                          : increment    - STEP LENGTH       
~CURVE INFORMATION BLOCK
#MNEM UNIT       ERCB CURVE CODE    CURVE DESCRIPTION
#-----------   ------------------   ----------------------------------
DEPT.M        00 001 00 00         : DEPTH        - DEPTH                       
DPHI.V/V      00 890 00 00         : PHID         - DENSITY POROSITY (LIMESTONE)
NPHI.V/V      00 330 00 00         : PHIN         - NEUTRON POROSITY (LIMESTONE)
GR  .API      00 310 00 00         : GR           - GAMMA RAY                   
ILD .OHMM     00 120 00 00         : RESD         - DEEP RESISTIVITY (DIL)      
~PARAMETER INFORMATION       
#MNEM.UNIT           DATA             DESCRIPTION OF MNEMONIC
#---------         -----------     ------------------------------
GL  .M        537.058              : gl           - GROUND LEVEL ELEVATION      
EREF.M        540.258              : kb           - ELEVATION OF DEPTH REFERENCE
DATM.M        540.258              : datum        - DATUM ELEVATION             
TDD .M        291.694              : tdd          - TOTAL DEPTH DRILLER         
RUN .         ONE                  : Run          - RUN NUMBER                  
ENG .         BILL                 : Engineer     - RECORDING ENGINEER          
WIT .         JIM                  : Witness      - WITNESSED BY                
MUD .         GEL                  : Mud_type     - MUD TYPE                    
MATR.         LIMESTONE            : Logunit      - NEUTRON MATRIX              
TMAX.C        20.5556              : BHT          - MAXIMUM RECORDED TEMPERATURE
BHTD.M        291.694              : BHTDEP       - MAXIMUM RECORDED TEMPERATURE
MATR.         1                    : LOGUNIT      - NEUTRON MATRIX              
RMT .C        25                   : MDTP         - TEMPERATURE OF MUD          
NEUT.         1                    : NEUTRON      - NEUTRON TYPE                
RESI.         0                    : RESIST       - RESISTIVITY TYPE            
RMC .OHMM     0.25                 : RMC          - RESISTIVITY OF MUD CAKE     
RMF .OHMM     0.25                 : RMF          - RESISTIVITY OF MUD FILTRATE 
SUFT.C        15                   : SUFT         - SURFACE TEMPERATURE         
~A  DEPTH     PHID     PHIN       GR     RESD
# ...
  205.434    0.309    0.474   55.953   10.268
  205.739    0.295    0.493   54.194   10.092
  206.044    0.295    0.524   53.026    9.557
  206.349    0.301    0.551   53.073    9.392
  206.653    0.311    0.581   54.933    9.404
  206.958    0.301    0.550   55.581    9.412
  207.263    0.309    0.544   54.426    9.423
  207.568    0.296    0.546   56.291    9.431
  207.873    0.294    0.524   56.932    9.269
  208.177    0.302    0.536   57.593    9.108
  208.482    0.298    0.545   57.027    8.786
  208.787    0.280    0.519   57.081    8.476
  209.092    0.297    0.521   58.332    8.330
  209.397    0.303    0.479   60.800    8.185
  209.701    0.292    0.502   67.493    8.045
  210.006    0.262    0.523   69.353    8.052
  210.311    0.273    0.522   66.988    7.768
  210.616    0.276    0.556   64.618    7.632
  210.921    0.268    0.599   64.053    7.364
  211.225    0.269    0.587   63.499    7.105
  211.530    0.274    0.545   64.756    7.111
  211.835    0.267    0.515   70.241    7.120
  212.140    0.261    0.495   73.320    7.128
  212.444    0.269    0.530   72.150    7.003
  212.749    0.271    0.615   73.413    6.755
  213.054    0.255    0.615   78.295    6.398
  213.359    0.251    0.615   75.315    5.946
  213.664    0.257    0.614   69.315    5.425
  213.968    0.263    0.609   63.322    5.330
  214.273    0.282    0.512   62.757    5.437
  214.578    0.293    0.469   60.392    5.754
  214.883    0.301    0.445   56.200    6.936
  215.188    0.295    0.471   52.023    9.173
  215.492    0.310    0.480   49.644   11.057
  215.797    0.308    0.460   47.879   11.921
  216.102    0.312    0.438   50.344   11.937
  216.407    0.297    0.430   49.190   11.950
  216.712    0.264    0.384   47.415   12.414
  217.016    0.219    0.389   46.861   13.637
  217.321    0.278    0.491   46.305   13.908
  217.626    0.330    0.469   46.950   13.928
  217.931    0.324    0.449   50.027   13.684
  218.236    0.327    0.458   51.282   13.200
  218.540    0.330    0.475   50.723   12.500
  218.845    0.331    0.487   50.168   12.056
  219.150    0.317    0.511   50.818   11.632
  219.455    0.301    0.528   51.474   11.223
  219.760    0.295    0.547   53.935   11.232
  220.064    0.286    0.555   58.213   11.243
  220.369    0.277    0.534   60.077   10.846
  220.674    0.282    0.520   60.121   10.659
  220.979    0.277    0.530   60.173   10.474
  221.284    0.292    0.548   61.429   10.292
  221.588    0.280    0.537   62.685   10.114
  221.893    0.276    0.542   65.143    9.939
  222.198    0.266    0.553   67.012    9.767
  222.503    0.245    0.540   67.052    9.599
  222.807    0.257    0.521   66.502    9.434
  223.112    0.256    0.535   65.936    9.445
  223.417    0.243    0.549   66.591    9.456
  223.722    0.249    0.528   69.052    9.290
  224.027    0.249    0.524   70.312    8.796
  224.331    0.229    0.518   75.797    8.026
  224.636    0.223    0.554   83.105    6.926
  224.941    0.228    0.596   82.549    6.320
  225.246    0.227    0.498   79.571    6.096
  225.551    0.235    0.470   77.202    6.217
  225.855    0.241    0.457   76.641    6.458
  226.160    0.250    0.499   74.267    7.228
  226.465    0.255    0.528   71.290    8.396
  226.770    0.246    0.492   76.781    9.223
  227.075    0.241    0.475   74.412    9.404
  227.379    0.231    0.493   72.040    9.415
  227.684    0.221    0.556   70.876    9.084
  227.989    0.221    0.584   70.924    8.926
  228.294    0.233    0.574   69.760    8.609
  228.599    0.228    0.526   71.021    8.306
  228.903    0.233    0.535   73.486    7.865
  229.208    0.237    0.575   76.558    7.585
  229.513    0.225    0.564   74.787    7.454
  229.818    0.224    0.528   70.606    7.327
  230.123    0.225    0.545   70.049    7.334
  230.427    0.231    0.551   71.914    7.342
  230.732    0.235    0.549   72.561    7.488
  231.037    0.222    0.540   73.210    7.639
  231.342    0.210    0.514   73.859    7.646
  231.647    0.237    0.525   71.488    7.512
  231.951    0.237    0.525   67.305    7.524
  232.256    0.241    0.492   61.905    7.529
  232.561    0.215    0.503   59.535    7.969
  232.866    0.205    0.482   62.608    8.755
  233.170    0.225    0.456   66.890    9.442
  233.475    0.195    0.575   70.562    9.811
  233.780    0.259    0.534   72.425   10.003
  234.085    0.261    0.518   68.846    9.831
  234.390    0.233    0.506   64.653    9.664
  234.694    0.203    0.485   65.316    9.494
  234.999    0.261    0.479   67.778    9.160
  235.304    0.265    0.519   68.430    9.001
  235.609    0.256    0.507   68.472    8.843
  235.914    0.268    0.547   68.522    8.853
  236.218    0.270    0.564   67.965    9.031
  236.523    0.270    0.553   68.008    9.383
  236.828    0.264    0.557   71.076    9.568
  237.133    0.253    0.547   71.127    9.942
  237.438    0.240    0.464   68.150    9.771
  237.742    0.275    0.469   65.781    9.602
  238.047    0.286    0.569   67.034    9.261
  238.352    0.255    0.538   69.503    8.932
  238.657    0.268    0.500   68.941    8.150
  238.962    0.251    0.518   68.991    7.575
  239.266    0.236    0.534   78.711    7.040
  239.571    0.241    0.534   78.760    6.423
  239.876    0.255    0.534   76.991    6.316
  240.181    0.257    0.496   75.232    6.440
  240.486    0.284    0.470   73.456    6.691
  240.790    0.267    0.482   71.084    7.082
  241.095    0.238    0.443   63.876    7.635
  241.400    0.230    0.367   61.504    8.544
  241.705    0.222    0.312   62.154    9.739
  242.010    0.150    0.281   57.972   11.960
  242.314    0.116    0.267   53.786   14.961
  242.619    0.070    0.402   57.461   18.370
  242.924    0.092    0.506   68.391   20.942
  243.229    0.235    0.499   72.670   19.470
  243.533    0.248    0.499   74.533   15.028
  243.838    0.236    0.491   75.787   10.378
  244.143    0.237    0.499   80.064    8.470
  244.448    0.215    0.514   86.163    7.729
  244.753    0.200    0.519   86.211    7.596
  245.057    0.237    0.526   83.233    7.465
  245.362    0.223    0.547   79.044    7.612
  245.667    0.218    0.528   77.282    8.057
  245.972    0.212    0.561   78.534    8.689
  246.277    0.213    0.528   81.000    9.027
  246.581    0.198    0.503   80.448    9.038
  246.886    0.192    0.497   79.888    8.882
  247.191    0.218    0.556   79.939    8.729
  247.496    0.230    0.541   81.192    8.420
  247.801    0.225    0.512   83.052    7.971
  248.105    0.217    0.505   83.097    7.410
  248.410    0.207    0.498   82.540    6.886
  248.715    0.203    0.498   86.822    6.645
  249.020    0.217    0.477   88.072    6.775
  249.325    0.209    0.463   85.704    7.038
  249.629    0.208    0.463   80.915    7.731
  249.934    0.209    0.464   77.940    9.495
  250.239    0.181    0.451   78.590   11.233
  250.544    0.180    0.516   79.852   12.113
  250.849    0.184    0.509   79.892   11.902
  251.153    0.200    0.497   82.964    9.714
  251.458    0.214    0.490   85.429    8.229
  251.763    0.209    0.467   87.289    7.509
  252.068    0.200    0.455   85.525    7.380
  252.373    0.201    0.440   81.336    7.811
  252.677    0.202    0.423   74.734    8.739
  252.982    0.222    0.410   72.968   10.341
  253.287    0.259    0.413   68.176   11.572
  253.592    0.239    0.421   67.013   11.805
  253.896    0.219    0.483   69.480   11.385
  254.201    0.214    0.475   71.343   10.582
  254.506    0.228    0.454   69.572   10.208
  254.811    0.213    0.417   65.996   10.030
  255.116    0.195    0.362   59.388   10.231
  255.420    0.123    0.270   49.768   11.238
  255.725    0.077    0.222   48.603   13.296
  256.030    0.045    0.237   54.695   14.878
  256.335    0.046    0.472   63.814   14.623
  256.640    0.222    0.466   66.276   14.105
  256.944    0.238    0.453   65.722   11.947
  257.249    0.244    0.472   69.391   10.702
  257.554    0.224    0.464   74.283   10.323
  257.859    0.227    0.470   76.141   10.336
  258.164    0.222    0.488   75.590   10.541
