~VERSION INFORMATION
 VERS.                 2.0:   CWLS LOG ASCII STANDARD -VERSION 2.0
 WRAP.                  NO:   ONE LINE PER DEPTH STEP
~WELL INFORMATION BLOCK
#MNEM.UNIT           DATA                    DESCRIPTION OF MNEMONIC
#---------    -------------------            -------------------------------
# Generated from Intellog Unique Number	CS_67_68/WELL/2209
WELL.         11-24-067-04W4                 : Well_name    - WELL
LOC .         00/11-24-067-04W4/0            : Location     - LOCATION
UWI .         00/11-24-067-04W4/0            : Uwi          - UNIQUE WELL ID
ENTR.         SP                             : Entered      - ENTERED BY
SRVC.         SCHLUMBERGER                   : Scn          - SERVICE COMPANY
STRT.M        320                            : top_depth    - START DEPTH
STOP.M        553                            : bot_depth    - STOP DEPTH
STEP.M        0.25                           : increment    - STEP LENGTH
 NULL. -999.2500:NULL Value
~CURVE INFORMATION BLOCK
#MNEM UNIT       ERCB CURVE CODE    CURVE DESCRIPTION
#-----------   ------------------   ----------------------------------
DEPT.M        00 001 00 00         : DEPTH        - DEPTH
ILD .OHMM     00 120 00 00         : RESD         - DEEP RESISTIVITY (DIL)
DPHI.V/V      00 890 00 00         : PHID         - DENSITY POROSITY (LIMESTONE)
NPHI.V/V      00 330 00 00         : PHIN         - NEUTRON POROSITY (LIMESTONE)
GR  .API      00 310 00 00         : GR           - GAMMA RAY
CALI.MM       00 280 01 00         : CAL          - CALIPER
~PARAMETER INFORMATION
#MNEM.UNIT           DATA             DESCRIPTION OF MNEMONIC
#---------         -----------     ------------------------------
GL  .M        674.8                : gl           - GROUND LEVEL ELEVATION
EREF.M        678                  : kb           - ELEVATION OF DEPTH REFERENCE
DATM.M        678                  : datum        - DATUM ELEVATION
TDD .M        558                  : tdd          - TOTAL DEPTH DRILLER
RUN .         ONE                  : Run          - RUN NUMBER
ENG .         BILL                 : Engineer     - RECORDING ENGINEER
WIT .         JIM                  : Witness      - WITNESSED BY
MUD .         GEL                  : Mud_type     - MUD TYPE
MATR.         LIMESTONE            : Logunit      - NEUTRON MATRIX
TMAX.C        18.3                 : BHT          - MAXIMUM RECORDED TEMPERATURE
BHTD.M        556.5                : BHTDEP       - MAXIMUM RECORDED TEMPERATURE
MATR.         1                    : LOGUNIT      - NEUTRON MATRIX
RMT .C        25                   : MDTP         - TEMPERATURE OF MUD
NEUT.         1                    : NEUTRON      - NEUTRON TYPE
RESI.         0                    : RESIST       - RESISTIVITY TYPE
RMC .OHMM     0.25                 : RMC          - RESISTIVITY OF MUD CAKE
RMF .OHMM     0.25                 : RMF          - RESISTIVITY OF MUD FILTRATE
SUFT.C        15                   : SUFT         - SURFACE TEMPERATURE
~A  DEPTH     RESD     PHID     PHIN       GR      CAL
  320.000    2.804    0.241    0.508   98.886  161.351
  320.250    2.879    0.238    0.524  101.891  173.832
  320.500    2.945    0.237    0.540  104.652  171.830
  320.750    2.923    0.238    0.558  106.315  170.633
  321.000    2.928    0.243    0.558  102.000  169.540
  321.250    2.979    0.253    0.539   98.112  168.649
  321.500    3.018    0.260    0.528   97.700  167.760
  321.750    3.082    0.262    0.514  100.036  167.381
  322.000    3.176    0.260    0.517  101.697  167.002
  322.250    3.273    0.251    0.508  104.827  167.231
  322.500    3.342    0.242    0.501  107.647  168.274
  322.750    3.355    0.242    0.500  109.248  169.112
  323.000    3.323    0.250    0.507  104.444  169.851
  323.250    3.267    0.245    0.520  103.546  170.387
  323.500    3.317    0.242    0.508  102.219  171.427
  323.750    3.530    0.241    0.501   96.257  171.963
  324.000    3.524    0.227    0.509   96.273  171.685
  324.250    3.399    0.215    0.520  101.535  170.390
  324.500    3.279    0.231    0.531  101.978  168.686
  324.750    3.236    0.238    0.544  103.763  167.799
  325.000    3.230    0.227    0.541  106.340  168.536
  325.250    3.218    0.217    0.520  100.136  169.686
  325.500    3.206    0.230    0.511   96.978  170.419
  325.750    3.273    0.245    0.531  101.328  170.039
  326.000    3.412    0.258    0.531  102.682  169.049
  326.250    3.537    0.246    0.548   93.731  168.362
  326.500    3.590    0.051    0.563   83.376  167.985
  326.750    3.577    0.005    0.409   80.525  167.501
  327.000    3.523    0.163    0.432  127.818  168.137
  327.250    3.361    0.232    0.480  129.969  169.180
  327.500    3.200    0.259    0.488  115.893  169.613
  327.750    3.104    0.244    0.476  103.342  167.607
  328.000    3.035    0.232    0.488   97.197  165.903
  328.250    2.956    0.242    0.504   98.497  165.218
  328.500    2.906    0.244    0.516   98.937  164.839
  328.750    3.176    0.240    0.527   94.255  163.240
  329.000    3.611    0.238    0.527   86.586  161.129
  329.250    4.296    0.248    0.520   78.548  159.630
  329.500    5.258    0.278    0.423   67.767  158.843
  329.750    6.682    0.287    0.362   61.865  158.366
  330.000    8.366    0.291    0.327   65.297  158.289
  330.250    8.542    0.281    0.346   65.985  157.703
  330.500    9.143    0.292    0.334   61.365  157.525
  330.750    9.657    0.285    0.334   62.478  157.247
  331.000    9.823    0.274    0.338   62.616  156.665
  331.250   10.029    0.274    0.324   60.376  155.469
  331.500   10.029    0.295    0.332   62.162  155.803
  331.750    9.897    0.306    0.353   65.837  157.150
  332.000    9.767    0.293    0.346   68.230  158.498
  332.250    9.712    0.286    0.333   66.965  160.660
  332.500    9.804    0.280    0.346   58.074  162.618
  332.750    9.972    0.275    0.355   56.627  163.254
  333.000   10.181    0.270    0.362   60.119  163.077
  333.250   10.219    0.264    0.370   62.272  162.595
  333.500   10.774    0.265    0.376   57.468  161.910
  333.750   11.886    0.277    0.363   54.614  161.428
  334.000   13.617    0.291    0.320   51.093  160.543
  334.250   15.308    0.317    0.289   46.961  160.160
  334.500   17.637    0.344    0.299   45.147  159.881
  334.750   20.591    0.343    0.321   45.895  159.601
  335.000   23.589    0.339    0.338   45.788  159.529
  335.250   21.383    0.328    0.348   44.096  160.264
  335.500   16.951    0.318    0.353   49.421  162.425
  335.750   15.021    0.306    0.361   53.095  165.812
  336.000   13.745    0.294    0.392   49.329  168.476
  336.250   16.291    0.311    0.412   46.234  171.146
  336.500   16.728    0.315    0.407   45.212  172.496
  336.750   15.628    0.294    0.411   48.645  172.826
  337.000   15.394    0.283    0.421   51.162  172.144
  337.250   14.546    0.278    0.430   48.859  171.255
  337.500   12.296    0.265    0.401   55.708  170.973
  337.750   17.306    0.283    0.414   57.735  170.695
  338.000   19.677    0.308    0.442   43.599  171.231
  338.250   29.867    0.326    0.421   33.367  172.276
  338.500   38.686    0.326    0.395   26.672  173.423
  338.750   65.518    0.319    0.398   25.101  174.463
  339.000   76.635    0.314    0.409   26.581  175.504
  339.250   53.430    0.310    0.417   29.221  176.649
  339.500   42.116    0.317    0.436   30.151  177.793
  339.750   46.024    0.313    0.463   28.276  178.940
  340.000   61.095    0.306    0.423   31.342  180.693
  340.250   59.500    0.301    0.411   34.961  182.248
  340.500   59.052    0.331    0.416   36.439  182.982
  340.750   59.387    0.345    0.418   37.002  182.094
  341.000   60.633    0.340    0.415   35.675  182.224
  341.250   68.422    0.330    0.418   33.130  181.537
  341.500   74.490    0.346    0.426   31.254  179.230
  341.750   74.490    0.352    0.419   33.956  177.218
  342.000   66.510    0.333    0.424   35.375  174.501
  342.250   48.520    0.328    0.418   35.327  171.174
  342.500   39.944    0.333    0.418   33.759  168.249
  342.750   37.601    0.335    0.428   34.627  164.923
  343.000   37.958    0.335    0.441   37.025  163.321
  343.250   40.398    0.334    0.437   38.809  162.533
  343.500   40.704    0.333    0.439   40.654  161.848
  343.750   46.632    0.329    0.438   40.547  161.975
  344.000   46.456    0.326    0.432   34.769  161.899
  344.250   47.881    0.320    0.427   31.672  161.928
  344.500   50.006    0.312    0.414   31.261  161.751
  344.750   74.203    0.306    0.397   33.169  161.472
  345.000  159.430    0.313    0.389   37.088  161.396
  345.250   95.930    0.321    0.386   41.984  161.014
  345.500   53.826    0.325    0.421   46.880  159.617
  345.750   40.779    0.341    0.447   52.143  157.510
  346.000   33.571    0.324    0.462   56.367  155.603
  346.250   26.814    0.295    0.453   60.898  156.651
  346.500   23.717    0.273    0.445   61.645  156.984
  346.750   21.620    0.258    0.462   63.246  157.107
  347.000   20.276    0.259    0.480   66.801  157.132
  347.250   19.304    0.268    0.459   69.196  157.159
  347.500   18.310    0.271    0.460   65.433  157.796
  347.750   15.772    0.260    0.471   62.396  158.330
  348.000   14.216    0.280    0.464   67.719  158.763
  348.250   13.058    0.293    0.460   71.516  159.096
  348.500   12.017    0.286    0.475   76.110  159.224
  348.750   11.312    0.280    0.485   78.075  159.657
  349.000   10.649    0.292    0.497   76.933  159.885
  349.250    9.634    0.294    0.485   77.070  159.916
  349.500    8.635    0.289    0.478   79.405  160.346
  349.750    7.724    0.281    0.468   81.924  160.676
  350.000    6.832    0.271    0.478   83.831  160.808
  350.250    6.146    0.275    0.489   85.003  160.832
  350.500    5.863    0.294    0.476   85.262  154.046
  350.750    5.688    0.310    0.444   84.793  152.343
  351.000    5.656    0.325    0.418   80.048  154.709
  351.250    5.571    0.343    0.400   76.709  155.752
  351.500    5.498    0.343    0.402   77.701  155.472
  351.750    5.406    0.331    0.412   79.181  152.350
  352.000    5.375    0.311    0.421   77.549  150.747
  352.250    5.477    0.291    0.418   79.884  152.502
  352.500    5.571    0.277    0.419   80.692  155.172
  352.750    5.645    0.287    0.429   78.085  156.418
  353.000    5.699    0.299    0.437   75.295  156.242
  353.250    5.753    0.297    0.425   74.032  155.454
  353.500    5.796    0.285    0.412   73.618  154.770
  353.750    5.918    0.294    0.436   75.342  154.289
  354.000    6.204    0.300    0.458   78.835  154.111
  354.250    6.382    0.302    0.457   79.401  154.342
  354.500    6.358    0.299    0.449   81.065  154.675
  354.750    6.334    0.294    0.441   82.116  155.107
  355.000    6.298    0.286    0.434   82.802  155.740
  355.250    6.287    0.275    0.432   83.672  157.089
  355.500    6.322    0.248    0.437   85.763  158.438
  355.750    6.406    0.238    0.451   85.902  159.582
  356.000    6.504    0.257    0.468   84.575  160.525
  356.250    6.628    0.268    0.476   81.967  161.063
