~VERSION INFORMATION
 VERS.                 2.0:   CWLS LOG ASCII STANDARD -VERSION 2.0
 WRAP.                  NO:   ONE LINE PER DEPTH STEP
~WELL INFORMATION BLOCK
#MNEM.UNIT           DATA                    DESCRIPTION OF MNEMONIC
#---------    -------------------            -------------------------------
# Generated from Intellog Unique Number	CS_73_76/WELL/834
WELL.         DOME ET AL KIRBY               : Well_name    - WELL
LOC .         00/10-29-073-05W4/0            : Location     - LOCATION
UWI .         00/10-29-073-05W4/0            : Uwi          - UNIQUE WELL ID
ENTR.         SP                             : Entered      - ENTERED BY
SRVC.         SCHLUMBERGER                   : Scn          - SERVICE COMPANY
STRT.M        270                            : top_depth    - START DEPTH
STOP.M        507                            : bot_depth    - STOP DEPTH
STEP.M        0.25                           : increment    - STEP LENGTH
 NULL. -999.2500:NULL Value
~CURVE INFORMATION BLOCK
#MNEM UNIT       ERCB CURVE CODE    CURVE DESCRIPTION
#-----------   ------------------   ----------------------------------
DEPT.M        00 001 00 00         : DEPTH        - DEPTH
ILD .OHMM     00 120 00 00         : RESD         - DEEP RESISTIVITY (DIL)
DPHI.V/V      00 890 00 00         : PHID         - DENSITY POROSITY (LIMESTONE)
NPHI.V/V      00 330 00 00         : PHIN         - NEUTRON POROSITY (LIMESTONE)
GR  .API      00 310 00 00         : GR           - GAMMA RAY
~PARAMETER INFORMATION
#MNEM.UNIT           DATA             DESCRIPTION OF MNEMONIC
#---------         -----------     ------------------------------
GL  .M        669.03               : gl           - GROUND LEVEL ELEVATION
EREF.M        672.93               : kb           - ELEVATION OF DEPTH REFERENCE
DATM.M        669.03               : datum        - DATUM ELEVATION
TDD .M        514.6                : tdd          - TOTAL DEPTH DRILLER
RUN .         ONE                  : Run          - RUN NUMBER
ENG .         BILL                 : Engineer     - RECORDING ENGINEER
WIT .         JIM                  : Witness      - WITNESSED BY
MUD .         GEL                  : Mud_type     - MUD TYPE
MATR.         LIMESTONE            : Logunit      - NEUTRON MATRIX
TMAX.C        20                   : BHT          - MAXIMUM RECORDED TEMPERATURE
BHTD.M        514.6                : BHTDEP       - MAXIMUM RECORDED TEMPERATURE
MATR.         1                    : LOGUNIT      - NEUTRON MATRIX
RMT .C        25                   : MDTP         - TEMPERATURE OF MUD
NEUT.         1                    : NEUTRON      - NEUTRON TYPE
RESI.         0                    : RESIST       - RESISTIVITY TYPE
RMC .OHMM     0.25                 : RMC          - RESISTIVITY OF MUD CAKE
RMF .OHMM     0.25                 : RMF          - RESISTIVITY OF MUD FILTRATE
SUFT.C        15                   : SUFT         - SURFACE TEMPERATURE
~A  DEPTH     RESD     PHID     PHIN       GR
  270.000    3.738    0.260    0.547  109.476
  270.250    3.738    0.260    0.544  107.662
  270.500    3.810    0.273    0.541  107.663
  270.750    3.811    0.264    0.536  108.269
  271.000    3.884    0.246    0.531  108.269
  271.250    3.884    0.253    0.527  107.060
  271.500    4.033    0.272    0.536  105.247
  271.750    4.034    0.273    0.547  104.038
  272.000    4.187    0.258    0.552  103.434
  272.250    4.189    0.246    0.542  103.435
  272.500    4.190    0.253    0.532  104.645
  272.750    4.191    0.269    0.524  105.251
  273.000    4.115    0.284    0.526  103.437
  273.250    3.893    0.277    0.531   99.809
  273.500    3.753    0.269    0.542  103.439
  273.750    3.684    0.279    0.552  105.255
  274.000    3.686    0.269    0.531  104.650
  274.250    3.756    0.267    0.543  102.837
  274.500    3.688    0.293    0.550  101.628
  274.750    3.621    0.289    0.548  101.629
  275.000    3.690    0.260    0.544  103.444
  275.250    4.203    0.258    0.545  104.050
  275.500    4.877    0.243    0.532  102.841
  275.750    6.097    0.207    0.507  102.842
  276.000    6.817    0.188    0.480  101.633
  276.250    8.059    0.150    0.446   98.610
  276.500    8.846    0.248    0.434  102.844
  276.750    9.183    0.271    0.438   99.821
  277.000    9.713    0.277    0.428   97.402
  277.250   10.271    0.260    0.421   93.774
  277.500   11.485    0.242    0.417   88.936
  277.750   12.607    0.235    0.400   84.098
  278.000   13.581    0.241    0.373   75.632
  278.250   15.188    0.264    0.342   68.374
  278.500   15.476    0.299    0.320   60.512
  278.750   14.916    0.329    0.286   54.465
  279.000   13.597    0.289    0.280   56.885
  279.250   12.396    0.278    0.324   59.305
  279.500   11.092    0.273    0.356   62.331
  279.750    9.742    0.307    0.387   64.146
  280.000    9.048    0.324    0.401   65.961
  280.250    8.720    0.311    0.409   67.776
  280.500    8.562    0.312    0.400   69.592
  280.750    8.565    0.318    0.395   70.197
  281.000    8.567    0.316    0.396   73.827
  281.250    8.569    0.306    0.398   78.062
  281.500    8.572    0.283    0.405   85.925
  281.750    8.735    0.259    0.415   92.580
  282.000    8.901    0.255    0.416   95.605
  282.250    8.903    0.267    0.407   96.815
  282.500    8.907    0.276    0.411   94.397
  282.750    8.909    0.270    0.415   95.608
  283.000    8.912    0.271    0.418   96.213
  283.250    8.914    0.260    0.424   96.819
  283.500    8.591    0.254    0.426   95.610
  283.750    8.280    0.269    0.423   95.006
  284.000    7.835    0.288    0.415   92.587
  284.250    7.692    0.286    0.405   89.564
  284.500    7.695    0.286    0.413   91.379
  284.750    7.841    0.265    0.427   88.356
  285.000    8.140    0.287    0.399   81.099
  285.250    8.450    0.289    0.376   77.471
  285.500    8.773    0.272    0.372   74.447
  285.750    9.107    0.230    0.377   73.238
  286.000    9.455    0.197    0.371   74.449
  286.250    9.457    0.186    0.370   76.264
  286.500    9.460    0.203    0.375   76.265
  286.750    9.289    0.220    0.375   72.637
  287.000    8.952    0.219    0.373   68.404
  287.250    8.628    0.244    0.377   63.566
  287.500    8.163    0.269    0.377   55.099
  287.750    7.868    0.281    0.377   51.471
  288.000    7.870    0.275    0.382   48.447
  288.250    7.727    0.286    0.377   50.868
  288.500    7.311    0.299    0.380   54.498
  288.750    6.917    0.299    0.395   57.523
  289.000    6.666    0.311    0.410   81.112
  289.250    6.307    0.260    0.423   97.444
  289.500    6.078    0.281    0.445  108.331
  289.750    5.751    0.244    0.474  114.381
  290.000    5.441    0.192    0.479  116.196
  290.250    5.244    0.159    0.483  112.568
  290.500    4.781    0.178    0.483  116.802
  290.750    4.694    0.212    0.491  122.247
  291.000    4.441    0.213    0.497  122.853
  291.250    4.201    0.215    0.503  124.063
  291.500    3.975    0.218    0.520  126.483
  291.750    3.760    0.211    0.533  127.694
  292.000    3.558    0.205    0.541  127.695
  292.250    3.493    0.249    0.548  127.091
  292.500    3.367    0.260    0.552  125.882
  292.750    3.306    0.266    0.554  125.278
  293.000    3.432    0.280    0.549  123.464
  293.250    3.767    0.288    0.536  121.046
  293.500    4.212    0.284    0.500  118.022
  293.750    4.710    0.272    0.478  114.999
  294.000    5.365    0.255    0.466  111.976
  294.250    6.226    0.289    0.461  108.347
  294.500    6.961    0.275    0.456  104.114
  294.750    7.785    0.283    0.449  101.091
  295.000    8.232    0.259    0.438   97.463
  295.250    9.037    0.300    0.423   91.415
  295.500    9.918    0.323    0.409   83.553
  295.750   11.510    0.330    0.388   76.296
  296.000   12.871    0.330    0.359   76.902
  296.250   13.867    0.330    0.363   78.112
  296.500   14.664    0.336    0.350   82.347
  296.750   15.509    0.336    0.338   84.767
  297.000   16.100    0.317    0.340   86.582
  297.250   15.234    0.301    0.353   86.584
  297.500   15.237    0.312    0.361   85.374
  297.750   14.686    0.321    0.369   83.561
  298.000   14.419    0.332    0.363   81.747
  298.250   14.426    0.341    0.343   82.353
  298.500   14.699    0.324    0.330   82.354
  298.750   15.544    0.320    0.321   82.960
  299.000   16.138    0.327    0.327   84.775
  299.250   15.267    0.335    0.308   86.590
  299.500   13.917    0.322    0.297   89.010
  299.750   12.224    0.293    0.323   89.616
  300.000    9.969    0.265    0.342   90.222
  300.250    9.789    0.237    0.357   90.222
  300.500    9.974    0.226    0.357   85.385
  300.750   10.165    0.231    0.359   80.547
  301.000   10.357    0.218    0.364   77.523
  301.250   10.955    0.223    0.348   73.290
  301.500   11.372    0.257    0.335   70.872
  301.750   12.252    0.294    0.317   66.034
  302.000   13.700    0.297    0.302   62.406
  302.250   15.899    0.303    0.294   56.358
  302.500   18.111    0.321    0.275   51.520
  302.750   20.251    0.340    0.249   45.473
  303.000   21.817    0.352    0.220   41.845
  303.250   16.519    0.346    0.217   38.821
  303.500   12.980    0.343    0.255   38.217
  303.750    9.469    0.330    0.312   39.428
  304.000    7.580    0.324    0.354   40.638
  304.250    6.297    0.318    0.387   38.825
  304.500    5.429    0.314    0.399   39.430
  304.750    5.136    0.301    0.404   41.851
  305.000    4.860    0.293    0.404   44.271
  305.250    4.861    0.292    0.405   46.691
  305.500    5.046    0.297    0.409   49.111
  305.750    5.539    0.295    0.411   52.741
  306.000    5.750    0.282    0.393   61.814
  306.250    5.970    0.265    0.380   70.888
  306.500    6.197    0.243    0.374   82.380
  306.750    6.315    0.229    0.381   89.034
  307.000    5.974    0.228    0.397   93.269
  307.250    5.549    0.274    0.408   90.246
  307.500    5.347    0.304    0.421   84.803
  307.750    4.967    0.308    0.426   78.756
  308.000    4.786    0.315    0.408   75.732
  308.250    4.788    0.317    0.409   80.572
  308.500    4.971    0.299    0.423   84.807
  308.750    5.065    0.295    0.429   91.461
  309.000    5.357    0.289    0.427   99.929
  309.250    5.561    0.270    0.432  112.027
  309.500    5.666    0.241    0.432  116.866
  309.750    5.883    0.237    0.446  117.472
  310.000    5.994    0.251    0.456  113.844
  310.250    6.223    0.269    0.462  111.425
  310.500    6.342    0.245    0.460  112.636
  310.750    6.343    0.260    0.463  112.637
  311.000    5.892    0.259    0.475  112.033
  311.250    5.678    0.253    0.478  108.405
  311.500    5.372    0.249    0.480  104.776
  311.750    5.373    0.262    0.475  102.963
  312.000    5.375    0.237    0.458  101.149
  312.250    5.277    0.246    0.467  100.545
  312.500    5.087    0.253    0.477  102.360
  312.750    4.903    0.270    0.475  104.176
  313.000    4.725    0.277    0.456  102.967
  313.250    4.555    0.269    0.437   99.944
