~VERSION INFORMATION
 VERS.                 2.0:   CWLS LOG ASCII STANDARD -VERSION 2.0
 WRAP.                  NO:   ONE LINE PER DEPTH STEP
~WELL INFORMATION BLOCK
#MNEM.UNIT           DATA                    DESCRIPTION OF MNEMONIC
#---------    -------------------            -------------------------------
# Generated from Intellog Unique Number	CS_71_72/WELL/901
WELL.         AQUITAINE COMPANY              : Well_name    - WELL
LOC .         00/11-19-071-18W4/0            : Location     - LOCATION
UWI .         00/11-19-071-18W4/0            : Uwi          - UNIQUE WELL ID
ENTR.         SP                             : Entered      - ENTERED BY
SRVC.         SCHLUMBERGER                   : Scn          - SERVICE COMPANY
STRT.M        250                            : top_depth    - START DEPTH
STOP.M        490                            : bot_depth    - STOP DEPTH
STEP.M        0.25                           : increment    - STEP LENGTH
 NULL. -999.2500:NULL Value
~CURVE INFORMATION BLOCK
#MNEM UNIT       ERCB CURVE CODE    CURVE DESCRIPTION
#-----------   ------------------   ----------------------------------
DEPT.M        00 001 00 00         : DEPTH        - DEPTH
ILD .OHMM     00 120 00 00         : RESD         - DEEP RESISTIVITY (DIL)
DPHI.V/V      00 890 00 00         : PHID         - DENSITY POROSITY (LIMESTONE)
NPHI.V/V      00 330 00 00         : PHIN         - NEUTRON POROSITY (LIMESTONE)
GR  .API      00 310 00 00         : GR           - GAMMA RAY
~PARAMETER INFORMATION
#MNEM.UNIT           DATA             DESCRIPTION OF MNEMONIC
#---------         -----------     ------------------------------
GL  .M        573                  : gl           - GROUND LEVEL ELEVATION
EREF.M        575                  : kb           - ELEVATION OF DEPTH REFERENCE
DATM.M        573                  : datum        - DATUM ELEVATION
TDD .M        492                  : tdd          - TOTAL DEPTH DRILLER
RUN .         ONE                  : Run          - RUN NUMBER
ENG .         BILL                 : Engineer     - RECORDING ENGINEER
WIT .         JIM                  : Witness      - WITNESSED BY
MUD .         GEL                  : Mud_type     - MUD TYPE
MATR.         LIMESTONE            : Logunit      - NEUTRON MATRIX
TMAX.C        18                   : BHT          - MAXIMUM RECORDED TEMPERATURE
BHTD.M        492                  : BHTDEP       - MAXIMUM RECORDED TEMPERATURE
MATR.         0                    : LOGUNIT      - NEUTRON MATRIX
RMT .C        25                   : MDTP         - TEMPERATURE OF MUD
NEUT.         1                    : NEUTRON      - NEUTRON TYPE
RESI.         0                    : RESIST       - RESISTIVITY TYPE
RMC .OHMM     0.25                 : RMC          - RESISTIVITY OF MUD CAKE
RMF .OHMM     0.25                 : RMF          - RESISTIVITY OF MUD FILTRATE
SUFT.C        15                   : SUFT         - SURFACE TEMPERATURE
~A  DEPTH     RESD     PHID     PHIN       GR
# ...
  467.500   36.692    0.127    0.290   40.625
  467.750   35.798    0.116    0.274   27.892
  468.000   30.668    0.107    0.265   27.900
  468.250   25.637    0.156    0.354   57.256
  468.500   22.635    0.220    0.364   59.257
  468.750   20.791    0.219    0.368   59.507
  469.000   19.830    0.194    0.350   59.032
  469.250   19.238    0.214    0.333   58.860
  469.500   18.593    0.201    0.313   54.641
  469.750   18.002    0.129    0.297   49.939
  470.000   17.832    0.095    0.281   54.598
  470.250   16.881    0.074    0.267   59.375
  470.500   15.131    0.095    0.258   59.808
  470.750   13.846    0.129    0.257   59.090
  471.000   13.207    0.130    0.267   60.187
  471.250   13.007    0.119    0.300   63.214
  471.500   14.022    0.138    0.336   66.482
  471.750   15.492    0.093    0.353   54.414
  472.000   16.797    0.060    0.307   42.526
  472.250   17.308    0.037    0.288   26.411
  472.500   15.166    0.010    0.273   20.622
  472.750   14.358    0.022    0.319   24.918
  473.000   12.965    0.097    0.354   31.027
  473.250   12.674    0.122    0.364   35.020
  473.500   12.226    0.111    0.352   27.721
  473.750   11.906    0.087    0.340   21.873
  474.000   11.681    0.085    0.333   22.605
  474.250   11.635    0.081    0.320   25.934
  474.500   11.590    0.069    0.286   26.123
  474.750   11.436    0.049    0.274   29.453
  475.000   10.274    0.074    0.307   38.000
  475.250    9.105    0.085    0.313   41.697
  475.500    8.161    0.114    0.304   43.702
  475.750    7.426    0.126    0.330   45.048
  476.000    6.912    0.137    0.338   49.404
  476.250    6.821    0.089    0.323   48.280
  476.500    7.636    0.053    0.317   38.424
  476.750    8.518    0.057    0.314   35.012
  477.000    9.903    0.090    0.307   33.891
  477.250   11.150    0.112    0.352   30.237
  477.500   10.127    0.116    0.369   22.430
  477.750    8.229    0.121    0.363   24.014
  478.000    7.574    0.150    0.352   30.719
  478.250    7.238    0.175    0.342   36.042
  478.500    7.155    0.131    0.330   40.517
  478.750    7.277    0.087    0.319   40.717
  479.000    7.527    0.062    0.307   37.848
  479.250    7.889    0.052    0.293   42.144
  479.500    8.410    0.065    0.298   43.789
  479.750    8.949    0.094    0.290   49.291
  480.000    9.522    0.102    0.283   56.240
  480.250   10.113    0.072    0.279   60.172
  480.500   10.680    0.044    0.269   52.425
  480.750   11.194    0.032    0.260   45.823
  481.000   11.491    0.037    0.288   47.827
  481.250   11.642    0.054    0.313   44.897
  481.500   11.424    0.063    0.357   36.006
  481.750   10.794    0.052    0.376   29.703
  482.000   10.181    0.079    0.407   25.930
  482.250    9.766    0.131    0.431   22.216
  482.500    9.673    0.173    0.419   24.468
  482.750    9.800    0.128    0.393   26.475
  483.000   10.137    0.077    0.364   25.651
  483.250   10.565    0.044    0.321   22.781
  483.500   10.765    0.048    0.280   30.148
  483.750   10.384    0.050    0.259   35.588
  484.000   10.018    0.050    0.256   40.068
  484.250    9.830    0.079    0.278   42.675
  484.500    9.884    0.092    0.307   43.179
  484.750    9.920    0.094    0.328   41.693
  485.000    9.957    0.081    0.311   37.799
  485.250    9.825    0.062    0.294   33.968
  485.500    9.442    0.070    0.279   38.746
  485.750    8.973    0.089    0.288   43.463
  486.000    8.575    0.096    0.292   42.879
  486.250    8.072    0.100    0.304   38.986
  486.500    7.714    0.107    0.350   34.855
  486.750    7.414    0.114    0.368   33.366
  487.000    7.247    0.115    0.363   34.653
  487.250    7.111    0.115    0.352   38.106
  487.500    7.030    0.103    0.342   39.692
  487.750    7.029    0.086    0.327   41.221
  488.000    7.041    0.103    0.321   41.900
  488.250    7.107    0.116    0.318   41.561
  488.500    7.352    0.111    0.326   41.824
  488.750    7.378    0.108    0.345   42.806
  489.000    7.433    0.113    0.352   44.754
  489.250    7.404    0.099    0.354   47.366
  489.500    7.348    0.094    0.353   49.130
  489.750    7.251    0.107    0.352   52.221
  490.000    7.222    0.092    0.341   47.727
