~VERSION INFORMATION
 VERS.                 2.0:   CWLS LOG ASCII STANDARD -VERSION 2.0
 WRAP.                  NO:   ONE LINE PER DEPTH STEP
~WELL INFORMATION BLOCK
#MNEM.UNIT           DATA                    DESCRIPTION OF MNEMONIC
#---------    -------------------            -------------------------------
# Generated from Intellog Unique Number	CS_71_72/WELL/845
WELL.         BVX ET AL PHILOMENA            : Well_name    - WELL
LOC .         00/10-01-071-11W4/0            : Location     - LOCATION
UWI .         00/10-01-071-11W4/0            : Uwi          - UNIQUE WELL ID
ENTR.         SP                             : Entered      - ENTERED BY
SRVC.         SCHLUMBERGER                   : Scn          - SERVICE COMPANY
STRT.M        305                            : top_depth    - START DEPTH
STOP.M        525                            : bot_depth    - STOP DEPTH
STEP.M        0.25                           : increment    - STEP LENGTH
 NULL. -999.2500:NULL Value
~CURVE INFORMATION BLOCK
#MNEM UNIT       ERCB CURVE CODE    CURVE DESCRIPTION
#-----------   ------------------   ----------------------------------
DEPT.M        00 001 00 00         : DEPTH        - DEPTH
ILD .OHMM     00 120 00 00         : RESD         - DEEP RESISTIVITY (DIL)
DPHI.V/V      00 890 00 00         : PHID         - DENSITY POROSITY (LIMESTONE)
NPHI.V/V      00 330 00 00         : PHIN         - NEUTRON POROSITY (LIMESTONE)
GR  .API      00 310 00 00         : GR           - GAMMA RAY
~PARAMETER INFORMATION
#MNEM.UNIT           DATA             DESCRIPTION OF MNEMONIC
#---------         -----------     ------------------------------
GL  .M        643.55               : gl           - GROUND LEVEL ELEVATION
EREF.M        646.55               : kb           - ELEVATION OF DEPTH REFERENCE
DATM.M        643.55               : datum        - DATUM ELEVATION
TDD .M        529                  : tdd          - TOTAL DEPTH DRILLER
RUN .         ONE                  : Run          - RUN NUMBER
ENG .         BILL                 : Engineer     - RECORDING ENGINEER
WIT .         JIM                  : Witness      - WITNESSED BY
MUD .         GEL                  : Mud_type     - MUD TYPE
MATR.         LIMESTONE            : Logunit      - NEUTRON MATRIX
TMAX.C        28                   : BHT          - MAXIMUM RECORDED TEMPERATURE
BHTD.M        529                  : BHTDEP       - MAXIMUM RECORDED TEMPERATURE
MATR.         1                    : LOGUNIT      - NEUTRON MATRIX
RMT .C        25                   : MDTP         - TEMPERATURE OF MUD
NEUT.         1                    : NEUTRON      - NEUTRON TYPE
RESI.         0                    : RESIST       - RESISTIVITY TYPE
RMC .OHMM     0.25                 : RMC          - RESISTIVITY OF MUD CAKE
RMF .OHMM     0.25                 : RMF          - RESISTIVITY OF MUD FILTRATE
SUFT.C        15                   : SUFT         - SURFACE TEMPERATURE
~A  DEPTH     RESD     PHID     PHIN       GR
# ...
  392.000   11.575    0.371    0.479   50.355
  392.250   12.054    0.364    0.475   52.602
  392.500   13.343    0.359    0.462   56.123
  392.750   14.260    0.361    0.452   57.763
  393.000   14.876    0.341    0.455   58.313
  393.250   14.514    0.344    0.446   55.530
  393.500   13.772    0.354    0.444   53.777
  393.750   12.948    0.320    0.448   54.995
  394.000   12.061    0.228    0.429   56.817
  394.250   11.465    0.112    0.288   54.398
  394.500   11.228    0.192    0.341   53.978
  394.750   11.139    0.340    0.436   56.589
  395.000   11.177    0.360    0.447   58.290
  395.250   11.296    0.358    0.440   56.901
  395.500   11.355    0.344    0.435   54.724
  395.750   11.413    0.340    0.433   56.547
  396.000   11.451    0.350    0.442   59.340
  396.250   11.509    0.351    0.443   60.132
  396.500   11.568    0.342    0.432   55.954
  396.750   11.628    0.345    0.443   58.142
  397.000   11.662    0.350    0.440   59.964
  397.250   11.660    0.345    0.440   60.393
  397.500   11.655    0.340    0.455   59.973
  397.750   11.649    0.350    0.475   59.917
  398.000   11.643    0.341    0.472   59.316
  398.250   11.595    0.333    0.473   57.745
  398.500   11.548    0.337    0.476   55.871
  398.750   11.479    0.338    0.471   54.603
  399.000   11.324    0.339    0.471   54.789
  399.250   11.090    0.340    0.473   56.006
  399.500   10.802    0.339    0.471   57.404
  399.750   10.136    0.341    0.460   57.653
  400.000    9.459    0.349    0.453   57.839
  400.250    8.827    0.349    0.449   59.056
  400.500    8.176    0.332    0.447   60.454
  400.750    7.729    0.326    0.447   59.791
  401.000    7.280    0.331    0.448   58.827
  401.250    6.920    0.336    0.463   59.437
  401.500    6.715    0.342    0.479   67.806
  401.750    6.576    0.329    0.491   74.296
  402.000    6.452    0.319    0.511   80.422
  402.250    6.412    0.282    0.504   85.942
  402.500    6.447    0.257    0.494   89.825
  402.750    6.738    0.259    0.499   91.709
  403.000    7.459    0.270    0.484   89.713
  403.250    8.381    0.276    0.476   86.263
  403.500    9.295    0.282    0.472   84.389
  403.750    9.970    0.287    0.468   88.212
  404.000   10.305    0.300    0.466   90.641
  404.250   10.243    0.318    0.468   87.980
  404.500    9.865    0.331    0.473   85.500
  404.750    9.274    0.339    0.473   82.837
  405.000    8.816    0.349    0.454   79.023
  405.250    8.428    0.334    0.423   77.816
  405.500    8.239    0.310    0.430   79.578
  405.750    8.189    0.292    0.488   79.037
  406.000    8.186    0.303    0.493   78.739
  406.250    8.273    0.303    0.470   80.804
  406.500    8.503    0.296    0.463   83.415
  406.750    8.675    0.297    0.475   85.117
  407.000    8.998    0.278    0.485   86.091
  407.250    9.113    0.278    0.495   84.340
  407.500    9.194    0.291    0.501   82.646
  407.750    9.071    0.300    0.487   79.196
  408.000    8.884    0.280    0.472   73.564
  408.250    8.458    0.259    0.457   75.872
  408.500    8.379    0.246    0.448   79.210
  408.750    8.191    0.239    0.440   83.944
  409.000    8.142    0.230    0.445   85.645
  409.250    8.123    0.217    0.452   86.921
  409.500    7.985    0.205    0.441   87.774
  409.750    7.605    0.220    0.451   87.901
  410.000    7.163    0.233    0.458   87.663
  410.250    6.746    0.243    0.457   86.637
  410.500    6.521    0.253    0.459   86.037
  410.750    6.471    0.259    0.472   86.161
  411.000    6.540    0.244    0.490   87.258
  411.250    6.647    0.252    0.486   88.231
  411.500    6.731    0.246    0.487   87.448
  411.750    6.816    0.234    0.497   87.150
  412.000    6.838    0.238    0.487   87.761
  412.250    6.785    0.243    0.461   89.644
  412.500    6.657    0.226    0.457   91.710
  412.750    6.447    0.232    0.468   92.926
  413.000    6.005    0.237    0.474   93.719
  413.250    5.429    0.250    0.475   94.208
  413.500    4.548    0.241    0.479   94.880
  413.750    4.414    0.242    0.485   94.764
  414.000    3.719    0.243    0.486   93.860
  414.250    3.151    0.240    0.492   92.166
  414.500    2.611    0.235    0.492   89.019
  414.750    2.254    0.272    0.487   89.994
  415.000    2.134    0.299    0.514   94.908
  415.250    2.273    0.285    0.569   99.943
  415.500    2.745    0.290    0.600  102.978
  415.750    3.448    0.292    0.608  102.862
  416.000    4.089    0.276    0.610   99.291
  416.250    4.612    0.269    0.620   96.144
  416.500    5.124    0.254    0.567   94.633
  416.750    5.446    0.237    0.533   93.062
  417.000    5.597    0.245    0.509   89.552
  417.250    5.204    0.279    0.493   88.222
  417.500    5.230    0.273    0.486   90.228
  417.750    5.326    0.255    0.488   92.353
  418.000    5.383    0.250    0.492   93.691
  418.250    5.605    0.244    0.495   92.362
  418.500    5.783    0.245    0.502   87.760
  418.750    5.856    0.256    0.499   84.978
  419.000    5.820    0.276    0.488   82.074
  419.250    5.732    0.296    0.488   80.078
  419.500    5.562    0.310    0.494   77.477
  419.750    5.076    0.319    0.500   76.208
  420.000    4.728    0.327    0.479   75.425
  420.250    4.761    0.311    0.492   76.763
  420.500    5.183    0.310    0.501   77.616
  420.750    5.643    0.316    0.502   76.954
  421.000    6.041    0.309    0.484   77.080
  421.250    6.420    0.307    0.470   79.872
  421.500    6.685    0.313    0.462   83.938
  421.750    6.909    0.324    0.462   83.761
  422.000    7.010    0.331    0.475   75.219
  422.250    7.071    0.328    0.484   77.346
  422.500    7.081    0.312    0.485   78.623
  422.750    7.013    0.301    0.481   76.809
  423.000    6.920    0.298    0.471   71.056
  423.250    6.764    0.304    0.460   68.636
  423.500    6.661    0.316    0.454   68.278
  423.750    6.584    0.327    0.447   67.979
  424.000    6.533    0.313    0.441   68.227
  424.250    6.493    0.298    0.436   69.626
  424.500    6.442    0.307    0.432   73.206
  424.750    6.380    0.299    0.432   79.029
  425.000    6.352    0.269    0.440   84.973
  425.250    6.386    0.253    0.451   88.190
  425.500    6.649    0.257    0.460   88.801
  425.750    6.821    0.258    0.453   89.290
  426.000    6.907    0.262    0.468   91.841
  426.250    6.740    0.260    0.483   91.784
  426.500    5.742    0.234    0.493   84.273
  426.750    4.874    0.102    0.425   74.885
  427.000    4.366    0.077    0.352   70.888
  427.250    4.113    0.091    0.319   65.923
  427.500    3.976    0.175    0.377   71.141
  427.750    3.944    0.237    0.436   77.328
  428.000    3.972    0.258    0.468   82.848
  428.250    4.022    0.271    0.486   85.034
  428.500    4.080    0.283    0.489   86.676
  428.750    4.124    0.282    0.483   88.014
  429.000    4.176    0.277    0.478   89.655
  429.250    4.198    0.270    0.474   90.507
  429.500    4.171    0.266    0.474   91.059
  429.750    4.147    0.270    0.487   89.971
  430.000    4.092    0.265    0.501   86.703
  430.250    4.037    0.256    0.511   86.466
  430.500    3.983    0.258    0.521   82.894
  430.750    3.952    0.276    0.502   81.444
  431.000    3.914    0.262    0.485   84.419
  431.250    3.876    0.267    0.480   86.605
  431.500    3.867    0.268    0.488   87.640
  431.750    3.866    0.258    0.504   86.493
  432.000    3.878    0.258    0.502   85.104
  432.250    3.883    0.259    0.486   86.624
  432.500    3.888    0.258    0.484   87.962
  432.750    3.902    0.255    0.492   88.754
  433.000    3.928    0.249    0.485   89.062
  433.250    3.934    0.256    0.476   88.279
  433.500    3.954    0.260    0.469   87.617
  433.750    3.967    0.255    0.470   87.683
  434.000    3.981    0.248    0.481   89.748
  434.250    4.008    0.242    0.493   92.358
  434.500    4.021    0.235    0.504   93.878
  434.750    4.027    0.229    0.500   93.883
  435.000    4.033    0.235    0.477   92.615
  435.250    4.030    0.223    0.467   91.468
