~VERSION INFORMATION
 VERS.                 2.0:   CWLS LOG ASCII STANDARD -VERSION 2.0
 WRAP.                  NO:   ONE LINE PER DEPTH STEP
~WELL INFORMATION BLOCK
#MNEM.UNIT           DATA                    DESCRIPTION OF MNEMONIC
#---------    -------------------            -------------------------------
# Generated from Intellog Unique Number	CW_79_81/WELL/2474
WELL.         GULF AMOCO HOOLE               : Well_name    - WELL
LOC .         00/10-24-081-25W4/0            : Location     - LOCATION
UWI .         00/10-24-081-25W4/0            : Uwi          - UNIQUE WELL ID
ENTR.         MAX                            : Entered      - ENTERED BY
SRVC.         SCHLUMBERGER                   : Scn          - SERVICE COMPANY
STRT.M        198.12                         : top_depth    - START DEPTH
STOP.M        456.87                         : bot_depth    - STOP DEPTH
STEP.M        0.25                           : increment    - STEP LENGTH
 NULL. -999.2500:NULL Value
~CURVE INFORMATION BLOCK
#MNEM UNIT       ERCB CURVE CODE    CURVE DESCRIPTION
#-----------   ------------------   ----------------------------------
DEPT.M        00 001 00 00         : DEPTH        - DEPTH
ILD .OHMM     00 120 00 00         : RESD         - DEEP RESISTIVITY (DIL)
NPHI.V/V      00 330 00 00         : PHIN         - NEUTRON POROSITY (SANDSTONE)
DPHI.V/V      00 890 00 00         : PHID         - DENSITY POROSITY (SANDSTONE)
GR  .API      00 310 00 00         : GR           - GAMMA RAY
CALI.MM       00 280 01 00         : CAL          - CALIPER
~PARAMETER INFORMATION
#MNEM.UNIT           DATA             DESCRIPTION OF MNEMONIC
#---------         -----------     ------------------------------
GL  .M        586.435              : gl           - GROUND LEVEL ELEVATION
EREF.M        589.788              : kb           - ELEVATION OF DEPTH REFERENCE
DATM.M        586.435              : datum        - DATUM ELEVATION
TDD .M        464.515              : tdd          - TOTAL DEPTH DRILLER
RUN .         ONE                  : Run          - RUN NUMBER
ENG .         BILL                 : Engineer     - RECORDING ENGINEER
WIT .         JIM                  : Witness      - WITNESSED BY
MUD .         GEL                  : Mud_type     - MUD TYPE
MATR.         SANDSTONE            : Logunit      - NEUTRON MATRIX
TMAX.C        80                   : BHT          - MAXIMUM RECORDED TEMPERATURE
BHTD.M        1524                 : BHTDEP       - MAXIMUM RECORDED TEMPERATURE
MATR.         1                    : LOGUNIT      - NEUTRON MATRIX
RMT .C        59                   : MDTP         - TEMPERATURE OF MUD
NEUT.         1                    : NEUTRON      - NEUTRON TYPE
RESI.         0                    : RESIST       - RESISTIVITY TYPE
RMC .OHMM     3.71                 : RMC          - RESISTIVITY OF MUD CAKE
RMF .OHMM     3.71                 : RMF          - RESISTIVITY OF MUD FILTRATE
SUFT.C        20                   : SUFT         - SURFACE TEMPERATURE
~A  DEPTH     RESD     PHIN     PHID       GR      CAL
# ...
  380.620   10.427    0.369    0.229   75.374  166.821
  380.870   10.308    0.383    0.227   79.415  167.327
  381.120   10.080    0.377    0.216   79.427  167.759
  381.370    9.651    0.379    0.212   78.684  168.176
  381.620    9.447    0.383    0.216   75.676  168.294
  381.870    9.483    0.381    0.215   71.912  167.713
  382.120    9.762    0.371    0.207   69.531  166.331
  382.370   10.368    0.356    0.202   72.144  164.438
  382.620   10.854    0.355    0.203   76.351  164.872
  382.870   11.175    0.382    0.224   76.865  165.688
  383.120   11.260    0.423    0.241   77.191  165.306
  383.370   11.221    0.435    0.247   77.454  164.325
  383.620   11.102    0.417    0.244   77.778  163.444
  383.870   10.834    0.408    0.243   78.453  163.467
  384.120   10.674    0.386    0.234   79.251  163.485
  384.370   10.755    0.361    0.214   80.770  164.701
  384.620   10.835    0.360    0.216   81.158  165.617
  384.870   10.917    0.364    0.222   80.666  165.633
  385.120   10.999    0.365    0.221   79.735  164.751
  385.370   11.083    0.373    0.209   78.837  163.576
  385.620   11.085    0.387    0.210   78.062  163.594
  385.870   11.087    0.389    0.209   78.325  164.009
  386.120   11.090    0.380    0.215   80.096  164.128
  386.370   11.052    0.378    0.219   81.489  164.147
  386.620   10.995    0.388    0.220   81.060  164.362
  386.870   10.998    0.395    0.216   77.961  165.432
  387.120   11.001    0.380    0.211   78.757  166.701
  387.370   11.004    0.385    0.222   79.776  168.312
  387.620   11.006    0.391    0.215   79.284  169.330
  387.870   11.128    0.390    0.203   77.659  168.548
  388.120   11.376    0.381    0.190   76.223  166.367
  388.370   11.630    0.367    0.176   77.872  165.206
  388.620   11.632    0.365    0.166   81.029  167.304
  388.870   11.635    0.372    0.212   82.046  166.526
  389.120   11.638    0.375    0.231   81.931  165.743
  389.370   11.683    0.379    0.234   80.558  166.358
  389.620   11.834    0.383    0.228   78.430  167.873
  389.870   12.242    0.382    0.218   76.734  167.562
  390.120   12.525    0.383    0.207   77.007  165.915
  390.370   12.348    0.385    0.190   81.295  165.535
  390.620   12.040    0.386    0.201   86.340  165.751
  390.870   11.612    0.386    0.210   90.377  166.767
  391.120   11.143    0.384    0.210   92.149  168.183
  391.370   10.651    0.376    0.214   90.589  169.168
  391.620   10.184    0.362    0.217   89.029  170.021
  391.870    9.822    0.359    0.211   88.538  170.439
  392.120    9.474    0.360    0.200   87.100  170.554
  392.370    9.308    0.364    0.193   84.972  169.573
  392.620    9.377    0.371    0.192   82.215  167.296
  392.870    9.811    0.376    0.187   78.078  163.203
  393.120   10.671    0.352    0.191   74.944  158.646
  393.370   12.740    0.342    0.210   70.425  157.463
  393.620   15.849    0.330    0.198   62.511  157.480
  393.870   19.410    0.313    0.180   59.251  157.898
  394.120   22.317    0.297    0.183   60.897  158.018
  394.370   24.521    0.300    0.228   58.855  156.989
  394.620   25.282    0.293    0.209   53.624  155.761
  394.870   24.923    0.280    0.191   51.370  155.375
  395.120   23.901    0.274    0.176   51.382  154.994
  395.370   22.638    0.273    0.174   52.903  154.811
  395.620   21.205    0.277    0.178   55.618  154.728
  395.870   19.096    0.294    0.171   60.025  154.351
  396.120   17.460    0.314    0.217   61.871  154.367
  396.370   15.412    0.352    0.246   59.870  154.386
  396.620   14.328    0.346    0.267   60.698  154.105
  396.870   13.778    0.338    0.278   60.834  153.922
  397.120   13.632    0.343    0.278   59.650  153.839
  397.370   14.000    0.353    0.273   59.360  153.463
  397.620   14.325    0.347    0.295   59.109  153.480
  397.870   14.432    0.349    0.298   57.107  153.096
  398.120   14.462    0.358    0.296   55.860  153.014
  398.370   14.308    0.368    0.289   54.487  153.232
  398.620   14.055    0.374    0.281   53.176  153.650
  398.870   13.957    0.369    0.272   52.981  154.071
  399.120   13.961    0.366    0.265   51.945  154.086
  399.370   14.066    0.373    0.254   50.947  154.504
  399.620   14.249    0.369    0.246   49.763  154.923
  399.870   14.460    0.360    0.246   48.642  155.339
  400.120   14.752    0.351    0.251   47.962  155.853
  400.370   15.440    0.348    0.245   48.278  156.756
  400.620   16.163    0.342    0.227   48.551  157.190
  400.870   17.125    0.317    0.212   49.318  157.607
  401.120   18.149    0.293    0.198   50.462  157.726
  401.370   19.436    0.269    0.168   51.604  157.944
  401.620   21.203    0.245    0.124   52.244  158.261
  401.870   23.857    0.245    0.093   51.283  158.283
  402.120   24.784    0.308    0.087   48.936  158.300
  402.370   23.904    0.287    0.144   45.928  158.315
  402.620   22.675    0.281    0.168   44.429  158.633
  402.870   22.126    0.295    0.170   43.937  159.050
  403.120   22.528    0.319    0.169   43.947  159.466
  403.370   23.960    0.327    0.189   44.170  159.888
  403.620   25.274    0.302    0.190   45.231  159.904
  403.870   26.779    0.283    0.159   46.500  159.527
  404.120   28.529    0.273    0.144   47.579  158.245
  404.370   31.086    0.268    0.130   48.847  157.064
  404.620   34.292    0.263    0.114   50.493  156.982
  404.870   35.681    0.258    0.104   54.092  159.414
  405.120   32.624    0.272    0.117   61.968  161.511
  405.370   27.116    0.307    0.183   65.500  161.129
  405.620   22.046    0.340    0.219   69.599  160.447
  405.870   18.015    0.364    0.238   71.749  160.066
  406.120   15.439    0.375    0.247   71.383  160.185
  406.370   14.445    0.373    0.245   69.730  160.607
  406.620   13.811    0.359    0.240   68.957  160.621
  406.870   13.615    0.347    0.233   68.967  160.639
  407.120   13.496    0.341    0.225   69.167  160.659
  407.370   13.450    0.340    0.218   69.807  160.676
  407.620   13.453    0.341    0.212   70.760  160.691
  407.870   13.396    0.342    0.206   71.845  160.714
  408.120   13.100    0.347    0.195   73.427  160.732
  408.370   12.726    0.350    0.186   74.948  160.749
  408.620   12.365    0.361    0.181   77.978  161.068
  408.870   11.970    0.374    0.185   79.248  161.285
  409.120   11.547    0.385    0.192   78.000  161.301
  409.370   11.090    0.387    0.183   76.576  161.321
  409.620   10.845    0.381    0.173   79.470  161.342
  409.870   10.536    0.377    0.181   80.991  160.957
  410.120   10.407    0.376    0.197   81.003  160.275
  410.370   10.334    0.371    0.205   80.134  159.693
  410.620   10.280    0.362    0.200   79.075  159.411
  410.870   10.283    0.362    0.187   78.584  159.603
  411.120   10.286    0.373    0.190   78.597  160.455
  411.370   10.288    0.384    0.191   77.853  160.868
  411.620   10.235    0.390    0.187   76.921  160.984
  411.870   10.163    0.389    0.179   78.063  161.003
  412.120   10.092    0.385    0.174   80.653  161.121
  412.370   10.007    0.385    0.189   80.805  161.623
  412.620    9.934    0.374    0.179   78.980  162.057
  412.870    9.937    0.368    0.165   76.978  162.074
  413.120    9.939    0.362    0.158   77.428  162.391
  413.370    9.941    0.360    0.149   79.200  162.609
  413.620    9.943    0.361    0.141   81.350  162.626
  413.870    9.961    0.362    0.153   83.072  162.565
  414.120   10.040    0.356    0.210   82.823  162.170
  414.370   10.188    0.347    0.204   79.564  162.186
  414.620   10.451    0.341    0.208   77.058  162.501
  414.870   10.608    0.336    0.204   75.558  162.519
  415.120   10.493    0.332    0.194   75.443  162.238
  415.370    9.943    0.333    0.193   77.795  162.341
  415.620    9.436    0.348    0.214   80.689  162.774
  415.870    9.101    0.363    0.203   81.707  163.590
  416.120    8.875    0.372    0.185   83.103  165.607
  416.370    8.909    0.381    0.167   84.120  167.822
  416.620    9.206    0.382    0.151   84.255  169.036
  416.870    9.591    0.352    0.136   83.471  167.111
