~VERSION INFORMATION
 VERS.                 2.0:   CWLS LOG ASCII STANDARD -VERSION 2.0
 WRAP.                  NO:   ONE LINE PER DEPTH STEP
~WELL INFORMATION BLOCK
#MNEM.UNIT           DATA                    DESCRIPTION OF MNEMONIC
#---------    -------------------            -------------------------------
# Generated from Intellog Unique Number	CW_70_72/WELL/3019
NULL.         -999.25                        : NULL_VALUE
WELL.         SUN BOUVIER 10-02              : Well_name    - WELL              
LOC .         10-02-070-24W4                 : Location     - LOCATION          
UWI .         00/10-02-070-24W4/0            : Uwi          - UNIQUE WELL ID    
ENTR.         jj                             : Entered      - ENTERED BY        
SRVC.         SCHLUMBERGER                   : Scn          - SERVICE COMPANY   
DATE.         28 JAN 78                      : Date         - LOG DATE          
STRT.M        426.72                         : top_depth    - START DEPTH       
STOP.M        633.97                         : bot_depth    - STOP DEPTH        
STEP.M        0.25                           : increment    - STEP LENGTH       
~CURVE INFORMATION BLOCK
#MNEM UNIT       ERCB CURVE CODE    CURVE DESCRIPTION
#-----------   ------------------   ----------------------------------
DEPT.M        00 001 00 00         : DEPTH        - DEPTH                       
ILD .OHMM     00 120 00 00         : RESD         - DEEP RESISTIVITY (DIL)      
CALI.MM       00 280 01 00         : CAL          - CALIPER                     
GR  .API      00 310 00 00         : GR           - GAMMA RAY                   
NPHI.V/V      00 330 00 00         : PHIN         - NEUTRON POROSITY (SANDSTONE)
DPHI.V/V      00 890 00 00         : PHID         - DENSITY POROSITY (SANDSTONE)
~PARAMETER INFORMATION       
#MNEM.UNIT           DATA             DESCRIPTION OF MNEMONIC
#---------         -----------     ------------------------------
GL  .M        637.184              : gl           - GROUND LEVEL ELEVATION      
EREF.M        640.324              : kb           - ELEVATION OF DEPTH REFERENCE
DATM.M        637.184              : datum        - DATUM ELEVATION             
TDD .M        656.234              : tdd          - TOTAL DEPTH DRILLER         
RUN .         ONE                  : Run          - RUN NUMBER                  
ENG .         CHMIELEWSKI          : Engineer     - RECORDING ENGINEER          
WIT .         BROWN                : Witness      - WITNESSED BY                
BASE.         EDM                  : Branch       - HOME BASE OF LOGGING UNIT   
MUD .         GEL CHEM             : Mud_type     - MUD TYPE                    
MATR.         SANDSTONE            : Logunit      - NEUTRON MATRIX              
TMAX.C        22.7778              : BHT          - MAXIMUM RECORDED TEMPERATURE
BHTD.M        656.539              : BHTDEP       - MAXIMUM RECORDED TEMPERATURE
RMT .C        20                   : MDTP         - TEMPERATURE OF MUD          
MUDD.KG/M     0                    : MWT          - MUD DENSITY                 
NEUT.         1                    : NEUTRON      - NEUTRON TYPE                
RESI.         0                    : RESIST       - RESISTIVITY TYPE            
RM  .OHMM     4.44                 : RM           - RESISTIVITY OF MUD          
RMC .OHMM     0.25                 : RMC          - RESISTIVITY OF MUD CAKE     
RMF .OHMM     3.02                 : RMF          - RESISTIVITY OF MUD FILTRATE 
SUFT.C        -17.7778             : SUFT         - SURFACE TEMPERATURE         
~A  DEPTH     RESD      CAL       GR     PHIN     PHID
# ...
  499.720    2.338  155.373   57.295    0.383    0.264
  499.970    2.256  155.363   58.537    0.404    0.325
  500.220    2.206  155.143   58.593    0.417    0.323
  500.470    2.189  155.028   58.713    0.421    0.299
  500.720    2.205  154.914   59.954    0.412    0.292
  500.970    2.246  154.906   62.382    0.436    0.309
  501.220    2.322  155.002   62.065    0.443    0.322
  501.470    2.406  154.888   61.248    0.435    0.315
  501.720    2.450  154.029   61.056    0.421    0.330
  501.970    2.478  154.444   62.421    0.405    0.311
  502.220    2.459  154.861   63.228    0.394    0.299
  502.470    2.417  154.957   63.658    0.390    0.298
  502.720    2.368  154.841   63.218    0.411    0.304
  502.970    2.328  154.830   61.589    0.414    0.309
  503.220    2.306  154.823   60.650    0.413    0.318
  503.470    2.336  154.603   59.647    0.418    0.308
  503.720    2.443  153.749   58.768    0.436    0.316
  503.970    2.502  152.154   58.450    0.449    0.303
  504.220    2.497  151.830   59.880    0.456    0.319
  504.470    2.441  154.138   59.188    0.451    0.323
  504.720    2.374  154.662   58.807    0.438    0.297
  504.970    2.347  155.183   59.363    0.432    0.310
  505.220    2.342  155.173   60.543    0.431    0.315
  505.470    2.350  155.057   61.535    0.437    0.301
  505.720    2.359  154.414   62.030    0.449    0.289
  505.970    2.407  153.666   61.713    0.442    0.296
  506.220    2.457  153.552   60.833    0.434    0.316
  506.470    2.531  153.226   60.266    0.433    0.306
  506.720    2.686  153.322   60.324    0.431    0.298
  506.970    2.808  153.523   60.443    0.427    0.309
  507.220    2.834  153.938   61.311    0.426    0.319
  507.470    2.730  154.667   64.112    0.431    0.298
  507.720    2.519  155.610   67.038    0.411    0.274
  507.970    2.377  158.240   72.459    0.405    0.289
  508.220    2.256  162.666   80.062    0.429    0.300
  508.470    2.256  169.099   87.229    0.519    0.292
  508.720    2.354  175.956   88.721    0.567    0.389
  508.970    2.448  179.432   84.598    0.592    0.378
  509.220    2.637  165.904   81.662    0.523    0.356
  509.470    2.819  157.974   72.177    0.488    0.328
  509.720    2.824  154.586   64.936    0.453    0.310
  509.970    2.802  154.469   59.007    0.443    0.316
  510.220    2.766  154.673   61.433    0.431    0.304
  510.470    2.674  155.930   67.041    0.408    0.291
  510.720    2.547  158.031   74.457    0.400    0.251
  510.970    2.381  159.819   80.564    0.456    0.228
  511.220    2.239  162.872   87.232    0.494    0.247
  511.470    2.169  166.560   90.094    0.522    0.232
  511.720    2.148  170.670   92.397    0.560    0.250
  511.970    2.156  171.506   92.142    0.588    0.293
  512.220    2.192  162.943   80.849    0.532    0.296
  512.470    2.233  156.385   73.484    0.495    0.297
  512.720    2.228  154.476   69.799    0.464    0.315
  512.970    2.224  153.938   68.110    0.453    0.313
  513.220    2.207  153.716   66.545    0.444    0.300
  513.470    2.186  154.130   65.604    0.437    0.300
  513.720    2.165  154.333   65.910    0.435    0.300
  513.970    2.169  154.430   69.959    0.452    0.305
  514.220    2.181  154.840   71.138    0.459    0.291
  514.470    2.176  155.150   71.321    0.451    0.293
  514.720    2.180  155.561   68.945    0.460    0.294
  514.970    2.200  155.872   65.509    0.470    0.307
  515.220    2.225  155.861   65.192    0.459    0.296
  515.470    2.183  155.960   69.303    0.426    0.312
  515.720    2.187  156.688   74.286    0.433    0.320
  515.970    2.182  156.996   75.591    0.461    0.299
  516.220    2.166  156.987   74.276    0.454    0.315
  516.470    2.153  156.133   71.339    0.448    0.324
  516.720    2.141  155.067   70.025    0.474    0.317
  516.970    2.141  154.530   71.516    0.466    0.305
  517.220    2.148  154.308   72.508    0.455    0.316
  517.470    2.152  154.827   71.442    0.466    0.324
  517.720    2.180  155.030   70.315    0.475    0.322
  517.970    2.225  155.023   71.120    0.481    0.328
  518.220    2.296  154.696   68.308    0.479    0.319
  518.470    2.606  154.159   65.745    0.441    0.336
  518.720    2.974  154.256   69.793    0.423    0.317
  518.970    3.313  157.309   76.336    0.411    0.319
  519.220    3.622  159.623   80.884    0.428    0.303
  519.470    3.990  161.830   84.684    0.460    0.236
  519.720    4.126  163.512   88.046    0.480    0.211
  519.970    3.908  164.771   90.410    0.469    0.196
  520.220    3.633  165.816   92.026    0.452    0.217
  520.470    3.291  165.913   94.017    0.457    0.200
  520.720    3.026  165.377   94.947    0.441    0.209
  520.970    2.792  163.255   90.202    0.447    0.210
  521.220    2.660  160.924   83.710    0.453    0.225
  521.470    2.669  157.957   77.219    0.434    0.251
  521.720    2.744  154.673   72.598    0.413    0.293
  521.970    2.790  153.817   74.400    0.417    0.295
  522.220    2.863  153.172   76.891    0.433    0.286
  522.470    2.917  152.956   79.754    0.445    0.296
  522.720    2.977  152.946   79.748    0.449    0.297
  522.970    3.095  152.621   77.249    0.438    0.296
  523.220    3.260  152.824   77.928    0.447    0.291
  523.470    3.460  152.709   79.732    0.444    0.270
  523.720    3.686  153.757   81.471    0.421    0.245
  523.970    3.941  156.070   82.838    0.404    0.258
  524.220    4.136  157.857   83.894    0.416    0.239
  524.470    4.136  161.648   86.945    0.403    0.221
  524.720    4.028  163.858   92.179    0.419    0.206
  524.970    3.866  163.954   92.796    0.430    0.195
  525.220    3.744  161.938   92.604    0.443    0.197
  525.470    3.607  160.134   92.349    0.452    0.230
  525.720    3.449  158.118   91.844    0.465    0.252
  525.970    3.340  155.150   89.406    0.434    0.230
  526.220    3.254  153.454   87.094    0.428    0.213
  526.470    3.272  150.802   84.406    0.436    0.229
  526.720    3.351  149.843   84.215    0.430    0.266
  526.970    3.452  152.158   86.641    0.429    0.268
  527.220    3.563  157.006   90.254    0.422    0.271
  527.470    3.663  160.378   95.611    0.421    0.233
  527.720    3.711  163.960  101.469    0.430    0.215
  527.970    3.655  165.112   98.345    0.437    0.204
  528.220    3.411  161.828   92.850    0.441    0.203
  528.470    3.213  156.856   87.606    0.435    0.245
  528.720    3.055  152.728   82.424    0.434    0.274
  528.970    2.959  149.445   78.740    0.445    0.282
  529.220    2.914  149.012   74.743    0.452    0.305
  529.470    2.919  149.004   78.791    0.444    0.290
  529.720    3.035  148.570   81.094    0.439    0.275
  529.970    3.204  148.881   85.080    0.442    0.290
  530.220    3.419  149.188   87.320    0.454    0.286
  530.470    3.628  151.291   87.127    0.465    0.291
  530.720    3.745  154.345   90.552    0.462    0.255
  530.970    3.779  157.186   94.912    0.445    0.226
  531.220    3.814  157.704   94.407    0.447    0.198
  531.470    3.827  157.591   94.278    0.450    0.206
  531.720    3.827  157.054   98.514    0.451    0.228
  531.970    3.833  156.093   95.764    0.448    0.219
  532.220    3.883  154.923   93.077    0.437    0.213
  532.470    4.113  153.753   96.876    0.420    0.190
  532.720    4.447  152.581   93.875    0.418    0.202
  532.970    4.694  151.939   89.505    0.412    0.262
  533.220    4.728  151.507   80.893    0.393    0.244
  533.470    4.487  150.759   74.589    0.375    0.208
  533.720    3.982  150.327   69.219    0.363    0.190
  533.970    3.600  150.318   67.843    0.354    0.180
  534.220    3.279  150.415   70.519    0.352    0.200
  534.470    3.071  151.038   76.314    0.368    0.237
  534.720    2.992  150.501   81.422    0.408    0.254
  534.970    3.064  149.754   81.167    0.413    0.259
  535.220    3.363  149.110   78.667    0.399    0.285
  535.470    4.105  148.358   76.416    0.417    0.252
  535.720    5.181  148.670   74.977    0.433    0.222
  535.970    6.503  151.511   72.726    0.407    0.173
