~VERSION INFORMATION
 VERS.                 2.0:   CWLS LOG ASCII STANDARD -VERSION 2.0
 WRAP.                  NO:   ONE LINE PER DEPTH STEP
~WELL INFORMATION BLOCK
#MNEM.UNIT           DATA                    DESCRIPTION OF MNEMONIC
#---------    -------------------            -------------------------------
# Generated from Intellog Unique Number	CW_73_75/WELL/2744
WELL.         ALLIED ET AL CALLING 11-08     : Well_name    - WELL
LOC .         00/11-08-073-20W4/0            : Location     - LOCATION
UWI .         00/11-08-073-20W4/0            : Uwi          - UNIQUE WELL ID
ENTR.         JAYE                           : Entered      - ENTERED BY
SRVC.         SCHLUMBERGER                   : Scn          - SERVICE COMPANY
DATE.         20 JAN 77                      : Date         - LOG DATE
STRT.M        396.24                         : top_depth    - START DEPTH
STOP.M        624.74                         : bot_depth    - STOP DEPTH
STEP.M        0.25                           : increment    - STEP LENGTH
 NULL. -999.2500:NULL Value
~CURVE INFORMATION BLOCK
#MNEM UNIT       ERCB CURVE CODE    CURVE DESCRIPTION
#-----------   ------------------   ----------------------------------
DEPT.M        00 001 00 00         : DEPTH        - DEPTH
ILD .OHMM     00 120 00 00         : RESD         - DEEP RESISTIVITY (DIL)
NPHI.V/V      00 330 00 00         : PHIN         - NEUTRON POROSITY (SANDSTONE)
DPHI.V/V      00 890 00 00         : PHID         - DENSITY POROSITY (SANDSTONE)
GR  .API      00 310 00 00         : GR           - GAMMA RAY
CALI.MM       00 280 01 00         : CAL          - CALIPER
~PARAMETER INFORMATION
#MNEM.UNIT           DATA             DESCRIPTION OF MNEMONIC
#---------         -----------     ------------------------------
GL  .M        687.019              : gl           - GROUND LEVEL ELEVATION
EREF.M        690.22               : kb           - ELEVATION OF DEPTH REFERENCE
DATM.M        687.019              : datum        - DATUM ELEVATION
TDD .M        631.241              : tdd          - TOTAL DEPTH DRILLER
RUN .         ONE                  : Run          - RUN NUMBER
BASE.         EDM                  : Branch       - HOME BASE OF LOGGING UNIT
MATR.         SANDSTONE            : Logunit      - NEUTRON MATRIX
TMAX.C        21.1111              : BHT          - MAXIMUM RECORDED TEMPERATURE
BHTD.M        628.802              : BHTDEP       - MAXIMUM RECORDED TEMPERATURE
RMT .C        21.1111              : MDTP         - TEMPERATURE OF MUD
MUDD.KG/M     1176                 : MWT          - MUD DENSITY
NEUT.         1                    : NEUTRON      - NEUTRON TYPE
RESI.         0                    : RESIST       - RESISTIVITY TYPE
RM  .OHMM     2.8                  : RM           - RESISTIVITY OF MUD
RMC .OHMM     3.83                 : RMC          - RESISTIVITY OF MUD CAKE
RMF .OHMM     2.77                 : RMF          - RESISTIVITY OF MUD FILTRATE
SUFT.C        -17.7778             : SUFT         - SURFACE TEMPERATURE
~A  DEPTH     RESD     PHIN     PHID       GR      CAL
# ...
  578.740    9.943    0.298    0.177   75.479  165.383
  578.990    9.949    0.322    0.190   62.575  165.269
  579.240    9.994    0.309    0.211   62.572  165.038
  579.490   10.160    0.301    0.202   64.212  165.122
  579.740   10.324    0.299    0.177   63.903  165.111
  579.990   10.410    0.303    0.173   59.918  164.894
  580.240   10.178    0.314    0.184   55.020  164.690
  580.490   10.383    0.319    0.194   51.531  164.457
  580.740   11.225    0.322    0.220   48.222  164.165
  580.990   11.550    0.319    0.246   43.141  163.745
  581.240   12.193    0.329    0.261   37.509  163.597
  581.490   12.359    0.326    0.280   30.835  163.398
  581.740   11.489    0.326    0.274   37.618  163.374
  581.990   10.301    0.301    0.228   45.497  163.458
  582.240    9.431    0.298    0.219   49.042  163.374
  582.490    8.561    0.315    0.216   50.862  163.439
  582.740    7.970    0.314    0.210   53.121  163.560
  582.990    7.579    0.298    0.201   56.047  163.619
  583.240    7.266    0.317    0.188   58.245  163.631
  583.490    7.073    0.315    0.222   56.897  163.618
  583.740    7.000    0.299    0.212   56.823  163.706
  583.990    6.807    0.292    0.215   62.622  164.043
  584.240    6.614    0.309    0.209   69.222  164.081
  584.490    6.500    0.320    0.201   75.815  164.278
  584.740    6.426    0.339    0.188   88.098  164.508
  584.990    6.354    0.372    0.190   86.868  164.574
  585.240    6.280    0.346    0.201   77.814  164.759
  585.490    6.167    0.297    0.218   84.292  164.972
  585.740    6.133    0.281    0.223   95.286  165.253
  585.990    6.100    0.297    0.199  104.387  165.657
  586.240    6.066    0.295    0.175  113.736  166.594
  586.490    5.913    0.309    0.179  121.069  167.827
  586.740    5.761    0.332    0.171  127.968  168.948
  586.990    5.647    0.327    0.173  133.586  169.970
  587.240    5.574    0.338    0.150  133.273  170.583
  587.490    5.500    0.328    0.173  133.696  171.393
  587.740    5.426    0.327    0.167  132.833  172.631
  587.990    5.392    0.321    0.174  129.156  173.755
  588.240    5.398    0.308    0.181  131.658  175.398
  588.490    5.365    0.295    0.163  130.610  178.073
  588.740    5.331    0.300    0.147  130.853  181.581
  588.990    5.337    0.316    0.157  127.970  182.396
  589.240    5.343    0.318    0.167  123.502  177.526
  589.490    5.310    0.308    0.151  121.658  172.747
  589.740    5.278    0.297    0.174  119.633  169.837
  589.990    5.283    0.284    0.189  122.567  169.120
  590.240    5.249    0.298    0.177  126.590  169.510
  590.490    5.215    0.330    0.187  129.763  169.808
  590.740    5.183    0.308    0.186  134.284  170.429
  590.990    5.189    0.310    0.170  140.083  170.819
  591.240    5.195    0.295    0.147  140.809  171.041
  591.490    5.160    0.288    0.132  138.361  171.453
  591.740    5.166    0.302    0.149  139.022  171.726
  591.990    5.173    0.324    0.174  140.726  171.911
  592.240    5.220    0.352    0.178  140.906  172.206
  592.490    5.265    0.332    0.155  138.636  172.108
  592.740    5.312    0.301    0.135  135.451  171.677
  592.990    5.398    0.300    0.123  137.891  171.244
  593.240    5.403    0.305    0.152  140.819  170.932
  593.490    5.330    0.303    0.159  133.780  170.519
  593.740    5.297    0.300    0.164  133.286  170.387
  593.990    5.263    0.304    0.151  134.073  170.169
  594.240    5.270    0.318    0.141  131.071  170.048
  594.490    5.275    0.325    0.134  130.818  169.856
  594.740    5.281    0.329    0.144  133.687  169.938
  594.990    5.289    0.334    0.132  135.939  170.132
  595.240    5.295    0.339    0.133  136.302  170.436
  595.490    5.301    0.347    0.121  136.721  170.617
  595.740    5.305    0.356    0.108  134.086  170.915
  595.990    5.313    0.338    0.118  131.693  171.334
  596.240    5.318    0.323    0.128  128.143  171.735
  596.490    5.365    0.329    0.120  124.711  172.031
  596.740    5.450    0.340    0.118  119.570  172.429
  596.990    5.497    0.333    0.123  115.104  172.628
  597.240    5.503    0.319    0.116  110.996  172.926
  597.490    5.509    0.308    0.132  108.727  173.111
  597.740    5.476    0.303    0.156  110.861  173.008
  597.990    5.476    0.317    0.154  113.306  171.965
  598.240    5.450    0.317    0.149  111.704  170.589
  598.490    5.375    0.301    0.164  111.758  169.555
  598.740    5.302    0.304    0.161  115.603  169.030
  598.990    5.228    0.313    0.161  122.138  169.017
  599.240    5.154    0.327    0.138  127.268  169.301
  599.490    5.082    0.345    0.145  124.634  170.040
  599.740    4.927    0.341    0.173  125.112  170.733
  599.990    4.814    0.324    0.167  129.814  171.987
  600.240    4.742    0.338    0.160  125.467  171.846
  600.490    4.708    0.332    0.193  105.957  170.695
  600.740    4.674    0.312    0.206  107.479  169.659
  600.990    4.674    0.297    0.174  117.376  169.140
  601.240    4.689    0.319    0.156  124.767  169.116
  601.490    4.653    0.321    0.148  122.133  169.414
  601.740    4.619    0.320    0.142  123.907  169.610
  601.990    4.585    0.332    0.162  126.097  170.110
  602.240    4.512    0.349    0.159  130.491  170.417
  602.490    4.439    0.358    0.180  130.790  170.938
  602.740    4.439    0.371    0.191  130.170  171.121
  602.990    4.450    0.375    0.161  128.943  171.103
  603.240    4.450    0.358    0.175  127.531  170.681
  603.490    4.306    0.361    0.176  126.426  170.360
  603.740    4.231    0.358    0.171  124.335  170.145
  603.990    4.158    0.350    0.170  118.030  169.827
  604.240    4.168    0.343    0.150  106.956  169.506
  604.490    4.131    0.335    0.167   99.552  169.084
  604.740    4.095    0.323    0.178   89.827  168.549
  604.990    4.023    0.307    0.191  110.789  167.722
  605.240    4.028    0.293    0.191  123.991  166.757
  605.490    3.995    0.325    0.161  128.140  163.130
  605.740    3.961    0.340    0.161  128.193  161.772
  605.990    3.928    0.322    0.163  123.360  163.829
  606.240    3.938    0.320    0.171  117.602  166.929
  606.490    3.940    0.323    0.179  113.928  169.186
  606.740    3.940    0.328    0.189  110.803  171.043
  606.990    3.875    0.339    0.196  103.954  172.056
  607.240    3.879    0.323    0.191   98.015  169.780
  607.490    3.890    0.305    0.185   90.301  167.378
  607.740    3.853    0.319    0.217   81.430  165.922
  607.990    3.818    0.342    0.228   70.846  165.814
  608.240    3.745    0.363    0.263   62.892  167.561
  608.490    3.672    0.356    0.281   61.784  169.505
  608.740    3.597    0.336    0.257   75.350  169.087
  608.990    3.484    0.334    0.231   94.541  167.109
  609.240    3.410    0.335    0.235  104.133  165.348
  609.490    3.497    0.324    0.208  112.259  164.708
  609.740    3.742    0.316    0.165  118.426  164.598
  609.990    3.868    0.331    0.146  123.922  165.303
  610.240    3.994    0.347    0.160  124.710  166.332
  610.490    4.040    0.341    0.169  127.823  167.685
  610.740    4.047    0.326    0.156  126.776  168.594
  610.990    4.047    0.314    0.161  129.765  169.603
  611.240    4.057    0.326    0.170  133.124  170.839
  611.490    4.064    0.342    0.167  134.950  171.660
  611.740    4.070    0.333    0.160  135.859  171.843
  611.990    4.076    0.331    0.150  137.443  171.522
  612.240    4.083    0.329    0.166  134.994  171.204
  612.490    4.169    0.342    0.187  129.299  170.266
  612.740    4.533    0.350    0.195  122.751  169.635
  612.990    5.017    0.355    0.212  113.758  168.473
  613.240    5.540    0.364    0.217  106.657  166.705
  613.490    6.343    0.354    0.184   92.833  164.630
  613.740    7.026    0.327    0.146   75.400  163.681
  613.990    7.471    0.296    0.085   75.892  162.429
  614.240    7.398    0.284    0.083   80.097  161.595
  614.490    7.086    0.299    0.095   87.311  161.364
  614.740    6.653    0.318    0.138   92.315  161.048
  614.990    5.982    0.344    0.177   97.010  161.348
