~VERSION INFORMATION
 VERS.                 2.0:   CWLS LOG ASCII STANDARD -VERSION 2.0
 WRAP.                  NO:   ONE LINE PER DEPTH STEP
~WELL INFORMATION BLOCK
#MNEM.UNIT           DATA                    DESCRIPTION OF MNEMONIC
#---------    -------------------            -------------------------------
# Generated from Intellog Unique Number	CS_73_76/WELL/2210
WELL.         WAINOCO OIL & GAS LIMITED      : Well_name    - WELL
LOC .         00/14-18-074-12W4/0            : Location     - LOCATION
UWI .         00/14-18-074-12W4/0            : Uwi          - UNIQUE WELL ID
ENTR.         SP                             : Entered      - ENTERED BY
SRVC.         SCHLUMBERGER                   : Scn          - SERVICE COMPANY
STRT.M        310                            : top_depth    - START DEPTH
STOP.M        533                            : bot_depth    - STOP DEPTH
STEP.M        0.25                           : increment    - STEP LENGTH
 NULL. -999.2500:NULL Value
~CURVE INFORMATION BLOCK
#MNEM UNIT       ERCB CURVE CODE    CURVE DESCRIPTION
#-----------   ------------------   ----------------------------------
DEPT.M        00 001 00 00         : DEPTH        - DEPTH
ILD .OHMM     00 120 00 00         : RESD         - DEEP RESISTIVITY (DIL)
DPHI.V/V      00 890 00 00         : PHID         - DENSITY POROSITY (LIMESTONE)
NPHI.V/V      00 330 00 00         : PHIN         - NEUTRON POROSITY (LIMESTONE)
GR  .API      00 310 00 00         : GR           - GAMMA RAY
~PARAMETER INFORMATION
#MNEM.UNIT           DATA             DESCRIPTION OF MNEMONIC
#---------         -----------     ------------------------------
GL  .M        679.35               : gl           - GROUND LEVEL ELEVATION
EREF.M        682.6                : kb           - ELEVATION OF DEPTH REFERENCE
DATM.M        679.35               : datum        - DATUM ELEVATION
TDD .M        543                  : tdd          - TOTAL DEPTH DRILLER
RUN .         ONE                  : Run          - RUN NUMBER
ENG .         BILL                 : Engineer     - RECORDING ENGINEER
WIT .         JIM                  : Witness      - WITNESSED BY
MUD .         GEL                  : Mud_type     - MUD TYPE
MATR.         LIMESTONE            : Logunit      - NEUTRON MATRIX
TMAX.C        23                   : BHT          - MAXIMUM RECORDED TEMPERATURE
BHTD.M        543                  : BHTDEP       - MAXIMUM RECORDED TEMPERATURE
MATR.         1                    : LOGUNIT      - NEUTRON MATRIX
RMT .C        25                   : MDTP         - TEMPERATURE OF MUD
NEUT.         1                    : NEUTRON      - NEUTRON TYPE
RESI.         0                    : RESIST       - RESISTIVITY TYPE
RMC .OHMM     0.25                 : RMC          - RESISTIVITY OF MUD CAKE
RMF .OHMM     0.25                 : RMF          - RESISTIVITY OF MUD FILTRATE
SUFT.C        15                   : SUFT         - SURFACE TEMPERATURE
~A  DEPTH     RESD     PHID     PHIN       GR
# ...
  440.500    5.259    0.257    0.433   81.824
  440.750    5.261    0.258    0.409   81.210
  441.000    5.262    0.265    0.388   81.206
  441.250    5.264    0.280    0.380   80.592
  441.500    5.265    0.289    0.396   86.657
  441.750    5.366    0.286    0.404   88.475
  442.000    5.368    0.278    0.419   84.215
  442.250    5.473    0.274    0.430   82.996
  442.500    5.578    0.273    0.438   86.024
  442.750    5.686    0.280    0.445   86.628
  443.000    5.795    0.288    0.424   80.546
  443.250    5.796    0.300    0.419   78.113
  443.500    5.908    0.289    0.414   75.070
  443.750    6.022    0.279    0.409   72.028
  444.000    6.024    0.261    0.381   71.416
  444.250    5.913    0.229    0.364   72.624
  444.500    5.697    0.199    0.358   75.047
  444.750    5.698    0.240    0.393   78.076
  445.000    5.388    0.272    0.405   79.285
  445.250    5.289    0.294    0.416   77.458
  445.500    5.191    0.304    0.410   75.629
  445.750    5.096    0.295    0.421   76.231
  446.000    5.097    0.292    0.411   78.652
  446.250    5.004    0.294    0.412   79.253
  446.500    4.911    0.294    0.414   79.249
  446.750    4.913    0.294    0.412   79.241
  447.000    4.823    0.298    0.413   78.629
  447.250    4.824    0.301    0.416   78.623
  447.500    4.736    0.303    0.416   78.616
  447.750    4.737    0.310    0.417   79.826
  448.000    4.739    0.315    0.423   78.605
  448.250    4.740    0.320    0.426   79.812
  448.500    4.832    0.314    0.427   77.985
  448.750    4.833    0.304    0.417   76.765
  449.000    5.021    0.300    0.416   79.794
  449.250    5.117    0.299    0.407   81.608
  449.500    5.215    0.299    0.411   82.211
  449.750    5.521    0.297    0.417   83.420
  450.000    5.627    0.288    0.410   83.414
  450.250    5.845    0.275    0.400   82.193
  450.500    6.070    0.262    0.379   78.543
  450.750    6.187    0.207    0.361   73.679
  451.000    6.189    0.138    0.337   71.852
  451.250    5.852    0.160    0.300   76.095
  451.500    5.532    0.228    0.343   80.340
  451.750    5.229    0.257    0.367   82.156
  452.000    5.038    0.284    0.412   83.973
  452.250    4.945    0.282    0.420   84.573
  452.500    4.854    0.275    0.409   83.960
  452.750    4.765    0.280    0.422   81.525
  453.000    4.767    0.287    0.430   80.911
  453.250    4.769    0.288    0.432   80.905
  453.500    4.770    0.301    0.421   81.507
  453.750    4.771    0.292    0.408   82.715
  454.000    4.684    0.288    0.401   85.136
  454.250    4.685    0.290    0.404   86.347
  454.500    4.599    0.291    0.408   89.373
  454.750    4.514    0.275    0.400   90.582
  455.000    4.431    0.271    0.412   91.792
  455.250    4.351    0.266    0.421   93.003
  455.500    4.352    0.276    0.427   91.779
  455.750    4.436    0.281    0.435   90.561
  456.000    4.521    0.264    0.422   86.303
  456.250    4.696    0.253    0.406   80.224
  456.500    5.065    0.227    0.393   74.144
  456.750    5.566    0.215    0.388   74.747
  457.000    6.117    0.243    0.397   77.777
  457.250    6.850    0.242    0.399   77.769
  457.500    7.817    0.255    0.392   77.765
  457.750    8.921    0.271    0.387   74.114
  458.000    9.621    0.231    0.393   69.857
  458.250   10.377    0.035    0.362   65.601
  458.500    9.272    0.027    0.306   60.737
  458.750    7.977    0.173    0.244   61.946
  459.000    6.736    0.207    0.221   73.477
  459.250    5.906    0.233    0.259   80.151
  459.500    5.480    0.247    0.321   78.929
  459.750    5.084    0.241    0.383   77.709
  460.000    4.897    0.238    0.399   78.311
  460.250    4.807    0.252    0.410   79.519
  460.500    4.720    0.257    0.392   81.942
  460.750    4.721    0.258    0.407   85.579
  461.000    4.634    0.257    0.413   91.646
  461.250    4.635    0.253    0.419   94.676
  461.500    4.726    0.253    0.419   95.886
  461.750    4.727    0.264    0.417   95.272
  462.000    4.727    0.270    0.420   94.658
  462.250    4.730    0.243    0.425   94.652
  462.500    4.820    0.209    0.426   92.217
  462.750    5.008    0.217    0.417   95.247
  463.000    5.104    0.227    0.419   97.669
  463.250    5.202    0.241    0.425   98.272
  463.500    5.303    0.230    0.422   98.264
  463.750    5.508    0.237    0.417   98.260
  464.000    5.614    0.246    0.408   97.035
  464.250    5.722    0.252    0.401   96.423
  464.500    5.833    0.230    0.412   93.989
  464.750    5.835    0.208    0.430   89.733
  465.000    5.837    0.192    0.438   83.654
  465.250    5.838    0.175    0.424   81.826
  465.500    5.840    0.168    0.413   89.107
  465.750    5.732    0.188    0.404   95.175
  466.000    5.627    0.205    0.408   98.204
  466.250    5.524    0.229    0.416   98.803
  466.500    5.525    0.220    0.422  100.013
  466.750    5.424    0.215    0.413  101.223
  467.000    5.529    0.236    0.414  103.037
  467.250    5.530    0.245    0.423  102.425
  467.500    5.637    0.255    0.430   99.989
  467.750    5.746    0.273    0.406  102.412
  468.000    5.748    0.248    0.390  107.263
  468.250    5.643    0.223    0.381  110.293
  468.500    5.539    0.217    0.387  110.288
  468.750    5.437    0.225    0.392  107.854
  469.000    5.238    0.224    0.406  101.167
  469.250    5.045    0.212    0.412   95.087
  469.500    4.860    0.188    0.418   91.437
  469.750    4.509    0.160    0.418   90.218
  470.000    4.106    0.164    0.412   88.995
  470.250    3.668    0.229    0.415   88.991
  470.500    3.277    0.257    0.437   89.592
  470.750    2.767    0.265    0.435   94.442
  471.000    2.427    0.263    0.432   95.046
  471.250    2.294    0.271    0.452   94.431
  471.500    2.128    0.283    0.472   91.387
  471.750    2.089    0.282    0.507   88.952
  472.000    2.051    0.274    0.527   87.733
  472.250    2.051    0.243    0.517   86.513
  472.500    2.091    0.244    0.500   88.936
  472.750    2.131    0.247    0.495   91.964
  473.000    2.173    0.252    0.501   93.174
  473.250    2.215    0.259    0.477   96.812
  473.500    2.300    0.251    0.482   99.235
  473.750    2.345    0.232    0.490  100.443
  474.000    2.435    0.234    0.493   98.616
  474.250    2.529    0.241    0.501   93.751
  474.500    2.728    0.250    0.481   91.317
  474.750    3.172    0.259    0.460   91.307
  475.000    3.620    0.241    0.448   92.516
  475.250    3.978    0.225    0.430   93.727
  475.500    4.372    0.217    0.412   96.757
  475.750    4.542    0.210    0.404   93.106
  476.000    4.717    0.212    0.415   91.887
  476.250    4.718    0.212    0.404   92.489
  476.500    4.809    0.203    0.416   93.697
  476.750    4.995    0.191    0.428   90.047
  477.000    5.091    0.169    0.412   84.574
  477.250    4.905    0.149    0.390   86.389
  477.500    4.466    0.135    0.374   88.815
  477.750    4.302    0.178    0.379   94.273
  478.000    4.067    0.199    0.405   99.731
  478.250    3.567    0.190    0.424   99.727
  478.500    3.635    0.197    0.425   99.721
  478.750    3.248    0.206    0.433  102.749
  479.000    2.957    0.212    0.448  101.529
  479.250    2.795    0.212    0.448   98.486
  479.500    2.593    0.216    0.442  100.910
  479.750    2.498    0.231    0.437  103.334
  480.000    2.407    0.239    0.450  102.721
  480.250    2.363    0.234    0.454  103.321
  480.500    2.363    0.227    0.445  102.101
  480.750    2.455    0.215    0.452   99.058
  481.000    2.647    0.186    0.464   96.621
  481.250    2.750    0.168    0.479   96.010
  481.500    2.910    0.153    0.486   97.218
  481.750    3.023    0.164    0.463   95.996
  482.000    2.967    0.189    0.456   97.812
  482.250    2.859    0.196    0.477  102.664
  482.500    2.806    0.205    0.471  105.695
  482.750    2.754    0.209    0.457  102.651
  483.000    2.704    0.205    0.461  100.824
  483.250    2.705    0.210    0.466  100.819
  483.500    2.757    0.211    0.489   99.597
  483.750    2.758    0.205    0.471   97.162
