~VERSION INFORMATION
 VERS.                 2.0:   CWLS LOG ASCII STANDARD -VERSION 2.0
 WRAP.                  NO:   ONE LINE PER DEPTH STEP
~WELL INFORMATION BLOCK
#MNEM.UNIT           DATA                    DESCRIPTION OF MNEMONIC
#---------    -------------------            -------------------------------
# Generated from Intellog Unique Number	CS_73_76/WELL/4786
WELL.         AMOCO                          : Well_name    - WELL
LOC .         00/11-05-074-04W4/0            : Location     - LOCATION
UWI .         00/11-05-074-04W4/0            : Uwi          - UNIQUE WELL ID
ENTR.         T                              : Entered      - ENTERED BY
SRVC.         SCHLUMBERGER                   : Scn          - SERVICE COMPANY
STRT.M        225                            : top_depth    - START DEPTH
STOP.M        440                            : bot_depth    - STOP DEPTH
STEP.M        0.25                           : increment    - STEP LENGTH
 NULL. -999.2500:NULL Value
~CURVE INFORMATION BLOCK
#MNEM UNIT       ERCB CURVE CODE    CURVE DESCRIPTION
#-----------   ------------------   ----------------------------------
DEPT.M        00 001 00 00         : DEPTH        - DEPTH
GR  .API      00 310 00 00         : GR           - GAMMA RAY
NPHI.V/V      00 330 00 00         : PHIN         - NEUTRON POROSITY (SANDSTONE)
DPHI.V/V      00 890 00 00         : PHID         - DENSITY POROSITY (SANDSTONE)
ILD .OHMM     00 120 00 00         : RESD         - DEEP RESISTIVITY (DIL)
~PARAMETER INFORMATION
#MNEM.UNIT           DATA             DESCRIPTION OF MNEMONIC
#---------         -----------     ------------------------------
GL  .M        630.2                : gl           - GROUND LEVEL ELEVATION
EREF.M        634.4                : kb           - ELEVATION OF DEPTH REFERENCE
DATM.M        634.4                : datum        - DATUM ELEVATION
TDD .M        445                  : tdd          - TOTAL DEPTH DRILLER
RUN .         ONE                  : Run          - RUN NUMBER
ENG .         BILL                 : Engineer     - RECORDING ENGINEER
WIT .         JIM                  : Witness      - WITNESSED BY
MUD .         GEL                  : Mud_type     - MUD TYPE
MATR.         SANDSTONE            : Logunit      - NEUTRON MATRIX
TMAX.C        21                   : BHT          - MAXIMUM RECORDED TEMPERATURE
BHTD.M        445                  : BHTDEP       - MAXIMUM RECORDED TEMPERATURE
MATR.         1                    : LOGUNIT      - NEUTRON MATRIX
RMT .C        25                   : MDTP         - TEMPERATURE OF MUD
NEUT.         1                    : NEUTRON      - NEUTRON TYPE
RESI.         0                    : RESIST       - RESISTIVITY TYPE
RMC .OHMM     5.6                  : RMC          - RESISTIVITY OF MUD CAKE
RMF .OHMM     5.4                  : RMF          - RESISTIVITY OF MUD FILTRATE
SUFT.C        15                   : SUFT         - SURFACE TEMPERATURE
~A  DEPTH       GR     PHIN     PHID     RESD
# ...
  268.500   50.872    0.374    0.261    3.359
  268.750   49.654    0.366    0.305    3.362
  269.000   57.112    0.371    0.334    3.311
  269.250   65.190    0.385    0.326    3.313
  269.500   72.034    0.396    0.312    3.262
  269.750   73.289    0.410    0.318    3.211
  270.000   73.936    0.436    0.337    3.214
  270.250   74.572    0.444    0.328    3.216
  270.500   75.832    0.449    0.305    3.275
  270.750   77.093    0.452    0.294    3.390
  271.000   77.735    0.452    0.297    3.511
  271.250   78.996    0.453    0.315    3.698
  271.500   82.735    0.447    0.316    3.830
  271.750   88.334    0.439    0.306    3.897
  272.000   95.178    0.431    0.295    4.106
  272.250  100.782    0.423    0.283    4.108
  272.500  105.142    0.422    0.274    4.182
  272.750  109.501    0.426    0.248    4.186
  273.000  112.621    0.432    0.224    4.191
  273.250  115.122    0.438    0.210    4.126
  273.500  117.627    0.450    0.215    4.202
  273.750  118.258    0.465    0.227    4.277
  274.000  115.806    0.489    0.241    4.280
  274.250  112.729    0.495    0.249    4.433
  274.500  109.646    0.505    0.254    4.433
  274.750  105.335    0.509    0.261    4.225
  275.000  104.737    0.499    0.255    4.017
  275.250  107.232    0.489    0.250    3.954
  275.500  109.732    0.480    0.244    3.827
  275.750  107.900    0.471    0.248    3.766
  276.000  106.677    0.456    0.254    3.709
  276.250  104.219    0.452    0.261    3.712
  276.500  101.768    0.450    0.265    3.778
  276.750   99.310    0.445    0.264    3.912
  277.000  101.185    0.437    0.261    3.985
  277.250  104.925    0.431    0.257    4.055
  277.500  107.426    0.435    0.255    4.200
  277.750  109.926    0.441    0.250    4.275
  278.000  111.192    0.451    0.240    4.352
  278.250  109.974    0.460    0.232    4.431
  278.500  108.131    0.463    0.218    4.437
  278.750  105.060    0.453    0.173    4.366
  279.000  101.363    0.442    0.147    4.227
  279.250   97.666    0.444    0.193    4.088
  279.500  100.166    0.452    0.256    3.892
  279.750  101.427    0.458    0.251    3.831
  280.000   98.350    0.453    0.239    3.769
  280.250   95.278    0.433    0.224    3.711
  280.500   94.670    0.458    0.228    3.715
  280.750   97.795    0.471    0.241    3.782
  281.000  102.155    0.488    0.252    3.786
  281.250  105.275    0.502    0.252    3.667
  281.500  106.546    0.505    0.251    3.606
  281.750  105.318    0.498    0.242    3.432
  282.000  104.100    0.487    0.243    3.265
  282.250   95.445    0.473    0.267    3.108
  282.500   88.030    0.468    0.290    3.110
  282.750   89.911    0.461    0.287    3.168
  283.000   93.031    0.455    0.279    3.172
  283.250   95.537    0.452    0.268    3.174
  283.500   93.699    0.455    0.261    3.177
  283.750   89.377    0.457    0.263    3.181
  284.000   83.201    0.457    0.260    3.130
  284.250   77.645    0.452    0.259    3.030
  284.500   71.470    0.444    0.260    2.836
  284.750   64.669    0.434    0.272    2.743
  285.000   52.916    0.398    0.304    2.842
  285.250   48.600    0.379    0.320    2.992
  285.500   45.523    0.384    0.319    3.097
  285.750   51.741    0.393    0.295    3.373
  286.000   59.824    0.403    0.286    3.613
  286.250   68.522    0.407    0.265    3.871
  286.500   77.219    0.412    0.249    3.874
  286.750   83.443    0.416    0.241    3.750
  287.000   83.465    0.426    0.244    3.568
  287.250   80.393    0.440    0.241    3.395
  287.500   78.545    0.441    0.236    3.176
  287.750   74.853    0.442    0.274    2.827
  288.000   72.396    0.444    0.295    2.689
  288.250   69.314    0.448    0.309    2.559
  288.500   64.383    0.447    0.320    2.477
  288.750   63.779    0.444    0.326    2.437
  289.000   69.378    0.455    0.326    2.399
  289.250   74.357    0.465    0.326    2.402
  289.500   78.717    0.476    0.291    2.404
  289.750   81.217    0.483    0.290    2.366
  290.000   81.244    0.493    0.290    2.369
  290.250   80.021    0.497    0.290    2.331
  290.500   75.715    0.494    0.290    2.333
  290.750   74.486    0.483    0.291    2.297
  291.000   71.409    0.462    0.293    2.261
  291.250   67.712    0.449    0.304    2.263
  291.500   63.401    0.455    0.314    2.305
  291.750   60.319    0.463    0.319    2.346
  292.000   63.444    0.471    0.321    2.513
  292.250   67.184    0.471    0.321    2.646
  292.500   70.918    0.457    0.317    2.740
  292.750   75.283    0.443    0.309    2.934
  293.000   77.784    0.434    0.290    2.987
  293.250   82.143    0.430    0.253    3.041
  293.500   82.795    0.427    0.258    3.045
  293.750   82.186    0.424    0.265    3.047
  294.000   81.588    0.435    0.262    3.000
  294.250   80.990    0.446    0.266    2.952
  294.500   80.392    0.457    0.275    2.905
  294.750   80.413    0.458    0.282    2.908
  295.000   81.679    0.450    0.272    3.115
  295.250   82.321    0.447    0.259    3.171
  295.500   82.342    0.450    0.256    3.123
  295.750   82.358    0.452    0.261    3.124
  296.000   80.526    0.457    0.259    3.128
  296.250   78.694    0.459    0.252    2.877
  296.500   77.465    0.457    0.250    2.692
  296.750   72.529    0.426    0.255    2.436
  297.000   66.978    0.420    0.266    2.131
  297.250   64.521    0.417    0.277    1.994
  297.500   69.495    0.414    0.288    2.099
  297.750   73.854    0.412    0.294    2.248
  298.000   78.214    0.417    0.280    2.367
  298.250   80.094    0.439    0.266    2.451
  298.500   78.876    0.447    0.267    2.413
  298.750   75.180    0.458    0.272    2.335
  299.000   70.869    0.485    0.283    2.185
  299.250   67.786    0.492    0.291    2.115
  299.500   62.230    0.483    0.295    1.979
  299.750   60.398    0.477    0.303    1.947
  300.000   60.419    0.475    0.314    1.949
  300.250   59.816    0.475    0.323    2.053
  300.500   57.358    0.476    0.328    2.273
  300.750   54.907    0.468    0.319    2.695
  301.000   53.689    0.286    0.274    3.194
  301.250   51.846    0.219    0.222    6.722
  301.500   50.013    0.225    0.127    9.756
  301.750   48.795    0.238    0.068   16.763
  302.000   48.817    0.256    0.057   10.284
  302.250   49.458    0.299    0.085    5.419
  302.500   50.719    0.417    0.111    3.870
  302.750   52.600    0.434    0.134    3.328
  303.000   53.861    0.452    0.162    2.337
  303.250   55.116    0.468    0.253    1.975
  303.500   56.377    0.473    0.277    1.642
  303.750   57.018    0.470    0.310    1.412
  304.000   57.045    0.464    0.331    1.299
  304.250   57.067    0.454    0.333    1.301
  304.500   57.083    0.446    0.328    1.281
  304.750   58.355    0.446    0.315    1.260
  305.000   58.365    0.449    0.300    1.240
  305.250   60.262    0.454    0.304    1.221
  305.500   60.892    0.458    0.306    1.202
  305.750   61.534    0.463    0.309    1.203
  306.000   62.180    0.466    0.310    1.184
  306.250   61.582    0.464    0.313    1.185
  306.500   61.598    0.455    0.319    1.186
  306.750   61.005    0.455    0.319    1.129
  307.000   61.022    0.464    0.307    1.150
  307.250   61.054    0.471    0.299    1.171
  307.500   61.065    0.471    0.301    1.171
  307.750   61.711    0.464    0.308    1.173
  308.000   62.347    0.464    0.306    1.174
  308.250   63.619    0.464    0.300    1.175
  308.500   63.629    0.464    0.300    1.176
  308.750   63.651    0.457    0.302    1.178
  309.000   63.678    0.453    0.301    1.179
  309.250   63.074    0.445    0.295    1.200
  309.500   61.867    0.438    0.299    1.202
  309.750   61.883    0.433    0.307    1.203
  310.000   61.279    0.433    0.313    1.204
  310.250   61.926    0.457    0.319    1.185
  310.500   63.192    0.468    0.318    1.128
  310.750   64.448    0.471    0.316    1.073
  311.000   65.084    0.468    0.288    1.038
  311.250   66.345    0.462    0.288    1.005
  311.500   65.752    0.455    0.300    1.023
  311.750   64.534    0.464    0.309    1.078
