~VERSION INFORMATION
 VERS.                 2.0:   CWLS LOG ASCII STANDARD -VERSION 2.0
 WRAP.                  NO:   ONE LINE PER DEPTH STEP
~WELL INFORMATION BLOCK
#MNEM.UNIT           DATA                    DESCRIPTION OF MNEMONIC
#---------    -------------------            -------------------------------
# Generated from Intellog Unique Number	CW_73_75/WELL/2743
WELL.         LAND BANK ET AL BLANCHE 11-03  : Well_name    - WELL
LOC .         00/11-03-073-02W5/0            : Location     - LOCATION
UWI .         00/11-03-073-02W5/0            : Uwi          - UNIQUE WELL ID
ENTR.         JAYE                           : Entered      - ENTERED BY
SRVC.         SCHLUMBERGER                   : Scn          - SERVICE COMPANY
DATE.         7 JAN 80                       : Date         - LOG DATE
STRT.M        380                            : top_depth    - START DEPTH
STOP.M        590                            : bot_depth    - STOP DEPTH
STEP.M        0.25                           : increment    - STEP LENGTH
 NULL. -999.2500:NULL Value
~CURVE INFORMATION BLOCK
#MNEM UNIT       ERCB CURVE CODE    CURVE DESCRIPTION
#-----------   ------------------   ----------------------------------
DEPT.M        00 001 00 00         : DEPTH        - DEPTH
DPHI.V/V      00 890 00 00         : PHID         - DENSITY POROSITY (SANDSTONE)
NPHI.V/V      00 330 00 00         : PHIN         - NEUTRON POROSITY (SANDSTONE)
GR  .API      00 310 00 00         : GR           - GAMMA RAY
CALI.MM       00 280 01 00         : CAL          - CALIPER
ILD .OHMM     00 120 00 00         : RESD         - DEEP RESISTIVITY (DIL)
~PARAMETER INFORMATION
#MNEM.UNIT           DATA             DESCRIPTION OF MNEMONIC
#---------         -----------     ------------------------------
GL  .M        597                  : gl           - GROUND LEVEL ELEVATION
EREF.M        600.2                : kb           - ELEVATION OF DEPTH REFERENCE
DATM.M        597                  : datum        - DATUM ELEVATION
TDD .M        601                  : tdd          - TOTAL DEPTH DRILLER
RUN .         ONE                  : Run          - RUN NUMBER
ENG .         WALTERHOUSE          : Engineer     - RECORDING ENGINEER
WIT .         LOWTHER              : Witness      - WITNESSED BY
BASE.         EDM                  : Branch       - HOME BASE OF LOGGING UNIT
MUD .         GEL CHEM             : Mud_type     - MUD TYPE
MATR.         SANDSTONE            : Logunit      - NEUTRON MATRIX
TMAX.C        24.4                 : BHT          - MAXIMUM RECORDED TEMPERATURE
BHTD.M        602.5                : BHTDEP       - MAXIMUM RECORDED TEMPERATURE
RMT .C        12.8                 : MDTP         - TEMPERATURE OF MUD
MUDD.KG/M     1170                 : MWT          - MUD DENSITY
NEUT.         1                    : NEUTRON      - NEUTRON TYPE
RESI.         0                    : RESIST       - RESISTIVITY TYPE
RM  .OHMM     2.98                 : RM           - RESISTIVITY OF MUD
RMC .OHMM     0                    : RMC          - RESISTIVITY OF MUD CAKE
RMF .OHMM     2.85                 : RMF          - RESISTIVITY OF MUD FILTRATE
SUFT.C        0                    : SUFT         - SURFACE TEMPERATURE
~A  DEPTH     PHID     PHIN       GR      CAL     RESD
# ...
  526.000    0.173    0.374   91.719  181.133    6.018
  526.250    0.173    0.385   90.941  181.381    6.431
  526.500    0.182    0.385   92.320  181.413    6.886
  526.750    0.178    0.383   91.416  181.245    7.141
  527.000    0.195    0.396   87.800  181.281    7.225
  527.250    0.207    0.396   86.281  181.423    7.227
  527.500    0.198    0.385   86.302  177.655    7.271
  527.750    0.182    0.365   83.857  174.306    7.246
  528.000    0.192    0.378   83.139  175.675    7.290
  528.250    0.202    0.378   84.395  178.179    7.347
  528.500    0.202    0.368   85.837  180.790    7.434
  528.750    0.186    0.362   85.921  181.543    7.694
  529.000    0.165    0.355   86.560  181.587    8.099
  529.250    0.173    0.352   86.522  181.827    9.126
  529.500    0.177    0.358   84.200  182.072   10.480
  529.750    0.156    0.329   80.027  181.693   12.172
  530.000    0.120    0.269   74.630  181.535   11.835
  530.250    0.086    0.235   77.234  181.361   10.064
  530.500    0.072    0.244   84.535  181.084    8.753
  530.750    0.097    0.290   90.726  180.608    7.207
  531.000    0.147    0.342   95.620  180.545    6.025
  531.250    0.170    0.366   99.715  180.684    5.260
  531.500    0.178    0.379  102.635  181.135    4.953
  531.750    0.189    0.381  106.975  181.482    4.744
  532.000    0.197    0.383  116.310  181.826    4.630
  532.250    0.195    0.389  123.549  182.070    4.580
  532.500    0.178    0.401  121.289  182.521    4.555
  532.750    0.173    0.414  117.980  182.757    4.583
  533.000    0.176    0.402  115.599  182.898    4.663
  533.250    0.182    0.397  113.214  183.140    4.763
  533.500    0.183    0.387  106.700  183.389    4.892
  533.750    0.176    0.379  107.585  183.425    5.092
  534.000    0.167    0.384  107.796  183.356    5.310
  534.250    0.147    0.386  107.817  183.190    5.485
  534.500    0.158    0.389  108.023  183.326    5.645
  534.750    0.167    0.387  108.232  183.470    5.732
  535.000    0.173    0.375  109.180  183.096    5.800
  535.250    0.167    0.369  110.004  182.722    5.813
  535.500    0.161    0.364  107.250  182.143    5.859
  535.750    0.153    0.362  100.487  181.971    5.894
  536.000    0.167    0.353   99.707  182.220    5.942
  536.250    0.160    0.360   97.201  182.045    5.966
  536.500    0.166    0.355   92.597  181.572    6.013
  536.750    0.157    0.347   90.585  181.504    6.026
  537.000    0.147    0.337   93.814  181.440    6.006
  537.250    0.138    0.327  100.931  181.583    5.917
  537.500    0.159    0.329  105.518  181.825    5.765
  537.750    0.160    0.343  108.503  182.068    5.532
  538.000    0.148    0.357  110.128  182.209    5.339
  538.250    0.149    0.370  108.050  182.036    5.311
  538.500    0.160    0.383  100.794  181.354    5.273
  538.750    0.167    0.387  103.163  179.026    5.284
  539.000    0.160    0.381  106.144  178.554    5.306
  539.250    0.160    0.375  104.254  178.588    5.338
  539.500    0.150    0.367  105.818  179.143    5.350
  539.750    0.132    0.358  109.483  180.105    5.402
  540.000    0.140    0.364  112.155  180.961    5.425
  540.250    0.139    0.380  113.657  181.726    5.468
  540.500    0.135    0.387  115.406  182.070    5.511
  540.750    0.147    0.385  117.403  182.410    5.555
  541.000    0.174    0.374  117.426  182.449    5.620
  541.250    0.167    0.362  112.390  182.282    5.697
  541.500    0.154    0.358  108.834  182.216    5.796
  541.750    0.145    0.364  109.782  182.359    5.865
  542.000    0.135    0.370  108.386  182.399    5.878
  542.250    0.158    0.368  108.348  182.427    5.814
  542.500    0.157    0.366  109.606  182.671    5.664
  542.750    0.145    0.364  111.601  182.920    5.486
  543.000    0.130    0.378  113.965  183.676    5.416
  543.250    0.146    0.397  117.441  184.123    5.449
  543.500    0.162    0.399  114.997  184.363    6.025
  543.750    0.157    0.387  109.776  184.198    6.587
  544.000    0.154    0.363  103.756  183.517    7.550
  544.250    0.151    0.338   99.399  182.727    8.719
  544.500    0.132    0.340   94.549  180.920    9.496
  544.750    0.158    0.353   90.623  180.028   10.520
  545.000    0.161    0.365   87.006  179.549   11.159
  545.250    0.185    0.370   85.179  179.285   11.333
  545.500    0.175    0.351   86.251  179.418   11.337
  545.750    0.168    0.341   87.381  179.972   11.383
  546.000    0.179    0.352   88.577  180.829   11.366
  546.250    0.178    0.356   89.033  181.484   11.284
  546.500    0.173    0.351   88.375  182.039   11.288
  546.750    0.163    0.348   89.076  182.591   11.292
  547.000    0.171    0.365   92.182  183.033   11.296
  547.250    0.160    0.364   93.746  183.688   11.342
  547.500    0.157    0.353   93.954  184.140   11.606
  547.750    0.153    0.344   93.050  183.767   12.172
  548.000    0.146    0.333   91.347  183.494   11.311
  548.250    0.128    0.322   94.082  183.427   10.571
  548.500    0.129    0.310  100.827  183.365    9.405
  548.750    0.124    0.310  108.251  183.397    6.992
  549.000    0.114    0.326  113.762  183.231    5.923
  549.250    0.110    0.346  103.546  183.166    5.814
  549.500    0.149    0.353   91.356  182.998    6.344
  549.750    0.129    0.281   77.254  182.829    7.069
  550.000    0.087    0.258   82.026  182.865    7.920
  550.250    0.061    0.246   91.300  182.905    9.339
  550.500    0.057    0.262   94.776  182.949   11.179
  550.750    0.070    0.307   91.654  183.079   11.162
  551.000    0.118    0.315   93.405  183.220    9.819
  551.250    0.117    0.311   99.099  183.061    8.492
  551.500    0.122    0.323  104.305  183.092    7.220
  551.750    0.110    0.342  106.116  182.926    6.269
  552.000    0.113    0.376  107.249  182.857    6.072
  552.250    0.140    0.386  107.270  182.799    6.132
  552.500    0.148    0.371  104.577  182.829    6.239
  552.750    0.144    0.369  101.269  182.865    6.470
  553.000    0.133    0.372   98.024  182.910    6.760
  553.250    0.132    0.360   96.873  182.735    6.970
  553.500    0.146    0.343   94.491  182.775    7.025
  553.750    0.134    0.324   92.910  183.014    6.988
  554.000    0.118    0.320   93.427  182.748    6.885
  554.250    0.134    0.331   95.915  182.579    6.823
  554.500    0.149    0.346   98.342  182.408    6.864
  554.750    0.137    0.361   96.208  182.452    6.931
  555.000    0.130    0.356   96.845  182.484    7.013
  555.250    0.131    0.348   99.827  182.831    7.095
  555.500    0.132    0.350  103.489  182.666    7.165
  555.750    0.131    0.355  107.276  182.905    7.249
  556.000    0.133    0.351  108.409  183.046    7.320
  556.250    0.134    0.348  104.667  183.184    7.351
  556.500    0.135    0.345   98.460  183.330    7.395
  556.750    0.132    0.342   99.838  183.257    7.468
  557.000    0.118    0.331  102.084  183.091    7.527
  557.250    0.125    0.328  103.399  183.136    7.587
  557.500    0.145    0.327  103.918  183.270    7.676
  557.750    0.143    0.319  104.863  183.309    7.737
  558.000    0.152    0.317  106.121  183.341    7.754
  558.250    0.143    0.316  107.499  183.285    7.801
  558.500    0.130    0.314  107.890  183.420    7.848
  558.750    0.111    0.318  105.877  183.252    7.836
  559.000    0.085    0.317  104.912  183.182    7.750
  559.250    0.063    0.307  106.171  183.119    7.027
  559.500    0.042    0.340  109.830  183.566    5.592
  559.750    0.110    0.379  115.650  183.911    3.514
  560.000    0.144    0.411  118.942  184.360    2.492
  560.250    0.157    0.491  115.202  184.397    1.998
  560.500    0.182    0.521  112.572  189.984    1.664
  560.750    0.233    0.526  113.953  202.253    1.515
  561.000    0.256    0.516  111.260  192.217    1.588
  561.250    0.247    0.504  111.530  186.911    1.663
  561.500    0.238    0.494  112.969  187.563    1.811
  561.750    0.235    0.483  115.091  187.606    2.025
  562.000    0.226    0.464  116.841  187.123    2.291
  562.250    0.213    0.446  118.836  186.546    2.458
