~VERSION INFORMATION
 VERS.                 2.0:   CWLS LOG ASCII STANDARD -VERSION 2.0
 WRAP.                  NO:   ONE LINE PER DEPTH STEP
~WELL INFORMATION BLOCK
#MNEM.UNIT           DATA                    DESCRIPTION OF MNEMONIC
#---------    -------------------            -------------------------------
# Generated from Intellog Unique Number	CS_77_79/WELL/3304
WELL.         NUMAC OIL & GAS LTD.           : Well_name    - WELL
LOC .         00/12-23-079-14W4/0            : Location     - LOCATION
UWI .         00/12-23-079-14W4/0            : Uwi          - UNIQUE WELL ID
ENTR.         JOETTE                         : Entered      - ENTERED BY
SRVC.         SCHLUMBERGER                   : Scn          - SERVICE COMPANY
DATE.         08/24/92                       : Date         - LOG DATE
STRT.M        275                            : top_depth    - START DEPTH
STOP.M        500                            : bot_depth    - STOP DEPTH
STEP.M        0.25                           : increment    - STEP LENGTH
 NULL. -999.2500:NULL Value
~CURVE INFORMATION BLOCK
#MNEM UNIT       ERCB CURVE CODE    CURVE DESCRIPTION
#-----------   ------------------   ----------------------------------
DEPT.M        00 001 00 00         : DEPTH        - DEPTH
NPHI.V/V      00 330 00 00         : PHIN         - NEUTRON POROSITY (SANDSTONE)
DPHI.V/V      00 890 00 00         : PHID         - DENSITY POROSITY (SANDSTONE)
ILD .OHMM     00 120 00 00         : RESD         - DEEP RESISTIVITY (DIL)
GR  .API      00 310 00 00         : GR           - GAMMA RAY
~PARAMETER INFORMATION
#MNEM.UNIT           DATA             DESCRIPTION OF MNEMONIC
#---------         -----------     ------------------------------
GL  .M        695.8                : gl           - GROUND LEVEL ELEVATION
EREF.M        699.2                : kb           - ELEVATION OF DEPTH REFERENCE
DATM.M        699.2                : datum        - DATUM ELEVATION
TDD .M        512                  : tdd          - TOTAL DEPTH DRILLER
RUN .         ONE                  : Run          - RUN NUMBER
ENG .         BILL                 : Engineer     - RECORDING ENGINEER
WIT .         JIM                  : Witness      - WITNESSED BY
MUD .         GEL                  : Mud_type     - MUD TYPE
MATR.         SANDSTONE            : Logunit      - NEUTRON MATRIX
TMAX.C        12                   : BHT          - MAXIMUM RECORDED TEMPERATURE
BHTD.M        512                  : BHTDEP       - MAXIMUM RECORDED TEMPERATURE
RMT .C        12                   : MDTP         - TEMPERATURE OF MUD
MUDD.KG/M     1080                 : MWT          - MUD DENSITY
NEUT.         1                    : NEUTRON      - NEUTRON TYPE
RESI.         0                    : RESIST       - RESISTIVITY TYPE
RM  .OHMM     2.3                  : RM           - RESISTIVITY OF MUD
RMC .OHMM     2.3                  : RMC          - RESISTIVITY OF MUD CAKE
RMF .OHMM     4                    : RMF          - RESISTIVITY OF MUD FILTRATE
SUFT.C        4                    : SUFT         - SURFACE TEMPERATURE
~A  DEPTH     PHIN     PHID     RESD       GR
  275.000    0.612    0.252    2.564   96.866
  275.250    0.625    0.245    2.563   96.860
  275.500    0.639    0.247    2.562   95.040
  275.750    0.645    0.247    2.560   92.613
  276.000    0.637    0.240    2.607   90.186
  276.250    0.629    0.241    2.654   90.786
  276.500    0.624    0.247    2.753   88.964
  276.750    0.627    0.251    2.751   87.747
  277.000    0.634    0.259    2.750   87.740
  277.250    0.633    0.246    2.800   87.129
  277.500    0.619    0.217    2.851   85.914
  277.750    0.600    0.222    2.903   87.118
  278.000    0.587    0.225    3.011   88.929
  278.250    0.588    0.226    3.122   89.527
  278.500    0.589    0.228    3.238   89.525
  278.750    0.581    0.233    3.359   88.307
  279.000    0.564    0.231    3.484   87.698
  279.250    0.542    0.221    3.547   88.297
  279.500    0.540    0.215    3.679   93.135
  279.750    0.543    0.209    3.816   94.341
  280.000    0.551    0.203    3.885   92.518
  280.250    0.548    0.190    4.030   89.485
  280.500    0.534    0.191    4.028   87.665
  280.750    0.516    0.129    3.952   85.236
  281.000    0.519    0.184    3.736   88.865
  281.250    0.527    0.204    3.533   92.492
  281.500    0.521    0.204    3.466   88.851
  281.750    0.513    0.188    3.339   88.844
  282.000    0.525    0.200    3.276   89.447
  282.250    0.543    0.210    3.275   93.074
  282.500    0.556    0.217    3.273   92.462
  282.750    0.554    0.214    3.271   93.667
  283.000    0.548    0.217    3.270   96.689
  283.250    0.552    0.217    3.329   91.841
  283.500    0.568    0.215    3.389   93.652
  283.750    0.580    0.220    3.389   94.250
  284.000    0.591    0.228    3.386   91.825
  284.250    0.597    0.230    3.385   87.580
  284.500    0.545    0.219    3.447   88.785
  284.750    0.524    0.209    3.641   88.780
  285.000    0.504    0.214    4.067   86.354
  285.250    0.484    0.214    5.992   82.111
  285.500    0.489    0.204    6.450   79.078
  285.750    0.488    0.209    7.756   73.624
  286.000    0.424    0.221    9.326   63.325
  286.250    0.375    0.237   11.423   54.842
  286.500    0.355    0.247   16.525   57.259
  286.750    0.367    0.285   25.266   60.281
  287.000    0.366    0.311   28.220   54.221
  287.250    0.307    0.317   35.868   46.951
  287.500    0.261    0.373   40.804   39.680
  287.750    0.231    0.395   42.320   34.830
  288.000    0.213    0.385   41.525   37.248
  288.250    0.219    0.376   41.505   37.242
  288.500    0.232    0.372   40.725   36.630
  288.750    0.243    0.381   36.432   39.651
  289.000    0.253    0.385   19.422   42.673
  289.250    0.260    0.388    9.795   48.118
  289.500    0.288    0.387    8.602   64.459
  289.750    0.347    0.343    4.758   95.935
  290.000    0.547    0.280    4.102  101.377
  290.250    0.590    0.226    3.951   99.556
  290.500    0.578    0.219    3.877   97.735
  290.750    0.556    0.204    3.948  103.179
  291.000    0.562    0.198    4.408  102.566
  291.250    0.569    0.207    4.745   98.930
  291.500    0.561    0.206    6.737   94.079
  291.750    0.521    0.197    7.252   90.441
  292.000    0.497    0.192   10.686   86.198
  292.250    0.457    0.207   11.932   77.716
  292.500    0.427    0.260   16.333   66.813
  292.750    0.371    0.332   18.578   56.516
  293.000    0.314    0.347   21.531   51.666
  293.250    0.283    0.364   25.413   54.688
  293.500    0.313    0.358   17.880   59.526
  293.750    0.339    0.333   15.993   66.181
  294.000    0.384    0.324   14.309   79.492
  294.250    0.428    0.304   10.065   82.516
  294.500    0.445    0.278    9.517   87.960
  294.750    0.487    0.247    8.672   88.559
  295.000    0.504    0.217    8.352   90.370
  295.250    0.497    0.195    8.505   95.812
  295.500    0.497    0.196    8.822   96.413
  295.750    0.493    0.194    9.494   93.381
  296.000    0.479    0.202   10.408   89.136
  296.250    0.451    0.205   11.411   83.682
  296.500    0.449    0.207   15.048   76.410
  296.750    0.446    0.213   15.900   71.560
  297.000    0.412    0.225   17.432   71.557
  297.250    0.393    0.251   19.460   72.157
  297.500    0.365    0.267   20.186   68.519
  297.750    0.359    0.222   20.555   61.854
  298.000    0.350    0.190   20.928   62.452
  298.250    0.354    0.142   20.538   66.079
  298.500    0.346    0.162   19.420   67.285
  298.750    0.328    0.188   17.369   64.859
  299.000    0.322    0.226   16.732   62.432
  299.250    0.340    0.319   16.726   66.059
  299.500    0.371    0.283   19.023   71.502
  299.750    0.383    0.270   20.103   70.286
  300.000    0.393    0.298   21.635   64.226
  300.250    0.367    0.307   22.858   55.137
  300.500    0.341    0.334   22.841   58.158
  300.750    0.336    0.335   22.004   59.970
  301.000    0.345    0.327   20.426   62.387
  301.250    0.376    0.333   18.961   64.198
  301.500    0.417    0.341   17.279   65.401
  301.750    0.425    0.328   16.039   77.506
  302.000    0.428    0.260   14.889   86.582
  302.250    0.437    0.227   13.821   85.971
  302.500    0.384    0.210   12.830   79.306
  302.750    0.380    0.202   11.691   75.062
  303.000    0.387    0.210   10.851   70.817
  303.250    0.409    0.211   10.262   72.023
  303.500    0.422    0.199   10.069   75.046
  303.750    0.413    0.172    9.880   79.882
  304.000    0.415    0.172    9.693   81.089
  304.250    0.425    0.184    9.868   78.056
  304.500    0.394    0.208    9.865   73.206
  304.750    0.385    0.213   10.230   71.386
  305.000    0.394    0.199   10.228   73.197
  305.250    0.428    0.200   10.607   76.217
  305.500    0.446    0.211   10.999   78.028
  305.750    0.457    0.207   11.408   78.022
  306.000    0.460    0.181   11.615   75.595
  306.250    0.450    0.204   11.828   70.746
  306.500    0.425    0.212   11.822   66.501
  306.750    0.417    0.212   12.037   68.312
  307.000    0.395    0.195   12.484   69.518
  307.250    0.376    0.184   12.711   67.697
  307.500    0.357    0.169   12.942   62.848
  307.750    0.372    0.169   13.421   56.789
  308.000    0.422    0.234   13.667   53.755
  308.250    0.414    0.240   14.437   55.564
  308.500    0.403    0.238   14.974   56.772
  308.750    0.438    0.250   15.244   57.978
  309.000    0.445    0.259   15.240   58.578
  309.250    0.441    0.250   15.231   60.387
  309.500    0.428    0.228   15.222   62.198
  309.750    0.412    0.221   15.216   64.614
  310.000    0.399    0.198   14.932   67.636
  310.250    0.402    0.193   14.648   63.392
  310.500    0.412    0.189   14.643   58.543
  310.750    0.409    0.215   14.369   52.482
  311.000    0.401    0.222   14.096   52.477
  311.250    0.404    0.223   13.834   56.104
  311.500    0.410    0.224   13.573   59.127
  311.750    0.406    0.228   13.566   60.938
  312.000    0.410    0.223   13.310   62.749
  312.250    0.427    0.212   13.060   70.008
  312.500    0.436    0.200   13.053   72.424
  312.750    0.400    0.206   13.049   66.363
  313.000    0.391    0.214   13.037   63.938
  313.250    0.403    0.218   13.036   59.089
  313.500    0.398    0.205   13.030   51.213
  313.750    0.381    0.168   12.783   57.261
  314.000    0.372    0.129   11.649   60.889
  314.250    0.407    0.206   10.815   68.148
  314.500    0.448    0.212    9.152   74.802
  314.750    0.478    0.188    8.188   86.904
  315.000    0.483    0.163    7.190   87.505
  315.250    0.489    0.154    6.675   88.709
  315.500    0.496    0.156    6.081   94.758
  315.750    0.465    0.204    5.858   97.173
  316.000    0.473    0.209    5.538   97.169
  316.250    0.482    0.197    5.435   99.585
  316.500    0.478    0.177    5.236  106.845
  316.750    0.473    0.179    5.137  109.261
  317.000    0.483    0.187    5.135  105.621
  317.250    0.528    0.185    5.132  108.644
  317.500    0.542    0.191    5.130  105.610
  317.750    0.518    0.194    5.222  102.578
  318.000    0.501    0.188    5.318  106.812
  318.250    0.513    0.162    5.414  104.385
