~Version Information Block
VERS .                 2.00:  CWLS LOG ASCII STANDARD - VERSION 2.00
WRAP.                  NO:
~Well Information Block
#MNEM.UNIT        Data Type   Information
#---------- ----------------  -----------
STRT.M           130.2000:
STOP.M           354.0000:
STEP.M             0.3000:
NULL.           -999.2500:
COMP.  :COMPANY
WELL.  :WELL
FLD.   :FIELD
LOC.   :LOCATION
CTRY.  :COUNTRY
PROV.  :PROVINCE
SRVC.  :SERVICE COMPANY
DATE.  :LOG DATE
UWI.   00/10-08-083-05W4/0:UNIQUE WELL ID
~Parameter Information Block
#MNEM.UNIT            Value   Description
#---------- ----------------  -----------
PROJECT.             SURMOUNT:  
SET  .                  RAW:  
~Curve Information Block
#MNEM.UNIT          API CODE    Curve Description
#-----------    ------------    -------------------------------------
DEPT.M                      :   DEPTH
DPHI .V/V                   :   DPHI
DT   .us/m                  :   DT
GR   .API                   :   GR
ILD  .Ohmm                  :   ILD
NPHI .V/V                   :   NPHI
PHID .                      :   Created by graphical digitiser entry.
RHOB .gm/c3                 :   RHOB
~A  Depth           DPHI          DT          GR         ILD        NPHI        PHID        RHOB
# ...
204.9000       -999.2500   -999.2500     94.9582      7.8803      0.4554      0.2674   2208.8367
205.2000       -999.2500   -999.2500     94.2581      8.0217      0.4350      0.2410   2252.4185
205.5000       -999.2500   -999.2500     92.1952      7.8904      0.4427      0.2438   2247.8027
205.8000       -999.2500   -999.2500     90.7076      7.7262      0.4522      0.2633   2215.5825
206.1000       -999.2500   -999.2500     88.2785      8.0085      0.4491      0.2756   2195.2588
206.4000       -999.2500   -999.2500     86.8334      8.7195      0.4500      0.2820   2184.6277
206.7000       -999.2500   -999.2500     87.3248     10.1965      0.4538      0.2885   2174.0569
207.0000       -999.2500   -999.2500     83.8636     10.7074      0.4430      0.2893   2172.6218
207.3000       -999.2500   -999.2500     79.1092     10.1471      0.4408      0.2721   2201.0986
207.6000       -999.2500   -999.2500     81.4476      9.1747      0.4138      0.2820   2184.6597
207.9000       -999.2500   -999.2500     87.5833      8.2838      0.4085      0.2847   2180.2095
208.2000       -999.2500   -999.2500     96.3422      7.7793      0.4277      0.2723   2200.7397
208.5000       -999.2500   -999.2500    101.3965      8.2161      0.4399      0.2537   2231.3782
208.8000       -999.2500   -999.2500    102.0965      9.2615      0.4408      0.2589   2222.8701
209.1000       -999.2500   -999.2500    102.4229      9.8669      0.4245      0.2582   2224.0354
209.4000       -999.2500   -999.2500     98.4298      9.5519      0.4185      0.2576   2225.0144
209.7000       -999.2500   -999.2500     92.7483      8.9132      0.4024      0.2463   2243.5627
210.0000       -999.2500   -999.2500     93.9064      8.2374      0.4140      0.2347   2262.6689
210.3000       -999.2500   -999.2500     99.4240      7.5270      0.4298      0.2504   2236.8779
210.6000       -999.2500   -999.2500     97.7050      6.9999      0.4596      0.2545   2230.0591
210.9000       -999.2500   -999.2500     93.3422      6.7655      0.4757      0.2647   2213.3145
211.2000       -999.2500   -999.2500     93.3624      6.6296      0.4808      0.2584   2223.6770
211.5000       -999.2500   -999.2500     96.2275      6.6656      0.4660      0.2500   2237.5334
211.8000       -999.2500   -999.2500     97.3187      6.8969      0.4558      0.2509   2236.0374
212.1000       -999.2500   -999.2500     95.3315      7.1828      0.4458      0.2395   2254.8777
212.4000       -999.2500   -999.2500     95.4468      7.7280      0.4362      0.2196   2287.6575
212.7000       -999.2500   -999.2500     90.4004      8.0685      0.4331      0.2261   2276.9158
213.0000       -999.2500   -999.2500     85.8953      7.4700      0.4257      0.2236   2281.1152
213.3000       -999.2500   -999.2500     86.9419      6.4272      0.4372      0.2497   2237.9973
213.6000       -999.2500   -999.2500     91.9843      5.3648      0.4454      0.2763   2194.0269
213.9000       -999.2500   -999.2500     97.1705      4.4650      0.4704      0.2698   2204.7510
214.2000       -999.2500   -999.2500     98.2925      4.0026      0.4719      0.2879   2174.9351
214.5000       -999.2500   -999.2500     98.5977      3.9756      0.4732      0.2909   2169.9832
214.8000       -999.2500   -999.2500    100.0464      4.1524      0.4847      0.2805   2187.2444
215.1000       -999.2500   -999.2500     97.9767      4.4308      0.4712      0.2788   2189.9702
215.4000       -999.2500   -999.2500     93.7748      4.9373      0.4757      0.2768   2193.3462
215.7000       -999.2500   -999.2500     92.2689      5.7525      0.4838      0.2802   2187.6824
216.0000       -999.2500   -999.2500     90.5546      6.8061      0.4810      0.2957   2162.1008
216.3000       -999.2500   -999.2500     86.4954      7.4256      0.4742      0.3032   2149.7451
216.6000       -999.2500   -999.2500     82.5409      6.9422      0.4716      0.2890   2173.1750
216.9000       -999.2500   -999.2500     80.6714      5.5957      0.4587      0.2694   2205.4871
217.2000       -999.2500   -999.2500     80.7923      4.0364      0.4499      0.2695   2205.3396
217.5000       -999.2500   -999.2500     83.8770      3.1368      0.4590      0.2714   2202.2236
217.8000       -999.2500   -999.2500     93.2618      3.2709      0.5055      0.2833   2182.5750
218.1000       -999.2500   -999.2500     98.4594      3.9882      0.5293      0.2899   2171.6606
218.4000       -999.2500   -999.2500     97.5397      5.1306      0.4907      0.2882   2174.4646
218.7000       -999.2500   -999.2500     93.4000      6.5379      0.4488      0.2901   2171.2896
219.0000       -999.2500   -999.2500     87.0604      8.1372      0.4520      0.2934   2165.8284
219.3000       -999.2500   -999.2500     81.8668      9.5282      0.4496      0.3057   2145.5908
219.6000       -999.2500   -999.2500     79.3221     10.1186      0.4394      0.3239   2115.5127
219.9000       -999.2500   -999.2500     77.4699     10.3314      0.4294      0.3306   2104.4983
220.2000       -999.2500   -999.2500     75.5008     11.4251      0.4327      0.3280   2108.7605
220.5000       -999.2500   -999.2500     73.3809     12.9709      0.4404      0.3023   2151.1648
220.8000       -999.2500   -999.2500     70.8408     14.5531      0.2757      0.2540   2230.8176
221.1000       -999.2500   -999.2500     65.1092     15.7836      0.1855      0.1539   2396.1035
221.4000       -999.2500   -999.2500     61.0799     15.5301      0.1809      0.0525   2563.3645
221.7000       -999.2500   -999.2500     62.7932     14.0438      0.2048      0.0658   2541.4534
222.0000       -999.2500   -999.2500     66.8434     12.2657      0.3143      0.1772   2357.6184
222.3000       -999.2500   -999.2500     71.0468     10.8691      0.4193      0.2758   2194.9900
222.6000       -999.2500   -999.2500     73.9701      9.7485      0.4423      0.3217   2119.2551
222.9000       -999.2500   -999.2500     70.5821      9.0924      0.4623      0.3256   2112.8372
223.2000       -999.2500   -999.2500     68.0313      8.6543      0.4683      0.3014   2152.6873
223.5000       -999.2500   -999.2500     70.1051      8.2197      0.4246      0.2587   2223.1311
223.8000       -999.2500   -999.2500     73.0206      7.9034      0.4290      0.2855   2178.9487
224.1000       -999.2500   -999.2500     74.4565      7.7143      0.4489      0.3284   2108.0842
224.4000       -999.2500   -999.2500     72.8855      7.9250      0.4606      0.3378   2092.6978
224.7000       -999.2500   -999.2500     71.4104      8.7595      0.4531      0.3231   2116.8052
225.0000       -999.2500   -999.2500     71.1525      9.4380      0.4503      0.3091   2140.0266
225.3000       -999.2500   -999.2500     70.8003      9.8343      0.4394      0.2984   2157.5701
225.6000       -999.2500   -999.2500     72.1952      9.7975      0.4243      0.2741   2197.7795
225.9000       -999.2500   -999.2500     75.4829      8.7070      0.3984      0.2379   2257.4976
226.2000       -999.2500   -999.2500     79.4017      7.3299      0.4130      0.2422   2250.3689
226.5000       -999.2500   -999.2500     82.8349      6.3671      0.4499      0.2554   2228.5850
226.8000       -999.2500   -999.2500     82.8062      5.8118      0.4694      0.2670   2209.3848
227.1000       -999.2500   -999.2500     84.4869      5.8495      0.4662      0.2804   2187.3481
227.4000       -999.2500   -999.2500     87.6303      6.1247      0.4546      0.2979   2158.4214
227.7000       -999.2500   -999.2500     89.5130      6.5530      0.4595      0.2784   2190.7056
228.0000       -999.2500   -999.2500     89.0077      7.0795      0.4191      0.2707   2203.3977
228.3000       -999.2500   -999.2500     88.8932      7.6022      0.3922      0.2668   2209.7808
228.6000       -999.2500   -999.2500     91.4034      7.7233      0.3883      0.2619   2217.7910
228.9000       -999.2500   -999.2500     93.9642      7.6472      0.4079      0.2617   2218.1724
229.2000       -999.2500   -999.2500     94.5050      7.1594      0.4240      0.2575   2225.1648
229.5000       -999.2500   -999.2500     91.9941      6.3970      0.4173      0.2584   2223.6436
