~VERSION INFORMATION
 VERS.                 2.0:   CWLS LOG ASCII STANDARD -VERSION 2.0
 WRAP.                  NO:   ONE LINE PER DEPTH STEP
~WELL INFORMATION BLOCK
#MNEM.UNIT           DATA                    DESCRIPTION OF MNEMONIC
#---------    -------------------            -------------------------------
# Generated from Intellog Unique Number	CW_73_75/WELL/3529
WELL.         ULSTER G&W MARTEN HILLS        : Well_name    - WELL
LOC .         00/12-12-074-02W5/0            : Location     - LOCATION
UWI .         00/12-12-074-02W5/0            : Uwi          - UNIQUE WELL ID
ENTR.         T                              : Entered      - ENTERED BY
SRVC.         SCHLUMBERGER                   : Scn          - SERVICE COMPANY
STRT.M        360                            : top_depth    - START DEPTH
STOP.M        600                            : bot_depth    - STOP DEPTH
STEP.M        0.25                           : increment    - STEP LENGTH
 NULL. -999.2500:NULL Value
~CURVE INFORMATION BLOCK
#MNEM UNIT       ERCB CURVE CODE    CURVE DESCRIPTION
#-----------   ------------------   ----------------------------------
DEPT.M        00 001 00 00         : DEPTH        - DEPTH
ILD .OHMM     00 120 00 00         : RESD         - DEEP RESISTIVITY (DIL)
DPHI.V/V      00 890 00 00         : PHID         - DENSITY POROSITY (SANDSTONE)
NPHI.V/V      00 330 00 00         : PHIN         - NEUTRON POROSITY (SANDSTONE)
GR  .API      00 310 00 00         : GR           - GAMMA RAY
~PARAMETER INFORMATION
#MNEM.UNIT           DATA             DESCRIPTION OF MNEMONIC
#---------         -----------     ------------------------------
GL  .M        644                  : gl           - GROUND LEVEL ELEVATION
EREF.M        647.2                : kb           - ELEVATION OF DEPTH REFERENCE
DATM.M        647.2                : datum        - DATUM ELEVATION
TDD .M        606                  : tdd          - TOTAL DEPTH DRILLER
RUN .         ONE                  : Run          - RUN NUMBER
ENG .         BILL                 : Engineer     - RECORDING ENGINEER
WIT .         JIM                  : Witness      - WITNESSED BY
MUD .         GEL                  : Mud_type     - MUD TYPE
MATR.         SANDSTONE            : Logunit      - NEUTRON MATRIX
TMAX.C        23                   : BHT          - MAXIMUM RECORDED TEMPERATURE
BHTD.M        606                  : BHTDEP       - MAXIMUM RECORDED TEMPERATURE
MATR.         1                    : LOGUNIT      - NEUTRON MATRIX
RMT .C        17                   : MDTP         - TEMPERATURE OF MUD
NEUT.         1                    : NEUTRON      - NEUTRON TYPE
RESI.         0                    : RESIST       - RESISTIVITY TYPE
RMC .OHMM     2.6                  : RMC          - RESISTIVITY OF MUD CAKE
RMF .OHMM     1.7                  : RMF          - RESISTIVITY OF MUD FILTRATE
SUFT.C        15                   : SUFT         - SURFACE TEMPERATURE
~A  DEPTH     RESD     PHID     PHIN       GR
  360.000    3.891    0.179    0.359  116.363
  360.250    3.892    0.178    0.369  118.138
  360.500    4.039    0.175    0.377  117.553
  360.750    4.191    0.175    0.383  116.377
  361.000    4.429    0.175    0.390  118.152
  361.250    4.681    0.174    0.395  135.288
  361.500    5.132    0.176    0.398  139.427
  361.750    5.731    0.186    0.396  142.976
  362.000    6.168    0.202    0.373  138.846
  362.250    6.401    0.217    0.314   62.065
  362.500    6.062    0.231    0.297   52.028
  362.750    5.433    0.245    0.287   40.810
  363.000    5.050    0.258    0.288   35.499
  363.250    4.526    0.269    0.296   44.364
  363.500    3.983    0.273    0.304   51.456
  363.750    3.703    0.275    0.316   53.236
  364.000    3.506    0.276    0.332   51.468
  364.250    3.382    0.273    0.351   78.642
  364.500    3.383    0.269    0.373   92.823
  364.750    3.384    0.256    0.385   97.554
  365.000    3.448    0.245    0.385   88.107
  365.250    3.513    0.252    0.368   82.796
  365.500    3.782    0.251    0.350   85.754
  365.750    4.223    0.240    0.340   83.397
  366.000    4.462    0.236    0.332   76.905
  366.250    4.892    0.236    0.326   69.822
  366.500    5.266    0.239    0.318   65.101
  366.750    5.773    0.242    0.314   62.152
  367.000    6.216    0.247    0.305   59.204
  367.250    6.332    0.253    0.306   55.666
  367.500    6.452    0.256    0.310   52.127
  367.750    6.337    0.254    0.313   49.769
  368.000    6.112    0.252    0.322   53.908
  368.250    6.002    0.246    0.328   58.047
  368.500    5.479    0.239    0.340   68.684
  368.750    5.188    0.234    0.347   72.233
  369.000    5.190    0.239    0.354   78.735
  369.250    5.288    0.246    0.351   89.373
  369.500    5.389    0.249    0.342   85.243
  369.750    5.292    0.252    0.339   75.206
  370.000    5.295    0.258    0.334   66.942
  370.250    5.200    0.261    0.331   66.356
  370.500    5.202    0.255    0.329   77.584
  370.750    5.205    0.240    0.325   75.225
  371.000    5.206    0.235    0.327   77.593
  371.250    5.305    0.226    0.329   88.229
  371.500    5.405    0.224    0.330   86.463
  371.750    5.506    0.218    0.329   85.876
  372.000    5.508    0.209    0.328   81.157
  372.250    5.410    0.205    0.328   77.619
  372.500    5.315    0.205    0.328   74.670
  372.750    5.219    0.205    0.328   72.903
  373.000    5.034    0.206    0.328   74.680
  373.250    4.944    0.207    0.328   81.181
  373.500    4.856    0.208    0.328   88.864
  373.750    4.683    0.204    0.332   92.413
  374.000    4.517    0.196    0.343   90.056
  374.250    4.436    0.190    0.355   89.471
  374.500    4.279    0.188    0.347   92.428
  374.750    4.126    0.186    0.337   95.977
  375.000    4.053    0.186    0.337   93.619
  375.250    4.054    0.187    0.343   87.717
  375.500    4.055    0.189    0.347   85.359
  375.750    3.983    0.190    0.348   90.680
  376.000    3.842    0.190    0.348   98.955
  376.250    3.774    0.187    0.349  104.866
  376.500    3.509    0.185    0.350  102.508
  376.750    3.383    0.179    0.355  104.876
  377.000    3.204    0.178    0.349  109.016
  377.250    3.146    0.179    0.347  107.248
  377.500    2.979    0.184    0.347   99.574
  377.750    2.926    0.187    0.353   98.988
  378.000    2.822    0.193    0.362  103.721
  378.250    2.624    0.193    0.378  107.268
  378.500    2.485    0.193    0.397  114.361
  378.750    2.353    0.196    0.414  122.044
  379.000    2.311    0.203    0.425  122.641
  379.250    2.270    0.209    0.419  120.283
  379.500    2.189    0.216    0.413  117.925
  379.750    2.035    0.221    0.409  114.975
  380.000    1.963    0.225    0.425  112.619
  380.250    1.999    0.227    0.427  110.851
  380.500    2.000    0.228    0.425  110.265
  380.750    2.001    0.228    0.420  109.681
  381.000    2.002    0.227    0.413  109.094
  381.250    2.002    0.223    0.412  107.917
  381.500    2.003    0.202    0.419  105.559
  381.750    1.968    0.186    0.419  103.202
  382.000    1.932    0.179    0.410  102.619
  382.250    1.898    0.194    0.409  103.212
  382.500    1.899    0.207    0.414  104.989
  382.750    1.900    0.210    0.422  101.449
  383.000    1.936    0.210    0.422   96.729
  383.250    1.936    0.211    0.417   96.734
  383.500    2.047    0.212    0.415  107.370
  383.750    2.047    0.207    0.415  106.786
  384.000    2.086    0.205    0.415  104.429
  384.250    2.086    0.205    0.410  107.976
  384.500    2.088    0.205    0.408  112.706
  384.750    2.088    0.199    0.403  115.075
  385.000    2.128    0.199    0.400  111.536
  385.250    2.168    0.200    0.400  108.586
  385.500    2.209    0.199    0.400  106.819
  385.750    2.250    0.194    0.397  106.824
  386.000    2.293    0.193    0.393  106.239
  386.250    2.294    0.192    0.392  107.426
  386.500    2.337    0.188    0.392  110.385
  386.750    2.381    0.187    0.392  112.160
  387.000    2.382    0.189    0.393  114.527
  387.250    2.427    0.191    0.392  113.942
  387.500    2.428    0.189    0.385  111.584
  387.750    2.429    0.177    0.383  110.999
  388.000    2.430    0.177    0.385  111.002
  388.250    2.430    0.181    0.388  112.191
  388.500    2.387    0.185    0.393  109.831
  388.750    2.388    0.193    0.399  106.295
  389.000    2.389    0.200    0.399  106.888
  389.250    2.434    0.201    0.394  108.074
  389.500    2.573    0.206    0.394  108.078
  389.750    2.719    0.214    0.400  108.083
  390.000    2.874    0.228    0.406  108.090
  390.250    3.094    0.242    0.402  106.914
  390.500    3.210    0.277    0.382  103.373
  390.750    3.519    0.267    0.376   96.882
  391.000    3.394    0.273    0.371  104.565
  391.250    3.155    0.283    0.357  103.388
  391.500    3.043    0.305    0.381   92.760
  391.750    3.336    0.325    0.376   84.496
  392.000    3.658    0.307    0.354   92.770
  392.250    3.727    0.267    0.343   94.547
  392.500    3.660    0.235    0.338   89.237
  392.750    3.403    0.218    0.338   85.107
  393.000    3.282    0.206    0.342   86.883
  393.250    3.165    0.202    0.350   88.070
  393.500    2.997    0.210    0.355   89.257
  393.750    2.943    0.218    0.366   89.852
  394.000    2.839    0.216    0.372   92.219
  394.250    2.738    0.213    0.370   98.721
  394.500    2.947    0.213    0.374   97.545
  394.750    3.290    0.221    0.380   95.187
  395.000    3.674    0.248    0.382   99.917
  395.250    4.179    0.255    0.379  102.876
  395.500    4.498    0.261    0.365   99.336
  395.750    4.931    0.259    0.354   89.890
  396.000    5.309    0.254    0.348   83.988
  396.250    5.508    0.244    0.341   78.677
  396.500    5.717    0.222    0.338   75.138
  396.750    5.823    0.176    0.332   67.465
  397.000    6.043    0.114    0.325   60.973
  397.250    6.387    0.108    0.319   53.299
  397.500    6.508    0.153    0.327   59.801
  397.750    5.321    0.180    0.337   65.713
  398.000    4.433    0.213    0.348   63.354
  398.250    4.275    0.264    0.352   59.224
  398.500    4.356    0.296    0.349   56.276
  398.750    4.357    0.299    0.348   55.690
  399.000    4.359    0.282    0.344   60.421
  399.250    4.282    0.257    0.340   63.970
  399.500    4.129    0.235    0.348   66.929
  399.750    4.130    0.245    0.356   72.839
  400.000    4.209    0.258    0.360   82.885
  400.250    4.210    0.230    0.356  101.791
  400.500    4.289    0.217    0.354  104.161
  400.750    4.291    0.204    0.361  108.890
  401.000    4.293    0.212    0.374  115.393
  401.250    4.217    0.238    0.382  121.303
  401.500    4.218    0.194    0.370  119.536
  401.750    4.219    0.188    0.344  115.407
  402.000    4.460    0.213    0.341  111.276
  402.250    4.713    0.218    0.340   97.696
  402.500    4.981    0.223    0.334   81.162
  402.750    5.363    0.252    0.330   58.722
  403.000    5.365    0.276    0.329   48.097
  403.250    5.174    0.282    0.328   49.874
