~VERSION INFORMATION
 VERS.                 2.0:   CWLS LOG ASCII STANDARD -VERSION 2.0
 WRAP.                  NO:   ONE LINE PER DEPTH STEP
~WELL INFORMATION BLOCK
#MNEM.UNIT           DATA                    DESCRIPTION OF MNEMONIC
#---------    -------------------            -------------------------------
# Generated from Intellog Unique Number	CW_76_78/WELL/1034
WELL.         OAKPETROREP ET AL MARTEN 16-12 : Well_name    - WELL
LOC .         00/16-12-076-03W5/0            : Location     - LOCATION
UWI .         00/16-12-076-03W5/0            : Uwi          - UNIQUE WELL ID
ENTR.         JAYE                           : Entered      - ENTERED BY
SRVC.         SCHLUMBERGER                   : Scn          - SERVICE COMPANY
DATE.         16 FEB 79                      : Date         - LOG DATE
STRT.M        550                            : top_depth    - START DEPTH
STOP.M        760                            : bot_depth    - STOP DEPTH
STEP.M        0.25                           : increment    - STEP LENGTH
 NULL. -999.2500:NULL Value
~CURVE INFORMATION BLOCK
#MNEM UNIT       ERCB CURVE CODE    CURVE DESCRIPTION
#-----------   ------------------   ----------------------------------
DEPT.M        00 001 00 00         : DEPTH        - DEPTH
ILD .OHMM     00 120 00 00         : RESD         - DEEP RESISTIVITY (DIL)
NPHI.V/V      00 330 00 00         : PHIN         - NEUTRON POROSITY (SANDSTONE)
DPHI.V/V      00 890 00 00         : PHID         - DENSITY POROSITY (SANDSTONE)
GR  .API      00 310 00 00         : GR           - GAMMA RAY
CALI.MM       00 280 01 00         : CAL          - CALIPER
~PARAMETER INFORMATION
#MNEM.UNIT           DATA             DESCRIPTION OF MNEMONIC
#---------         -----------     ------------------------------
GL  .M        834.8                : gl           - GROUND LEVEL ELEVATION
EREF.M        838.8                : kb           - ELEVATION OF DEPTH REFERENCE
DATM.M        834.8                : datum        - DATUM ELEVATION
TDD .M        809                  : tdd          - TOTAL DEPTH DRILLER
RUN .         ONE                  : Run          - RUN NUMBER
ENG .         GILLUS               : Engineer     - RECORDING ENGINEER
WIT .         LILLICO              : Witness      - WITNESSED BY
BASE.         EDM                  : Branch       - HOME BASE OF LOGGING UNIT
MUD .         GEL MUD              : Mud_type     - MUD TYPE
MATR.         SANDSTONE            : Logunit      - NEUTRON MATRIX
TMAX.C        28                   : BHT          - MAXIMUM RECORDED TEMPERATURE
BHTD.M        809.3                : BHTDEP       - MAXIMUM RECORDED TEMPERATURE
RMT .C        20                   : MDTP         - TEMPERATURE OF MUD
MUDD.KG/M     1080                 : MWT          - MUD DENSITY
NEUT.         1                    : NEUTRON      - NEUTRON TYPE
RESI.         0                    : RESIST       - RESISTIVITY TYPE
RM  .OHMM     3.53                 : RM           - RESISTIVITY OF MUD
RMC .OHMM     0                    : RMC          - RESISTIVITY OF MUD CAKE
RMF .OHMM     3.35                 : RMF          - RESISTIVITY OF MUD FILTRATE
SUFT.C        0                    : SUFT         - SURFACE TEMPERATURE
~A  DEPTH     RESD     PHIN     PHID       GR      CAL
  550.000    2.097    0.530    0.243  108.212  211.934
  550.250    2.154    0.542    0.235  113.444  212.517
  550.500    2.188    0.552    0.243  107.589  212.576
  550.750    2.223    0.548    0.250  103.744  211.593
  551.000    2.228    0.556    0.244  106.282  209.757
  551.250    2.230    0.552    0.250  109.324  208.682
  551.500    2.261    0.535    0.246  110.924  207.166
  551.750    2.283    0.524    0.215  111.400  205.980
  552.000    2.324    0.525    0.244  109.681  204.681
  552.250    2.365    0.552    0.256  107.585  203.276
  552.500    2.424    0.569    0.240  111.128  202.088
  552.750    2.471    0.582    0.233  116.611  201.206
  553.000    2.515    0.582    0.245  117.899  200.744
  553.250    2.564    0.571    0.254  113.300  200.483
  553.500    2.619    0.551    0.254  105.195  200.960
  553.750    2.726    0.531    0.238   91.767  200.916
  554.000    3.056    0.511    0.252   80.529  200.553
  554.250    3.618    0.451    0.257   78.498  200.614
  554.500    4.299    0.419    0.255   86.549  200.988
  554.750    4.856    0.445    0.275   91.592  201.355
  555.000    5.466    0.454    0.284   94.383  201.412
  555.250    5.657    0.430    0.182   96.108  201.476
  555.500    5.312    0.422    0.203   97.335  201.530
  555.750    4.436    0.438    0.229  105.822  201.905
  556.000    3.880    0.478    0.225  111.432  202.381
  556.250    3.478    0.508    0.238  110.464  202.859
  556.500    3.054    0.525    0.258  103.986  207.716
  556.750    2.768    0.539    0.282  100.324  217.481
  557.000    2.749    0.538    0.303   97.355  221.299
  557.250    2.965    0.481    0.248   93.571  214.992
  557.500    3.079    0.473    0.218   97.426  205.237
  557.750    3.076    0.495    0.243  101.783  202.272
  558.000    2.965    0.512    0.226  107.266  204.830
  558.250    2.848    0.523    0.216  103.605  207.286
  558.500    2.669    0.542    0.228  100.385  207.661
  558.750    2.456    0.566    0.238  106.933  207.091
  559.000    2.341    0.585    0.249  107.406  205.788
  559.250    2.400    0.557    0.269  101.240  204.181
  559.500    2.578    0.504    0.284   95.638  203.090
  559.750    2.897    0.478    0.291   88.161  202.001
  560.000    3.279    0.453    0.281   77.864  201.021
  560.250    3.874    0.435    0.306   66.878  199.926
  560.500    5.334    0.442    0.327   65.404  198.836
  560.750    6.542    0.449    0.301   68.884  198.375
  561.000    8.159    0.452    0.193   71.116  198.438
  561.250    8.397    0.443    0.149   69.459  199.328
  561.500    6.458    0.442    0.183   74.567  200.636
  561.750    4.749    0.484    0.233   81.865  200.489
  562.000    4.101    0.511    0.257   85.409  197.628
  562.250    3.738    0.508    0.273   83.813  194.973
  562.500    3.471    0.507    0.288   82.658  192.417
  562.750    3.303    0.533    0.297   82.821  191.431
  563.000    3.184    0.559    0.276   81.539  190.969
  563.250    3.157    0.556    0.283   79.445  191.654
  563.500    3.316    0.535    0.278   78.791  192.760
  563.750    3.464    0.518    0.283   79.016  194.169
  564.000    3.558    0.506    0.287   79.489  195.166
  564.250    3.614    0.510    0.283   78.647  195.853
  564.500    3.394    0.523    0.286   80.061  196.848
  564.750    3.164    0.538    0.284   83.475  197.641
  565.000    3.010    0.552    0.276   85.391  198.636
  565.250    3.029    0.555    0.276   78.412  199.529
  565.500    3.188    0.545    0.311   74.750  199.591
  565.750    3.305    0.522    0.329   74.533  199.021
  566.000    3.651    0.506    0.309   76.633  198.874
  566.250    3.828    0.500    0.293   80.930  198.931
  566.500    3.697    0.492    0.279   89.108  200.245
  566.750    3.472    0.478    0.274   97.598  205.000
  567.000    3.237    0.495    0.253  104.395  207.145
  567.250    3.179    0.519    0.255  107.559  204.594
  567.500    3.253    0.528    0.263   99.141  203.295
  567.750    3.514    0.497    0.261   90.159  201.891
  568.000    3.933    0.466    0.275   78.233  200.173
  568.250    4.477    0.451    0.300   66.244  198.450
  568.500    5.309    0.447    0.288   61.772  197.582
  568.750    6.439    0.452    0.304   58.551  196.166
  569.000    7.942    0.460    0.318   53.198  195.295
  569.250    9.107    0.470    0.338   49.853  194.311
  569.500    9.801    0.475    0.321   48.198  193.948
  569.750    9.503    0.467    0.319   50.989  193.697
  570.000    8.677    0.447    0.303   52.838  193.338
  570.250    7.822    0.449    0.277   53.689  193.285
  570.500    7.196    0.459    0.268   57.166  193.135
  570.750    6.720    0.479    0.292   62.337  193.202
  571.000    6.114    0.487    0.274   67.069  193.462
  571.250    5.742    0.466    0.261   70.357  193.835
  571.500    5.661    0.462    0.264   71.894  193.991
  571.750    5.643    0.464    0.263   73.123  194.257
  572.000    5.658    0.451    0.254   74.973  194.426
  572.250    5.672    0.452    0.245   77.764  194.593
  572.500    5.708    0.463    0.245   78.989  194.654
  572.750    5.776    0.462    0.249   77.774  194.804
  573.000    5.878    0.446    0.234   75.740  194.666
  573.250    6.140    0.446    0.243   73.896  194.512
  573.500    6.745    0.451    0.247   72.118  194.461
  573.750    7.634    0.455    0.241   66.579  194.418
  574.000    8.641    0.462    0.254   60.914  194.367
  574.250    9.817    0.471    0.274   56.254  194.327
  574.500   11.599    0.481    0.283   52.907  194.601
  574.750   12.838    0.466    0.295   51.876  194.966
  575.000   12.561    0.445    0.301   53.103  195.240
  575.250   11.052    0.432    0.305   56.269  195.713
  575.500    9.525    0.432    0.307   65.447  195.983
  575.750    7.997    0.446    0.307   71.431  196.248
  576.000    6.290    0.451    0.296   81.548  196.620
  576.250    6.008    0.453    0.249   89.599  196.992
  576.500    5.934    0.462    0.273   89.885  206.438
  576.750    5.916    0.451    0.300   80.401  203.268
  577.000    5.745    0.423    0.308   74.425  201.657
  577.250    5.466    0.441    0.279   86.232  203.280
  577.500    5.115    0.453    0.277   85.200  207.507
  577.750    4.858    0.461    0.264   85.550  204.022
  578.000    4.683    0.467    0.245   86.585  202.303
  578.250    4.608    0.458    0.216   88.314  204.034
  578.500    4.500    0.450    0.225   89.852  203.045
  578.750    4.330    0.448    0.241   96.086  202.586
  579.000    4.143    0.446    0.237  101.820  202.435
  579.250    3.957    0.455    0.210  106.613  201.866
  579.500    3.865    0.467    0.239  103.643  201.718
  579.750    4.098    0.485    0.242   92.594  201.564
  580.000    4.743    0.505    0.264   82.546  201.415
  580.250    5.531    0.526    0.290   75.881  201.261
  580.500    6.463    0.550    0.322   65.771  201.318
  580.750    7.650    0.568    0.375   54.598  201.380
  581.000    9.208    0.415    0.367   47.619  201.335
  581.250    9.893    0.402    0.286   52.286  201.081
  581.500    9.936    0.413    0.291   53.888  200.607
  581.750    9.814    0.425    0.297   54.425  200.467
  582.000    9.602    0.436    0.304   56.463  200.102
  582.250    9.293    0.434    0.309   57.500  199.954
  582.500    9.091    0.426    0.311   57.975  199.810
  582.750    8.507    0.437    0.304   61.517  199.755
  583.000    7.755    0.444    0.313   65.181  199.813
  583.250    7.364    0.439    0.325   67.908  199.775
  583.500    6.967    0.433    0.307   70.826  199.720
  583.750    6.580    0.447    0.307   74.117  199.679
  584.000    6.226    0.457    0.315   80.602  200.045
  584.250    5.880    0.468    0.304   81.328  200.214
  584.500    5.701    0.478    0.311   78.355  200.277
  584.750    5.557    0.485    0.309   78.204  200.226
  585.000    5.438    0.471    0.298   80.682  200.173
  585.250    5.232    0.466    0.300   76.709  200.346
  585.500    4.690    0.475    0.302   74.802  200.509
  585.750    4.331    0.497    0.299   77.531  200.570
  586.000    3.985    0.514    0.308   81.946  200.935
  586.250    4.040    0.530    0.303   83.800  200.891
