~VERSION INFORMATION
 VERS.                 2.0:   CWLS LOG ASCII STANDARD -VERSION 2.0
 WRAP.                  NO:   ONE LINE PER DEPTH STEP
~WELL INFORMATION BLOCK
#MNEM.UNIT           DATA                    DESCRIPTION OF MNEMONIC
#---------    -------------------            -------------------------------
# Generated from Intellog Unique Number	CS_73_76/WELL/2186
WELL.         TOTAL PETROLEUM (N.A.) LT      : Well_name    - WELL
LOC .         00/10-09-074-07W4/0            : Location     - LOCATION
UWI .         00/10-09-074-07W4/0            : Uwi          - UNIQUE WELL ID
ENTR.         SP                             : Entered      - ENTERED BY
SRVC.         SCHLUMBERGER                   : Scn          - SERVICE COMPANY
STRT.M        304.8                          : top_depth    - START DEPTH
STOP.M        530.05                         : bot_depth    - STOP DEPTH
STEP.M        0.25                           : increment    - STEP LENGTH
 NULL. -999.2500:NULL Value
~CURVE INFORMATION BLOCK
#MNEM UNIT       ERCB CURVE CODE    CURVE DESCRIPTION
#-----------   ------------------   ----------------------------------
DEPT.M        00 001 00 00         : DEPTH        - DEPTH
GR  .API      00 310 00 00         : GR           - GAMMA RAY
DPHI.V/V      00 890 00 00         : PHID         - DENSITY POROSITY (SANDSTONE)
NPHI.V/V      00 330 00 00         : PHIN         - NEUTRON POROSITY (SANDSTONE)
ILD .OHMM     00 120 00 00         : RESD         - DEEP RESISTIVITY (DIL)
~PARAMETER INFORMATION
#MNEM.UNIT           DATA             DESCRIPTION OF MNEMONIC
#---------         -----------     ------------------------------
GL  .M        692.81               : gl           - GROUND LEVEL ELEVATION
EREF.M        696.163              : kb           - ELEVATION OF DEPTH REFERENCE
DATM.M        692.81               : datum        - DATUM ELEVATION
TDD .M        357.226              : tdd          - TOTAL DEPTH DRILLER
RUN .         ONE                  : Run          - RUN NUMBER
ENG .         BILL                 : Engineer     - RECORDING ENGINEER
WIT .         JIM                  : Witness      - WITNESSED BY
MUD .         GEL                  : Mud_type     - MUD TYPE
MATR.         SANDSTONE            : Logunit      - NEUTRON MATRIX
TMAX.C        21.1111              : BHT          - MAXIMUM RECORDED TEMPERATURE
BHTD.M        357.226              : BHTDEP       - MAXIMUM RECORDED TEMPERATURE
MATR.         1                    : LOGUNIT      - NEUTRON MATRIX
RMT .C        25                   : MDTP         - TEMPERATURE OF MUD
NEUT.         1                    : NEUTRON      - NEUTRON TYPE
RESI.         0                    : RESIST       - RESISTIVITY TYPE
RMC .OHMM     0.25                 : RMC          - RESISTIVITY OF MUD CAKE
RMF .OHMM     0.25                 : RMF          - RESISTIVITY OF MUD FILTRATE
SUFT.C        15                   : SUFT         - SURFACE TEMPERATURE
~A  DEPTH       GR     PHID     PHIN     RESD
  304.800   93.083    0.200    0.549    2.800
  305.050   93.244    0.207    0.527    2.798
  305.300   95.620    0.192    0.521    2.868
  305.550   99.546    0.220    0.538    3.011
  305.800  101.577    0.210    0.546    3.137
  306.050  101.840    0.197    0.548    3.260
  306.300  100.361    0.197    0.539    3.309
  306.550   99.741    0.203    0.528    3.331
  306.800  102.140    0.214    0.528    3.437
  307.050  101.027    0.216    0.541    3.541
  307.300  100.124    0.223    0.531    3.642
  307.550   98.506    0.210    0.521    3.830
  307.800   94.481    0.227    0.512    3.879
  308.050   91.482    0.214    0.511    3.783
  308.300   96.157    0.215    0.520    3.556
  308.550  100.827    0.203    0.529    3.456
  308.800   97.554    0.199    0.537    3.276
  309.050   98.510    0.193    0.547    3.237
  309.300  100.775    0.210    0.560    3.203
  309.550  102.989    0.199    0.568    3.255
  309.800  102.556    0.211    0.554    3.460
  310.050   99.579    0.216    0.543    3.683
  310.300   98.044    0.181    0.529    3.744
  310.550   96.734    0.167    0.527    3.585
  310.800   99.338    0.160    0.535    3.388
  311.050  103.514    0.186    0.513    3.292
  311.300  103.567    0.188    0.513    3.228
  311.550  100.872    0.194    0.522    3.227
  311.800   95.984    0.184    0.518    3.287
  312.050   90.568    0.151    0.502    3.276
  312.300   90.469    0.136    0.494    3.431
  312.550   95.041    0.211    0.503    3.534
  312.800   96.073    0.214    0.518    3.779
  313.050   97.750    0.217    0.533    4.550
  313.300   97.290    0.245    0.496    5.412
  313.550   94.041    0.270    0.455    6.982
  313.800   95.492    0.255    0.430    9.642
  314.050   97.485    0.236    0.418   12.207
  314.300  100.198    0.230    0.424   14.617
  314.550  105.392    0.217    0.431   14.607
  314.800  108.522    0.213    0.436   13.882
  315.050  102.601    0.219    0.443   13.468
  315.300   96.950    0.241    0.453   13.495
  315.550   91.242    0.258    0.445   14.901
  315.800   81.303    0.289    0.394   16.426
  316.050   66.387    0.324    0.333   18.243
  316.300   58.137    0.324    0.307   20.302
  316.550   60.081    0.292    0.331   21.465
  316.800   61.643    0.287    0.344   20.481
  317.050   59.142    0.305    0.330   20.077
  317.300   52.776    0.329    0.237   21.850
  317.550   51.894    0.298    0.261   24.477
  317.800   66.828    0.240    0.355   22.290
  318.050   80.364    0.209    0.427   18.616
  318.300   89.366    0.217    0.445   15.334
  318.550   95.488    0.210    0.433   13.572
  318.800   99.063    0.211    0.414   12.415
  319.050   98.189    0.227    0.412   11.424
  319.300   94.209    0.213    0.411   10.771
  319.550   90.921    0.221    0.420   10.764
  319.800   88.743    0.220    0.424   11.114
  320.050   86.077    0.224    0.422   12.590
  320.300   82.760    0.256    0.415   13.955
  320.550   79.898    0.267    0.412   15.426
  320.800   77.359    0.281    0.416   17.117
  321.050   75.352    0.295    0.425   19.227
  321.300   74.004    0.281    0.436   20.756
  321.550   78.083    0.300    0.446   19.951
  321.800   86.494    0.284    0.443   17.642
  322.050   91.430    0.245    0.435   13.942
  322.300   95.672    0.219    0.428   11.882
  322.550   94.567    0.187    0.420    9.808
  322.800   94.009    0.183    0.421    8.726
  323.050   95.946    0.187    0.423    8.342
  323.300   94.007    0.174    0.419    9.363
  323.550   87.444    0.183    0.416   10.026
  323.800   79.969    0.191    0.415   10.994
  324.050   75.295    0.205    0.428   11.680
  324.300   76.243    0.220    0.437   12.016
  324.550   78.527    0.212    0.419   12.145
  324.800   79.164    0.211    0.427   11.716
  325.050   74.907    0.217    0.437   11.195
  325.300   70.998    0.231    0.431   11.009
  325.550   67.070    0.239    0.421   11.946
  325.800   62.454    0.257    0.406   12.847
  326.050   60.840    0.258    0.391   14.202
  326.300   62.334    0.249    0.388   15.017
  326.550   65.050    0.235    0.393   16.199
  326.800   64.573    0.233    0.397   16.828
  327.050   64.619    0.250    0.403   17.032
  327.300   70.237    0.258    0.410   15.770
  327.550   77.245    0.238    0.424   12.989
  327.800   84.358    0.210    0.436    9.293
  328.050   95.213    0.212    0.475    7.391
  328.300  107.083    0.181    0.523    6.137
  328.550  115.309    0.193    0.546    5.109
  328.800  117.188    0.187    0.553    4.566
  329.050  118.181    0.185    0.558    4.091
  329.300  118.716    0.195    0.556    3.804
  329.550  118.525    0.206    0.558    3.568
  329.800  117.509    0.210    0.566    3.356
  330.050  113.316    0.222    0.540    3.418
  330.300  107.546    0.225    0.515    3.897
  330.550   99.379    0.189    0.479    4.402
  330.800   91.561    0.198    0.431    5.508
  331.050   87.861    0.209    0.442    7.029
  331.300   86.909    0.209    0.451    8.914
  331.550   86.671    0.217    0.459   10.239
  331.800   84.154    0.231    0.445   11.415
  332.050   79.280    0.219    0.440   11.971
  332.300   84.265    0.159    0.441   11.972
  332.550   87.539    0.128    0.436   11.723
  332.800   87.626    0.112    0.430   12.231
  333.050   79.930    0.255    0.426   13.250
  333.300   76.228    0.281    0.434   14.614
  333.550   74.390    0.323    0.447   16.163
  333.800   70.787    0.344    0.457   18.196
  334.050   67.506    0.338    0.438   19.878
  334.300   66.718    0.326    0.436   21.349
  334.550   72.579    0.323    0.440   22.493
  334.800   78.347    0.323    0.431   23.496
  335.050   86.047    0.317    0.437   24.042
  335.300   92.866    0.312    0.442   24.032
  335.550  104.560    0.313    0.448   24.446
  335.800  114.503    0.315    0.445   24.384
  336.050  122.296    0.314    0.439   24.880
  336.300  121.064    0.307    0.441   25.189
  336.550   87.304    0.300    0.431   25.332
  336.800   84.106    0.295    0.423   24.872
  337.050   88.355    0.304    0.422   24.408
  337.300  100.102    0.312    0.431   23.846
  337.550  106.436    0.312    0.448   22.736
  337.800  102.748    0.317    0.450   22.072
  338.050   97.674    0.310    0.466   20.945
  338.300  100.021    0.308    0.471   20.066
  338.550   97.729    0.295    0.450   19.064
  338.800   93.483    0.279    0.430   17.775
  339.050   90.797    0.259    0.417   17.113
  339.300   90.789    0.256    0.414   16.445
  339.550   90.795    0.248    0.444   15.930
  339.800   91.596    0.250    0.462   15.458
  340.050   89.104    0.265    0.485   15.039
  340.300   82.304    0.281    0.490   15.313
  340.550   72.870    0.266    0.467   15.939
  340.800   63.617    0.253    0.446   16.277
  341.050   56.364    0.258    0.436   16.811
  341.300   52.502    0.271    0.433   16.495
  341.550   51.832    0.279    0.436   16.171
  341.800   53.497    0.287    0.441   16.444
  342.050   53.351    0.282    0.423   16.481
  342.300   52.342    0.264    0.413   16.482
  342.550   51.485    0.266    0.408   15.974
  342.800   53.317    0.273    0.395   15.501
  343.050   53.616    0.249    0.398   15.036
  343.300   56.042    0.245    0.408   14.564
  343.550   57.572    0.252    0.416   14.500
  343.800   60.081    0.264    0.405   14.231
  344.050   60.211    0.277    0.399   14.193
  344.300   58.832    0.288    0.407   14.518
  344.550   57.867    0.273    0.414   14.982
  344.800   57.291    0.271    0.411   15.120
  345.050   55.963    0.276    0.418   15.261
  345.300   54.970    0.288    0.422   14.787
  345.550   60.748    0.279    0.418   14.257
  345.800   65.080    0.260    0.408   13.669
  346.050   64.429    0.249    0.406   13.287
  346.300   59.800    0.246    0.398   12.651
  346.550   63.240    0.269    0.400   12.694
  346.800   64.234    0.256    0.415   12.692
  347.050   65.238    0.251    0.408   12.690
  347.300   66.223    0.261    0.407   12.667
  347.550   67.189    0.267    0.411   12.922
  347.800   68.110    0.262    0.400   13.195
  348.050   69.064    0.255    0.400   13.583
