~VERSION INFORMATION
 VERS.                 2.0:   CWLS LOG ASCII STANDARD -VERSION 2.0
 WRAP.                  NO:   ONE LINE PER DEPTH STEP
~WELL INFORMATION BLOCK
#MNEM.UNIT           DATA                    DESCRIPTION OF MNEMONIC
#---------    -------------------            -------------------------------
# Generated from Intellog Unique Number	CS_77_79/WELL/986
WELL.         PCI PCEJ LEISMER               : Well_name    - WELL
LOC .         00/11-03-079-07W4/0            : Location     - LOCATION
UWI .         00/11-03-079-07W4/0            : Uwi          - UNIQUE WELL ID
ENTR.         JHS                            : Entered      - ENTERED BY
SRVC.         SCHLUMBERGER                   : Scn          - SERVICE COMPANY
STRT.M        125                            : top_depth    - START DEPTH
STOP.M        355                            : bot_depth    - STOP DEPTH
STEP.M        0.25                           : increment    - STEP LENGTH
 NULL. -999.2500:NULL Value
~CURVE INFORMATION BLOCK
#MNEM UNIT       ERCB CURVE CODE    CURVE DESCRIPTION
#-----------   ------------------   ----------------------------------
DEPT.M        00 001 00 00         : DEPTH        - DEPTH
DPHI.V/V      00 890 00 00         : PHID         - DENSITY POROSITY (LIMESTONE)
NPHI.V/V      00 330 00 00         : PHIN         - NEUTRON POROSITY (LIMESTONE)
GR  .API      00 310 00 00         : GR           - GAMMA RAY
ILD .OHMM     00 120 00 00         : RESD         - DEEP RESISTIVITY (DIL)
RHOB.KG/M3    00 350 00 00         : DENS         - BULK DENSITY
~PARAMETER INFORMATION
#MNEM.UNIT           DATA             DESCRIPTION OF MNEMONIC
#---------         -----------     ------------------------------
GL  .M        554.2                : gl           - GROUND LEVEL ELEVATION
EREF.M        557.3                : kb           - ELEVATION OF DEPTH REFERENCE
DATM.M        557.3                : datum        - DATUM ELEVATION
TDD .M        361                  : tdd          - TOTAL DEPTH DRILLER
RUN .         ONE                  : Run          - RUN NUMBER
ENG .         BILL                 : Engineer     - RECORDING ENGINEER
WIT .         JIM                  : Witness      - WITNESSED BY
MUD .         GEL                  : Mud_type     - MUD TYPE
MATR.         LIMESTONE            : Logunit      - NEUTRON MATRIX
TMAX.C        24                   : BHT          - MAXIMUM RECORDED TEMPERATURE
BHTD.M        361                  : BHTDEP       - MAXIMUM RECORDED TEMPERATURE
MATR.         1                    : LOGUNIT      - NEUTRON MATRIX
RMT .C        25                   : MDTP         - TEMPERATURE OF MUD
NEUT.         1                    : NEUTRON      - NEUTRON TYPE
RESI.         0                    : RESIST       - RESISTIVITY TYPE
RMC .OHMM     0.25                 : RMC          - RESISTIVITY OF MUD CAKE
RMF .OHMM     0.25                 : RMF          - RESISTIVITY OF MUD FILTRATE
SUFT.C        15                   : SUFT         - SURFACE TEMPERATURE
~A  DEPTH     PHID     PHIN       GR     RESD     DENS
# ...
  161.500    0.232    0.517  113.894    6.388    0.000
  161.750    0.218    0.528  110.203    6.389    0.000
  162.000    0.208    0.512  110.213    6.512    0.000
  162.250    0.210    0.484  116.395    6.763    0.000
  162.500    0.233    0.468  123.815    7.294    0.000
  162.750    0.263    0.475  120.738    9.150    0.000
  163.000    0.278    0.495  101.611   11.263    0.000
  163.250    0.301    0.498   83.720   14.951    0.000
  163.500    0.393    0.447   81.879   18.060    0.000
  163.750    0.394    0.449   80.038   18.063    0.000
  164.000    0.352    0.492   89.308   16.753    0.000
  164.250    0.322    0.485   98.577   15.537    0.000
  164.500    0.306    0.484  102.291   14.409    0.000
  164.750    0.298    0.477   99.219   13.618    0.000
  165.000    0.307    0.460   94.289   13.366    0.000
  165.250    0.320    0.485   89.362   13.369    0.000
  165.500    0.345    0.472   86.904   14.149    0.000
  165.750    0.394    0.442   85.061   14.975    0.000
  166.000    0.439    0.472   81.983   16.461    0.000
  166.250    0.483    0.498   75.823   17.754    0.000
  166.500    0.407    0.507   71.510   18.791    0.000
  166.750    0.383    0.475   65.964   20.654    0.000
  167.000    0.377    0.459   54.864   23.134    0.000
  167.250    0.370    0.440   40.677   26.407    0.000
  167.500    0.359    0.415   36.982   27.427    0.000
  167.750    0.345    0.419   41.317   26.415    0.000
  168.000    0.351    0.418   46.266   23.150    0.000
  168.250    0.406    0.411   49.363   21.469    0.000
  168.500    0.390    0.418   56.162   19.911    0.000
  168.750    0.342    0.434   68.520   18.466    0.000
  169.000    0.310    0.454   72.234   17.127    0.000
  169.250    0.306    0.448   70.394   16.495    0.000
  169.500    0.316    0.417   68.551   15.887    0.000
  169.750    0.331    0.417   70.414   15.015    0.000
  170.000    0.317    0.457   74.128   14.191    0.000
  170.250    0.285    0.461   76.607   13.411    0.000
  170.500    0.277    0.431   77.852   12.205    0.000
  170.750    0.285    0.445   83.420   11.108    0.000
  171.000    0.284    0.469   89.602   10.302    0.000
  171.250    0.287    0.442   94.551    9.554    0.000
  171.500    0.296    0.424  100.119    8.861    0.000
  171.750    0.269    0.453  101.364    8.218    0.000
  172.000    0.252    0.469   98.905    7.622    0.000
  172.250    0.253    0.493  106.942    7.341    0.000
  172.500    0.251    0.484  109.420    7.342    0.000
  172.750    0.243    0.461  111.899    7.483    0.000
  173.000    0.237    0.451  112.532    7.920    0.000
  173.250    0.228    0.474  112.538    8.383    0.000
  173.500    0.241    0.491  111.933    9.389    0.000
  173.750    0.259    0.499  105.771   11.130    0.000
  174.000    0.290    0.506   95.902   12.466    0.000
  174.250    0.301    0.475   89.741   13.447    0.000
  174.500    0.281    0.446   95.308   13.705    0.000
  174.750    0.268    0.427   92.849   12.952    0.000
  175.000    0.269    0.435   93.475   12.012    0.000
  175.250    0.269    0.446  101.510   10.527    0.000
  175.500    0.259    0.452  108.315    9.763    0.000
  175.750    0.253    0.457  109.559    9.227    0.000
  176.000    0.252    0.451  112.037    8.887    0.000
  176.250    0.263    0.454  110.198    8.889    0.000
  176.500    0.270    0.466  105.270    9.408    0.000
  176.750    0.275    0.477   99.725    9.957    0.000
  177.000    0.281    0.491   96.031   10.740    0.000
  177.250    0.298    0.485   96.039   11.367    0.000
  177.500    0.312    0.469   99.754   12.495    0.000
  177.750    0.318    0.459   95.443   13.225    0.000
  178.000    0.314    0.458   85.576   13.479    0.000
  178.250    0.308    0.454   84.970   14.000    0.000
  178.500    0.306    0.444   91.772   14.002    0.000
  178.750    0.307    0.438   93.634   13.742    0.000
  179.000    0.308    0.428   93.028   13.488    0.000
  179.250    0.298    0.421   97.977   12.991    0.000
  179.500    0.278    0.420  101.691   12.749    0.000
  179.750    0.260    0.423  106.640   12.279    0.000
  180.000    0.249    0.453  112.206   12.051    0.000
  180.250    0.246    0.482  109.750   12.053    0.000
  180.500    0.255    0.485  104.820   11.830    0.000
  180.750    0.266    0.496   96.805   11.393    0.000
  181.000    0.282    0.509   87.561   10.566    0.000
  181.250    0.289    0.462   86.333    9.986    0.000
  181.500    0.288    0.451   83.873    9.438    0.000
  181.750    0.267    0.483   80.797    8.272    0.000
  182.000    0.233    0.529   83.277    7.528    0.000
  182.250    0.169    0.466   81.435    7.115    0.000
  182.500    0.174    0.444   91.323    7.252    0.000
  182.750    0.218    0.474   96.891    7.252    0.000
  183.000    0.252    0.508   94.432    8.436    0.000
  183.250    0.258    0.476   81.477   10.190    0.000
  183.500    0.270    0.471   66.673   13.025    0.000
  183.750    0.303    0.467   58.041   16.339    0.000
  184.000    0.321    0.462   52.495   19.736    0.000
  184.250    0.320    0.450   51.271   22.528    0.000
  184.500    0.310    0.450   53.135   24.298    0.000
  184.750    0.307    0.445   55.614   25.718    0.000
  185.000    0.310    0.435   56.244   27.221    0.000
  185.250    0.320    0.428   54.403   28.811    0.000
  185.500    0.326    0.439   54.410   29.925    0.000
  185.750    0.328    0.442   54.421   29.927    0.000
  186.000    0.334    0.432   51.963   31.085    0.000
  186.250    0.348    0.424   49.506   31.682    0.000
  186.500    0.361    0.416   50.750   32.291    0.000
  186.750    0.360    0.421   48.908   32.913    0.000
  187.000    0.354    0.415   45.214   33.545    0.000
  187.250    0.353    0.412   45.223   34.190    0.000
  187.500    0.359    0.420   48.323   34.194    0.000
  187.750    0.356    0.427   52.037   34.853    0.000
  188.000    0.345    0.431   56.367   35.520    0.000
  188.250    0.345    0.426   56.379   35.526    0.000
  188.500    0.362    0.414   52.684   35.535    0.000
  188.750    0.360    0.414   50.226   35.538    0.000
  189.000    0.356    0.429   53.324   34.880    0.000
  189.250    0.352    0.449   53.955   34.887    0.000
  189.500    0.356    0.460   53.965   34.239    0.000
  189.750    0.363    0.453   54.589   32.976    0.000
  190.000    0.366    0.444   55.835   32.364    0.000
  190.250    0.367    0.442   55.228   31.763    0.000
  190.500    0.371    0.460   54.621   30.592    0.000
  190.750    0.376    0.466   55.870   29.464    0.000
  191.000    0.379    0.458   57.729   28.917    0.000
  191.250    0.382    0.447   60.209   27.331    0.000
  191.500    0.374    0.442   58.367   27.334    0.000
  191.750    0.363    0.441   60.849   26.327    0.000
  192.000    0.368    0.442   60.245   25.838    0.000
  192.250    0.369    0.458   58.401   24.885    0.000
  192.500    0.367    0.459   56.558   23.967    0.000
  192.750    0.363    0.444   55.950   23.082    0.000
  193.000    0.367    0.436   53.493   21.816    0.000
  193.250    0.385    0.449   55.972   21.819    0.000
  193.500    0.383    0.470   54.133   22.662    0.000
  193.750    0.379    0.476   52.907   23.538    0.000
  194.000    0.364    0.491   56.623   24.914    0.000
  194.250    0.363    0.478   56.631   25.392    0.000
  194.500    0.361    0.454   54.174   25.880    0.000
  194.750    0.357    0.427   56.036   26.378    0.000
  195.000    0.354    0.412   58.517   26.381    0.000
  195.250    0.359    0.416   57.296   26.386    0.000
  195.500    0.346    0.456   56.684   25.896    0.000
  195.750    0.327    0.439   56.696   25.901    0.000
  196.000    0.319    0.424   57.939   25.906    0.000
  196.250    0.336    0.429   61.036   25.911    0.000
  196.500    0.353    0.436   64.135   25.914    0.000
  196.750    0.362    0.435   57.973   26.413    0.000
  197.000    0.366    0.447   56.131   26.415    0.000
  197.250    0.373    0.441   56.144   26.923    0.000
  197.500    0.369    0.445   56.153   27.442    0.000
  197.750    0.368    0.461   55.545   27.967    0.000
