~VERSION INFORMATION
 VERS.                 2.0:   CWLS LOG ASCII STANDARD -VERSION 2.0
 WRAP.                  NO:   ONE LINE PER DEPTH STEP
~WELL INFORMATION BLOCK
#MNEM.UNIT           DATA                    DESCRIPTION OF MNEMONIC
#---------    -------------------            -------------------------------
# Generated from Intellog Unique Number	CS_77_79/WELL/929
WELL.         HOME OIL COMPANY LIMITED       : Well_name    - WELL
LOC .         00/10-04-077-07W4/0            : Location     - LOCATION
UWI .         00/10-04-077-07W4/0            : Uwi          - UNIQUE WELL ID
ENTR.         SP                             : Entered      - ENTERED BY
SRVC.         SCHLUMBERGER                   : Scn          - SERVICE COMPANY
STRT.M        140                            : top_depth    - START DEPTH
STOP.M        375                            : bot_depth    - STOP DEPTH
STEP.M        0.25                           : increment    - STEP LENGTH
 NULL. -999.2500:NULL Value
~CURVE INFORMATION BLOCK
#MNEM UNIT       ERCB CURVE CODE    CURVE DESCRIPTION
#-----------   ------------------   ----------------------------------
DEPT.M        00 001 00 00         : DEPTH        - DEPTH
DPHI.V/V      00 890 00 00         : PHID         - DENSITY POROSITY (LIMESTONE)
NPHI.V/V      00 330 00 00         : PHIN         - NEUTRON POROSITY (LIMESTONE)
GR  .API      00 310 00 00         : GR           - GAMMA RAY
ILD .OHMM     00 120 00 00         : RESD         - DEEP RESISTIVITY (DIL)
~PARAMETER INFORMATION
#MNEM.UNIT           DATA             DESCRIPTION OF MNEMONIC
#---------         -----------     ------------------------------
GL  .M        565.97               : gl           - GROUND LEVEL ELEVATION
EREF.M        569.42               : kb           - ELEVATION OF DEPTH REFERENCE
DATM.M        565.97               : datum        - DATUM ELEVATION
TDD .M        385                  : tdd          - TOTAL DEPTH DRILLER
RUN .         ONE                  : Run          - RUN NUMBER
ENG .         BILL                 : Engineer     - RECORDING ENGINEER
WIT .         JIM                  : Witness      - WITNESSED BY
MUD .         GEL                  : Mud_type     - MUD TYPE
MATR.         LIMESTONE            : Logunit      - NEUTRON MATRIX
TMAX.C        5                    : BHT          - MAXIMUM RECORDED TEMPERATURE
BHTD.M        385                  : BHTDEP       - MAXIMUM RECORDED TEMPERATURE
MATR.         1                    : LOGUNIT      - NEUTRON MATRIX
RMT .C        25                   : MDTP         - TEMPERATURE OF MUD
NEUT.         1                    : NEUTRON      - NEUTRON TYPE
RESI.         0                    : RESIST       - RESISTIVITY TYPE
RMC .OHMM     0.25                 : RMC          - RESISTIVITY OF MUD CAKE
RMF .OHMM     0.25                 : RMF          - RESISTIVITY OF MUD FILTRATE
SUFT.C        15                   : SUFT         - SURFACE TEMPERATURE
~A  DEPTH     PHID     PHIN       GR     RESD
  140.000    0.323    0.583  100.409    2.524
  140.250    0.314    0.593  100.414    2.524
  140.500    0.304    0.582  100.423    2.619
  140.750    0.295    0.565   99.220    2.668
  141.000    0.301    0.547   99.228    2.769
  141.250    0.319    0.531   96.814    2.820
  141.500    0.325    0.549   93.798    2.768
  141.750    0.327    0.566   89.574    2.768
  142.000    0.331    0.578   87.158    2.820
  142.250    0.316    0.553   82.327    2.981
  142.500    0.297    0.530   79.310    3.037
  142.750    0.273    0.517   81.737    3.036
  143.000    0.279    0.526   84.768    2.872
  143.250    0.286    0.538   90.218    2.819
  143.500    0.304    0.553   93.855    2.767
  143.750    0.300    0.531   90.839    2.767
  144.000    0.284    0.521   89.031    2.819
  144.250    0.299    0.535   91.457    2.872
  144.500    0.303    0.547   94.488    2.980
  144.750    0.297    0.543   93.286    3.209
  145.000    0.283    0.550   92.085    3.330
  145.250    0.269    0.551   93.905    3.520
  145.500    0.244    0.559   93.914    3.652
  145.750    0.205    0.535   90.895    3.720
  146.000    0.109    0.489   87.878    3.790
  146.250    0.097    0.480   85.466    3.861
  146.500    0.187    0.495   88.499    3.720
  146.750    0.261    0.501   92.134    3.519
  147.000    0.269    0.524   95.166    3.391
  147.250    0.280    0.543   98.803    3.267
  147.500    0.258    0.551  100.623    3.267
  147.750    0.263    0.543  101.237    3.267
  148.000    0.252    0.524   99.432    3.390
  148.250    0.247    0.511   98.225    3.584
  148.500    0.258    0.510   95.208    3.650
  148.750    0.258    0.495   92.796    3.650
  149.000    0.256    0.497   95.828    3.859
  149.250    0.265    0.484   91.601    4.312
  149.500    0.235    0.457   84.350    4.909
  149.750    0.221    0.408   75.284    5.588
  150.000    0.224    0.391   63.195    6.244
  150.250    0.228    0.400   61.991    6.479
  150.500    0.247    0.414   60.788    6.017
  150.750    0.305    0.480   66.242    5.484
  151.000    0.284    0.488   74.111    4.907
  151.250    0.277    0.471   85.609    4.473
  151.500    0.246    0.475   95.294    4.391
  151.750    0.230    0.479   93.487    4.998
  152.000    0.234    0.474   85.026    5.690
  152.250    0.249    0.450   75.962    7.238
  152.500    0.264    0.422   75.969    9.916
  152.750    0.271    0.418   83.839   12.851
  153.000    0.261    0.430   89.894   13.838
  153.250    0.281    0.430   91.716   14.902
  153.500    0.295    0.422   89.304   15.752
  153.750    0.278    0.415   81.449   16.346
  154.000    0.289    0.425   78.430   16.651
  154.250    0.285    0.418   76.623   16.961
  154.500    0.281    0.399   75.420   16.649
  154.750    0.259    0.381   74.217   16.043
  155.000    0.247    0.404   82.088   15.459
  155.250    0.246    0.417   86.936   15.175
  155.500    0.264    0.429   87.547   14.896
  155.750    0.284    0.431   89.368   14.895
  156.000    0.292    0.448   92.400   15.173
  156.250    0.278    0.454   91.802   16.339
  156.500    0.285    0.454   71.850   19.301
  156.750    0.295    0.488   59.758   22.801
  157.000    0.337    0.522   42.224   25.012
  157.250    0.389    0.401   30.135   26.934
  157.500    0.362    0.385   30.747   27.949
  157.750    0.333    0.395   34.988   26.438
  158.000    0.342    0.390   39.230   19.657
  158.250    0.318    0.382   45.890   15.450
  158.500    0.331    0.391   56.180   13.078
  158.750    0.327    0.448   73.124   12.602
  159.000    0.370    0.522   82.203   13.077
  159.250    0.346    0.508   84.630   14.082
  159.500    0.307    0.461   84.637   15.164
  159.750    0.278    0.440   84.040   16.029
  160.000    0.274    0.452   81.627   17.583
  160.250    0.291    0.461   78.005   19.288
  160.500    0.302    0.465   71.360   21.159
  160.750    0.311    0.453   67.736   24.537
  161.000    0.286    0.442   62.904   25.938
  161.250    0.295    0.435   58.678   27.418
  161.500    0.326    0.427   56.266   28.451
  161.750    0.350    0.444   53.854   28.982
  162.000    0.345    0.429   50.231   27.926
  162.250    0.335    0.409   43.587   27.925
  162.500    0.341    0.404   39.358   27.412
  162.750    0.335    0.409   42.995   26.908
  163.000    0.333    0.417   49.052   26.907
  163.250    0.337    0.423   53.292   26.906
  163.500    0.329    0.429   56.928   26.904
  163.750    0.315    0.444   60.565   26.903
  164.000    0.330    0.439   62.991   26.902
  164.250    0.338    0.432   65.417   26.407
  164.500    0.340    0.429   61.799   26.406
  164.750    0.354    0.422   59.989   25.921
  165.000    0.350    0.418   63.022   24.977
  165.250    0.344    0.428   66.658   24.518
  165.500    0.340    0.434   67.269   22.766
  165.750    0.324    0.424   66.067   21.140
  166.000    0.317    0.418   65.468   17.243
  166.250    0.306    0.425   74.549   13.304
  166.500    0.289    0.413   87.864   10.653
  166.750    0.269    0.414   96.943    8.373
  167.000    0.245    0.440  106.022    7.220
  167.250    0.205    0.498  112.683    5.889
  167.500    0.199    0.529  114.505    5.269
  167.750    0.196    0.508  112.092    4.893
  168.000    0.180    0.508  112.102    4.543
  168.250    0.168    0.519  114.526    4.141
  168.500    0.182    0.522  115.139    4.065
  168.750    0.187    0.516  112.123    4.141
  169.000    0.224    0.547  109.105    4.802
  169.250    0.240    0.563  106.088    5.997
  169.500    0.263    0.530   98.231    9.705
  169.750    0.276    0.486   86.747   14.859
  170.000    0.288    0.428   77.680   18.215
  170.250    0.294    0.410   69.219   19.981
  170.500    0.302    0.414   59.550   20.734
  170.750    0.312    0.402   52.903   19.253
  171.000    0.283    0.387   58.960   18.212
  171.250    0.142    0.383   65.621   17.227
  171.500    0.152    0.414   68.651   17.548
  171.750    0.281    0.432   70.472   18.209
  172.000    0.300    0.439   65.037   19.608
  172.250    0.305    0.433   63.229   20.348
  172.500    0.311    0.431   63.841   18.207
  172.750    0.316    0.424   63.848   16.291
  173.000    0.325    0.411   68.696   14.310
  173.250    0.313    0.411   73.540   11.458
  173.500    0.301    0.411   83.225   10.639
  173.750    0.281    0.411   91.700    8.678
  174.000    0.240    0.441  105.619    7.765
  174.250    0.218    0.465  118.328    6.948
  174.500    0.194    0.488  116.520    6.333
  174.750    0.195    0.505  115.318    5.881
  175.000    0.212    0.503  116.536    5.667
  175.250    0.176    0.498  118.358    5.563
  175.500    0.198    0.492  118.364    5.562
  175.750    0.187    0.494  115.347    5.772
  176.000    0.188    0.487  113.539    6.216
  176.250    0.205    0.486  116.571    6.946
  176.500    0.226    0.471  118.999    8.515
  176.750    0.248    0.457  118.401    9.874
  177.000    0.290    0.441  112.360   12.331
  177.250    0.318    0.428  106.318   14.839
  177.500    0.341    0.444   99.067   16.278
  177.750    0.289    0.441   94.840   15.397
  178.000    0.276    0.430   96.057   14.565
  178.250    0.283    0.422   99.694   13.524
  178.500    0.259    0.428   99.095   12.558
  178.750    0.265    0.434   92.449   13.031
  179.000    0.271    0.427   88.222   14.033
  179.250    0.273    0.408   83.995   15.393
  179.500    0.273    0.399   76.746   15.974
  179.750    0.272    0.392   70.099   17.850
  180.000    0.275    0.407   68.290   19.222
  180.250    0.266    0.413   69.507   20.319
  180.500    0.278    0.423   62.862   21.479
  180.750    0.307    0.419   59.238   22.288
  181.000    0.332    0.414   59.851   21.878
  181.250    0.311    0.412   63.489   21.082
  181.500    0.313    0.408   65.308   19.216
  181.750    0.305    0.412   68.340   18.177
  182.000    0.296    0.409   73.793   15.966
  182.250    0.271    0.403   79.851   15.103
  182.500    0.245    0.396   82.274   13.514
  182.750    0.239    0.393   87.725   12.319
  183.000    0.238    0.387   94.992   11.023
  183.250    0.215    0.409   99.838    9.504
