~VERSION INFORMATION
 VERS.                 2.0:   CWLS LOG ASCII STANDARD -VERSION 2.0
 WRAP.                  NO:   ONE LINE PER DEPTH STEP
~WELL INFORMATION BLOCK
#MNEM.UNIT           DATA                    DESCRIPTION OF MNEMONIC
#---------    -------------------            -------------------------------
# Generated from Intellog Unique Number	CW_76_78/WELL/901
WELL.         PCP MARTEN HILLS 10-22         : Well_name    - WELL
LOC .         00/10-22-076-04W5/0            : Location     - LOCATION
UWI .         00/10-22-076-04W5/0            : Uwi          - UNIQUE WELL ID
ENTR.         JAYE                           : Entered      - ENTERED BY
SRVC.         SCHLUMBERGER                   : Scn          - SERVICE COMPANY
DATE.         24 MAR 74                      : Date         - LOG DATE
STRT.M        524.256                        : top_depth    - START DEPTH
STOP.M        777.256                        : bot_depth    - STOP DEPTH
STEP.M        0.25                           : increment    - STEP LENGTH
 NULL. -999.2500:NULL Value
~CURVE INFORMATION BLOCK
#MNEM UNIT       ERCB CURVE CODE    CURVE DESCRIPTION
#-----------   ------------------   ----------------------------------
DEPT.M        00 001 00 00         : DEPTH        - DEPTH
ILD .OHMM     00 120 00 00         : RESD         - DEEP RESISTIVITY (DIL)
NPHI.V/V      00 330 00 00         : PHIN         - NEUTRON POROSITY (SANDSTONE)
DPHI.V/V      00 890 00 00         : PHID         - DENSITY POROSITY (SANDSTONE)
GR  .API      00 310 00 00         : GR           - GAMMA RAY
CALI.MM       00 280 01 00         : CAL          - CALIPER
~PARAMETER INFORMATION
#MNEM.UNIT           DATA             DESCRIPTION OF MNEMONIC
#---------         -----------     ------------------------------
GL  .M        833.476              : gl           - GROUND LEVEL ELEVATION
EREF.M        837.133              : kb           - ELEVATION OF DEPTH REFERENCE
DATM.M        833.476              : datum        - DATUM ELEVATION
TDD .M        790.346              : tdd          - TOTAL DEPTH DRILLER
RUN .         ONE                  : Run          - RUN NUMBER
ENG .         WILLIGER             : Engineer     - RECORDING ENGINEER
WIT .         BOND                 : Witness      - WITNESSED BY
BASE.         RD                   : Branch       - HOME BASE OF LOGGING UNIT
MUD .         CHEM GEL             : Mud_type     - MUD TYPE
MATR.         SANDSTONE            : Logunit      - NEUTRON MATRIX
TMAX.C        27.7778              : BHT          - MAXIMUM RECORDED TEMPERATURE
BHTD.M        790.651              : BHTDEP       - MAXIMUM RECORDED TEMPERATURE
RMT .C        9.44444              : MDTP         - TEMPERATURE OF MUD
MUDD.KG/M     1164                 : MWT          - MUD DENSITY
NEUT.         1                    : NEUTRON      - NEUTRON TYPE
RESI.         0                    : RESIST       - RESISTIVITY TYPE
RM  .OHMM     4.84                 : RM           - RESISTIVITY OF MUD
RMC .OHMM     0                    : RMC          - RESISTIVITY OF MUD CAKE
RMF .OHMM     5.54                 : RMF          - RESISTIVITY OF MUD FILTRATE
SUFT.C        -17.7778             : SUFT         - SURFACE TEMPERATURE
~A  DEPTH     RESD     PHIN     PHID       GR      CAL
# ...
  560.756    4.738    0.435    0.298   51.835  201.374
  561.006    4.711    0.442    0.284   52.027  199.638
  561.256    4.497    0.450    0.271   58.793  200.582
  561.506    3.821    0.459    0.260   68.482  202.349
  561.756    3.164    0.472    0.239   75.918  205.251
  562.006    2.629    0.496    0.241   81.103  206.919
  562.256    2.181    0.530    0.252   84.825  206.624
  562.506    1.941    0.551    0.249   87.026  205.299
  562.756    1.721    0.569    0.240   85.757  204.182
  563.006    1.686    0.582    0.229   83.148  203.579
  563.256    1.863    0.577    0.232   75.427  202.666
  563.506    2.244    0.527    0.253   69.653  201.652
  563.756    2.880    0.453    0.291   62.174  199.914
  564.006    4.024    0.416    0.309   56.461  197.457
  564.256    5.822    0.397    0.318   51.358  196.030
  564.506    7.912    0.390    0.313   51.124  195.633
  564.756    8.970    0.384    0.303   50.098  195.649
  565.006    9.034    0.392    0.308   52.481  195.872
  565.256    8.672    0.401    0.305   55.961  196.403
  565.506    8.264    0.405    0.295   52.013  197.243
  565.756    7.773    0.430    0.292   51.901  197.774
  566.006    7.245    0.462    0.298   55.016  197.584
  566.256    6.942    0.462    0.306   55.816  196.673
  566.506    6.826    0.453    0.304   56.008  195.968
  566.756    6.749    0.455    0.291   55.835  195.364
  567.006    6.748    0.455    0.302   55.113  194.967
  567.256    6.860    0.449    0.309   54.454  194.367
  567.506    6.987    0.455    0.300   53.428  193.967
  567.756    7.050    0.469    0.309   53.072  192.956
  568.006    6.958    0.488    0.327   54.482  192.145
  568.256    6.729    0.478    0.334   55.891  191.440
  568.506    6.508    0.462    0.326   55.900  192.176
  568.756    6.293    0.459    0.309   55.057  193.738
  569.006    6.200    0.468    0.295   54.032  196.332
  569.256    6.085    0.485    0.323   53.067  196.966
  569.506    6.028    0.479    0.333   50.763  197.187
  569.756    6.004    0.471    0.325   50.955  197.099
  570.006    6.081    0.459    0.313   52.243  197.632
  570.256    6.403    0.449    0.320   55.113  198.162
  570.506    6.893    0.439    0.329   53.236  199.106
  570.756    7.545    0.434    0.320   49.470  198.712
  571.006    7.642    0.431    0.317   47.716  197.904
  571.256    7.363    0.419    0.308   48.150  197.300
  571.506    6.862    0.455    0.314   49.316  197.006
  571.756    6.221    0.486    0.296   51.030  197.124
  572.006    5.766    0.513    0.293   53.170  196.935
  572.256    5.413    0.496    0.305   54.702  196.953
  572.506    5.017    0.478    0.295   53.860  197.172
  572.756    4.790    0.456    0.278   53.503  197.190
  573.006    4.675    0.438    0.287   53.879  197.310
  573.256    4.779    0.424    0.285   55.835  197.323
  573.506    4.995    0.412    0.280   56.028  197.133
  573.756    5.318    0.397    0.286   54.210  197.048
  574.006    5.897    0.392    0.293   51.662  197.164
  574.256    6.466    0.398    0.302   50.150  197.389
  574.506    7.144    0.407    0.304   49.856  197.404
  574.756    7.819    0.413    0.307   49.134  197.316
  575.006    8.340    0.415    0.298   48.169  197.434
  575.256    8.863    0.408    0.277   49.883  197.759
  575.506    9.298    0.407    0.293   48.553  198.085
  575.756    9.700    0.405    0.308   48.806  198.409
  576.006   10.063    0.386    0.319   50.764  198.939
  576.256   10.268    0.372    0.312   53.451  199.677
  576.506    9.766    0.362    0.289   60.218  200.622
  576.756    7.807    0.403    0.269   66.436  201.153
  577.006    6.230    0.456    0.265   72.716  201.891
  577.256    5.111    0.535    0.270   80.213  202.216
  577.506    4.116    0.570    0.316   79.857  202.439
  577.756    3.364    0.560    0.358   72.561  202.350
  578.006    4.137    0.491    0.371   60.943  200.613
  578.256    5.319    0.368    0.322   50.605  199.495
  578.506    6.565    0.331    0.298   44.283  198.687
  578.756    8.518    0.319    0.297   39.300  197.883
  579.006   10.170    0.319    0.288   34.744  197.792
  579.256   11.091    0.324    0.291   35.423  197.810
  579.506   11.678    0.331    0.300   38.233  197.825
  579.756   12.004    0.338    0.274   42.503  197.735
  580.006   11.609    0.356    0.252   51.035  197.752
  580.256   10.485    0.366    0.230   61.698  197.770
  580.506    8.444    0.377    0.213   71.873  198.096
  580.756    7.069    0.384    0.198   74.562  198.624
  581.006    6.052    0.388    0.196   72.563  199.053
  581.256    5.578    0.396    0.203   72.328  196.696
  581.506    5.325    0.404    0.239   73.860  194.857
  581.756    5.284    0.416    0.266   77.034  194.564
  582.006    5.235    0.431    0.274   80.452  195.714
  582.256    5.035    0.448    0.273   83.384  197.276
  582.506    4.701    0.480    0.251   85.402  198.941
  582.756    4.137    0.493    0.227   86.811  201.122
  583.006    3.581    0.520    0.236   86.030  203.097
  583.256    2.916    0.541    0.265   84.760  204.863
  583.506    2.375    0.567    0.290   78.378  206.221
  583.756    2.238    0.585    0.316   67.065  206.133
  584.006    2.369    0.514    0.314   58.794  203.056
  584.256    2.752    0.456    0.292   50.525  197.299
  584.506    3.711    0.408    0.301   45.056  195.049
  584.756    5.195    0.379    0.314   45.613  194.345
  585.006    6.654    0.384    0.310   44.649  193.945
  585.256    7.627    0.391    0.322   44.658  193.651
  585.506    7.987    0.400    0.325   45.519  193.462
  585.756    8.089    0.407    0.314   46.930  193.273
  586.006    8.043    0.421    0.318   47.791  193.081
  586.256    7.967    0.412    0.337   48.165  193.202
  586.506    7.834    0.407    0.338   47.748  193.319
  586.756    7.675    0.405    0.331   47.636  193.438
  587.006    7.547    0.407    0.325   47.889  193.456
  587.256    7.462    0.404    0.320   47.046  193.679
  587.506    7.365    0.401    0.325   47.055  194.002
  587.756    7.363    0.407    0.317   48.951  194.637
  588.006    7.375    0.426    0.325   48.048  194.965
  588.256    7.415    0.420    0.330   46.658  194.873
  588.506    7.510    0.415    0.344   47.032  194.993
  588.756    7.620    0.428    0.341   48.624  195.008
  589.006    7.704    0.437    0.338   50.155  195.333
  589.256    7.846    0.428    0.343   49.008  195.661
  589.506    7.976    0.421    0.347   46.095  195.777
  589.756    8.124    0.404    0.349   43.243  196.205
  590.006    8.273    0.397    0.344   42.584  197.562
  590.256    8.395    0.407    0.340   43.020  199.329
  590.506    8.534    0.406    0.339   44.063  200.376
  590.756    8.676    0.402    0.346   45.837  196.580
  591.006    8.852    0.404    0.353   47.795  194.945
  591.256    9.083    0.411    0.341   49.083  193.313
  591.506    9.336    0.404    0.325   48.667  192.090
  591.756    9.544    0.394    0.327   49.345  190.354
  592.006    9.737    0.413    0.324   49.050  188.411
  592.256    9.881    0.422    0.327   49.364  186.263
  592.506   10.008    0.408    0.336   50.286  187.721
  592.756    9.969    0.398    0.336   49.018  193.304
  593.006    9.875    0.401    0.338   48.723  198.578
  593.256    9.728    0.410    0.347   50.802  200.344
  593.506    9.584    0.420    0.357   52.211  198.505
  593.756    9.302    0.423    0.351   50.151  195.017
  594.006    9.080    0.423    0.341   47.664  193.281
  594.256    8.748    0.420    0.345   47.612  193.193
  594.506    8.321    0.417    0.353   49.752  194.136
  594.756    8.122    0.446    0.367   50.371  195.388
  595.006    7.883    0.446    0.390   49.103  197.365
  595.256    7.752    0.441    0.380   49.111  199.133
  595.506    7.637    0.445    0.373   50.277  200.178
  595.756    7.565    0.478    0.373   52.296  200.917
  596.006    7.577    0.462    0.361   54.374  201.343
  596.256    7.717    0.433    0.345   52.801  202.081
  596.506    7.947    0.416    0.341   50.254  200.965
  596.756    8.124    0.425    0.338   51.968  199.536
  597.006    8.289    0.443    0.347   54.717  197.698
