~VERSION INFORMATION
 VERS.                 2.0:   CWLS LOG ASCII STANDARD -VERSION 2.0
 WRAP.                  NO:   ONE LINE PER DEPTH STEP
~WELL INFORMATION BLOCK
#MNEM.UNIT           DATA                    DESCRIPTION OF MNEMONIC
#---------    -------------------            -------------------------------
# Generated from Intellog Unique Number	CS_73_76/WELL/840
WELL.         ARGO PETOLEUM CORPORATION      : Well_name    - WELL
LOC .         00/10-36-073-11W4/0            : Location     - LOCATION
UWI .         00/10-36-073-11W4/0            : Uwi          - UNIQUE WELL ID
ENTR.         SP                             : Entered      - ENTERED BY
SRVC.         SCHLUMBERGER                   : Scn          - SERVICE COMPANY
STRT.M        298.704                        : top_depth    - START DEPTH
STOP.M        517.954                        : bot_depth    - STOP DEPTH
STEP.M        0.25                           : increment    - STEP LENGTH
 NULL. -999.2500:NULL Value
~CURVE INFORMATION BLOCK
#MNEM UNIT       ERCB CURVE CODE    CURVE DESCRIPTION
#-----------   ------------------   ----------------------------------
DEPT.M        00 001 00 00         : DEPTH        - DEPTH
GR  .API      00 310 00 00         : GR           - GAMMA RAY
DPHI.V/V      00 890 00 00         : PHID         - DENSITY POROSITY (SANDSTONE)
NPHI.V/V      00 330 00 00         : PHIN         - NEUTRON POROSITY (SANDSTONE)
ILD .OHMM     00 120 00 00         : RESD         - DEEP RESISTIVITY (DIL)
~PARAMETER INFORMATION
#MNEM.UNIT           DATA             DESCRIPTION OF MNEMONIC
#---------         -----------     ------------------------------
GL  .M        654.406              : gl           - GROUND LEVEL ELEVATION
EREF.M        657.606              : kb           - ELEVATION OF DEPTH REFERENCE
DATM.M        654.406              : datum        - DATUM ELEVATION
TDD .M        523.951              : tdd          - TOTAL DEPTH DRILLER
RUN .         ONE                  : Run          - RUN NUMBER
ENG .         BILL                 : Engineer     - RECORDING ENGINEER
WIT .         JIM                  : Witness      - WITNESSED BY
MUD .         GEL                  : Mud_type     - MUD TYPE
MATR.         SANDSTONE            : Logunit      - NEUTRON MATRIX
TMAX.C        16.6667              : BHT          - MAXIMUM RECORDED TEMPERATURE
BHTD.M        523.951              : BHTDEP       - MAXIMUM RECORDED TEMPERATURE
MATR.         1                    : LOGUNIT      - NEUTRON MATRIX
RMT .C        25                   : MDTP         - TEMPERATURE OF MUD
NEUT.         1                    : NEUTRON      - NEUTRON TYPE
RESI.         0                    : RESIST       - RESISTIVITY TYPE
RMC .OHMM     0.25                 : RMC          - RESISTIVITY OF MUD CAKE
RMF .OHMM     0.25                 : RMF          - RESISTIVITY OF MUD FILTRATE
SUFT.C        15                   : SUFT         - SURFACE TEMPERATURE
~A  DEPTH       GR     PHID     PHIN     RESD
# ...
  342.204   94.022    0.232    0.546   13.315
  342.454   95.180    0.227    0.521   12.809
  342.704   95.599    0.226    0.494   12.425
  342.954   95.682    0.214    0.472   12.042
  343.204   93.446    0.204    0.464   11.914
  343.454   93.483    0.191    0.485   11.528
  343.704   94.269    0.183    0.493   11.384
  343.954   95.046    0.196    0.451   11.079
  344.204   95.955    0.210    0.422   10.538
  344.454   93.702    0.206    0.419   10.248
  344.704   90.308    0.208    0.429    9.949
  344.954   88.862    0.229    0.445    9.718
  345.204   90.617    0.244    0.461    9.727
  345.454   92.024    0.231    0.472    9.876
  345.704   93.105    0.219    0.480    9.960
  345.954   94.098    0.227    0.519   10.283
  346.204   93.050    0.208    0.548   10.477
  346.454   89.372    0.209    0.567   10.476
  346.704   89.934    0.210    0.585   10.281
  346.954   89.991    0.206    0.577    9.775
  347.204   89.160    0.194    0.562    9.133
  347.454   87.609    0.207    0.552    8.582
  347.704   89.205    0.224    0.549    8.229
  347.954   89.192    0.238    0.539    8.084
  348.204   85.515    0.255    0.521    7.915
  348.454   86.967    0.277    0.508    8.317
  348.704   88.908    0.268    0.530    8.737
  348.954   90.496    0.250    0.557    9.451
  349.204   91.416    0.233    0.572   10.095
  349.454   92.399    0.235    0.570   10.636
  349.704   90.957    0.217    0.566   10.740
  349.954   85.966    0.226    0.535   10.060
  350.204   81.975    0.246    0.517    9.209
  350.454   82.908    0.251    0.485    8.669
  350.704   82.178    0.243    0.466    8.394
  350.954   78.610    0.237    0.468    8.672
  351.204   77.570    0.250    0.462    9.008
  351.454   75.929    0.246    0.439    9.366
  351.704   75.551    0.243    0.456    9.653
  351.954   75.697    0.235    0.455    9.947
  352.204   75.393    0.223    0.478   10.248
  352.454   75.332    0.229    0.506   10.415
  352.704   77.031    0.244    0.500   10.625
  352.954   78.351    0.248    0.515   10.806
  353.204   77.743    0.244    0.515   10.784
  353.454   76.873    0.229    0.480   11.037
  353.704   76.836    0.218    0.479   10.822
  353.954   73.813    0.227    0.490   10.744
  354.204   68.532    0.235    0.432   10.189
  354.454   64.575    0.256    0.426    9.750
  354.704   65.418    0.267    0.426    9.497
  354.954   68.095    0.265    0.453    9.508
  355.204   72.678    0.254    0.482    9.929
  355.454   76.140    0.240    0.471   10.538
  355.704   79.622    0.212    0.461   11.197
  355.954   81.917    0.207    0.462   11.305
  356.204   82.793    0.210    0.452   11.632
  356.454   80.256    0.196    0.435   11.420
  356.704   80.481    0.186    0.445   10.737
  356.954   81.228    0.200    0.459   10.327
  357.204   77.627    0.212    0.472   10.014
  357.454   75.073    0.221    0.467   10.019
  357.704   75.617    0.222    0.490   10.018
  357.954   76.717    0.214    0.499   10.155
  358.204   75.123    0.207    0.474   10.467
  358.454   75.564    0.225    0.463   10.784
  358.704   74.238    0.237    0.448   11.255
  358.954   71.642    0.246    0.429   11.590
  359.204   72.588    0.240    0.415   11.795
  359.454   74.238    0.236    0.423   12.171
  359.704   74.250    0.232    0.427   12.235
  359.954   74.335    0.219    0.422   12.234
  360.204   75.521    0.213    0.434   12.129
  360.454   78.198    0.205    0.460   11.729
  360.704   80.152    0.231    0.481   11.194
  360.954   81.634    0.250    0.476   10.872
  361.204   83.176    0.236    0.464   10.557
  361.454   80.604    0.230    0.472   10.571
  361.704   78.789    0.249    0.481   10.634
  361.954   79.784    0.235    0.452   10.756
  362.204   82.383    0.225    0.449   10.973
  362.454   83.407    0.230    0.454   11.005
  362.704   82.206    0.239    0.464   11.152
  362.954   81.520    0.227    0.461   11.146
  363.204   81.521    0.225    0.444   11.117
  363.454   79.430    0.217    0.434   10.777
  363.704   78.580    0.222    0.445   10.551
  363.954   79.378    0.235    0.479   10.338
  364.204   80.801    0.236    0.502   10.513
  364.454   83.553    0.233    0.480   10.540
  364.704   85.742    0.237    0.460   10.544
  364.954   85.373    0.220    0.466   10.532
  365.204   82.229    0.210    0.485   10.873
  365.454   77.531    0.197    0.504   11.332
  365.704   75.227    0.218    0.504   11.918
  365.954   76.136    0.209    0.485   12.314
  366.204   79.046    0.201    0.465   12.653
  366.454   83.338    0.196    0.444   12.585
  366.704   83.496    0.208    0.464   11.672
  366.954   79.411    0.216    0.485   10.638
  367.204   77.618    0.188    0.479   10.095
  367.454   75.042    0.203    0.479    9.577
  367.704   70.484    0.253    0.496    8.701
  367.954   63.852    0.275    0.512    8.401
  368.204   58.719    0.286    0.508    8.145
  368.454   60.821    0.272    0.517    8.164
  368.704   61.963    0.243    0.506    7.990
  368.954   64.521    0.246    0.517    7.859
  369.204   67.010    0.251    0.520    7.491
  369.454   70.318    0.231    0.512    6.867
  369.704   72.112    0.229    0.537    6.565
  369.954   73.573    0.240    0.570    6.296
  370.204   73.492    0.250    0.550    6.193
  370.454   73.510    0.250    0.529    6.587
  370.704   73.745    0.244    0.530    7.176
  370.954   74.091    0.252    0.518    7.863
  371.204   73.606    0.259    0.502    8.512
  371.454   67.688    0.266    0.490    9.050
  371.704   61.820    0.268    0.489    9.238
  371.954   56.445    0.257    0.487    9.856
  372.204   58.496    0.250    0.473    9.683
  372.454   60.389    0.246    0.450    9.735
  372.704   64.030    0.250    0.470   10.027
  372.954   66.133    0.248    0.486   10.307
  373.204   68.011    0.263    0.508   10.464
  373.454   70.386    0.272    0.527   10.494
  373.704   67.432    0.261    0.543   10.259
  373.954   65.094    0.265    0.528    9.799
  374.204   62.457    0.278    0.498    9.298
  374.454   60.598    0.270    0.513    9.226
  374.704   58.258    0.275    0.513    9.196
  374.954   59.718    0.269    0.474    9.696
  375.204   60.688    0.272    0.479   10.091
  375.454   57.786    0.267    0.472   10.699
  375.704   55.802    0.187    0.456   11.290
  375.954   54.478    0.142    0.414   12.461
  376.204   50.247    0.106    0.377   12.876
  376.454   48.355    0.174    0.377   13.578
  376.704   51.465    0.233    0.419   13.994
  376.954   53.547    0.272    0.489   14.122
  377.204   55.521    0.273    0.508   14.266
  377.454   57.057    0.281    0.522   13.833
  377.704   58.010    0.286    0.527   13.412
  377.954   58.970    0.283    0.497   13.268
  378.204   60.907    0.270    0.481   13.265
  378.454   62.765    0.277    0.474   13.267
  378.704   62.612    0.288    0.448   13.250
  378.954   61.197    0.288    0.456   13.501
  379.204   62.005    0.277    0.452   13.772
  379.454   61.459    0.279    0.454   13.764
  379.704   62.076    0.285    0.464   13.398
  379.954   65.067    0.282    0.480   12.736
  380.204   66.904    0.270    0.510   12.357
  380.454   69.422    0.261    0.506   12.326
  380.704   69.628    0.267    0.515   12.320
  380.954   69.249    0.272    0.517   12.527
  381.204   68.114    0.268    0.493   12.777
  381.454   66.703    0.259    0.474   12.995
  381.704   68.084    0.257    0.472   13.001
  381.954   68.476    0.251    0.496   13.047
  382.204   67.980    0.244    0.510   13.242
  382.454   67.046    0.253    0.479   13.262
  382.704   65.296    0.259    0.447   12.981
  382.954   62.315    0.274    0.454   12.795
  383.204   61.629    0.266    0.475   12.766
  383.454   62.660    0.268    0.477   12.766
  383.704   62.241    0.270    0.490   12.972
  383.954   61.367    0.267    0.505   13.233
  384.204   62.064    0.260    0.506   13.465
  384.454   62.748    0.259    0.497   13.901
  384.704   64.792    0.264    0.514   14.025
  384.954   69.454    0.265    0.543   14.209
  385.204   75.069    0.282    0.557   14.507
  385.454   78.396    0.281    0.539   14.510
