~VERSION INFORMATION
 VERS.                 2.0:   CWLS LOG ASCII STANDARD -VERSION 2.0
 WRAP.                  NO:   ONE LINE PER DEPTH STEP
~WELL INFORMATION BLOCK
#MNEM.UNIT           DATA                    DESCRIPTION OF MNEMONIC
#---------    -------------------            -------------------------------
# Generated from Intellog Unique Number	CS_69_70/WELL/888
WELL.         ALGAS MINERAL ENTERPRISES      : Well_name    - WELL
LOC .         00/11-15-070-17W4/0            : Location     - LOCATION
UWI .         00/11-15-070-17W4/0            : Uwi          - UNIQUE WELL ID
ENTR.         SP                             : Entered      - ENTERED BY
SRVC.         SCHLUMBERGER                   : Scn          - SERVICE COMPANY
STRT.M        274.32                         : top_depth    - START DEPTH
STOP.M        472.07                         : bot_depth    - STOP DEPTH
STEP.M        0.25                           : increment    - STEP LENGTH
 NULL. -999.2500:NULL Value
~CURVE INFORMATION BLOCK
#MNEM UNIT       ERCB CURVE CODE    CURVE DESCRIPTION
#-----------   ------------------   ----------------------------------
DEPT.M        00 001 00 00         : DEPTH        - DEPTH
GR  .API      00 310 00 00         : GR           - GAMMA RAY
DPHI.V/V      00 890 00 00         : PHID         - DENSITY POROSITY (SANDSTONE)
NPHI.V/V      00 330 00 00         : PHIN         - NEUTRON POROSITY (SANDSTONE)
ILD .OHMM     00 120 00 00         : RESD         - DEEP RESISTIVITY (DIL)
~PARAMETER INFORMATION
#MNEM.UNIT           DATA             DESCRIPTION OF MNEMONIC
#---------         -----------     ------------------------------
GL  .M        556.108              : gl           - GROUND LEVEL ELEVATION
EREF.M        559.003              : kb           - ELEVATION OF DEPTH REFERENCE
DATM.M        556.108              : datum        - DATUM ELEVATION
TDD .M        484.632              : tdd          - TOTAL DEPTH DRILLER
RUN .         ONE                  : Run          - RUN NUMBER
ENG .         BILL                 : Engineer     - RECORDING ENGINEER
WIT .         JIM                  : Witness      - WITNESSED BY
MUD .         GEL                  : Mud_type     - MUD TYPE
MATR.         SANDSTONE            : Logunit      - NEUTRON MATRIX
TMAX.C        56                   : BHT          - MAXIMUM RECORDED TEMPERATURE
BHTD.M        1590                 : BHTDEP       - MAXIMUM RECORDED TEMPERATURE
MATR.         1                    : LOGUNIT      - NEUTRON MATRIX
RMT .C        25                   : MDTP         - TEMPERATURE OF MUD
NEUT.         1                    : NEUTRON      - NEUTRON TYPE
RESI.         0                    : RESIST       - RESISTIVITY TYPE
RMC .OHMM     0.25                 : RMC          - RESISTIVITY OF MUD CAKE
RMF .OHMM     0.25                 : RMF          - RESISTIVITY OF MUD FILTRATE
SUFT.C        15                   : SUFT         - SURFACE TEMPERATURE
~A  DEPTH       GR     PHID     PHIN     RESD
# ...
  448.320  100.751    0.176    0.278   10.420
  448.570   96.368    0.168    0.286   11.958
  448.820   90.370    0.188    0.295   13.350
  449.070   74.474    0.210    0.296   14.750
  449.320   58.708    0.225    0.286   15.240
  449.570   65.109    0.221    0.280   14.033
  449.820   74.685    0.214    0.275   12.300
  450.070   82.158    0.214    0.277   10.882
  450.320   86.103    0.223    0.278    9.762
  450.570   87.729    0.215    0.294    9.184
  450.820   84.626    0.217    0.308    9.081
  451.070   80.710    0.252    0.399    9.434
  451.320   75.688    0.279    0.459   10.073
  451.570   77.459    0.403    0.494   10.539
  451.820   90.439    0.310    0.500   10.571
  452.070   97.130    0.258    0.341   10.087
  452.320  101.189    0.261    0.340    8.396
  452.570  104.121    0.245    0.335    7.176
  452.820  104.952    0.224    0.337    6.505
  453.070  103.693    0.193    0.322    6.142
  453.320  102.269    0.164    0.302    6.575
  453.570  101.291    0.151    0.289    8.084
  453.820   98.389    0.158    0.285   10.607
  454.070   78.999    0.174    0.282   12.795
  454.320   65.096    0.214    0.284   13.229
  454.570   56.128    0.241    0.295   12.573
  454.820   66.456    0.225    0.306   11.228
  455.070   86.106    0.174    0.288    9.341
  455.320   94.466    0.158    0.280    7.938
  455.570   99.791    0.158    0.296    7.128
  455.820   87.674    0.198    0.319    6.501
  456.070   65.834    0.245    0.337    6.238
  456.320   57.872    0.278    0.346    6.162
  456.570   57.367    0.291    0.340    6.096
  456.820   61.997    0.297    0.336    6.055
  457.070   66.047    0.287    0.332    5.856
  457.320   71.395    0.281    0.323    5.365
  457.570   77.596    0.271    0.302    4.993
  457.820   87.368    0.265    0.300    4.721
  458.070   98.937    0.265    0.301    4.660
  458.320  112.152    0.246    0.300    4.828
  458.570  130.257    0.195    0.298    5.582
  458.820  137.016    0.146    0.268    6.319
  459.070  135.562    0.150    0.259    6.936
  459.320  127.625    0.175    0.258    7.044
  459.570  126.341    0.198    0.256    6.942
  459.820  137.087    0.209    0.254    6.825
  460.070  146.907    0.201    0.275    6.481
  460.320  153.545    0.212    0.300    5.851
  460.570  156.101    0.247    0.314    5.273
  460.820  155.918    0.262    0.319    4.781
  461.070  149.616    0.277    0.316    4.546
  461.320  136.489    0.273    0.310    4.523
  461.570  114.171    0.258    0.305    5.195
  461.820  109.871    0.225    0.294    5.793
  462.070  114.095    0.204    0.302    6.608
  462.320  104.313    0.235    0.343    7.064
  462.570   84.882    0.255    0.366    7.274
  462.820   75.086    0.231    0.334    7.112
  463.070   65.824    0.209    0.304    6.816
  463.320   55.276    0.239    0.310    6.298
  463.570   56.954    0.263    0.321    5.763
  463.820   61.105    0.257    0.300    5.359
  464.070   67.148    0.255    0.286    5.077
  464.320   72.771    0.228    0.278    5.088
  464.570   82.308    0.200    0.267    5.314
  464.820   91.420    0.179    0.258    5.576
  465.070   99.765    0.159    0.252    5.807
  465.320  103.442    0.143    0.248    6.068
  465.570  104.759    0.153    0.244    6.202
  465.820  101.847    0.162    0.245    6.257
  466.070   91.622    0.153    0.255    6.103
  466.320   82.795    0.193    0.261    5.621
  466.570   76.109    0.218    0.270    5.035
  466.820   85.972    0.233    0.277    4.453
  467.070  102.902    0.214    0.272    4.372
  467.320  116.921    0.199    0.266    4.606
  467.570  135.865    0.182    0.268    5.348
  467.820  142.606    0.148    0.274    6.178
  468.070  130.951    0.127    0.277    6.713
  468.320  108.553    0.153    0.270    6.895
  468.570   85.869    0.169    0.262    6.972
  468.820   20.622    0.187    0.256    6.936
  469.070   18.134    0.192    0.258    6.710
  469.320   16.031    0.177    0.266    6.438
  469.570   15.432    0.181    0.275    6.139
  469.820   16.055    0.203    0.280    6.078
  470.070   16.997    0.216    0.257    6.128
  470.320   19.194    0.216    0.233    6.813
  470.570   23.508    0.173    0.206    7.959
  470.820   45.958    0.100    0.215   10.361
  471.070   90.432    0.055    0.114   12.376
  471.320   90.308    0.051    0.063   15.234
  471.570   90.236    0.047   -0.002   17.327
  471.820   90.010    0.042    0.003   18.540
  472.070   90.436    0.051    0.002   18.332
