~VERSION INFORMATION
 VERS.                 2.0:   CWLS LOG ASCII STANDARD -VERSION 2.0
 WRAP.                  NO:   ONE LINE PER DEPTH STEP
~WELL INFORMATION BLOCK
#MNEM.UNIT           DATA                    DESCRIPTION OF MNEMONIC
#---------    -------------------            -------------------------------
# Generated from Intellog Unique Number	CW_79_81/WELL/2477
WELL.         10-35-080-20W4                 : Well_name    - WELL
LOC .         00/10-35-080-20W4/0            : Location     - LOCATION
UWI .         00/10-35-080-20W4/0            : Uwi          - UNIQUE WELL ID
ENTR.         MAX                            : Entered      - ENTERED BY
SRVC.         SCHLUMBERGER                   : Scn          - SERVICE COMPANY
STRT.M        149.352                        : top_depth    - START DEPTH
STOP.M        380.852                        : bot_depth    - STOP DEPTH
STEP.M        0.25                           : increment    - STEP LENGTH
 NULL. -999.2500:NULL Value
~CURVE INFORMATION BLOCK
#MNEM UNIT       ERCB CURVE CODE    CURVE DESCRIPTION
#-----------   ------------------   ----------------------------------
DEPT.M        00 001 00 00         : DEPTH        - DEPTH
ILD .OHMM     00 120 00 00         : RESD         - DEEP RESISTIVITY (DIL)
NPHI.V/V      00 330 00 00         : PHIN         - NEUTRON POROSITY (SANDSTONE)
DPHI.V/V      00 890 00 00         : PHID         - DENSITY POROSITY (SANDSTONE)
GR  .API      00 310 00 00         : GR           - GAMMA RAY
CALI.MM       00 280 01 00         : CAL          - CALIPER
~PARAMETER INFORMATION
#MNEM.UNIT           DATA             DESCRIPTION OF MNEMONIC
#---------         -----------     ------------------------------
GL  .M        581.254              : gl           - GROUND LEVEL ELEVATION
EREF.M        578.053              : kb           - ELEVATION OF DEPTH REFERENCE
DATM.M        581.254              : datum        - DATUM ELEVATION
TDD .M        404.165              : tdd          - TOTAL DEPTH DRILLER
RUN .         ONE                  : Run          - RUN NUMBER
ENG .         BILL                 : Engineer     - RECORDING ENGINEER
WIT .         JIM                  : Witness      - WITNESSED BY
MUD .         GEL                  : Mud_type     - MUD TYPE
MATR.         SANDSTONE            : Logunit      - NEUTRON MATRIX
TMAX.C        26.6667              : BHT          - MAXIMUM RECORDED TEMPERATURE
BHTD.M        404.165              : BHTDEP       - MAXIMUM RECORDED TEMPERATURE
MATR.         1                    : LOGUNIT      - NEUTRON MATRIX
RMT .C        20                   : MDTP         - TEMPERATURE OF MUD
NEUT.         1                    : NEUTRON      - NEUTRON TYPE
RESI.         0                    : RESIST       - RESISTIVITY TYPE
RMC .OHMM     2.42                 : RMC          - RESISTIVITY OF MUD CAKE
RMF .OHMM     2.1                  : RMF          - RESISTIVITY OF MUD FILTRATE
SUFT.C        -23.3333             : SUFT         - SURFACE TEMPERATURE
~A  DEPTH     RESD     PHIN     PHID       GR      CAL
# ...
  295.352    8.495    0.471    0.299   83.638  165.531
  295.602    8.460    0.474    0.298   84.681  165.085
  295.852    8.441    0.456    0.295   87.088  165.143
  296.102    8.349    0.439    0.292   90.681  166.078
  296.352    8.220    0.446    0.291   92.142  168.959
  296.602    8.096    0.457    0.288   91.167  169.705
  296.852    8.019    0.454    0.285   90.727  170.157
  297.102    7.986    0.444    0.281   89.159  170.316
  297.352    7.983    0.435    0.276   86.996  170.176
  297.602    8.004    0.440    0.274   87.508  169.552
  297.852    8.123    0.452    0.281   90.204  168.672
  298.102    8.239    0.451    0.282   92.558  169.824
  298.352    8.175    0.446    0.284   93.482  170.983
  298.602    8.023    0.447    0.287   92.983  171.743
  298.852    7.786    0.450    0.291   91.475  172.400
  299.102    7.360    0.446    0.296   89.534  174.279
  299.352    7.191    0.448    0.285   88.277  175.906
  299.602    7.188    0.459    0.277   86.825  179.469
  299.852    7.423    0.464    0.271   86.089  178.825
  300.102    7.918    0.445    0.244   84.166  175.571
  300.352    8.761    0.396    0.194   79.513  171.714
  300.602   10.665    0.313    0.134   69.204  169.067
  300.852   14.134    0.249    0.086   60.520  166.094
  301.102   19.237    0.186    0.059   59.547  166.046
  301.352   24.463    0.167    0.057   59.285  166.905
  301.602   30.775    0.175    0.077   60.448  167.460
  301.852   38.047    0.200    0.116   62.501  167.410
  302.102   37.581    0.250    0.171   64.052  167.355
  302.352   34.305    0.282    0.196   66.007  167.311
  302.602   28.868    0.336    0.209   69.307  166.867
  302.852   23.186    0.375    0.221   73.850  165.511
  303.102   18.932    0.397    0.224   78.100  164.660
  303.352   16.090    0.406    0.221   81.758  164.816
  303.602   14.123    0.408    0.223   85.912  165.642
  303.852   13.187    0.402    0.240   86.622  166.021
  304.102   11.879    0.416    0.255   84.706  166.776
  304.352   11.524    0.423    0.259   82.782  167.528
  304.602   11.520    0.426    0.257   82.044  167.883
  304.852   11.683    0.422    0.253   82.198  167.741
  305.102   12.170    0.408    0.248   81.454  167.293
  305.352   12.447    0.407    0.242   81.430  167.244
  305.602   12.534    0.431    0.254   82.357  167.188
  305.852   12.276    0.446    0.265   83.280  167.142
  306.102   11.602    0.456    0.274   84.797  167.100
  306.352   10.807    0.463    0.279   86.316  167.057
  306.602   10.292    0.464    0.278   85.606  167.085
  306.852   10.055    0.464    0.275   83.357  167.459
  307.102   10.049    0.441    0.275   86.180  167.808
  307.352   10.101    0.441    0.275   87.578  167.864
  307.602   10.209    0.448    0.274   87.198  167.822
  307.852   10.298    0.455    0.276   86.285  167.779
  308.102   10.233    0.456    0.281   87.875  167.638
  308.352   10.307    0.455    0.279   88.838  167.166
  308.602    9.931    0.450    0.275   89.053  167.119
  308.852    9.515    0.445    0.273   88.556  167.681
  309.102    9.101    0.445    0.271   87.818  168.441
  309.352    8.723    0.450    0.269   87.613  169.096
  309.602    8.354    0.455    0.264   88.711  169.440
  309.852    8.100    0.454    0.266   87.204  169.386
  310.102    7.979    0.440    0.267   85.992  168.943
  310.352    7.990    0.434    0.267   87.806  169.098
  310.602    7.927    0.431    0.268   91.581  169.249
  310.852    7.766    0.434    0.269   95.416  169.502
  311.102    7.696    0.448    0.272   95.538  170.075
  311.352    7.932    0.446    0.279   90.318  167.106
  311.602    7.812    0.440    0.279   86.258  164.243
  311.852    7.953    0.443    0.283   85.399  162.889
  312.102    8.361    0.450    0.287   84.068  163.047
  312.352    8.981    0.456    0.288   80.543  163.909
  312.602    9.736    0.450    0.286   72.976  163.848
  312.852   10.510    0.419    0.283   62.564  163.799
  313.102   11.380    0.377    0.252   61.584  164.163
  313.352   12.521    0.340    0.227   62.749  164.816
  313.602   13.442    0.324    0.225   64.743  165.169
  313.852   13.686    0.332    0.246   66.971  164.723
  314.102   12.981    0.365    0.278   69.951  163.238
  314.352   12.028    0.399    0.307   71.908  164.019
  314.602   11.082    0.444    0.321   73.780  163.572
  314.852   10.332    0.465    0.327   75.297  163.127
  315.102    9.743    0.467    0.331   76.103  162.885
  315.352    9.323    0.458    0.332   76.079  162.841
  315.602    9.116    0.454    0.326   74.946  162.784
  315.852    9.112    0.455    0.323   72.942  162.730
  316.102    9.378    0.452    0.326   73.154  163.089
  316.352    9.548    0.441    0.322   73.721  163.742
  316.602    9.615    0.426    0.320   73.813  164.296
  316.852    9.663    0.415    0.321   73.017  164.554
  317.102    9.874    0.418    0.319   71.624  164.414
  317.352    9.869    0.435    0.319   73.082  163.947
  317.602    9.721    0.429    0.313   74.486  163.098
  317.852    9.576    0.427    0.311   75.350  162.557
  318.102    9.398    0.426    0.310   76.156  162.114
  318.352    9.258    0.429    0.305   76.845  161.766
  318.602    9.418    0.433    0.281   76.419  161.792
  318.852    9.934    0.415    0.259   74.412  162.156
  319.102   10.832    0.370    0.237   72.255  162.511
  319.352   11.633    0.331    0.200   68.493  162.872
  319.602   12.594    0.299    0.165   64.431  163.632
  319.852   14.145    0.278    0.147   62.267  164.588
  320.102   17.362    0.275    0.177   66.028  165.017
  320.352   18.313    0.288    0.211   70.703  165.391
  320.602   17.127    0.359    0.246   73.287  165.335
  320.852   15.300    0.391    0.236   74.624  165.289
  321.102   13.877    0.384    0.220   75.789  165.247
  321.352   13.069    0.361    0.217   77.430  165.204
  321.602   12.700    0.371    0.235   80.167  165.147
  321.852   12.314    0.393    0.259   82.120  165.098
  322.102   11.952    0.405    0.267   83.284  165.056
  322.352   11.279    0.433    0.276   84.802  165.308
  322.602   10.472    0.442    0.280   86.914  165.263
  322.852    9.773    0.431    0.278   89.086  164.920
  323.102    9.315    0.430    0.273   90.109  164.854
  323.352    8.828    0.438    0.273   90.578  164.806
  323.602    8.761    0.438    0.272   89.603  164.759
  323.852    8.789    0.437    0.272   88.273  164.418
  324.102    8.979    0.438    0.275   87.774  164.178
  324.352    9.360    0.438    0.278   88.403  164.033
  324.602    9.999    0.427    0.273   90.002  163.572
  324.852   10.386    0.428    0.263   92.204  163.528
  325.102   10.457    0.439    0.263   95.266  164.279
  325.352   10.414    0.443    0.262   95.300  165.040
  325.602   10.334    0.445    0.260   94.087  165.797
  325.852   10.255    0.445    0.257   93.526  166.450
  326.102   10.159    0.440    0.255   96.281  166.799
  326.352   10.078    0.437    0.260   99.472  166.751
  326.602   10.221    0.437    0.263   97.784  167.506
  326.852   10.311    0.439    0.263   97.876  168.261
  327.102   10.420    0.435    0.261   98.445  169.019
  327.352   10.551    0.430    0.258   98.836  169.575
  327.602   10.623    0.436    0.257   98.848  169.510
  327.852   10.619    0.431    0.257   97.832  169.466
  328.102   10.691    0.422    0.258   97.093  169.825
  328.352   10.766    0.417    0.253   98.673  170.184
  328.602   10.881    0.423    0.252   99.600  170.338
  328.852   11.017    0.435    0.256   99.694  170.290
  329.102   11.108    0.439    0.257  101.516  170.242
  329.352   11.188    0.429    0.253  101.243  170.188
  329.602   11.184    0.429    0.252   99.079  170.542
  329.852   11.180    0.426    0.261   97.630  170.900
  330.102   11.176    0.417    0.271   97.724  171.257
  330.352   11.171    0.405    0.275   99.063  171.512
  330.602   11.164    0.404    0.271   99.879  171.459
  330.852   11.160    0.428    0.264   98.122  171.405
  331.102   11.155    0.441    0.252   95.251  171.760
  331.352   11.396    0.446    0.243   93.802  171.820
  331.602   11.561    0.445    0.243   96.030  171.776
