~VERSION INFORMATION
 VERS.                 2.0:   CWLS LOG ASCII STANDARD -VERSION 2.0
 WRAP.                  NO:   ONE LINE PER DEPTH STEP
~WELL INFORMATION BLOCK
#MNEM.UNIT           DATA                    DESCRIPTION OF MNEMONIC
#---------    -------------------            -------------------------------
# Generated from Intellog Unique Number	CW_73_75/WELL/2745
WELL.         SEA-JOR ET AL BLANCHE 11-14    : Well_name    - WELL
LOC .         00/11-14-073-02W5/0            : Location     - LOCATION
UWI .         00/11-14-073-02W5/0            : Uwi          - UNIQUE WELL ID
ENTR.         JAYE                           : Entered      - ENTERED BY
SRVC.         SCHLUMBERGER                   : Scn          - SERVICE COMPANY
DATE.         2 FEB 80                       : Date         - LOG DATE
STRT.M        385                            : top_depth    - START DEPTH
STOP.M        625                            : bot_depth    - STOP DEPTH
STEP.M        0.25                           : increment    - STEP LENGTH
 NULL. -999.2500:NULL Value
~CURVE INFORMATION BLOCK
#MNEM UNIT       ERCB CURVE CODE    CURVE DESCRIPTION
#-----------   ------------------   ----------------------------------
DEPT.M        00 001 00 00         : DEPTH        - DEPTH
DPHI.V/V      00 890 00 00         : PHID         - DENSITY POROSITY (SANDSTONE)
NPHI.V/V      00 330 00 00         : PHIN         - NEUTRON POROSITY (SANDSTONE)
GR  .API      00 310 00 00         : GR           - GAMMA RAY
CALI.MM       00 280 01 00         : CAL          - CALIPER
ILD .OHMM     00 120 00 00         : RESD         - DEEP RESISTIVITY (DIL)
~PARAMETER INFORMATION
#MNEM.UNIT           DATA             DESCRIPTION OF MNEMONIC
#---------         -----------     ------------------------------
GL  .M        602                  : gl           - GROUND LEVEL ELEVATION
EREF.M        605.2                : kb           - ELEVATION OF DEPTH REFERENCE
DATM.M        602                  : datum        - DATUM ELEVATION
TDD .M        629                  : tdd          - TOTAL DEPTH DRILLER
RUN .         ONE                  : Run          - RUN NUMBER
BASE.         EDM                  : Branch       - HOME BASE OF LOGGING UNIT
MUD .         GEL                  : Mud_type     - MUD TYPE
MATR.         SANDSTONE            : Logunit      - NEUTRON MATRIX
TMAX.C        25                   : BHT          - MAXIMUM RECORDED TEMPERATURE
BHTD.M        630                  : BHTDEP       - MAXIMUM RECORDED TEMPERATURE
RMT .C        13.3                 : MDTP         - TEMPERATURE OF MUD
MUDD.KG/M     1170                 : MWT          - MUD DENSITY
NEUT.         1                    : NEUTRON      - NEUTRON TYPE
RESI.         0                    : RESIST       - RESISTIVITY TYPE
RM  .OHMM     4.9                  : RM           - RESISTIVITY OF MUD
RMC .OHMM     0                    : RMC          - RESISTIVITY OF MUD CAKE
RMF .OHMM     5.12                 : RMF          - RESISTIVITY OF MUD FILTRATE
SUFT.C        0                    : SUFT         - SURFACE TEMPERATURE
~A  DEPTH     PHID     PHIN       GR      CAL     RESD
# ...
  604.000   -0.594    0.118   62.065    0.000   23.932
  604.250   -0.595    0.142   72.705    0.000   24.401
  604.500   -0.556    0.170   89.745    0.000   24.316
  604.750   -0.509    0.264   99.827    0.000   23.018
  605.000   -0.491    0.310  106.246    0.000   20.815
  605.250   -0.486    0.340   99.185    0.000   18.294
  605.500   -0.497    0.257   77.214    0.000   15.624
  605.750   -0.511    0.191   63.755    0.000   12.179
  606.000   -0.515    0.160   45.325    0.000   10.683
  606.250   -0.490    0.179   30.064    0.000    9.997
  606.500   -0.453    0.202   33.757    0.000    9.738
  606.750   -0.504    0.172   33.708    0.000   10.081
  607.000   -0.578    0.111   34.720    0.000   11.306
  607.250   -0.603    0.085   39.028    0.000   12.727
  607.500   -0.593    0.097   43.270    0.000   15.373
  607.750   -0.588    0.118   46.645    0.000   24.710
  608.000   -0.595    0.146   46.416    0.000   33.272
  608.250   -0.606    0.159   47.367    0.000   33.666
  608.500   -0.541    0.155   50.430    0.000   30.854
  608.750   -0.562    0.163   55.979    0.000   27.848
  609.000   -0.575    0.183   62.085    0.000   24.288
  609.250   -0.587    0.194   80.181    0.000   21.632
  609.500   -0.603    0.192   99.457    0.000   18.024
  609.750   -0.563    0.256  123.329    0.000   13.862
  610.000   -0.528    0.384  129.499    0.000    9.880
  610.250   -0.457    0.411  121.629    0.000    6.058
  610.500   -0.462    0.394  109.164    0.000    4.924
  610.750   -0.490    0.375   99.867    0.000    4.126
  611.000   -0.514    0.345   94.109    0.000    3.710
  611.250   -0.483    0.326   90.091    0.000    3.704
  611.500   -0.460    0.317   92.411    0.000    3.748
  611.750   -0.448    0.308   97.211    0.000    3.881
  612.000   -0.473    0.303  102.947    0.000    4.110
  612.250   -0.490    0.310  106.009    0.000    4.583
  612.500   -0.486    0.321  101.123    0.000    4.901
  612.750   -0.461    0.312   99.094    0.000    4.997
  613.000   -0.437    0.303   98.801    0.000    5.008
  613.250   -0.450    0.308   97.144    0.000    5.020
  613.500   -0.457    0.300  100.083    0.000    5.060
  613.750   -0.458    0.295  107.929    0.000    4.985
  614.000   -0.477    0.305  102.918    0.000    4.737
  614.250   -0.461    0.323   88.900    0.000    4.450
  614.500   -0.437    0.327   77.489    0.000    4.149
  614.750   -0.430    0.322   75.335    0.000    4.095
  615.000   -0.462    0.304   79.393    0.000    4.073
  615.250   -0.493    0.289   87.736    0.000    4.114
  615.500   -0.486    0.304  106.453    0.000    4.291
  615.750   -0.437    0.364  116.163    0.000    4.606
  616.000   -0.469    0.368  112.269    0.000    4.608
  616.250   -0.488    0.372  107.444    0.000    4.497
  616.500   -0.480    0.384  107.899    0.000    4.355
  616.750   -0.497    0.365  107.795    0.000    4.398
  617.000   -0.484    0.359  102.907    0.000    4.562
  617.250   -0.485    0.353   96.217    0.000    4.878
  617.500   -0.478    0.340   88.845    0.000    5.031
  617.750   -0.460    0.332   79.982    0.000    4.995
  618.000   -0.440    0.312   71.555    0.000    4.846
  618.250   -0.435    0.303   65.673    0.000    4.527
  618.500   -0.424    0.303   59.978    0.000    4.468
  618.750   -0.397    0.298   59.190    0.000    4.522
  619.000   -0.414    0.299   70.329    0.000    4.566
  619.250   -0.438    0.287   79.728    0.000    4.718
  619.500   -0.460    0.326   89.127    0.000    5.182
  619.750   -0.483    0.347   90.763    0.000    5.980
  620.000   -0.495    0.372   81.216    0.000    7.033
  620.250   -0.478    0.313   72.043    0.000    8.209
  620.500   -0.493    0.302   67.341    0.000    9.189
  620.750   -0.507    0.297   64.940    0.000   10.265
  621.000   -0.478    0.282   61.791    0.000   11.469
  621.250   -0.514    0.256   56.530    0.000   12.452
  621.500   -0.539    0.188   45.183    0.000   12.696
  621.750   -0.528    0.168   40.296    0.000   12.969
  622.000   -0.542    0.185   46.154    0.000   14.081
  622.250   -0.546    0.201   51.951    0.000   17.106
  622.500   -0.532    0.207   56.444    0.000   19.075
  622.750   -0.524    0.196   53.170    0.000   20.242
  623.000   -0.549    0.213   52.632    0.000   21.359
  623.250   -0.480    0.230   50.912    0.000   22.709
  623.500   -0.540    0.217   51.242    0.000   26.056
  623.750   -0.590    0.173   54.367    0.000   29.556
  624.000   -0.606    0.136   57.120    0.000   32.090
  624.250   -0.599    0.160   56.953    0.000   33.032
  624.500   -0.591    0.181   56.600    0.000   32.606
  624.750   -0.594    0.201   56.994    0.000   29.882
  625.000   -0.592    0.224   57.636    0.000   26.818
