~VERSION INFORMATION
 VERS.                 2.0:   CWLS LOG ASCII STANDARD -VERSION 2.0
 WRAP.                  NO:   ONE LINE PER DEPTH STEP
~WELL INFORMATION BLOCK
#MNEM.UNIT           DATA                    DESCRIPTION OF MNEMONIC
#---------    -------------------            -------------------------------
# Generated from Intellog Unique Number	CX_WELLS/WELL/3030
WELL.         LACANA                         : Well_name    - WELL
LOC .         00/10-03-082-13W4/0            : Location     - LOCATION
UWI .         00/10-03-082-13W400            : Uwi          - UNIQUE WELL ID
ENTR.         T                              : Entered      - ENTERED BY
SRVC.         SCHLUMBERGER                   : Scn          - SERVICE COMPANY
STRT.M        225                            : top_depth    - START DEPTH
STOP.M        457                            : bot_depth    - STOP DEPTH
STEP.M        0.25                           : increment    - STEP LENGTH
 NULL. -999.2500:NULL Value
~CURVE INFORMATION BLOCK
#MNEM UNIT       ERCB CURVE CODE    CURVE DESCRIPTION
#-----------   ------------------   ----------------------------------
DEPT.M        00 001 00 00         : DEPTH        - DEPTH
GR  .API      00 310 00 00         : GR           - GAMMA RAY
NPHI.V/V      00 330 00 00         : PHIN         - NEUTRON POROSITY (SANDSTONE)
DPHI.V/V      00 890 00 00         : PHID         - DENSITY POROSITY (SANDSTONE)
ILD .OHMM     00 120 00 00         : RESD         - DEEP RESISTIVITY (OTHER)
~PARAMETER INFORMATION
#MNEM.UNIT           DATA             DESCRIPTION OF MNEMONIC
#---------         -----------     ------------------------------
GL  .M        666.6                : gl           - GROUND LEVEL ELEVATION
EREF.M        669.8                : kb           - ELEVATION OF DEPTH REFERENCE
DATM.M        669.8                : datum        - DATUM ELEVATION
TDD .M        468                  : tdd          - TOTAL DEPTH DRILLER
RUN .         ONE                  : Run          - RUN NUMBER
ENG .         BILL                 : Engineer     - RECORDING ENGINEER
WIT .         JIM                  : Witness      - WITNESSED BY
MUD .         GEL                  : Mud_type     - MUD TYPE
MATR.         SANDSTONE            : Logunit      - NEUTRON MATRIX
TMAX.C        20                   : BHT          - MAXIMUM RECORDED TEMPERATURE
BHTD.M        468                  : BHTDEP       - MAXIMUM RECORDED TEMPERATURE
MATR.         1                    : LOGUNIT      - NEUTRON MATRIX
RMT .C        20                   : MDTP         - TEMPERATURE OF MUD
NEUT.         1                    : NEUTRON      - NEUTRON TYPE
RESI.         2.5                  : RESIST       - RESISTIVITY TYPE
RMC .OHMM     3.1                  : RMC          - RESISTIVITY OF MUD CAKE
RMF .OHMM     2.5                  : RMF          - RESISTIVITY OF MUD FILTRATE
SUFT.C        2                    : SUFT         - SURFACE TEMPERATURE
~A  DEPTH       GR     PHIN     PHID     RESD
# ...
  355.500   91.080    0.409    0.255    6.465
  355.750   91.073    0.404    0.264    6.581
  356.000   90.444    0.396    0.266    6.704
  356.250   89.198    0.399    0.252    6.699
  356.500   87.341    0.404    0.244    6.695
  356.750   84.864    0.405    0.237    6.689
  357.000   85.471    0.403    0.235    6.684
  357.250   88.545    0.401    0.231    6.805
  357.500   91.620    0.400    0.222    6.930
  357.750   90.993    0.399    0.219    6.926
  358.000   90.367    0.398    0.213    6.921
  358.250   89.741    0.398    0.210    6.916
  358.500   89.114    0.399    0.207    6.910
  358.750   87.869    0.402    0.203    6.905
  359.000   87.242    0.404    0.205    6.901
  359.250   89.698    0.409    0.224    6.895
  359.500   92.158    0.415    0.229    6.760
  359.750   93.996    0.410    0.230    6.756
  360.000   90.902    0.398    0.234    6.627
  360.250   88.425    0.398    0.236    6.257
  360.500   87.797    0.399    0.239    5.909
  360.750   87.792    0.421    0.241    5.580
  361.000   91.476    0.424    0.240    5.170
  361.250   92.705    0.433    0.241    4.883
  361.500   93.927    0.428    0.246    4.789
  361.750   93.917    0.423    0.235    4.786
  362.000   93.293    0.418    0.227    4.782
  362.250   92.666    0.419    0.224    4.961
  362.500   92.040    0.424    0.224    5.052
  362.750   91.411    0.428    0.219    5.343
  363.000   89.549    0.428    0.223    5.648
  363.250   88.925    0.429    0.245    5.862
  363.500   87.060    0.433    0.246    6.198
  363.750   86.438    0.434    0.245    6.311
  364.000   87.662    0.433    0.238    6.308
  364.250   91.351    0.434    0.218    6.185
  364.500   93.811    0.440    0.211    6.182
  364.750   96.886    0.444    0.202    6.177
  365.000   98.722    0.452    0.195    6.173
  365.250   98.717    0.453    0.191    6.169
  365.500   99.939    0.446    0.193    6.280
  365.750  102.397    0.433    0.216    6.766
  366.000  104.237    0.405    0.221    7.291
  366.250  104.225    0.397    0.225    7.711
  366.500  101.749    0.384    0.222    8.960
  366.750  101.122    0.373    0.215   10.025
  367.000  101.115    0.361    0.070   11.431
  367.250  101.105    0.342    0.030   12.087
  367.500   94.927    0.220    0.049   11.202
  367.750   81.348    0.215    0.118    9.995
  368.000   72.700    0.247    0.129    9.265
  368.250   82.560    0.300    0.154    8.424
  368.500   91.186    0.324    0.161    7.660
  368.750   97.342    0.341    0.172    7.371
  369.000  100.419    0.362    0.184    7.094
  369.250  100.409    0.373    0.187    6.826
  369.500   99.778    0.384    0.193    6.695
  369.750   99.773    0.388    0.197    6.566
  370.000   99.764    0.398    0.202    6.317
  370.250  100.366    0.419    0.204    6.313
  370.500  100.359    0.416    0.209    6.308
  370.750  100.347    0.402    0.211    6.546
  371.000   97.870    0.391    0.219    6.792
  371.250   94.159    0.387    0.224    7.048
  371.500   90.451    0.382    0.231    7.178
  371.750   85.502    0.380    0.237    7.448
  372.000   83.645    0.386    0.247    7.728
  372.250   83.021    0.387    0.253    7.724
  372.500   83.004    0.386    0.258    7.714
  372.750   82.999    0.387    0.236    7.566
  373.000   84.221    0.388    0.225    7.420
  373.250   84.830    0.388    0.219    7.277
  373.500   87.286    0.392    0.213    7.272
  373.750   90.363    0.402    0.215    7.267
  374.000   95.288    0.404    0.223    7.400
  374.250   97.129    0.402    0.231    7.392
  374.500   94.652    0.396    0.242    7.529
  374.750   92.175    0.393    0.246    7.525
  375.000   87.226    0.393    0.246    7.517
  375.250   84.746    0.393    0.236    7.513
  375.500   83.508    0.393    0.216    7.507
  375.750   84.730    0.391    0.208    7.645
  376.000   85.954    0.391    0.213    7.639
  376.250   88.414    0.390    0.217    7.779
  376.500   90.871    0.390    0.238    7.920
  376.750   93.946    0.391    0.240    8.066
  377.000   92.703    0.392    0.244    8.059
  377.250   87.137    0.391    0.241    8.208
  377.500   84.660    0.390    0.240    8.204
  377.750   84.648    0.390    0.240    8.196
  378.000   84.643    0.390    0.243    8.189
  378.250   84.631    0.390    0.235    8.185
  378.500   85.855    0.391    0.211    8.027
  378.750   87.079    0.394    0.204    7.871
  379.000   87.070    0.394    0.171    7.719
  379.250   83.976    0.385    0.099    7.712
  379.500   80.882    0.372    0.102    7.561
  379.750   78.405    0.355    0.152    7.559
  380.000   78.391    0.341    0.200    7.552
  380.250   78.384    0.357    0.223    7.405
  380.500   78.991    0.374    0.236    7.401
  380.750   79.601    0.377    0.253    7.257
  381.000   80.825    0.379    0.266    7.252
  381.250   81.432    0.380    0.271    7.111
  381.500   80.803    0.382    0.276    7.107
  381.750   80.174    0.382    0.271    6.969
  382.000   80.782    0.384    0.265    6.706
  382.250   81.389    0.384    0.258    6.212
  382.500   80.760    0.385    0.254    5.868
  382.750   81.372    0.388    0.252    5.542
  383.000   82.591    0.389    0.247    5.039
  383.250   83.201    0.395    0.240    4.760
  383.500   85.042    0.401    0.229    4.494
  383.750   88.116    0.405    0.226    4.406
  384.000   90.576    0.413    0.224    4.402
  384.250   97.350    0.420    0.219    4.484
  384.500  101.655    0.421    0.210    4.654
  384.750  104.116    0.418    0.191    5.407
  385.000  105.340    0.411    0.187    6.050
  385.250   99.778    0.398    0.187    6.642
  385.500   94.218    0.398    0.178    6.894
  385.750   89.885    0.394    0.179    6.889
  386.000   89.880    0.394    0.192    6.884
  386.250   89.249    0.397    0.203    6.750
  386.500   89.856    0.399    0.210    6.746
  386.750   89.849    0.403    0.209    6.613
  387.000   91.069    0.404    0.204    6.486
  387.250   91.064    0.407    0.198    6.481
  387.500   91.669    0.404    0.177    6.477
  387.750   92.276    0.399    0.173    6.596
  388.000   92.883    0.398    0.175    6.591
  388.250   92.874    0.398    0.181    6.712
  388.500   92.866    0.396    0.182    6.707
  388.750   92.857    0.395    0.182    6.577
  389.000   92.842    0.395    0.181    6.570
  389.250   92.835    0.392    0.180    6.566
  389.500   92.206    0.391    0.173    6.561
  389.750   92.197    0.387    0.170    6.558
  390.000   92.802    0.385    0.176    6.431
  390.250   94.028    0.378    0.185    6.188
  390.500   95.254    0.374    0.184    5.844
  390.750   97.710    0.381    0.183    5.519
  391.000   98.934    0.389    0.190    4.566
  391.250   98.307    0.397    0.199    4.076
  391.500   96.445    0.406    0.205    3.502
  391.750   94.587    0.411    0.210    3.185
  392.000   91.493    0.415    0.233    3.123
  392.250   87.783    0.416    0.254    3.181
  392.500   84.689    0.416    0.256    3.301
  392.750   82.212    0.415    0.232    3.623
  393.000   79.735    0.410    0.216    3.832
  393.250   77.258    0.405    0.207    4.288
  393.500   75.394    0.402    0.210    5.077
  393.750   75.386    0.400    0.209    5.898
  394.000   75.989    0.399    0.201    6.237
  394.250   76.598    0.399    0.183    6.117
  394.500   77.823    0.399    0.182    5.668
  394.750   79.047    0.395    0.217    5.254
  395.000   79.654    0.392    0.220    4.600
  395.250   84.581    0.399    0.221    4.344
  395.500   88.889    0.412    0.219    4.102
  395.750   91.962    0.425    0.214    4.098
  396.000   90.716    0.414    0.209    4.174
  396.250   88.239    0.400    0.204    4.415
  396.500   86.996    0.393    0.200    4.668
  396.750   87.603    0.394    0.195    4.754
  397.000   88.213    0.400    0.187    4.662
  397.250   92.521    0.403    0.166    4.571
  397.500   95.595    0.408    0.165    4.398
  397.750   99.284    0.416    0.182    4.395
  398.000   99.272    0.424    0.187    4.309
  398.250   99.265    0.430    0.187    4.306
  398.500   99.872    0.434    0.188    4.224
  398.750  101.096    0.437    0.197    4.219
