~VERSION INFORMATION
 VERS.                 2.0:   CWLS LOG ASCII STANDARD -VERSION 2.0
 WRAP.                  NO:   ONE LINE PER DEPTH STEP
~WELL INFORMATION BLOCK
#MNEM.UNIT           DATA                    DESCRIPTION OF MNEMONIC
#---------    -------------------            -------------------------------
# Generated from Intellog Unique Number	CW_76_78/WELL/2770
WELL.         11-10-076-25W4                 : Well_name    - WELL
LOC .         00/11-10-076-25W4/0            : Location     - LOCATION
UWI .         00/11-10-076-25W4/0            : Uwi          - UNIQUE WELL ID
ENTR.         JAYE                           : Entered      - ENTERED BY
SRVC.         SCHLUMBERGER                   : Scn          - SERVICE COMPANY
DATE.         17 FEB 75                      : Date         - LOG DATE
STRT.M        591.312                        : top_depth    - START DEPTH
STOP.M        751.062                        : bot_depth    - STOP DEPTH
STEP.M        0.25                           : increment    - STEP LENGTH
 NULL. -999.2500:NULL Value
~CURVE INFORMATION BLOCK
#MNEM UNIT       ERCB CURVE CODE    CURVE DESCRIPTION
#-----------   ------------------   ----------------------------------
DEPT.M        00 001 00 00         : DEPTH        - DEPTH
DPHI.V/V      00 890 00 00         : PHID         - DENSITY POROSITY (LIMESTONE)
ILD .OHMM     00 120 00 00         : RESD         - DEEP RESISTIVITY (DIL)
CALI.IN       00 280 01 00         : CAL          - CALIPER
GR  .API      00 310 00 00         : GR           - GAMMA RAY
NPHI.V/V      00 330 00 00         : PHIN         - NEUTRON POROSITY (LIMESTONE)
~PARAMETER INFORMATION
#MNEM.UNIT           DATA             DESCRIPTION OF MNEMONIC
#---------         -----------     ------------------------------
GL  .M        844.479              : gl           - GROUND LEVEL ELEVATION
EREF.M        848.594              : kb           - ELEVATION OF DEPTH REFERENCE
DATM.M        844.479              : datum        - DATUM ELEVATION
TDD .M        748.589              : tdd          - TOTAL DEPTH DRILLER
RUN .         ONE                  : Run          - RUN NUMBER
ENG .         FETTERLEY            : Engineer     - RECORDING ENGINEER
WIT .         WOOLSEY              : Witness      - WITNESSED BY
BASE.         EDM                  : Branch       - HOME BASE OF LOGGING UNIT
MUD .         GEL CHEM             : Mud_type     - MUD TYPE
MATR.         LIMESTONE            : Logunit      - NEUTRON MATRIX
TMAX.C        29.4444              : BHT          - MAXIMUM RECORDED TEMPERATURE
BHTD.M        748.894              : BHTDEP       - MAXIMUM RECORDED TEMPERATURE
RMT .C        18.3333              : MDTP         - TEMPERATURE OF MUD
MUDD.KG/M     1068                 : MWT          - MUD DENSITY
NEUT.         1                    : NEUTRON      - NEUTRON TYPE
RESI.         0                    : RESIST       - RESISTIVITY TYPE
RM  .OHMM     4.25                 : RM           - RESISTIVITY OF MUD
RMC .OHMM     0.25                 : RMC          - RESISTIVITY OF MUD CAKE
RMF .OHMM     3.26                 : RMF          - RESISTIVITY OF MUD FILTRATE
SUFT.C        -17.7778             : SUFT         - SURFACE TEMPERATURE
~A  DEPTH     PHID     RESD      CAL       GR     PHIN
  591.312    0.224    2.463    9.322  228.607    0.539
  591.562    0.219    2.483    8.959  114.983    0.518
  591.812    0.213    2.546    9.304  114.936    0.529
  592.062    0.226    2.736    9.410  114.949    0.541
  592.312    0.285    3.129    9.479  112.231    0.553
  592.562    0.297    3.632    9.496  106.964    0.521
  592.812    0.312    4.223    9.169  102.788    0.524
  593.062    0.318    4.734    8.964   98.068    0.524
  593.312    0.284    4.924    8.965   94.499    0.499
  593.562    0.295    4.947    9.067   90.505    0.508
  593.812    0.306    4.747    9.493   90.763    0.489
  594.062    0.331    4.498    9.469   92.659    0.507
  594.312    0.333    4.246    9.260   95.765    0.521
  594.562    0.278    4.082    9.058   99.239    0.485
  594.812    0.313    4.049    9.108  102.347    0.492
  595.062    0.290    4.196    9.339  101.694    0.499
  595.312    0.274    4.686    9.599   97.882    0.497
  595.562    0.290    5.600    9.782   92.856    0.494
  595.812    0.293    6.210    9.763   87.954    0.497
  596.062    0.309    6.566    9.140   82.625    0.495
  596.312    0.286    6.644    8.785   76.385    0.488
  596.562    0.277    6.712    8.738   68.143    0.497
  596.812    0.312    6.680    8.759   61.782    0.466
  597.062    0.326    6.626    8.776   55.362    0.459
  597.312    0.342    6.620    8.825   50.639    0.450
  597.562    0.353    6.649    8.806   52.172    0.443
  597.812    0.351    6.655    8.851   56.311    0.444
  598.062    0.340    6.673    8.868   60.027    0.454
  598.312    0.339    6.692    8.825   60.526    0.466
  598.562    0.344    6.685    8.781   55.865    0.465
  598.812    0.348    6.679    8.737   59.156    0.463
  599.062    0.351    6.697    8.722   59.292    0.480
  599.312    0.349    6.654    8.723   56.027    0.516
  599.562    0.336    6.685    8.780   53.369    0.516
  599.812    0.331    6.802    8.773   53.565    0.486
  600.062    0.341    7.113    8.758   55.277    0.470
  600.312    0.343    7.617    8.730   58.144    0.460
  600.562    0.336    8.339    8.671   56.578    0.447
  600.812    0.317    9.331    8.651   54.041    0.420
  601.062    0.287   10.461    8.713   51.809    0.381
  601.312    0.212   10.187    8.981   50.001    0.331
  601.562    0.178    9.053    9.079   48.679    0.269
  601.812    0.135    7.958    8.950   49.543    0.265
  602.062    0.231    6.996    8.777   51.679    0.377
  602.312    0.290    6.298    8.778   54.546    0.435
  602.562    0.332    6.066    8.783   57.837    0.470
  602.812    0.344    6.038    8.756   60.582    0.482
  603.062    0.348    5.966    8.777   61.203    0.485
  603.312    0.354    5.612    8.782   58.545    0.463
  603.562    0.345    5.098    8.758   54.978    0.474
  603.812    0.326    4.514    8.755   52.258    0.483
  604.062    0.326    4.049    8.732   53.667    0.472
  604.312    0.321    4.165    8.745   57.748    0.455
  604.562    0.297    5.699    8.746   62.436    0.473
  604.812    0.285    7.195    8.734   66.272    0.489
  605.062    0.283   11.374    8.674   66.165    0.518
  605.312    0.290   16.502    8.776   61.505    0.379
  605.562    0.148   20.642    8.972   56.540    0.326
  605.812    0.125   24.489    9.094   51.090    0.280
  606.062    0.104   28.115    9.071   46.974    0.238
  606.312    0.090   31.059    9.063   45.106    0.228
  606.562    0.080   34.947    9.044   45.362    0.210
  606.812    0.070   39.324    9.045   44.465    0.191
  607.062    0.058   42.889    9.046   41.321    0.175
  607.312    0.040   44.686    9.075   38.420    0.161
  607.562    0.022   39.280    9.104   38.131    0.147
  607.812    0.004   30.217    9.113   42.514    0.148
  608.062    0.026   24.551    9.122   44.469    0.151
  608.312    0.051   16.375    9.103   43.936    0.165
  608.562    0.084   11.391    8.877   44.620    0.271
  608.812    0.147    9.206    8.894   47.666    0.332
  609.062    0.263    8.004    8.907   53.324    0.394
  609.312    0.303    7.218    8.892   65.478    0.432
  609.562    0.298    6.814    8.880   65.251    0.452
  609.812    0.297    6.783    8.857   62.046    0.443
  610.062    0.255    6.714    8.846   59.265    0.450
  610.312    0.188    6.397    8.814   56.851    0.477
  610.562    0.198    6.083    8.795   58.260    0.506
  610.812    0.227    5.628    8.800   57.059    0.535
  611.062    0.258    5.342    8.785   57.316    0.505
  611.312    0.275    5.071    8.769   61.395    0.480
  611.562    0.305    4.965    8.750   65.839    0.464
  611.812    0.329    4.997    8.727   68.160    0.450
  612.062    0.347    5.066    8.699   65.260    0.440
  612.312    0.332    5.117    8.692   63.512    0.462
  612.562    0.327    5.188    8.681   64.438    0.486
  612.812    0.335    5.221    8.661   65.117    0.503
  613.062    0.344    5.159    8.646   66.465    0.506
  613.312    0.342    5.024    8.639   66.358    0.497
  613.562    0.336    4.795    8.628   67.949    0.487
  613.812    0.328    4.576    8.628   70.330    0.506
  614.062    0.322    4.273    8.633   70.767    0.526
  614.312    0.315    4.004    8.679   72.299    0.510
  614.562    0.310    3.780    8.773   73.222    0.495
  614.812    0.300    3.628    8.810   74.753    0.485
  615.062    0.315    3.559    8.746   75.616    0.478
  615.312    0.329    3.621    8.674   78.967    0.486
  615.562    0.338    3.971    8.711   83.169    0.496
  615.812    0.319    4.379    8.745   80.513    0.506
  616.062    0.301    4.936    8.770   77.429    0.515
  616.312    0.308    5.585    8.775   73.801    0.517
  616.562    0.321    5.883    8.788   71.144    0.495
  616.812    0.320    6.041    8.805   68.060    0.495
  617.062    0.327    5.991    8.806   68.136    0.515
  617.312    0.310    5.750    8.693   69.666    0.482
  617.562    0.292    5.398    8.698   72.470    0.480
  617.812    0.266    5.077    8.723   75.215    0.489
  618.062    0.241    4.899    8.769   75.714    0.507
  618.312    0.227    4.736    8.839   76.455    0.503
  618.562    0.239    4.637    8.896   79.746    0.498
  618.812    0.251    4.599    8.990   84.920    0.491
  619.062    0.254    4.612    9.104   86.572    0.461
  619.312    0.243    4.667    9.311   84.702    0.460
  619.562    0.260    4.697    9.588   80.285    0.484
  619.812    0.304    4.761    9.200   70.222    0.512
  620.062    0.341    4.853    8.828   60.098    0.507
  620.312    0.356    4.957    8.728   56.349    0.472
  620.562    0.323    5.090    8.729   57.331    0.460
  620.812    0.327    5.303    8.726   59.046    0.471
  621.062    0.326    5.598    8.731   60.699    0.466
  621.312    0.293    5.790    8.724   61.926    0.479
  621.562    0.292    5.978    8.668   63.214    0.490
  621.812    0.286    6.183    8.584   64.317    0.492
  622.062    0.263    6.454    8.564   66.760    0.487
  622.312    0.242    6.604    8.626   67.986    0.470
  622.562    0.255    6.744    8.708   68.971    0.468
  622.812    0.267    6.912    8.794   68.196    0.477
  623.062    0.291    7.123    8.892   64.991    0.489
  623.312    0.308    7.052    8.945   61.726    0.489
  623.562    0.282    6.719    8.906   60.709    0.484
  623.812    0.254    6.471    8.886   60.843    0.476
  624.062    0.235    6.314    8.903   61.159    0.505
  624.312    0.225    6.296    8.892   60.567    0.508
  624.562    0.256    6.301    8.885   60.395    0.488
  624.812    0.300    6.495    8.865   64.415    0.481
  625.062    0.288    6.718    8.838   69.529    0.489
  625.312    0.280    6.961    8.827   69.967    0.468
  625.562    0.269    7.333    8.791   65.305    0.453
  625.812    0.251    7.868    8.760   61.919    0.453
  626.062    0.242    8.503    8.748   64.178    0.474
  626.312    0.257    9.258    8.753   63.828    0.463
  626.562    0.256    9.914    8.770   61.534    0.431
  626.812    0.225   10.657    8.788   60.211    0.413
  627.062    0.207   11.288    8.756   59.314    0.401
  627.312    0.187   11.676    8.741   56.353    0.385
  627.562    0.171   12.323    8.867   53.272    0.367
