~VERSION INFORMATION
VERS.                2.00:   CWLS LOG ASCII STANDARD -VERSION 2.0
WRAP.                  NO:
~WELL INFORMATION BLOCK
#MNEM.UNIT           DATA                    DESCRIPTION OF MNEMONIC
#---------    -------------------            -------------------------------
# Generated from Intellog Unique Number	CN_91_93/WELL/2737
LOC .         11-07-093-18W4                 : Location     - LOCATION          
UWI .         00/11-07-093-18W400            : Uwi          - UNIQUE WELL ID    
ENTR.         JOETTE                         : Entered      - ENTERED BY        
STRT.M            70.0000:
STOP.M           250.0000:
STEP.M             0.2500:
NULL.           -999.2500:
COMP.     :COMPANY
WELL.  PETRO-CANADA INC. :WELL
FLD.      :FIELD
LOC.      :LOCATION
CTRY.     :COUNTRY
PROV.     :PROVINCE
SRVC.  SCHLUMBERGER  :SERVICE COMPANY
DATE.  03/23/92  :LOG DATE
UWI.      :UNIQUE WELL ID
~Curve Information Block
#MNEM UNIT       ERCB CURVE CODE    CURVE DESCRIPTION
#MNEM.UNIT        API CODE    Curve Description
#---------    ------------    -------------------------------------------
DEPT.M                    :   DEPTH
CALI.MM       00 280 01 00:   CAL          - CALIPER
DPHI.V/V      00 890 00 00:   PHID         - DENSITY POROSITY (SANDSTONE)
GR  .API      00 310 00 00:   GR           - GAMMA RAY
ILD .OHMM     00 120 00 00:   RESD         - DEEP RESISTIVITY (DIL)
NPHI.V/V      00 330 00 00:   PHIN         - NEUTRON POROSITY (SANDSTONE)
~PARAMETER INFORMATION       
#MNEM.UNIT           DATA             DESCRIPTION OF MNEMONIC
#---------         -----------     ------------------------------
GL  .M        512.3                : gl           - GROUND LEVEL ELEVATION      
EREF.M        515.6                : kb           - ELEVATION OF DEPTH REFERENCE
DATM.M        515.6                : datum        - DATUM ELEVATION             
TDD .M        250.8                : tdd          - TOTAL DEPTH DRILLER         
RUN .         ONE                  : Run          - RUN NUMBER                  
ENG .         BILL                 : Engineer     - RECORDING ENGINEER          
WIT .         JIM                  : Witness      - WITNESSED BY                
MUD .         GEL                  : Mud_type     - MUD TYPE                    
MATR.         SANDSTONE            : Logunit      - NEUTRON MATRIX              
TMAX.C        18                   : BHT          - MAXIMUM RECORDED TEMPERATURE
BHTD.M        250.8                : BHTDEP       - MAXIMUM RECORDED TEMPERATURE
RMT .C        15                   : MDTP         - TEMPERATURE OF MUD          
MUDD.KG/M     1150                 : MWT          - MUD DENSITY                 
NEUT.         1                    : NEUTRON      - NEUTRON TYPE                
RESI.         0                    : RESIST       - RESISTIVITY TYPE            
RM  .OHMM     2.66                 : RM           - RESISTIVITY OF MUD          
RMC .OHMM     2.66                 : RMC          - RESISTIVITY OF MUD CAKE     
RMF .OHMM     2.66                 : RMF          - RESISTIVITY OF MUD FILTRATE 
SUFT.C        4                    : SUFT         - SURFACE TEMPERATURE         
~A  Depth           CALI        DPHI          GR         ILD        NPHI
# ...
235.0000        160.5760      0.3060     16.5230     58.0276      0.3420
235.2500        160.5370      0.3060     17.1030     76.6151      0.3230
235.5000        160.4400      0.3100     19.4440     92.7798      0.3200
235.7500        160.3820      0.3030     20.0240    100.9870      0.3210
236.0000        160.2660      0.2950     21.7860    109.5685      0.3270
236.2500        160.2080      0.2930     20.5100    116.9405      0.3390
236.5000        160.0920      0.2970     19.2580    121.1718      0.3500
236.7500        160.0530      0.2990     18.6210    123.4487      0.3570
237.0000        159.9370      0.3040     18.5510    126.4676      0.3580
237.2500        159.8980      0.3090     18.5280    129.9147      0.3520
237.5000        159.8210      0.3160     17.2530    133.9340      0.3490
237.7500        159.7430      0.3210     16.6270    138.3293      0.3550
238.0000        159.6660      0.3230     16.5800    142.7571      0.3600
238.2500        159.5890      0.3220     16.5220    148.6254      0.3630
238.5000        159.5110      0.3210     17.6810    153.5632      0.3620
238.7500        160.4380      0.3200     20.0460    155.7638      0.3670
239.0000        160.3420      0.3190     22.4220    142.7725      0.3530
239.2500        160.2640      0.3190     28.3920    120.6960      0.3530
239.5000        160.2060      0.3100     31.9740     98.2579      0.3660
239.7500        160.1090      0.2820     36.1470     83.8016      0.3680
240.0000        160.0320      0.2760     39.7170     68.6507      0.3550
240.2500        159.9550      0.2760     40.8650     65.4840      0.3460
240.5000        159.8770      0.2810     38.4190     66.4142      0.3440
240.7500        159.7800      0.2920     37.1670     69.9177      0.3560
241.0000        159.7030      0.3070     40.1110     75.6770      0.3670
241.2500        160.6300      0.3130     40.0880     87.1816      0.3740
241.5000        160.5720      0.3130     35.8220    100.5329      0.3790
241.7500        161.4800      0.3090     33.9550     99.4864      0.3820
242.0000        162.4270      0.3040     35.1140     91.3460      0.3710
242.2500        162.3490      0.3000     36.2620     89.8074      0.3620
242.5000        163.2380      0.2990     36.8420     87.9576      0.3690
242.7500        164.2040      0.2970     38.0010     76.1646      0.3740
243.0000        164.1260      0.2870     36.7370     61.9363      0.3690
243.2500        166.0190      0.2670     36.6790     50.0409      0.3560
243.5000        166.9660      0.2220     36.0410     38.2220      0.3280
243.7500        168.8980      0.1910     35.9830     31.8450      0.3040
244.0000        169.8440      0.1710     35.3340     28.0198      0.3060
244.2500        170.7520      0.1740     35.2990     24.5243      0.3080
244.5000        170.6940      0.1670     35.2410     22.4837      0.3070
244.7500        170.6170      0.1560     35.7970     20.8439      0.3060
245.0000        170.5390      0.1470     35.7630     19.3309      0.3060
245.2500        170.4230      0.1350     35.7160     18.7758      0.3070
245.5000        170.3850      0.1300     35.6700     18.7574      0.3110
245.7500        170.3070      0.1430     36.2260     18.0962      0.3090
246.0000        170.1910      0.1490     36.1800     17.5029      0.2920
246.2500        170.1140      0.1420     36.7130     16.6467      0.2940
246.5000        170.0560      0.1340     36.6660     15.3184      0.2980
246.7500        170.9830      0.1330     36.6310     13.6871      0.3030
247.0000        172.8950      0.1340     36.5730     11.8700      0.3090
247.2500        171.7940      0.1500     36.5500      9.9188      0.3130
247.5000        171.7360      0.2690     36.4800      8.4113      0.3140
247.7500        170.6540      0.4390     36.4460      7.7497      0.3170
248.0000        170.5760      0.4650     36.3880      8.0415      0.3180
248.2500        171.5230      0.4810     35.7380      7.1260      0.3180
248.5000        171.4460      0.4540     35.7030      7.8270      0.3180
248.7500        168.3540      0.3730     35.6570      9.6320      0.3190
249.0000        165.2630      0.3460     35.5990     16.9810      0.3170
249.2500        162.1720      0.3590     35.5530     20.8900      0.3180
249.5000        161.0900      0.3690     35.5060     22.0860      0.3180
249.7500        160.9930      0.3770     36.0620     20.0680      0.3180
250.0000        160.9150      0.3600     36.0160     18.2340      0.3180
