~VERSION INFORMATION
 VERS.                 2.0:   CWLS LOG ASCII STANDARD -VERSION 2.0
 WRAP.                  NO:   ONE LINE PER DEPTH STEP
~WELL INFORMATION BLOCK
#MNEM.UNIT           DATA                    DESCRIPTION OF MNEMONIC
#---------    -------------------            -------------------------------
# Generated from Intellog Unique Number	CW_73_75/WELL/2747
WELL.         GAO ET AL AMADO4 11-31         : Well_name    - WELL
LOC .         00/11-31-073-19W4/0            : Location     - LOCATION
UWI .         00/11-31-073-19W4/0            : Uwi          - UNIQUE WELL ID
ENTR.         JAYE                           : Entered      - ENTERED BY
SRVC.         SCHLUMBERGER                   : Scn          - SERVICE COMPANY
DATE.         10 JAN 74                      : Date         - LOG DATE
STRT.M        353.568                        : top_depth    - START DEPTH
STOP.M        594.318                        : bot_depth    - STOP DEPTH
STEP.M        0.25                           : increment    - STEP LENGTH
 NULL. -999.2500:NULL Value
~CURVE INFORMATION BLOCK
#MNEM UNIT       ERCB CURVE CODE    CURVE DESCRIPTION
#-----------   ------------------   ----------------------------------
DEPT.M        00 001 00 00         : DEPTH        - DEPTH
ILD .OHMM     00 120 00 00         : RESD         - DEEP RESISTIVITY (DIL)
NPHI.V/V      00 330 00 00         : PHIN         - NEUTRON POROSITY (SANDSTONE)
DPHI.V/V      00 890 00 00         : PHID         - DENSITY POROSITY (SANDSTONE)
GR  .API      00 310 00 00         : GR           - GAMMA RAY
CALI.MM       00 280 01 00         : CAL          - CALIPER
~PARAMETER INFORMATION
#MNEM.UNIT           DATA             DESCRIPTION OF MNEMONIC
#---------         -----------     ------------------------------
GL  .M        671.779              : gl           - GROUND LEVEL ELEVATION
EREF.M        674.827              : kb           - ELEVATION OF DEPTH REFERENCE
DATM.M        671.779              : datum        - DATUM ELEVATION
TDD .M        600.456              : tdd          - TOTAL DEPTH DRILLER
RUN .         ONE                  : Run          - RUN NUMBER
BASE.         EDM                  : Branch       - HOME BASE OF LOGGING UNIT
MATR.         SANDSTONE            : Logunit      - NEUTRON MATRIX
TMAX.C        29.4444              : BHT          - MAXIMUM RECORDED TEMPERATURE
BHTD.M        603.504              : BHTDEP       - MAXIMUM RECORDED TEMPERATURE
RMT .C        13.3333              : MDTP         - TEMPERATURE OF MUD
MUDD.KG/M     0                    : MWT          - MUD DENSITY
NEUT.         1                    : NEUTRON      - NEUTRON TYPE
RESI.         0                    : RESIST       - RESISTIVITY TYPE
RM  .OHMM     0.843                : RM           - RESISTIVITY OF MUD
RMC .OHMM     0                    : RMC          - RESISTIVITY OF MUD CAKE
RMF .OHMM     1.17                 : RMF          - RESISTIVITY OF MUD FILTRATE
SUFT.C        -17.7778             : SUFT         - SURFACE TEMPERATURE
~A  DEPTH     RESD     PHIN     PHID       GR      CAL
# ...
  572.568   20.569    0.271    0.105   37.016  139.935
  572.818   18.647    0.248    0.088   37.892  140.536
  573.068   16.509    0.264    0.041   38.441  140.921
  573.318   15.271    0.286    0.130   38.991  141.308
  573.568   14.125    0.304    0.227   43.673  141.356
  573.818   13.163    0.324    0.244   51.909  141.417
  574.068   12.355    0.333    0.120   43.162  141.697
  574.318   11.984    0.328    0.076   36.157  141.868
  574.568   12.103    0.325    0.057   29.281  142.142
  574.818   12.842    0.338    0.081   25.699  142.631
  575.068   13.926    0.308    0.108   22.248  143.021
  575.318   15.466    0.274    0.119   22.150  143.518
  575.568   17.334    0.273    0.071   23.477  143.465
  575.818   19.076    0.267    0.022   25.513  143.291
  576.068   20.055    0.250    0.033   27.290  142.917
  576.318   20.032    0.267    0.033   26.355  142.871
  576.568   19.646    0.284    0.044   20.448  142.822
  576.818   19.484    0.318    0.059   18.158  143.089
  577.068   19.286    0.306    0.089   17.160  143.371
  577.318   19.020    0.287    0.056   17.063  143.525
  577.568   18.958    0.260    0.047   17.870  143.590
  577.818   19.077    0.277    0.042   18.614  143.544
  578.068   19.369    0.281    0.032   20.007  143.715
  578.318   19.633    0.276    0.015   22.752  143.980
  578.568   20.011    0.271    0.024   29.181  144.253
  578.818   20.169    0.270    0.020   37.221  144.646
  579.068   19.925    0.274    0.034   34.091  144.928
  579.318   20.418    0.282    0.017   28.119  145.198
  579.568   21.663    0.264    0.019   25.378  145.256
  579.818   22.943    0.236    0.018   27.154  145.313
  580.068   23.340    0.225   -0.006   30.739  145.594
  580.318   23.058    0.228   -0.020   27.415  145.644
  580.568   22.327    0.238    0.029   23.834  145.602
  580.818   21.344    0.249    0.023   26.642  145.981
  581.068   19.888    0.268    0.032   30.613  146.155
  581.318   18.566    0.287    0.033   35.557  146.428
  581.568   17.523    0.287    0.073   39.532  146.151
  581.818   16.508    0.268    0.037   43.182  146.105
  582.068   15.811    0.252    0.014   41.213  146.269
  582.318   15.648    0.245    0.007   45.056  146.544
  582.568   15.602    0.241    0.007   48.123  146.717
  582.818   15.784    0.241    0.008   50.353  146.989
  583.068   16.474    0.241    0.004   51.551  147.366
  583.318   17.098    0.246    0.010   51.650  147.319
  583.568   17.714    0.260    0.001   51.426  147.270
  583.818   18.319    0.255    0.010   48.942  146.995
  584.068   19.016    0.244    0.015   44.971  146.732
  584.318   19.380    0.246    0.009   41.389  146.345
  584.568   19.570    0.266    0.019   37.870  146.080
  584.818   19.334    0.284    0.012   33.191  145.811
  585.068   18.824    0.290   -0.009   29.801  145.316
  585.318   18.394    0.280    0.008   28.999  144.942
  585.568   18.108    0.266    0.025   28.578  144.563
  585.818   18.021    0.266    0.036   28.228  144.403
  586.068   17.900    0.266    0.053   26.840  144.350
  586.318   17.912    0.263    0.052   23.777  143.973
  586.568   18.322    0.270    0.034   22.907  143.481
  586.818   19.654    0.282    0.047   22.613  142.988
  587.068   21.121    0.296    0.039   22.328  141.839
  587.318   20.488    0.282    0.030   22.814  141.028
  587.568   19.056    0.302    0.022   23.232  140.537
  587.818   18.217    0.303    0.037   24.108  141.250
  588.068   17.704    0.302    0.065   25.758  143.058
  588.318   17.175    0.298    0.049   27.665  144.758
  588.568   16.813    0.274    0.026   30.410  146.128
  588.818   16.671    0.259    0.039   40.129  146.835
  589.068   16.561    0.265    0.036   60.890  147.118
  589.318   16.511    0.281    0.029   74.677  147.170
  589.568   16.675    0.297    0.030   76.261  147.122
  589.818   17.467    0.310    0.079   60.152  146.746
  590.068   19.648    0.316    0.121   51.145  145.490
  590.318   23.648    0.305    0.158   44.917  143.687
  590.568   24.636    0.289    0.138   39.205  142.105
  590.818   23.595    0.233    0.126   45.115  140.303
  591.068   21.118    0.236    0.091   56.707  140.031
  591.318   19.006    0.261    0.043   75.659  142.711
  591.568   18.403    0.311    0.099   87.058  146.054
  591.818   19.313    0.334    0.146   66.621  148.516
  592.068   21.292    0.255    0.157   50.126  145.729
  592.318   25.959    0.215    0.111   41.057  144.582
  592.568   28.566    0.196    0.094   44.965  144.972
  592.818   22.912    0.222    0.060   74.764  145.356
  593.068   16.408    0.293    0.086   91.714  145.743
  593.318   13.551    0.318    0.107   71.797  145.689
  593.568   12.558    0.353    0.059   64.793  145.092
  593.818   14.152    0.328    0.058   56.112  144.385
  594.068   19.218    0.286    0.038   46.653  143.776
  594.318   26.387    0.129   -0.005   35.388  143.048
