~VERSION INFORMATION
 VERS.                 2.0:   CWLS LOG ASCII STANDARD -VERSION 2.0
 WRAP.                  NO:   ONE LINE PER DEPTH STEP
~WELL INFORMATION BLOCK
#MNEM.UNIT           DATA                    DESCRIPTION OF MNEMONIC
#---------    -------------------            -------------------------------
# Generated from Intellog Unique Number	CC_80_83/WELL/2398
NULL.         -999.25                        : NULL_VALUE
WELL.         PEX HOUSE                      : Well_name    - WELL
LOC .         11-12-080-16W4                 : Location     - LOCATION          
UWI .         00/11-12-080-16W4/0            : Uwi          - UNIQUE WELL ID    
ENTR.         DW                             : Entered      - ENTERED BY        
SRVC.         SCHLUMBERGER                   : Scn          - SERVICE COMPANY   
DATE.         16 FEB 82                      : Date         - LOG DATE
STRT.M        150                            : top_depth    - START DEPTH       
STOP.M        389.996                        : bot_depth    - STOP DEPTH        
STEP.M        0.3                            : increment    - STEP LENGTH       
~CURVE INFORMATION BLOCK
#MNEM UNIT       ERCB CURVE CODE    CURVE DESCRIPTION
#-----------   ------------------   ----------------------------------
DEPT.M        00 001 00 00         : DEPTH        - DEPTH                       
ILD .OHMM     00 120 00 00         : RESD         - DEEP RESISTIVITY (DIL)      
GR  .API      00 310 00 00         : GR           - GAMMA RAY                   
NPHI.V/V      00 330 00 00         : PHIN         - NEUTRON POROSITY (LIMESTONE)
DPHI.V/V      00 890 00 00         : PHID         - DENSITY POROSITY (LIMESTONE)
~PARAMETER INFORMATION       
#MNEM.UNIT           DATA             DESCRIPTION OF MNEMONIC
#---------         -----------     ------------------------------
GL  .M        561.3                : gl           - GROUND LEVEL ELEVATION      
EREF.M        565                  : kb           - ELEVATION OF DEPTH REFERENCE
DATM.M        565                  : datum        - DATUM ELEVATION             
TDD .M        388                  : tdd          - TOTAL DEPTH DRILLER         
RUN .         ONE                  : Run          - RUN NUMBER                  
ENG .         BILL                 : Engineer     - RECORDING ENGINEER          
WIT .         JIM                  : Witness      - WITNESSED BY                
MUD .         GEL                  : Mud_type     - MUD TYPE                    
MATR.         LIMESTONE            : Logunit      - NEUTRON MATRIX              
TMAX.C        25.5                 : BHT          - MAXIMUM RECORDED TEMPERATURE
BHTD.M        388                  : BHTDEP       - MAXIMUM RECORDED TEMPERATURE
MATR.         1                    : LOGUNIT      - NEUTRON MATRIX              
RMT .C        25                   : MDTP         - TEMPERATURE OF MUD          
NEUT.         1                    : NEUTRON      - NEUTRON TYPE                
RESI.         0                    : RESIST       - RESISTIVITY TYPE            
RMC .OHMM     0.25                 : RMC          - RESISTIVITY OF MUD CAKE     
RMF .OHMM     0.25                 : RMF          - RESISTIVITY OF MUD FILTRATE 
SUFT.C        15                   : SUFT         - SURFACE TEMPERATURE         
~A  DEPTH     RESD       GR     PHIN     PHID
# ...
  202.201    7.053  102.670    0.453    0.240
  202.501    6.290  104.533    0.492    0.217
  202.801    6.289   87.725    0.488    0.207
  203.101    6.915   74.651    0.461    0.245
  203.401    9.195   66.556    0.456    0.301
  203.701   20.434   64.062    0.463    0.380
  204.001   24.708   62.813    0.453    0.401
  204.301   26.656   58.453    0.458    0.388
  204.601   28.754   55.960    0.453    0.349
  204.901   31.615   60.313    0.425    0.334
  205.201   37.510   53.463    0.423    0.362
  205.501   58.078   47.235    0.439    0.365
  205.801   83.335   44.741    0.455    0.343
  206.101   97.008   45.360    0.420    0.330
  206.401   98.839   46.602    0.409    0.318
  206.701   93.332   49.710    0.421    0.320
  207.001   88.140   51.573    0.447    0.328
  207.301   84.829   51.570    0.465    0.330
  207.601   81.640   50.944    0.456    0.330
  207.901   80.079   48.449    0.461    0.327
  208.201   83.168   47.824    0.431    0.326
  208.501   88.030   49.688    0.454    0.332
  208.801   91.413   52.795    0.492    0.352
  209.101   91.389   54.037    0.471    0.392
  209.401   93.129   51.543    0.460    0.393
  209.701   89.627   51.540    0.447    0.358
  210.001   83.032   60.249    0.441    0.341
  210.301   79.925   63.981    0.442    0.338
  210.601   72.657   59.620    0.491    0.340
  210.901   60.057   53.392    0.468    0.330
  211.201   47.789   50.898    0.468    0.311
  211.501   36.610   52.140    0.435    0.240
  211.801   26.489   57.737    0.382    0.301
  212.101   19.165   58.356    0.410    0.351
  212.401   16.773   58.352    0.431    0.347
  212.701   16.143   55.859    0.456    0.345
  213.001   15.535   53.988    0.441    0.340
  213.301   15.239   53.362    0.430    0.336
  213.601   15.528   54.603    0.423    0.345
  213.901   15.524   53.977    0.430    0.346
  214.201   15.521   53.352    0.446    0.332
  214.501   15.224   52.103    0.438    0.324
  214.801   15.221   51.477    0.450    0.337
  215.101   15.216   48.983    0.480    0.347
  215.401   15.213   48.978    0.450    0.351
  215.701   15.502   49.598    0.451    0.346
  216.001   15.794   52.084    0.460    0.321
  216.301   15.493   46.479    0.459    0.320
  216.601   15.489   47.720    0.441    0.321
  216.901   15.484   50.827    0.439    0.330
  217.201   15.481   51.446    0.446    0.347
  217.501   15.476   51.443    0.430    0.348
  217.801   15.474   49.572    0.422    0.343
  218.101   15.470   48.946    0.446    0.348
  218.401   15.466   50.187    0.457    0.361
  218.701   15.462   50.183    0.434    0.357
  219.001   15.457   50.802    0.439    0.357
  219.301   15.455   54.533    0.457    0.417
  219.601   15.746   54.529    0.457    0.402
  219.901   15.743   52.657    0.459    0.388
  220.201   16.040   53.899    0.471    0.397
  220.501   16.037   57.008    0.453    0.356
  220.801   16.034   53.891    0.436    0.341
  221.101   15.728   51.399    0.472    0.347
  221.401   15.427   48.904    0.429    0.339
  221.701   15.423   47.657    0.430    0.320
  222.001   15.128   48.275    0.444    0.322
  222.301   15.125   50.139    0.451    0.336
  222.601   15.121   52.625    0.458    0.324
  222.901   15.117   55.110    0.432    0.319
  223.201   15.114   55.106    0.412    0.313
  223.501   15.400   56.971    0.413    0.305
  223.801   15.691   59.456    0.415    0.306
  224.101   15.989   60.697    0.407    0.306
  224.401   16.291   60.071    0.409    0.299
  224.701   16.289   56.333    0.404    0.291
  225.001   17.241   54.462    0.412    0.277
  225.301   18.249   54.458    0.455    0.251
  225.601   19.315   55.077    0.444    0.005
  225.901   24.260   53.206    0.150    0.000
  226.201   31.059   48.845    0.132    0.000
  226.501   48.090   48.219    0.140    0.000
  226.801   63.948   46.348    0.138    0.000
  227.101   66.408   41.988    0.138    0.000
  227.401   66.390   41.984    0.143    0.000
  227.701   63.899   43.224    0.143    0.000
  228.001   61.502   43.844    0.144    0.000
  228.301   59.185   43.840    0.144    0.000
  228.601   59.169   41.346    0.144    0.000
  228.901   60.296   41.344    0.140    0.000
  229.201   56.936   40.095    0.127    0.013
  229.501   49.826   41.335    0.147    0.056
  229.801   34.709   45.689    0.186    0.153
  230.101   27.099   60.623    0.221    0.206
  230.401   20.759   63.730    0.388    0.241
  230.701   17.488   59.992    0.413    0.262
  231.001   15.598   61.856    0.432    0.277
  231.301   14.729   63.097    0.455    0.292
  231.601   15.008   57.492    0.471    0.331
  231.901   15.585   60.600    0.454    0.331
  232.201   15.881   60.596    0.464    0.333
  232.501   15.578   60.593    0.456    0.303
  232.801   15.281   60.589    0.452    0.282
  233.101   14.429   62.453    0.458    0.284
  233.401   14.155   63.071    0.473    0.279
  233.701   13.884   63.690    0.452    0.267
  234.001   13.880   64.309    0.453    0.261
  234.301   13.877   64.305    0.465    0.287
  234.601   13.873   63.056    0.445    0.313
  234.901   13.609   65.542    0.453    0.331
  235.201   12.608   79.231    0.449    0.328
  235.501   12.369   73.004    0.435    0.312
  235.801   12.133   69.266    0.454    0.330
  236.101   12.129   68.016    0.449    0.329
  236.401   12.596   66.768    0.445    0.333
  236.701   12.593   67.387    0.479    0.366
  237.001   12.590   77.342    0.462    0.298
  237.301   11.445   85.429    0.445    0.258
  237.601    9.107   77.334    0.458    0.276
  237.901    7.673   64.883    0.485    0.295
  238.201    7.109   56.166    0.494    0.317
  238.501    7.107   51.183    0.484    0.328
  238.801    7.242   59.270    0.450    0.274
  239.101    7.812   62.378    0.457    0.236
  239.401    8.269   53.661    0.473    0.258
  239.701    9.444   54.902    0.445    0.305
  240.001   10.187   64.234    0.443    0.304
  240.301   10.580   73.566    0.452    0.289
  240.601   10.378   73.562    0.455    0.256
  240.901    9.615   64.844    0.475    0.288
  241.201    9.432   61.730    0.468    0.310
  241.501   10.175   58.614    0.459    0.308
  241.801   11.402   59.233    0.452    0.297
  242.101   12.301   61.096    0.439    0.282
  242.401   12.775   58.603    0.424    0.272
  242.701   13.266   56.732    0.392    0.251
  243.001   13.262   61.085    0.395    0.260
  243.301   12.763   66.061    0.406    0.271
  243.601   12.521   72.280    0.443    0.271
  243.901   11.382   76.634    0.478    0.255
  244.201   10.348   85.966    0.442    0.221
  244.501    9.587   90.319    0.417    0.211
  244.801    9.227   84.091    0.455    0.260
  245.101    9.051   80.353    0.458    0.274
  245.401    8.228   79.726    0.444    0.261
  245.701    6.302   82.213    0.446    0.272
  246.001    4.560   85.944    0.530    0.282
  246.301    3.363   87.807    0.562    0.289
  246.601    3.000   81.579    0.576    0.296
  246.901    2.999   80.953    0.560    0.287
  247.201    3.114   85.306    0.511    0.275
  247.501    3.557   88.414    0.504    0.266
  247.801    4.140   88.410    0.526    0.255
  248.101    4.820   87.784    0.460    0.231
  248.401    6.054   87.780    0.434    0.219
  248.701    6.655   87.776    0.498    0.219
  249.001    6.782   88.395    0.509    0.219
  249.301    6.781   88.392    0.473    0.218
  249.601    6.402   88.389    0.468    0.218
  249.901    6.046   85.895    0.479    0.220
  250.201    6.045   83.401    0.469    0.225
  250.501    6.159   86.510    0.463    0.245
  250.801    6.772   85.884    0.477    0.250
  251.101    8.034   81.524    0.462    0.255
  251.401    8.344   77.162    0.453    0.268
  251.701    8.830   74.670    0.475    0.272
  252.001    8.829   79.022    0.492    0.271
  252.301    8.497   82.753    0.488    0.254
  252.601    8.024   86.484    0.501    0.231
  252.901    7.435   87.724    0.488    0.232
  253.201    6.888   87.099    0.468    0.239
  253.501    6.629   84.605    0.485    0.263
  253.801    6.755   76.511    0.478    0.278
  254.101    7.150   71.528    0.480    0.290
