~VERSION INFORMATION
 VERS.                 2.0:   CWLS LOG ASCII STANDARD -VERSION 2.0
 WRAP.                  NO:   ONE LINE PER DEPTH STEP
~WELL INFORMATION BLOCK
#MNEM.UNIT           DATA                    DESCRIPTION OF MNEMONIC
#---------    -------------------            -------------------------------
# Generated from Intellog Unique Number	CW_70_72/WELL/3021
NULL.         -999.25                        : NULL_VALUE
WELL.         MANNVILLE ET AL HONDO 10-11    : Well_name    - WELL              
LOC .         10-11-070-02W5                 : Location     - LOCATION          
UWI .         00/10-11-070-02W5/0            : Uwi          - UNIQUE WELL ID    
ENTR.         JAYE                           : Entered      - ENTERED BY        
SRVC.         SCHLUMBERGER                   : Scn          - SERVICE COMPANY   
DATE.         26 MAR 80                      : Date         - LOG DATE          
STRT.M        440                            : top_depth    - START DEPTH       
STOP.M        655                            : bot_depth    - STOP DEPTH        
STEP.M        0.25                           : increment    - STEP LENGTH       
~CURVE INFORMATION BLOCK
#MNEM UNIT       ERCB CURVE CODE    CURVE DESCRIPTION
#-----------   ------------------   ----------------------------------
DEPT.M        00 001 00 00         : DEPTH        - DEPTH                       
ILD .OHMM     00 120 00 00         : RESD         - DEEP RESISTIVITY (DIL)      
CALI.MM       00 280 01 00         : CAL          - CALIPER                     
GR  .API      00 310 00 00         : GR           - GAMMA RAY                   
NPHI.V/V      00 330 00 00         : PHIN         - NEUTRON POROSITY (SANDSTONE)
DPHI.V/V      00 890 00 00         : PHID         - DENSITY POROSITY (SANDSTONE)
~PARAMETER INFORMATION       
#MNEM.UNIT           DATA             DESCRIPTION OF MNEMONIC
#---------         -----------     ------------------------------
GL  .M        593.3                : gl           - GROUND LEVEL ELEVATION      
EREF.M        598.2                : kb           - ELEVATION OF DEPTH REFERENCE
DATM.M        593.3                : datum        - DATUM ELEVATION             
TDD .M        669                  : tdd          - TOTAL DEPTH DRILLER         
RUN .         ONE                  : Run          - RUN NUMBER                  
ENG .         DECKER/MCEWEN        : Engineer     - RECORDING ENGINEER          
WIT .         CONLEY               : Witness      - WITNESSED BY                
BASE.         EDM                  : Branch       - HOME BASE OF LOGGING UNIT   
MUD .         GEL CHEM             : Mud_type     - MUD TYPE                    
MATR.         SANDSTONE            : Logunit      - NEUTRON MATRIX              
TMAX.C        23.3                 : BHT          - MAXIMUM RECORDED TEMPERATURE
BHTD.M        666.5                : BHTDEP       - MAXIMUM RECORDED TEMPERATURE
RMT .C        14.4                 : MDTP         - TEMPERATURE OF MUD          
MUDD.KG/M     1095                 : MWT          - MUD DENSITY                 
NEUT.         1                    : NEUTRON      - NEUTRON TYPE                
RESI.         0                    : RESIST       - RESISTIVITY TYPE            
RM  .OHMM     3.21                 : RM           - RESISTIVITY OF MUD          
RMC .OHMM     0.25                 : RMC          - RESISTIVITY OF MUD CAKE     
RMF .OHMM     3.02                 : RMF          - RESISTIVITY OF MUD FILTRATE 
SUFT.C        0                    : SUFT         - SURFACE TEMPERATURE         
~A  DEPTH     RESD      CAL       GR     PHIN     PHID
# ...
  586.000    2.988  154.262   60.914    0.378    0.236
  586.250    2.828  154.661   63.518    0.378    0.239
  586.500    2.718  155.457   66.557    0.367    0.248
  586.750    2.636  155.965   68.662    0.379    0.245
  587.000    2.645  156.463   69.711    0.400    0.253
  587.250    2.766  156.463   72.376    0.418    0.259
  587.500    2.860  156.622   74.419    0.396    0.259
  587.750    2.785  156.508   76.462    0.396    0.260
  588.000    2.631  156.074   76.574    0.398    0.265
  588.250    2.655  155.429   75.129    0.408    0.266
  588.500    2.714  154.993   73.872    0.415    0.264
  588.750    2.839  154.972   72.300    0.411    0.267
  589.000    2.991  154.434   71.169    0.403    0.258
  589.250    3.193  153.889   68.725    0.388    0.248
  589.500    3.352  153.353   68.276    0.374    0.240
  589.750    3.440  153.122   66.708    0.368    0.244
  590.000    3.263  153.102   64.327    0.387    0.239
  590.250    3.002  153.081   62.884    0.386    0.230
  590.500    2.794  152.745   61.003    0.368    0.211
  590.750    2.654  152.524   63.044    0.347    0.206
  591.000    2.579  152.603   65.463    0.370    0.205
  591.250    2.637  152.603   64.641    0.388    0.246
  591.500    2.743  153.178   60.391    0.379    0.256
  591.750    2.863  153.268   61.935    0.372    0.252
  592.000    2.977  153.460   65.288    0.368    0.251
  592.250    3.113  153.460   68.579    0.369    0.254
  592.500    3.299  153.516   71.430    0.383    0.247
  592.750    3.373  153.709   73.224    0.391    0.242
  593.000    3.404  154.405   74.084    0.388    0.241
  593.250    3.301  155.117   75.194    0.383    0.232
  593.500    3.119  156.034   79.852    0.364    0.206
  593.750    2.985  157.359   76.913    0.369    0.204
  594.000    2.879  157.861   74.783    0.381    0.218
  594.250    2.814  158.254   73.400    0.378    0.224
  594.500    2.877  158.132   73.013    0.385    0.232
  594.750    3.226  158.004   73.748    0.391    0.237
  595.000    4.157  158.089   74.608    0.392    0.235
  595.250    5.111  157.965   74.846    0.386    0.232
  595.500    6.214  157.426   75.144    0.373    0.223
  595.750    7.639  156.680   74.634    0.354    0.202
  596.000    8.296  156.968   72.005    0.311    0.135
  596.250    7.576  158.813   68.629    0.285    0.073
  596.500    6.169  160.872   69.797    0.284    0.072
  596.750    5.196  161.682   70.847    0.295    0.092
  597.000    4.528  161.660   73.015    0.308    0.129
  597.250    3.915  161.743   76.803    0.331    0.155
  597.500    3.913  162.034   81.025    0.355    0.186
  597.750    4.069  161.706   84.315    0.341    0.178
  598.000    4.224  161.477   88.224    0.351    0.169
  598.250    4.493  160.831   89.710    0.332    0.183
  598.500    4.611  160.914   91.999    0.320    0.175
  598.750    4.688  162.760   95.976    0.331    0.160
  599.000    4.704  163.679   96.960    0.344    0.169
  599.250    4.658  164.177   97.757    0.354    0.147
  599.500    4.552  164.364  101.358    0.364    0.143
  599.750    4.432  163.717  102.031    0.364    0.163
  600.000    4.414  162.969   99.153    0.363    0.167
  600.250    4.462  162.226   94.593    0.365    0.157
  600.500    4.562  161.582   89.349    0.375    0.146
  600.750    4.578  162.183   84.352    0.365    0.140
  601.000    4.602  162.265   83.220    0.348    0.111
  601.250    4.540  162.450   84.139    0.335    0.104
  601.500    4.478  162.322   85.624    0.358    0.118
  601.750    4.427  161.995   89.910    0.360    0.097
  602.000    4.334  161.767   88.901    0.371    0.148
  602.250    4.252  161.435   87.391    0.379    0.147
  602.500    4.178  161.312   89.374    0.382    0.133
  602.750    4.122  161.290   93.346    0.385    0.126
  603.000    4.029  161.788   94.270    0.386    0.144
  603.250    4.012  162.391   91.640    0.387    0.158
  603.500    4.056  162.578   91.939    0.387    0.159
  603.750    4.289  162.658   94.603    0.386    0.151
  604.000    4.436  162.743   96.710    0.374    0.145
  604.250    4.656  162.622   96.885    0.368    0.150
  604.500    4.888  162.600   96.687    0.383    0.147
  604.750    5.170  162.683   96.302    0.383    0.141
  605.000    5.366  162.976   93.984    0.377    0.161
  605.250    5.364  163.161   90.422    0.360    0.152
  605.500    5.291  163.657   86.484    0.343    0.129
  605.750    5.260  163.949   88.092    0.332    0.115
  606.000    5.258  164.135   94.931    0.355    0.137
  606.250    5.396  164.012   97.596    0.377    0.155
  606.500    5.707  163.575   96.090    0.353    0.150
  606.750    6.071  163.246   92.900    0.347    0.133
  607.000    6.033  162.393   89.648    0.339    0.095
  607.250    5.711  161.333   87.830    0.321    0.076
  607.500    5.265  160.277   91.492    0.293    0.061
  607.750    4.983  158.278   94.658    0.292    0.113
  608.000    4.806  158.263   97.635    0.316    0.161
  608.250    4.689  161.149   97.498    0.336    0.143
  608.500    4.608  162.579   99.106    0.353    0.136
  608.750    4.589  163.391  103.205    0.350    0.120
  609.000    4.352  164.508  108.861    0.360    0.089
  609.250    3.828  164.806  110.778    0.384    0.125
  609.500    3.018  164.991  107.590    0.401    0.145
  609.750    2.421  164.971  102.406    0.394    0.158
  610.000    2.001  164.327   97.225    0.381    0.162
  610.250    1.862  166.590   98.645    0.380    0.179
  610.500    1.830  168.127  102.121    0.444    0.207
  610.750    1.871  168.312  101.235    0.487    0.222
  611.000    1.913  166.944  100.537    0.495    0.227
  611.250    1.982  165.678  100.465    0.476    0.219
  611.500    2.073  165.654  102.507    0.459    0.199
  611.750    2.272  166.669  102.994    0.457    0.192
  612.000    2.789  166.859  100.613    0.459    0.197
  612.250    4.162  166.735   96.678    0.449    0.177
  612.500    5.569  166.818   88.942    0.421    0.151
  612.750    6.244  166.589   82.014    0.358    0.124
  613.000    6.628  166.051   79.323    0.320    0.080
  613.250    6.613  164.787   75.511    0.294    0.062
  613.500    6.271  163.830   72.198    0.266    0.046
  613.750    5.814  165.260   84.644    0.309    0.047
  614.000    5.587  166.278   86.187    0.332    0.110
  614.250    5.318  165.842   86.674    0.338    0.098
  614.500    5.091  164.991   93.264    0.326    0.079
  614.750    4.864  165.182   95.244    0.342    0.117
  615.000    4.630  166.509   94.485    0.361    0.116
  615.250    4.602  166.489   94.535    0.364    0.105
  615.500    4.601  163.562  100.565    0.353    0.090
  615.750    4.616  165.203  100.740    0.385    0.137
  616.000    4.640  165.076   96.989    0.398    0.130
  616.250    4.656  164.745   98.345    0.381    0.103
  616.500    4.654  164.207   99.769    0.372    0.084
  616.750    4.688  164.394   99.880    0.390    0.108
  617.000    4.730  164.783   93.390    0.397    0.099
  617.250    4.799  164.974   89.952    0.375    0.082
  617.500    4.807  164.747   97.228    0.363    0.036
  617.750    4.805  164.519   96.839    0.354    0.110
  618.000    4.830  163.772   92.157    0.345    0.091
  618.250    4.874  163.749   92.580    0.343    0.082
  618.500    4.918  164.975   96.430    0.349    0.120
  618.750    4.944  165.160   96.604    0.357    0.102
  619.000    4.961  165.142   98.212    0.363    0.102
  619.250    5.043  164.810   99.756    0.364    0.126
  619.500    5.109  165.099   97.813    0.364    0.137
  619.750    5.302  165.600   96.243    0.363    0.140
  620.000    5.472  166.304   96.356    0.350    0.136
  620.250    5.745  165.972   96.717    0.348    0.119
  620.500    6.008  165.953   96.081    0.348    0.114
  620.750    6.062  165.409   94.886    0.340    0.121
  621.000    5.858  165.284   89.081    0.317    0.093
  621.250    5.878  165.367   86.265    0.284    0.050
  621.500    6.455  165.037   92.918    0.326    0.092
  621.750    6.713  164.812   95.335    0.355    0.127
  622.000    6.235  166.554   82.178    0.348    0.079
  622.250    5.352  165.288   74.256    0.313    0.048
