~VERSION INFORMATION
 VERS.                 2.0:   CWLS LOG ASCII STANDARD -VERSION 2.0
 WRAP.                  NO:   ONE LINE PER DEPTH STEP
~WELL INFORMATION BLOCK
#MNEM.UNIT           DATA                    DESCRIPTION OF MNEMONIC
#---------    -------------------            -------------------------------
# Generated from Intellog Unique Number	CC_80_83/WELL/2339
NULL.         -999.25                        : NULL_VALUE
WELL.         BVX ET AL HOUSE                : Well_name    - WELL
LOC .         10-08-082-15W4                 : Location     - LOCATION          
UWI .         00/10-08-082-15W400            : Uwi          - UNIQUE WELL ID    
ENTR.         DW                             : Entered      - ENTERED BY        
SRVC.         SCHLUMBERGER                   : Scn          - SERVICE COMPANY   
DATE.         23 MAR 80                      : Date         - LOG DATE
STRT.M        130                            : top_depth    - START DEPTH       
STOP.M        330.098                        : bot_depth    - STOP DEPTH        
STEP.M        0.3                            : increment    - STEP LENGTH       
~CURVE INFORMATION BLOCK
#MNEM UNIT       ERCB CURVE CODE    CURVE DESCRIPTION
#-----------   ------------------   ----------------------------------
DEPT.M        00 001 00 00         : DEPTH        - DEPTH                       
DPHI.V/V      00 890 00 00         : PHID         - DENSITY POROSITY (LIMESTONE)
NPHI.V/V      00 330 00 00         : PHIN         - NEUTRON POROSITY (LIMESTONE)
GR  .API      00 310 00 00         : GR           - GAMMA RAY                   
ILD .OHMM     00 120 00 00         : RESD         - DEEP RESISTIVITY (DIL)      
~PARAMETER INFORMATION       
#MNEM.UNIT           DATA             DESCRIPTION OF MNEMONIC
#---------         -----------     ------------------------------
GL  .M        563                  : gl           - GROUND LEVEL ELEVATION      
EREF.M        566.2                : kb           - ELEVATION OF DEPTH REFERENCE
DATM.M        566.2                : datum        - DATUM ELEVATION             
TDD .M        330                  : tdd          - TOTAL DEPTH DRILLER         
RUN .         ONE                  : Run          - RUN NUMBER                  
ENG .         BILL                 : Engineer     - RECORDING ENGINEER          
WIT .         JIM                  : Witness      - WITNESSED BY                
MUD .         GEL                  : Mud_type     - MUD TYPE                    
MATR.         LIMESTONE            : Logunit      - NEUTRON MATRIX              
TMAX.C        20                   : BHT          - MAXIMUM RECORDED TEMPERATURE
BHTD.M        330                  : BHTDEP       - MAXIMUM RECORDED TEMPERATURE
MATR.         1                    : LOGUNIT      - NEUTRON MATRIX              
RMT .C        25                   : MDTP         - TEMPERATURE OF MUD          
NEUT.         1                    : NEUTRON      - NEUTRON TYPE                
RESI.         0                    : RESIST       - RESISTIVITY TYPE            
RMC .OHMM     0.25                 : RMC          - RESISTIVITY OF MUD CAKE     
RMF .OHMM     0.25                 : RMF          - RESISTIVITY OF MUD FILTRATE 
SUFT.C        15                   : SUFT         - SURFACE TEMPERATURE         
~A  DEPTH     PHID     PHIN       GR     RESD
  130.000    0.321    0.392   40.561   16.536
  130.300    0.328    0.415   43.072   17.519
  130.600    0.333    0.441   44.956   17.866
  130.900    0.334    0.451   46.839   17.875
  131.200    0.335    0.446   48.101   17.547
  131.500    0.335    0.431   48.735   16.577
  131.800    0.320    0.425   49.371   13.704
  132.100    0.309    0.452   54.376   12.948
  132.400    0.310    0.459   57.507   11.775
  132.700    0.315    0.464   61.888   10.307
  133.000    0.290    0.438   69.389    7.455
  133.300    0.244    0.455   78.136    5.932
  133.600    0.217    0.477   87.509    5.193
  133.900    0.207    0.536   89.394    4.722
  134.200    0.193    0.539   85.037    3.617
  134.500    0.208    0.529   88.171    3.688
  134.800    0.244    0.506   90.056    4.137
  135.100    0.264    0.485   81.332    5.305
  135.400    0.274    0.479   69.488    7.204
  135.700    0.287    0.475   63.885    8.890
  136.000    0.292    0.454   53.914    9.785
  136.300    0.272    0.429   53.302   10.568
  136.600    0.230    0.412   58.307   10.775
  136.900    0.194    0.359   54.575   11.203
  137.200    0.200    0.373   55.838   11.424
  137.500    0.252    0.410   52.728   11.211
  137.800    0.297    0.430   49.621   10.592
  138.100    0.291    0.439   55.249    9.450
  138.400    0.267    0.459   67.117    6.455
  138.700    0.245    0.487   82.105    5.439
  139.000    0.221    0.522   88.982    5.338
  139.300    0.210    0.511   88.994    5.989
  139.600    0.180    0.441   85.887    6.981
  139.900    0.173    0.440   89.019    8.136
  140.200    0.163    0.451   94.648    8.955
  140.500    0.182    0.449   96.532    8.624
  140.800    0.220    0.475   94.674   10.247
  141.100    0.250    0.456   85.328   11.064
  141.400    0.294    0.427   79.722   11.947
  141.700    0.282    0.414   68.503   11.953
  142.000    0.278    0.431   71.637   11.293
  142.300    0.267    0.417   71.648   10.271
  142.600    0.268    0.460   79.772   10.276
  142.900    0.297    0.462   79.785   10.478
  143.200    0.289    0.435   78.550   11.103
  143.500    0.266    0.452   87.922   11.538
  143.800    0.263    0.462   89.183   12.459
  144.100    0.289    0.437   80.459   13.977
  144.400    0.309    0.420   71.736   15.386
  144.700    0.303    0.418   72.996   15.693
  145.000    0.294    0.428   78.628   15.698
  145.300    0.289    0.423   80.510   15.707
  145.600    0.298    0.424   81.148   15.714
  145.900    0.310    0.420   84.279   15.422
  146.200    0.321    0.417   84.290   14.573
  146.500    0.320    0.417   82.431   14.306
  146.800    0.305    0.423   85.565   14.587
  147.100    0.294    0.434   87.451   14.592
  147.400    0.280    0.448   86.213   14.324
  147.700    0.279    0.434   80.609   14.060
  148.000    0.256    0.414   66.893   13.541
  148.300    0.232    0.388   58.795   12.793
  148.600    0.212    0.417   68.167   11.634
  148.900    0.203    0.420   77.539   11.205
  149.200    0.202    0.419   81.297   11.427
  149.500    0.213    0.413   78.188   11.431
  149.800    0.235    0.398   73.835   11.222
  150.100    0.245    0.392   75.719   11.224
  150.400    0.239    0.399   81.345    9.641
  150.700    0.218    0.431   88.846    7.970
  151.000    0.219    0.448   93.851    6.715
  151.300    0.214    0.468   99.481    6.106
  151.600    0.190    0.501  103.235    5.245
  151.900    0.169    0.485  104.496    4.862
  152.200    0.183    0.491  108.877    4.682
  152.500    0.189    0.531  109.512    4.595
  152.800    0.165    0.533  108.902    4.777
  153.100    0.163    0.500  108.918    4.871
  153.400    0.206    0.502  110.798    4.781
  153.700    0.174    0.516  113.931    4.266
  154.000    0.175    0.512  114.567    3.664
  154.300    0.174    0.541  113.334    3.665
  154.600    0.211    0.560  113.970    4.699
  154.900    0.237    0.580  112.734    7.433
  155.200    0.236    0.550  110.250    9.532
  155.500    0.243    0.455   99.654   10.694
  155.800    0.278    0.441   84.066   10.907
  156.100    0.286    0.451   85.953   10.911
  156.400    0.242    0.448   92.827    9.923
  156.700    0.218    0.440  100.328    9.555
  157.000    0.197    0.442  100.342    8.857
  157.300    0.201    0.471   99.731    8.210
  157.600    0.227    0.494  102.240    8.698
  157.900    0.258    0.499  101.627    9.946
  158.200    0.241    0.471   97.270   11.373
  158.500    0.264    0.451   98.533   12.283
  158.800    0.289    0.435   96.671   12.524
  159.100    0.300    0.434   92.939   12.773
  159.400    0.301    0.439   95.448   12.536
  159.700    0.298    0.443   94.215   11.621
  160.000    0.303    0.441   89.234   10.979
  160.300    0.286    0.431   88.623   11.197
  160.600    0.261    0.424   86.763   11.636
  160.900    0.255    0.454   82.408   12.566
  161.200    0.288    0.432   75.555   13.314
  161.500    0.310    0.417   62.465   13.576
  161.800    0.312    0.452   61.855   13.584
  162.100    0.314    0.449   61.241   13.850
  162.400    0.317    0.435   56.266   14.126
  162.700    0.314    0.428   53.779   14.403
  163.000    0.302    0.432   55.040   14.688
  163.300    0.311    0.442   55.054   14.981
  163.600    0.312    0.449   53.816   14.989
  163.900    0.312    0.448   53.830   14.711
  164.200    0.323    0.445   55.089   14.166
  164.500    0.321    0.449   55.103   13.641
  164.800    0.320    0.450   53.866   13.139
  165.100    0.321    0.436   52.633   13.919
  165.400    0.320    0.423   53.267   14.469
  165.700    0.316    0.419   50.161   14.752
  166.000    0.318    0.439   50.798   14.760
  166.300    0.309    0.445   48.313   13.681
  166.600    0.303    0.433   50.198   11.976
  166.900    0.304    0.419   62.690    9.713
  167.200    0.302    0.404   73.935    8.030
  167.500    0.267    0.416   80.811    7.443
  167.800    0.220    0.426   82.076    7.168
  168.100    0.270    0.449   80.840    6.904
  168.400    0.279    0.457   81.472    6.775
  168.700    0.281    0.460   82.110    6.524
  169.000    0.273    0.455   82.747    5.934
  169.300    0.262    0.463   82.135    6.051
  169.600    0.262    0.485   82.149    6.536
  169.900    0.266    0.470   82.784    6.792
  170.200    0.266    0.471   84.044    7.620
  170.500    0.251    0.476   85.304    8.550
  170.800    0.242    0.469   90.307    9.056
  171.100    0.259    0.458   90.947    9.968
  171.400    0.265    0.432   88.462   10.361
  171.700    0.284    0.430   85.979   10.565
  172.000    0.303    0.436   80.374   10.373
  172.300    0.293    0.423   79.764    9.988
  172.600    0.280    0.417   81.024    9.803
  172.900    0.278    0.421   84.155    9.623
  173.200    0.270    0.424   87.289   10.003
  173.500    0.277    0.446   84.180   11.009
  173.800    0.281    0.458   77.331   12.350
  174.100    0.303    0.437   67.358   15.241
  174.400    0.329    0.429   55.514   17.101
  174.700    0.335    0.431   51.785   17.440
  175.000    0.337    0.433   51.796   17.450
  175.300    0.343    0.444   53.682   17.455
  175.600    0.345    0.427   56.191   17.134
  175.900    0.345    0.429   56.827   17.146
  176.200    0.341    0.445   54.968   17.152
  176.500    0.345    0.453   52.484   17.159
  176.800    0.342    0.438   53.743   16.845
  177.100    0.351    0.427   52.510   16.850
  177.400    0.346    0.432   53.770   16.859
  177.700    0.341    0.451   55.652   16.550
  178.000    0.333    0.468   56.288   16.244
  178.300    0.332    0.455   55.053   15.942
  178.600    0.334    0.453   56.941   15.649
  178.900    0.342    0.468   56.328   15.657
  179.201    0.334    0.470   53.846   15.667
  179.501    0.329    0.456   54.481   15.672
  179.801    0.344    0.441   53.245   15.385
  180.101    0.348    0.446   51.386   15.686
  180.401    0.344    0.452   51.397   15.401
  180.701    0.343    0.457   50.163   15.405
  181.001    0.348    0.465   49.549   15.123
  181.301    0.350    0.459   55.179   14.842
  181.601    0.340    0.446   58.934   14.296
  181.901    0.334    0.461   62.067   14.030
