~VERSION INFORMATION
 VERS.                 2.0:   CWLS LOG ASCII STANDARD -VERSION 2.0
 WRAP.                  NO:   ONE LINE PER DEPTH STEP
~WELL INFORMATION BLOCK
#MNEM.UNIT           DATA                    DESCRIPTION OF MNEMONIC
#---------    -------------------            -------------------------------
# Generated from Intellog Unique Number	CS_73_76/WELL/3273
WELL.         STAR OIL & GAS LTD             : Well_name    - WELL
LOC .         00/12-19-075-09W4/0            : Location     - LOCATION
UWI .         00/12-19-075-09W4/0            : Uwi          - UNIQUE WELL ID
ENTR.         SP                             : Entered      - ENTERED BY
SRVC.         SCHLUMBERGER                   : Scn          - SERVICE COMPANY
STRT.M        285                            : top_depth    - START DEPTH
STOP.M        490                            : bot_depth    - STOP DEPTH
STEP.M        0.25                           : increment    - STEP LENGTH
 NULL. -999.2500:NULL Value
~CURVE INFORMATION BLOCK
#MNEM UNIT       ERCB CURVE CODE    CURVE DESCRIPTION
#-----------   ------------------   ----------------------------------
DEPT.M        00 001 00 00         : DEPTH        - DEPTH
ILD .OHMM     00 120 00 00         : RESD         - DEEP RESISTIVITY (DIL)
DPHI.V/V      00 890 00 00         : PHID         - DENSITY POROSITY (LIMESTONE)
NPHI.V/V      00 330 00 00         : PHIN         - NEUTRON POROSITY (LIMESTONE)
GR  .API      00 310 00 00         : GR           - GAMMA RAY
~PARAMETER INFORMATION
#MNEM.UNIT           DATA             DESCRIPTION OF MNEMONIC
#---------         -----------     ------------------------------
GL  .M        678.87               : gl           - GROUND LEVEL ELEVATION
EREF.M        682                  : kb           - ELEVATION OF DEPTH REFERENCE
DATM.M        678.87               : datum        - DATUM ELEVATION
TDD .M        530                  : tdd          - TOTAL DEPTH DRILLER
RUN .         ONE                  : Run          - RUN NUMBER
ENG .         BILL                 : Engineer     - RECORDING ENGINEER
WIT .         JIM                  : Witness      - WITNESSED BY
MUD .         GEL                  : Mud_type     - MUD TYPE
MATR.         LIMESTONE            : Logunit      - NEUTRON MATRIX
TMAX.C        26                   : BHT          - MAXIMUM RECORDED TEMPERATURE
BHTD.M        530                  : BHTDEP       - MAXIMUM RECORDED TEMPERATURE
MATR.         1                    : LOGUNIT      - NEUTRON MATRIX
RMT .C        25                   : MDTP         - TEMPERATURE OF MUD
NEUT.         1                    : NEUTRON      - NEUTRON TYPE
RESI.         0                    : RESIST       - RESISTIVITY TYPE
RMC .OHMM     0.25                 : RMC          - RESISTIVITY OF MUD CAKE
RMF .OHMM     0.25                 : RMF          - RESISTIVITY OF MUD FILTRATE
SUFT.C        15                   : SUFT         - SURFACE TEMPERATURE
~A  DEPTH     RESD     PHID     PHIN       GR
# ...
  415.500    6.183    0.350    0.468   66.893
  415.750    6.185    0.350    0.454   64.459
  416.000    6.186    0.357    0.445   63.239
  416.250    6.071    0.362    0.439   62.647
  416.500    6.072    0.363    0.440   66.364
  416.750    6.074    0.362    0.447   67.605
  417.000    6.076    0.360    0.438   70.087
  417.250    5.963    0.355    0.434   72.572
  417.500    5.964    0.348    0.432   69.519
  417.750    5.967    0.346    0.451   64.625
  418.000    5.968    0.342    0.457   64.024
  418.250    5.969    0.341    0.449   64.045
  418.500    5.971    0.340    0.444   67.142
  418.750    5.973    0.341    0.447   69.003
  419.000    5.974    0.345    0.454   68.415
  419.250    5.975    0.348    0.441   67.203
  419.500    5.977    0.346    0.433   66.611
  419.750    5.978    0.338    0.442   67.254
  420.000    5.868    0.343    0.447   68.493
  420.250    5.869    0.347    0.450   70.977
  420.500    5.870    0.350    0.452   69.767
  420.750    5.761    0.353    0.442   68.555
  421.000    5.873    0.354    0.422   64.894
  421.250    5.874    0.354    0.415   64.297
  421.500    5.877    0.353    0.409   66.164
  421.750    5.990    0.353    0.422   66.180
  422.000    5.992    0.351    0.439   64.371
  422.250    5.993    0.353    0.427   64.380
  422.500    6.109    0.354    0.423   66.243
  422.750    6.112    0.354    0.439   68.727
  423.000    6.230    0.357    0.445   68.129
  423.250    6.351    0.360    0.440   65.080
  423.500    6.474    0.361    0.431   63.256
  423.750    6.601    0.360    0.428   63.282
  424.000    6.728    0.357    0.435   62.688
  424.250    6.859    0.357    0.446   62.090
  424.500    6.992    0.360    0.448   60.265
  424.750    7.128    0.367    0.436   59.680
  425.000    7.130    0.369    0.432   60.311
  425.250    6.997    0.368    0.433   62.176
  425.500    6.739    0.367    0.428   63.425
  425.750    6.740    0.371    0.423   64.059
  426.000    6.491    0.372    0.421   62.235
  426.250    6.492    0.367    0.418   60.409
  426.500    6.494    0.362    0.413   60.435
  426.750    6.621    0.359    0.405   58.612
  427.000    6.623    0.353    0.400   54.940
  427.250    6.500    0.346    0.264   50.048
  427.500    6.501    0.238    0.221   47.603
  427.750    6.380    0.112    0.182   44.552
  428.000    6.262    0.068    0.173   45.186
  428.250    6.145    0.117    0.214   55.667
  428.500    6.147    0.166    0.262   59.373
  428.750    6.149    0.214    0.319   61.848
  429.000    6.150    0.314    0.409   62.484
  429.250    6.151    0.344    0.453   64.358
  429.500    6.154    0.360    0.439   64.986
  429.750    6.040    0.357    0.427   62.554
  430.000    6.042    0.346    0.434   61.956
  430.250    6.043    0.336    0.437   63.214
  430.500    6.161    0.329    0.440   63.226
  430.750    6.161    0.340    0.427   62.633
  431.000    6.162    0.354    0.417   60.809
  431.250    6.049    0.362    0.432   61.447
  431.500    5.936    0.362    0.437   63.932
  431.750    5.938    0.361    0.433   63.951
  432.000    5.827    0.362    0.424   62.743
  432.250    5.830    0.364    0.419   62.150
  432.500    5.831    0.366    0.423   61.553
  432.750    5.723    0.352    0.429   61.570
  433.000    5.725    0.346    0.437   62.823
  433.250    5.726    0.338    0.428   64.074
  433.500    5.620    0.327    0.424   63.477
  433.750    5.515    0.322    0.419   62.271
  434.000    5.312    0.333    0.413   60.449
  434.250    5.312    0.338    0.408   60.469
  434.500    5.116    0.348    0.404   61.102
  434.750    4.743    0.353    0.408   62.970
  435.000    4.481    0.357    0.417   64.225
  435.250    4.000    0.359    0.420   65.474
  435.500    3.926    0.303    0.423   69.181
  435.750    3.927    0.274    0.427   79.656
  436.000    4.158    0.263    0.458   88.895
  436.250    4.487    0.255    0.470   93.833
  436.500    4.935    0.253    0.450   94.474
  436.750    5.532    0.251    0.437   93.876
  437.000    5.857    0.249    0.434   92.053
  437.250    6.321    0.251    0.429   90.230
  437.500    6.443    0.260    0.426   88.404
  437.750    6.568    0.241    0.437   85.971
  438.000    6.447    0.228    0.439   84.757
  438.250    6.208    0.225    0.433   86.007
  438.500    6.093    0.236    0.427   89.109
  438.750    6.095    0.240    0.439   90.355
  439.000    6.213    0.239    0.448   92.226
  439.250    6.334    0.234    0.456   93.469
  439.500    6.457    0.240    0.457   94.106
  439.750    6.459    0.242    0.454   95.366
  440.000    6.460    0.237    0.451   95.378
  440.250    6.461    0.233    0.436   95.396
  440.500    6.342    0.231    0.426   97.877
  440.750    6.224    0.228    0.406   99.746
  441.000    5.881    0.233    0.405   98.538
  441.250    5.557    0.237    0.421   94.255
  441.500    5.251    0.236    0.424   93.659
  441.750    4.599    0.221    0.421   93.678
  442.000    3.952    0.218    0.433   87.551
  442.250    3.270    0.217    0.441   85.115
  442.500    2.705    0.216    0.449   85.138
  442.750    2.461    0.221    0.434   85.155
  443.000    2.282    0.235    0.446   86.408
  443.250    2.197    0.218    0.444   87.049
  443.500    2.198    0.276    0.492   87.681
  443.750    2.198    0.303    0.517   88.317
  444.000    2.241    0.312    0.533   87.114
  444.250    2.285    0.309    0.532   85.901
  444.500    2.329    0.307    0.522   84.080
  444.750    2.420    0.292    0.534   82.865
  445.000    2.287    0.292    0.548   81.044
  445.250    2.287    0.294    0.533   80.445
  445.500    2.376    0.297    0.519   82.317
  445.750    2.516    0.288    0.514   86.032
  446.000    2.664    0.279    0.519   87.892
  446.250    2.930    0.277    0.526   90.368
  446.500    3.347    0.272    0.533   93.463
  446.750    3.612    0.271    0.535   95.326
  447.000    4.126    0.268    0.528   95.966
  447.250    4.713    0.263    0.511   94.757
  447.500    5.283    0.251    0.494   89.863
  447.750    5.701    0.246    0.478   88.650
  448.000    5.924    0.241    0.466   89.901
  448.250    6.038    0.233    0.456   91.150
  448.500    5.926    0.221    0.443   91.170
  448.750    5.816    0.199    0.435   88.736
  449.000    5.291    0.173    0.427   85.682
  449.250    5.095    0.161    0.420   84.475
  449.500    4.907    0.169    0.415   87.565
  449.750    4.636    0.192    0.428   90.660
  450.000    4.550    0.214    0.442   94.375
  450.250    4.140    0.219    0.455   95.620
  450.500    3.838    0.216    0.450   90.725
  450.750    3.558    0.213    0.439   88.899
  451.000    3.176    0.212    0.445   90.768
  451.250    2.628    0.218    0.456   88.945
  451.500    2.174    0.219    0.470   90.815
  451.750    1.833    0.219    0.456   92.674
  452.000    1.732    0.228    0.461   95.779
  452.250    1.766    0.235    0.466   97.018
  452.500    1.800    0.237    0.467   98.882
  452.750    1.835    0.240    0.473   97.678
  453.000    1.871    0.241    0.477   95.856
  453.250    1.907    0.242    0.482   94.031
  453.500    1.908    0.243    0.491   92.827
  453.750    1.908    0.242    0.495   92.225
  454.000    1.873    0.236    0.492   91.024
  454.250    1.909    0.233    0.484   91.041
  454.500    2.060    0.231    0.477   91.062
  454.750    2.181    0.232    0.487   91.698
  455.000    2.445    0.230    0.500   91.721
  455.250    2.689    0.227    0.504   92.974
  455.500    2.741    0.226    0.488   93.601
  455.750    2.848    0.227    0.486   96.092
  456.000    2.903    0.228    0.490   96.720
  456.250    2.796    0.231    0.493   97.975
  456.500    2.693    0.231    0.494   95.533
  456.750    2.643    0.228    0.489   91.861
  457.000    2.643    0.229    0.485   95.573
  457.250    2.695    0.230    0.484   98.667
  457.500    2.800    0.222    0.501   98.072
  457.750    2.908    0.204    0.506   92.565
  458.000    3.022    0.193    0.492   93.814
  458.250    3.200    0.209    0.476   96.297
  458.500    3.200    0.214    0.488   97.542
  458.750    3.082    0.220    0.512   97.567
