~VERSION INFORMATION
 VERS.                 2.0:   CWLS LOG ASCII STANDARD -VERSION 2.0
 WRAP.                  NO:   ONE LINE PER DEPTH STEP
~WELL INFORMATION BLOCK
#MNEM.UNIT           DATA                    DESCRIPTION OF MNEMONIC
#---------    -------------------            -------------------------------
# Generated from Intellog Unique Number	CW_70_72/WELL/3019
NULL.         -999.25                        : NULL_VALUE
WELL.         SUN BOUVIER 10-02              : Well_name    - WELL              
LOC .         10-02-070-24W4                 : Location     - LOCATION          
UWI .         00/10-02-070-24W4/0            : Uwi          - UNIQUE WELL ID    
ENTR.         jj                             : Entered      - ENTERED BY        
SRVC.         SCHLUMBERGER                   : Scn          - SERVICE COMPANY   
DATE.         28 JAN 78                      : Date         - LOG DATE          
STRT.M        426.72                         : top_depth    - START DEPTH       
STOP.M        633.97                         : bot_depth    - STOP DEPTH        
STEP.M        0.25                           : increment    - STEP LENGTH       
~CURVE INFORMATION BLOCK
#MNEM UNIT       ERCB CURVE CODE    CURVE DESCRIPTION
#-----------   ------------------   ----------------------------------
DEPT.M        00 001 00 00         : DEPTH        - DEPTH                       
ILD .OHMM     00 120 00 00         : RESD         - DEEP RESISTIVITY (DIL)      
CALI.MM       00 280 01 00         : CAL          - CALIPER                     
GR  .API      00 310 00 00         : GR           - GAMMA RAY                   
NPHI.V/V      00 330 00 00         : PHIN         - NEUTRON POROSITY (SANDSTONE)
DPHI.V/V      00 890 00 00         : PHID         - DENSITY POROSITY (SANDSTONE)
~PARAMETER INFORMATION       
#MNEM.UNIT           DATA             DESCRIPTION OF MNEMONIC
#---------         -----------     ------------------------------
GL  .M        637.184              : gl           - GROUND LEVEL ELEVATION      
EREF.M        640.324              : kb           - ELEVATION OF DEPTH REFERENCE
DATM.M        637.184              : datum        - DATUM ELEVATION             
TDD .M        656.234              : tdd          - TOTAL DEPTH DRILLER         
RUN .         ONE                  : Run          - RUN NUMBER                  
ENG .         CHMIELEWSKI          : Engineer     - RECORDING ENGINEER          
WIT .         BROWN                : Witness      - WITNESSED BY                
BASE.         EDM                  : Branch       - HOME BASE OF LOGGING UNIT   
MUD .         GEL CHEM             : Mud_type     - MUD TYPE                    
MATR.         SANDSTONE            : Logunit      - NEUTRON MATRIX              
TMAX.C        22.7778              : BHT          - MAXIMUM RECORDED TEMPERATURE
BHTD.M        656.539              : BHTDEP       - MAXIMUM RECORDED TEMPERATURE
RMT .C        20                   : MDTP         - TEMPERATURE OF MUD          
MUDD.KG/M     0                    : MWT          - MUD DENSITY                 
NEUT.         1                    : NEUTRON      - NEUTRON TYPE                
RESI.         0                    : RESIST       - RESISTIVITY TYPE            
RM  .OHMM     4.44                 : RM           - RESISTIVITY OF MUD          
RMC .OHMM     0.25                 : RMC          - RESISTIVITY OF MUD CAKE     
RMF .OHMM     3.02                 : RMF          - RESISTIVITY OF MUD FILTRATE 
SUFT.C        -17.7778             : SUFT         - SURFACE TEMPERATURE         
~A  DEPTH     RESD      CAL       GR     PHIN     PHID
# ...
  609.220    5.787  172.063  101.889    0.393    0.119
  609.470    5.797  172.371   98.203    0.358    0.107
  609.720    5.574  170.988   93.833    0.330    0.110
  609.970    5.309  170.557   89.462    0.332    0.079
  610.220    4.703  172.765   89.144    0.338    0.049
  610.470    4.292  175.608  100.427    0.364    0.089
  610.720    4.005  177.816  107.094    0.392    0.125
  610.970    3.850  178.230  115.260    0.412    0.161
  611.220    3.800  177.797  114.755    0.432    0.137
  611.470    3.828  177.683  112.255    0.413    0.156
  611.720    3.980  177.357  112.437    0.390    0.130
  611.970    4.376  176.926  113.305    0.398    0.142
  612.220    5.041  176.178  115.295    0.389    0.160
  612.470    5.732  175.323  119.219    0.379    0.123
  612.720    5.982  174.576  122.082    0.394    0.132
  612.970    5.926  174.036  118.335    0.418    0.148
  613.220    4.890  173.077  115.086    0.378    0.132
  613.470    3.997  172.542  114.457    0.347    0.068
  613.720    4.250  171.581  115.574    0.357    0.090
  613.970    4.639  171.147  117.190    0.373    0.112
  614.220    5.119  170.400  116.562    0.374    0.087
  614.470    5.433  169.970  114.248    0.362    0.100
  614.720    5.597  169.220  113.807    0.346    0.118
  614.970    5.765  168.155  118.291    0.341    0.131
  615.220    5.884  167.618  122.091    0.355    0.132
  615.470    6.072  167.820  110.672    0.372    0.117
  615.720    6.325  167.495   97.258    0.388    0.121
  615.970    6.763  165.373   87.461    0.323    0.116
  616.220    7.381  162.513   74.483    0.295    0.104
  616.470    8.361  159.440   66.183    0.270    0.170
  616.720   10.129  157.847   65.865    0.253    0.193
  616.970   13.270  157.099   62.929    0.233    0.218
  617.220   17.256  156.773   60.304    0.206    0.206
  617.470   21.418  156.764   59.488    0.192    0.195
  617.720   26.385  157.073   54.243    0.183    0.158
  617.970   28.318  157.801   51.868    0.169    0.136
  618.220   27.894  158.742   55.605    0.176    0.111
  618.470   27.272  160.001   64.517    0.194    0.065
  618.720   26.914  162.211   68.317    0.212    0.087
  618.970   25.925  165.898   70.931    0.225    0.081
  619.220   22.878  166.311   71.175    0.246    0.072
  619.470   19.305  164.295   69.923    0.272    0.142
  619.720   14.731  162.279   71.040    0.296    0.180
  619.970   12.178  162.164   72.905    0.329    0.199
  620.220   10.607  162.577   74.333    0.360    0.223
  620.470    9.519  162.568   77.073    0.391    0.246
  620.720    9.272  161.398   82.743    0.289    0.214
  620.970   10.119  158.853   69.703    0.265    0.231
  621.220   11.421  157.683   57.348    0.233    0.247
  621.470   12.723  157.886   49.048    0.204    0.256
  621.720   15.326  158.193   51.725    0.221    0.216
  621.970   17.558  158.818   68.870    0.240    0.155
  622.220   17.653  161.026   81.027    0.275    0.145
  622.470   16.413  163.763   79.586    0.278    0.164
  622.720   14.894  166.816   72.159    0.267    0.173
  622.970   13.847  165.539   64.172    0.252    0.141
  623.220   12.874  163.630   52.940    0.240    0.169
  623.470   12.082  160.875   42.644    0.243    0.198
  623.720   11.768  158.118   39.770    0.288    0.242
  623.970   11.463  158.004   54.857    0.318    0.272
  624.220   10.858  160.636   84.226    0.315    0.185
  624.470    9.511  163.267  102.183    0.333    0.124
  624.720    8.238  164.525  144.026    0.410    0.109
  624.970    7.588  163.248  152.814    0.468    0.126
  625.220    7.029  161.758  144.326    0.488    0.117
  625.470    5.898  161.434  129.789    0.507    0.134
  625.720    5.649  161.743  126.790    0.460    0.066
  625.970    5.432  163.528  124.913    0.441    0.102
  626.220    5.251  164.999  119.919    0.429    0.066
  626.470    5.125  167.101  115.050    0.434    0.082
  626.720    5.039  169.520  117.787    0.425    0.068
  626.970    4.926  172.891  118.718    0.410    0.115
  627.220    4.871  175.099  117.901    0.420    0.082
  627.470    4.816  173.190  112.658    0.421    0.062
  627.720    4.815  170.434  102.611    0.387    0.049
  627.970    4.752  168.630  100.859    0.319    0.020
  628.220    4.646  167.143  103.659    0.295    0.043
  628.470    4.303  165.443  105.962    0.307    0.058
  628.720    4.145  163.429  109.076    0.345    0.065
  628.970    4.038  159.194   94.040    0.369    0.037
  629.220    4.000  157.073   80.376    0.389    0.050
  629.470    4.135  156.536   57.358    0.342    0.058
  629.720    4.446  156.315   42.633    0.312    0.048
  629.970    4.835  156.201   35.267    0.308    0.063
  630.220    5.267  156.297   30.834    0.310    0.045
  630.470    5.780  155.865   27.711    0.310    0.028
  630.720    6.123  155.751   25.898    0.306    0.081
  630.970    5.953  155.211   26.953    0.281    0.104
  631.220    5.473  155.310   30.190    0.294    0.122
  631.470    4.995  155.194   32.305    0.310    0.128
  631.720    4.696  155.396   33.796    0.338    0.123
  631.970    4.415  155.389   31.608    0.346    0.135
  632.220    4.205  156.013   27.923    0.353    0.128
  632.470    3.866  156.110   27.107    0.363    0.154
  632.720    3.635  156.522   28.473    0.364    0.169
  632.970    3.482  156.935   29.529    0.357    0.148
  633.220    3.367  157.032   26.904    0.364    0.137
  633.470    3.249  157.445   24.279    0.366    0.127
  633.720    3.135  157.542   26.705    0.363    0.126
  633.970    3.026  157.533   27.761    0.376    0.147
