~VERSION INFORMATION
 VERS.                 2.0:   CWLS LOG ASCII STANDARD -VERSION 2.0
 WRAP.                  NO:   ONE LINE PER DEPTH STEP
~WELL INFORMATION BLOCK
#MNEM.UNIT           DATA                    DESCRIPTION OF MNEMONIC
#---------    -------------------            -------------------------------
# Generated from Intellog Unique Number	CW_70_72/WELL/3026
NULL.         -999.25                        : NULL_VALUE
WELL.         SULPETRO OTAUWAU 11-05         : Well_name    - WELL              
LOC .         11-05-070-05W5                 : Location     - LOCATION          
UWI .         00/11-05-070-05W5/0            : Uwi          - UNIQUE WELL ID    
ENTR.         JAYE                           : Entered      - ENTERED BY        
SRVC.         SCHLUMBERGER                   : Scn          - SERVICE COMPANY   
DATE.         19 FEB 77                      : Date         - LOG DATE          
STRT.M        701.04                         : top_depth    - START DEPTH       
STOP.M        960.04                         : bot_depth    - STOP DEPTH        
STEP.M        0.25                           : increment    - STEP LENGTH       
~CURVE INFORMATION BLOCK
#MNEM UNIT       ERCB CURVE CODE    CURVE DESCRIPTION
#-----------   ------------------   ----------------------------------
DEPT.M        00 001 00 00         : DEPTH        - DEPTH                       
ILD .OHMM     00 120 00 00         : RESD         - DEEP RESISTIVITY (DIL)      
NPHI.V/V      00 330 00 00         : PHIN         - NEUTRON POROSITY (SANDSTONE)
DPHI.V/V      00 890 00 00         : PHID         - DENSITY POROSITY (SANDSTONE)
GR  .API      00 310 00 00         : GR           - GAMMA RAY                   
CALI.MM       00 280 01 00         : CAL          - CALIPER                     
~PARAMETER INFORMATION       
#MNEM.UNIT           DATA             DESCRIPTION OF MNEMONIC
#---------         -----------     ------------------------------
GL  .M        796.595              : gl           - GROUND LEVEL ELEVATION      
EREF.M        800.557              : kb           - ELEVATION OF DEPTH REFERENCE
DATM.M        796.595              : datum        - DATUM ELEVATION             
TDD .M        975.36               : tdd          - TOTAL DEPTH DRILLER         
RUN .         ONE                  : Run          - RUN NUMBER                  
ENG .         FIGGURES             : Engineer     - RECORDING ENGINEER          
WIT .         BROCK                : Witness      - WITNESSED BY                
MUD .         GEL                  : Mud_type     - MUD TYPE                    
MATR.         SANDSTONE            : Logunit      - NEUTRON MATRIX              
TMAX.C        -17.7778             : BHT          - MAXIMUM RECORDED TEMPERATURE
BHTD.M        975.665              : BHTDEP       - MAXIMUM RECORDED TEMPERATURE
RMT .C        15.5556              : MDTP         - TEMPERATURE OF MUD          
MUDD.KG/M     1152                 : MWT          - MUD DENSITY                 
NEUT.         1                    : NEUTRON      - NEUTRON TYPE                
RESI.         0                    : RESIST       - RESISTIVITY TYPE            
RM  .OHMM     4.25                 : RM           - RESISTIVITY OF MUD          
RMC .OHMM     0.25                 : RMC          - RESISTIVITY OF MUD CAKE     
RMF .OHMM     3.66                 : RMF          - RESISTIVITY OF MUD FILTRATE 
SUFT.C        -20                  : SUFT         - SURFACE TEMPERATURE         
~A  DEPTH     RESD     PHIN     PHID       GR      CAL
# ...
  810.540    1.410    0.411    0.292   66.515  159.001
  810.790    1.350    0.419    0.300   66.894  157.241
  811.040    1.321    0.418    0.307   67.210  157.673
  811.290    1.347    0.390    0.313   67.343  158.836
  811.540    1.389    0.376    0.312   66.858  159.480
  811.790    1.519    0.372    0.272   66.126  159.910
  812.040    1.683    0.369    0.260   65.702  160.134
  812.290    1.831    0.356    0.228   66.451  160.355
  812.540    1.933    0.334    0.232   68.310  160.685
  812.790    1.986    0.346    0.269   68.565  160.801
  813.040    2.032    0.360    0.286   69.499  161.131
  813.290    2.099    0.382    0.272   70.556  161.356
  813.540    2.155    0.397    0.284   70.996  161.158
  813.790    2.193    0.371    0.263   71.806  161.071
  814.040    2.219    0.393    0.242   73.233  160.873
  814.290    2.205    0.417    0.269   73.921  160.472
  814.540    2.103    0.426    0.292   73.004  160.381
  814.790    2.028    0.392    0.284   70.299  160.082
  815.040    2.052    0.372    0.258   68.025  160.097
  815.290    2.232    0.342    0.206   66.306  160.215
  815.540    2.478    0.352    0.192   65.390  159.916
  815.790    2.612    0.390    0.222   65.584  156.798
  816.040    2.600    0.391    0.234   67.997  153.888
  816.290    2.412    0.382    0.243   72.138  152.648
  816.540    2.216    0.384    0.253   75.601  154.228
  816.790    1.996    0.375    0.263   78.693  156.437
  817.040    1.893    0.380    0.260   79.935  157.600
  817.290    1.789    0.393    0.262   75.997  155.004
  817.540    1.644    0.385    0.268   72.859  154.705
  817.790    1.579    0.389    0.280   70.524  156.181
  818.040    1.552    0.400    0.277   69.115  159.121
  818.290    1.550    0.403    0.264   69.184  160.283
  818.540    1.551    0.395    0.251   69.255  160.299
  818.790    1.552    0.388    0.261   69.201  160.416
  819.040    1.565    0.381    0.267   69.458  159.909
  819.290    1.596    0.370    0.273   69.836  158.672
  819.540    1.642    0.381    0.259   70.091  157.118
  819.790    1.721    0.392    0.265   70.037  154.416
  820.040    1.794    0.385    0.257   68.257  154.117
  820.290    1.891    0.374    0.236   64.441  156.638
  820.540    1.957    0.366    0.237   63.648  158.952
  820.790    1.933    0.379    0.245   65.200  158.444
  821.040    1.833    0.393    0.247   66.502  154.071
  821.290    1.694    0.402    0.262   68.485  152.207
  821.540    1.610    0.404    0.273   70.220  152.950
  821.790    1.496    0.395    0.284   71.586  155.786
  822.040    1.385    0.391    0.292   71.779  157.471
  822.290    1.290    0.400    0.281   71.911  158.530
  822.540    1.219    0.416    0.302   71.179  158.648
  822.790    1.208    0.409    0.306   71.373  158.558
  823.040    1.267    0.410    0.282   74.095  158.050
  823.290    1.435    0.415    0.258   78.421  157.124
  823.540    1.576    0.435    0.245   81.390  156.409
  823.790    1.711    0.441    0.242   84.730  155.691
  824.040    1.851    0.425    0.225   88.377  155.497
  824.290    1.965    0.424    0.197   86.041  156.555
  824.540    2.018    0.422    0.210   81.980  158.345
  824.790    2.009    0.421    0.231   80.754  159.927
  825.040    1.944    0.418    0.247   80.763  160.778
  825.290    1.807    0.414    0.255   80.895  160.999
  825.540    1.695    0.415    0.258   80.471  160.283
  825.790    1.631    0.423    0.276   76.903  159.567
  826.040    1.568    0.428    0.287   74.012  158.433
  826.290    1.529    0.419    0.286   74.020  156.566
  826.540    1.499    0.411    0.296   75.262  153.761
  826.790    1.473    0.409    0.292   76.443  152.835
  827.040    1.457    0.411    0.308   77.933  153.893
  827.290    1.445    0.429    0.309   79.050  155.162
  827.540    1.444    0.430    0.305   80.293  157.056
  827.790    1.437    0.431    0.294   79.130  158.532
  828.040    1.435    0.432    0.295   75.869  160.009
  828.290    1.431    0.443    0.311   76.556  151.355
  828.540    1.432    0.425    0.314   77.736  158.471
  828.790    1.433    0.410    0.296   78.793  156.292
  829.040    1.442    0.406    0.280   79.542  155.575
  829.290    1.470    0.415    0.270   79.921  156.844
  829.540    1.524    0.409    0.278   80.361  158.425
  829.790    1.604    0.417    0.269   81.911  159.798
  830.040    1.697    0.424    0.277   83.462  160.752
  830.290    1.812    0.403    0.264   85.629  161.705
  830.540    1.917    0.387    0.251   88.783  162.137
  830.790    1.980    0.375    0.243   90.642  161.525
  831.040    2.029    0.399    0.235   91.576  161.019
  831.290    2.065    0.410    0.258   93.434  161.033
  831.540    2.133    0.413    0.225   94.122  160.840
  831.790    2.244    0.419    0.210   90.430  160.329
  832.040    2.423    0.412    0.219   86.614  159.614
  832.290    2.616    0.378    0.187   82.305  157.225
  832.540    2.814    0.337    0.115   77.317  152.854
  832.790    2.896    0.298    0.118   83.370  154.329
  833.040    2.882    0.319    0.121   88.375  157.478
  833.290    2.724    0.372    0.149   89.679  159.686
  833.540    2.457    0.423    0.202   85.987  160.431
  833.790    2.221    0.405    0.223   82.850  160.653
  834.040    2.087    0.407    0.209   82.611  160.774
  834.290    2.058    0.407    0.179   87.369  160.786
  834.540    2.071    0.400    0.211   89.106  160.803
  834.790    2.127    0.391    0.204   89.730  160.816
  835.040    2.217    0.396    0.187   91.341  160.518
  835.290    2.363    0.386    0.197   95.853  160.115
  835.540    2.486    0.385    0.178  100.179  160.548
  835.790    2.621    0.390    0.154  100.004  161.084
  836.040    2.783    0.373    0.146  100.010  161.620
  836.290    2.971    0.372    0.164  102.733  161.635
  836.540    3.120    0.379    0.172   99.843  161.440
  836.790    3.229    0.385    0.183   96.460  160.619
  837.040    3.310    0.388    0.171   96.529  160.217
  837.290    3.431    0.391    0.162  100.670  160.542
  837.540    3.524    0.397    0.153  102.899  160.661
  837.790    3.573    0.400    0.162  103.463  161.406
  838.040    3.602    0.405    0.171  103.162  162.363
  838.290    3.539    0.416    0.160  103.418  164.464
  838.540    3.356    0.403    0.173  103.241  166.671
  838.790    3.096    0.391    0.192  102.202  164.912
  839.040    2.888    0.389    0.205  101.470  163.358
  839.290    2.795    0.389    0.230  101.231  161.807
  839.540    2.701    0.382    0.253  105.189  160.776
  839.790    2.673    0.371    0.214  107.910  160.372
  840.040    2.746    0.368    0.184  106.932  160.074
  840.290    2.841    0.362    0.169   98.305  160.091
  840.540    2.880    0.347    0.174   91.282  159.790
  840.790    2.824    0.327    0.168   83.087  159.284
  841.040    2.543    0.326    0.154   73.658  158.983
  841.290    2.412    0.346    0.169   63.305  158.790
  841.540    2.339    0.373    0.215   58.317  158.385
  841.790    2.307    0.386    0.254   54.933  157.877
  842.040    2.418    0.370    0.246   53.030  157.369
  842.290    2.520    0.350    0.220   53.286  156.653
  842.540    2.499    0.326    0.220   54.466  156.041
  842.790    2.428    0.340    0.245   56.201  155.430
  843.040    2.303    0.350    0.276   58.862  154.818
  843.290    2.164    0.360    0.294   62.140  154.729
  843.540    2.064    0.367    0.287   61.593  154.637
  843.790    1.998    0.368    0.285   62.588  154.339
  844.040    1.988    0.366    0.288   65.743  154.247
  844.290    2.035    0.373    0.292   68.774  153.947
  844.540    2.044    0.380    0.285   71.064  153.962
  844.790    2.095    0.386    0.277   73.108  153.977
  845.040    2.112    0.392    0.267   73.610  154.307
  845.290    2.075    0.398    0.262   72.447  154.527
  845.540    2.009    0.403    0.258   73.503  154.751
  845.790    1.995    0.408    0.261   76.102  154.976
  846.040    2.053    0.390    0.265   78.763  155.093
  846.290    2.164    0.362    0.249   80.992  155.525
  846.540    2.429    0.301    0.209   77.978  156.688
  846.790    2.820    0.239    0.139   72.004  158.896
