~VERSION INFORMATION
 VERS.                 2.0:   CWLS LOG ASCII STANDARD -VERSION 2.0
 WRAP.                  NO:   ONE LINE PER DEPTH STEP
~WELL INFORMATION BLOCK
#MNEM.UNIT           DATA                    DESCRIPTION OF MNEMONIC
#---------    -------------------            -------------------------------
# Generated from Intellog Unique Number	CW_73_75/WELL/3526
WELL.         G W ET AL SPUR                 : Well_name    - WELL
LOC .         00/11-06-073-01W5/0            : Location     - LOCATION
UWI .         00/11-06-073-01W5/0            : Uwi          - UNIQUE WELL ID
ENTR.         TIM                            : Entered      - ENTERED BY
SRVC.         SCHLUMBERGER                   : Scn          - SERVICE COMPANY
STRT.M        370                            : top_depth    - START DEPTH
STOP.M        615                            : bot_depth    - STOP DEPTH
STEP.M        0.25                           : increment    - STEP LENGTH
 NULL. -999.2500:NULL Value
~CURVE INFORMATION BLOCK
#MNEM UNIT       ERCB CURVE CODE    CURVE DESCRIPTION
#-----------   ------------------   ----------------------------------
DEPT.M        00 001 00 00         : DEPTH        - DEPTH
GR  .API      00 310 00 00         : GR           - GAMMA RAY
CALI.MM       00 280 01 00         : CAL          - CALIPER
NPHI.V/V      00 330 00 00         : PHIN         - NEUTRON POROSITY (SANDSTONE)
ILD .OHMM     00 120 00 00         : RESD         - DEEP RESISTIVITY (DIL)
~PARAMETER INFORMATION
#MNEM.UNIT           DATA             DESCRIPTION OF MNEMONIC
#---------         -----------     ------------------------------
GL  .M        612.1                : gl           - GROUND LEVEL ELEVATION
EREF.M        615.2                : kb           - ELEVATION OF DEPTH REFERENCE
DATM.M        615.2                : datum        - DATUM ELEVATION
TDD .M        624                  : tdd          - TOTAL DEPTH DRILLER
RUN .         ONE                  : Run          - RUN NUMBER
ENG .         BILL                 : Engineer     - RECORDING ENGINEER
WIT .         JIM                  : Witness      - WITNESSED BY
MUD .         GEL                  : Mud_type     - MUD TYPE
MATR.         SANDSTONE            : Logunit      - NEUTRON MATRIX
TMAX.C        28                   : BHT          - MAXIMUM RECORDED TEMPERATURE
BHTD.M        624                  : BHTDEP       - MAXIMUM RECORDED TEMPERATURE
MATR.         1                    : LOGUNIT      - NEUTRON MATRIX
RMT .C        23                   : MDTP         - TEMPERATURE OF MUD
NEUT.         1                    : NEUTRON      - NEUTRON TYPE
RESI.         0                    : RESIST       - RESISTIVITY TYPE
RMC .OHMM     3.417                : RMC          - RESISTIVITY OF MUD CAKE
RMF .OHMM     3.8                  : RMF          - RESISTIVITY OF MUD FILTRATE
SUFT.C        5                    : SUFT         - SURFACE TEMPERATURE
~A  DEPTH       GR      CAL     PHIN     RESD
# ...
  413.500   76.719  154.850    0.474    2.860
  413.750   70.239  154.830    0.424    2.709
  414.000   70.227  155.791    0.402    2.612
  414.250   74.332  155.776    0.380    2.614
  414.500   79.025  155.752    0.383    2.615
  414.750   79.013  155.732    0.402    2.764
  415.000   75.473  154.732    0.425    2.816
  415.250   78.990  154.713    0.436    3.032
  415.500   87.799  154.688    0.446    3.089
  415.750   91.316  154.674    0.460    3.206
  416.000   77.775  154.644    0.454    3.266
  416.250   68.943  154.635    0.436    3.390
  416.500   63.635  155.595    0.397    3.391
  416.750   65.976  155.566    0.372    3.212
  417.000   67.140  156.531    0.372    3.097
  417.250   70.072  156.517    0.381    2.726
  417.500   87.702  156.492    0.369    2.488
  417.750  100.040  156.473    0.345    2.313
  418.000  111.201  156.443    0.364    2.231
  418.250  114.130  156.429    0.399    2.152
  418.500  108.235  156.414    0.429    2.233
  418.750  101.169  155.414    0.461    2.448
  419.000   97.041  155.395    0.460    2.785
  419.250   92.910  155.370    0.433    3.109
  419.500   82.310  155.351    0.405    3.737
  419.750   78.773  154.351    0.373    4.328
  420.000   68.176  154.332    0.351    4.922
  420.250   59.931  154.312    0.354    5.598
  420.500   51.098  154.297    0.356    5.705
  420.750   37.561  154.273    0.349    5.304
  421.000   36.373  154.244    0.342    4.583
  421.250   37.532  154.234    0.332    4.033
  421.500   39.284  154.209    0.319    3.819
  421.750   42.213  154.190    0.321    3.241
  422.000   46.908  154.170    0.327    3.125
  422.250   49.249  154.146    0.338    2.959
  422.500   53.942  154.131    0.340    2.854
  422.750   69.220  155.097    0.321    2.803
  423.000   84.498  155.077    0.310    2.753
  423.250   68.020  155.048    0.336    2.705
  423.500   61.540  155.033    0.356    2.706
  423.750   59.173  154.999    0.369    2.658
  424.000   73.278  154.984    0.350    2.709
  424.250   86.201  154.975    0.335    2.811
  424.500   89.720  154.945    0.341    2.971
  424.750   95.586  154.931    0.361    3.083
  425.000   97.339  154.906    0.368    3.200
  425.250   98.506  155.872    0.372    3.321
  425.500  100.259  155.852    0.369    3.384
  425.750  102.599  155.837    0.363    3.324
  426.000  107.877  156.793    0.358    3.205
  426.250  112.567  156.778    0.353    2.820
  426.500  115.495  156.749    0.374    2.350
  426.750  116.660  156.739    0.401    2.106
  427.000  113.711  156.715    0.446    2.031
  427.250  109.580  157.666    0.482    1.923
  427.500  108.977  157.651    0.492    2.071
  427.750  108.971  159.587    0.511    2.229
  428.000  108.371  159.572    0.560    2.313
  428.250  103.655  160.533    0.544    2.445
  428.500   97.760  160.513    0.516    2.585
  428.750  100.103  159.518    0.461    2.682
  429.000   99.500  155.574    0.428    2.835
  429.250   91.844  153.594    0.419    2.942
  429.500   81.835  153.579    0.403    3.053
  429.750   70.650  153.545    0.391    3.111
  430.000   64.166  153.530    0.377    3.288
  430.250   62.391  154.491    0.359    3.413
  430.500   61.203  154.471    0.341    3.541
  430.750   62.367  154.452    0.360    3.608
  431.000   62.355  155.417    0.357    3.609
  431.250   62.341  155.398    0.343    3.418
  431.500   64.093  155.378    0.327    3.121
  431.750   65.849  155.349    0.319    2.849
  432.000   71.718  155.339    0.345    2.798
  432.250   78.172  155.319    0.359    2.601
  432.500   81.103  153.340    0.378    2.556
  432.750   83.441  151.360    0.390    2.604
  433.000   83.429  150.355    0.413    2.702
  433.250   82.832  150.331    0.406    2.753
  433.500   81.644  150.316    0.394    2.705
  433.750   81.044  151.272    0.386    2.756
  434.000   78.678  152.228    0.394    2.808
  434.250   75.140  153.198    0.425    2.861
  434.500   66.893  157.099    0.410    2.916
  434.750   61.589  161.000    0.395    2.917
  435.000   66.281  161.955    0.385    2.918
  435.250   71.562  160.956    0.394    2.973
  435.500   75.664  159.961    0.402    2.974
  435.750   77.419  157.976    0.401    2.976
  436.000   79.757  156.001    0.396    3.032
  436.250   81.507  154.017    0.398    3.034
  436.500   82.677  153.992    0.403    3.091
  436.750   82.662  152.993    0.408    3.150
  437.000   82.065  152.963    0.423    3.210
  437.250   80.284  152.949    0.432    3.211
  437.500   79.687  152.934    0.419    3.272
  437.750   78.499  152.915    0.402    3.273
  438.000   76.723  152.900    0.400    3.275
  438.250   74.944  152.871    0.399    3.276
  438.500   73.756  152.856    0.394    3.278
  438.750   73.156  152.831    0.392    3.278
  439.000   72.559  152.822    0.388    3.280
  439.250   70.192  152.797    0.387    3.281
  439.500   68.419  152.778    0.390    3.224
  439.750   64.288  152.758    0.395    3.167
  440.000   60.745  152.734    0.388    3.168
  440.250   58.972  151.729    0.380    3.112
  440.500   56.020  151.715    0.369    3.113
  440.750   54.832  150.720    0.363    3.115
  441.000   51.292  150.695    0.375    3.060
  441.250   47.161  150.671    0.383    3.061
  441.500   44.800  150.661    0.390    3.006
  441.750   46.553  150.642    0.391    2.954
  442.000   48.890  150.622    0.395    2.955
  442.250   50.643  149.622    0.397    2.902
  442.500   51.804  149.588    0.400    2.904
  442.750   51.795  149.574    0.391    2.853
  443.000   51.781  149.559    0.374    2.853
  443.250   50.005  149.534    0.371    2.855
  443.500   48.820  149.515    0.387    2.856
  443.750   47.041  149.495    0.399    2.806
  444.000   45.853  149.476    0.410    2.755
  444.250   45.253  149.456    0.411    2.657
  444.500   46.418  149.432    0.405    2.611
  444.750   48.170  149.422    0.400    2.564
  445.000   49.337  149.398    0.404    2.519
  445.250   51.090  149.373    0.406    2.520
  445.500   52.840  149.359    0.411    2.522
  445.750   51.655  149.329    0.410    2.522
  446.000   48.700  149.315    0.402    2.618
  446.250   47.515  149.295    0.392    2.667
  446.500   46.909  149.280    0.391    2.668
  446.750   48.076  150.231    0.392    2.719
  447.000   49.826  150.216    0.394    2.720
  447.250   50.402  150.197    0.396    2.722
  447.500   50.391  150.182    0.398    2.673
  447.750   52.146  151.138    0.399    2.675
  448.000   59.191  151.118    0.395    2.676
  448.250   63.884  152.074    0.391    2.676
  448.500   63.872  152.059    0.397    2.678
  448.750   60.920  153.020    0.404    2.729
  449.000   59.732  152.991    0.408    2.729
  449.250   62.661  153.961    0.402    2.833
  449.500   66.174  153.937    0.390    2.887
  449.750   67.336  154.897    0.379    2.941
  450.000   67.330  154.873    0.369    2.997
  450.250   67.310  154.863    0.372    2.998
  450.500   67.892  155.814    0.378    3.055
  450.750   71.409  155.804    0.385    2.893
  451.000   76.689  155.780    0.393    2.740
  451.250   80.794  155.765    0.399    2.843
  451.500   84.311  155.740    0.407    2.897
  451.750   89.001  155.726    0.422    3.294
  452.000   83.699  155.696    0.451    3.958
  452.250   70.162  155.682    0.460    4.670
  452.500   57.213  155.662    0.472    5.215
  452.750   48.965  155.633    0.488    5.217
  453.000   51.306  155.618    0.632    5.032
  453.250   62.467  155.604    0.649    4.766
  453.500   64.220  155.574    0.619    4.595
  453.750   68.913  155.560    0.570    4.352
  454.000   74.781  155.535    0.398    4.046
  454.250   81.239  155.521    0.355    3.902
  454.500   84.755  155.506    0.364    3.695
  454.750   86.505  155.481    0.375    3.499
  455.000   87.672  155.462    0.397    3.375
  455.250   88.837  154.457    0.408    3.196
  455.500   85.884  154.438    0.402    3.140
  455.750   81.165  154.418    0.395    3.141
  456.000   78.216  154.404    0.392    3.142
  456.250   75.852  154.384    0.387    3.143
  456.500   76.428  154.360    0.381    3.145
  456.750   78.766  154.340    0.380    3.089
