~VERSION INFORMATION
 VERS.                 2.0:   CWLS LOG ASCII STANDARD -VERSION 2.0
 WRAP.                  NO:   ONE LINE PER DEPTH STEP
~WELL INFORMATION BLOCK
#MNEM.UNIT           DATA                    DESCRIPTION OF MNEMONIC
#---------    -------------------            -------------------------------
# Generated from Intellog Unique Number	CW_76_78/WELL/901
WELL.         PCP MARTEN HILLS 10-22         : Well_name    - WELL
LOC .         00/10-22-076-04W5/0            : Location     - LOCATION
UWI .         00/10-22-076-04W5/0            : Uwi          - UNIQUE WELL ID
ENTR.         JAYE                           : Entered      - ENTERED BY
SRVC.         SCHLUMBERGER                   : Scn          - SERVICE COMPANY
DATE.         24 MAR 74                      : Date         - LOG DATE
STRT.M        524.256                        : top_depth    - START DEPTH
STOP.M        777.256                        : bot_depth    - STOP DEPTH
STEP.M        0.25                           : increment    - STEP LENGTH
 NULL. -999.2500:NULL Value
~CURVE INFORMATION BLOCK
#MNEM UNIT       ERCB CURVE CODE    CURVE DESCRIPTION
#-----------   ------------------   ----------------------------------
DEPT.M        00 001 00 00         : DEPTH        - DEPTH
ILD .OHMM     00 120 00 00         : RESD         - DEEP RESISTIVITY (DIL)
NPHI.V/V      00 330 00 00         : PHIN         - NEUTRON POROSITY (SANDSTONE)
DPHI.V/V      00 890 00 00         : PHID         - DENSITY POROSITY (SANDSTONE)
GR  .API      00 310 00 00         : GR           - GAMMA RAY
CALI.MM       00 280 01 00         : CAL          - CALIPER
~PARAMETER INFORMATION
#MNEM.UNIT           DATA             DESCRIPTION OF MNEMONIC
#---------         -----------     ------------------------------
GL  .M        833.476              : gl           - GROUND LEVEL ELEVATION
EREF.M        837.133              : kb           - ELEVATION OF DEPTH REFERENCE
DATM.M        833.476              : datum        - DATUM ELEVATION
TDD .M        790.346              : tdd          - TOTAL DEPTH DRILLER
RUN .         ONE                  : Run          - RUN NUMBER
ENG .         WILLIGER             : Engineer     - RECORDING ENGINEER
WIT .         BOND                 : Witness      - WITNESSED BY
BASE.         RD                   : Branch       - HOME BASE OF LOGGING UNIT
MUD .         CHEM GEL             : Mud_type     - MUD TYPE
MATR.         SANDSTONE            : Logunit      - NEUTRON MATRIX
TMAX.C        27.7778              : BHT          - MAXIMUM RECORDED TEMPERATURE
BHTD.M        790.651              : BHTDEP       - MAXIMUM RECORDED TEMPERATURE
RMT .C        9.44444              : MDTP         - TEMPERATURE OF MUD
MUDD.KG/M     1164                 : MWT          - MUD DENSITY
NEUT.         1                    : NEUTRON      - NEUTRON TYPE
RESI.         0                    : RESIST       - RESISTIVITY TYPE
RM  .OHMM     4.84                 : RM           - RESISTIVITY OF MUD
RMC .OHMM     0                    : RMC          - RESISTIVITY OF MUD CAKE
RMF .OHMM     5.54                 : RMF          - RESISTIVITY OF MUD FILTRATE
SUFT.C        -17.7778             : SUFT         - SURFACE TEMPERATURE
~A  DEPTH     RESD     PHIN     PHID       GR      CAL
# ...
  743.256    5.622    0.341    0.154   96.084  209.485
  743.506    5.212    0.357    0.140   97.679  209.494
  743.756    5.002    0.369    0.125  100.068  208.158
  744.006    4.982    0.383    0.135   99.646  206.200
  744.256    5.072    0.382    0.112   95.983  203.311
  744.506    5.193    0.356    0.096   87.371  202.390
  744.756    5.466    0.341    0.115   88.537  201.984
  745.006    5.669    0.350    0.153   88.848  201.684
  745.256    5.836    0.339    0.144   89.220  201.691
  745.506    5.975    0.327    0.125   89.775  201.700
  745.756    6.106    0.335    0.107   88.008  201.091
  746.006    6.240    0.324    0.087   82.818  200.891
  746.256    6.353    0.309    0.078   83.924  200.693
  746.506    6.457    0.312    0.109   85.824  200.910
  746.756    6.538    0.326    0.115   83.446  200.609
  747.006    6.451    0.334    0.113   82.412  201.135
  747.256    6.192    0.350    0.122   83.579  201.869
  747.506    5.999    0.350    0.133   85.785  202.499
  747.756    5.695    0.343    0.137   87.868  202.611
  748.006    5.447    0.346    0.134   89.219  203.139
  748.256    5.171    0.352    0.127   90.019  203.562
  748.506    4.793    0.353    0.115   90.513  204.192
  748.756    4.442    0.356    0.139   91.130  204.719
  749.006    4.457    0.367    0.130   90.218  205.866
  749.256    4.717    0.377    0.157   85.211  207.014
  749.506    5.433    0.389    0.175   78.126  207.126
  749.756    6.542    0.379    0.195   71.164  206.100
  750.006    8.247    0.348    0.232   59.371  203.936
  750.256   11.960    0.333    0.261   47.335  202.186
  750.506   16.321    0.323    0.252   42.328  200.539
  750.756   20.959    0.314    0.254   40.439  198.893
  751.006   17.139    0.319    0.255   37.510  198.280
  751.256   12.274    0.325    0.268   36.782  197.255
  751.506    7.218    0.317    0.278   37.460  196.437
  751.756    5.968    0.312    0.287   38.260  195.721
  752.006    5.361    0.308    0.285   38.571  195.006
  752.256    4.781    0.310    0.274   38.515  194.704
  752.506    4.271    0.310    0.271   38.276  194.195
  752.756    4.017    0.306    0.270   37.915  194.310
  753.006    3.863    0.310    0.263   36.515  194.317
  753.256    3.777    0.318    0.258   34.992  194.327
  753.506    3.700    0.317    0.258   34.692  194.543
  753.756    3.591    0.316    0.279   35.309  194.863
  754.006    3.518    0.324    0.270   36.047  195.285
  754.256    3.497    0.333    0.259   36.542  195.811
  754.506    3.482    0.333    0.288   36.669  196.132
  754.756    3.455    0.329    0.280   36.736  196.555
  755.006    3.473    0.328    0.268   37.108  196.668
  755.256    3.497    0.329    0.278   36.686  196.780
  755.506    3.522    0.322    0.274   35.529  196.273
  755.756    3.559    0.321    0.272   34.130  195.972
  756.006    3.578    0.323    0.264   33.645  195.358
  756.256    3.603    0.323    0.275   34.690  194.851
  756.506    3.641    0.321    0.282   35.796  194.445
  756.756    3.700    0.321    0.280   37.452  194.766
  757.006    3.733    0.324    0.269   38.740  195.189
  757.256    3.746    0.324    0.269   39.846  195.611
  757.506    3.710    0.326    0.273   40.157  196.243
  757.756    3.647    0.330    0.264   40.224  197.080
  758.006    3.626    0.337    0.269   40.596  197.504
  758.256    3.597    0.347    0.282   40.112  198.236
  758.506    3.576    0.343    0.271   41.157  198.763
  758.756    3.555    0.333    0.289   41.285  199.083
  759.006    3.567    0.326    0.262   41.290  199.195
  759.256    3.638    0.317    0.242   42.151  199.204
  759.506    3.773    0.308    0.236   43.623  199.213
  759.756    4.030    0.306    0.237   45.157  199.845
  760.006    4.401    0.311    0.233   46.753  200.060
  760.256    4.718    0.308    0.221   48.652  200.380
  760.506    4.993    0.316    0.210   51.653  200.493
  760.756    5.112    0.324    0.222   54.593  200.503
  761.006    5.176    0.319    0.232   56.493  200.718
  761.256    5.174    0.323    0.233   57.782  200.726
  761.506    5.144    0.333    0.237   59.377  200.943
  761.756    5.132    0.330    0.240   60.604  200.953
  762.006    5.130    0.323    0.238   62.690  199.633
  762.256    5.071    0.319    0.231   64.466  200.262
  762.506    5.032    0.318    0.225   66.181  200.892
  762.756    4.993    0.322    0.218   68.264  201.105
  763.006    4.927    0.328    0.211   70.713  201.321
  763.256    4.880    0.337    0.199   69.679  201.123
  763.506    4.978    0.343    0.188   70.540  201.442
  763.756    5.220    0.340    0.175   70.545  202.484
  764.006    5.627    0.334    0.149   67.678  205.080
  764.256    5.955    0.327    0.126   68.111  207.262
  764.506    5.791    0.315    0.117   72.515  208.408
  764.756    5.079    0.325    0.138   76.125  208.622
  765.006    4.397    0.356    0.156   81.202  206.872
  765.256    3.649    0.376    0.167   85.239  203.777
  765.506    2.990    0.425    0.157   90.376  202.647
  765.756    2.730    0.442    0.153   94.047  202.448
  766.006    2.640    0.431    0.151   95.641  202.871
  766.256    2.678    0.419    0.145   96.563  203.707
  766.506    2.762    0.404    0.138   97.729  204.647
  766.756    2.854    0.391    0.137   98.772  205.794
  767.006    2.939    0.383    0.144   97.494  207.355
  767.256    3.048    0.379    0.162   99.454  208.501
  767.506    3.167    0.378    0.175  102.942  209.958
  767.756    3.314    0.386    0.176  103.191  210.690
  768.006    3.450    0.385    0.170  103.563  210.388
  768.256    3.493    0.379    0.164  103.934  209.879
  768.506    3.422    0.393    0.157  106.261  209.576
  768.756    3.389    0.409    0.151  107.794  209.690
  769.006    3.496    0.424    0.143  103.277  210.525
  769.256    3.741    0.437    0.134   94.850  211.879
  769.506    4.254    0.367    0.125   88.440  211.473
  769.756    5.074    0.348    0.102   82.151  210.446
  770.006    5.921    0.296    0.107   73.725  206.524
  770.256    7.090    0.265    0.086   62.609  202.600
  770.506    8.395    0.247    0.137   55.649  201.574
  770.756    9.832    0.236    0.156   51.133  201.170
  771.006   10.580    0.247    0.214   45.883  199.833
  771.256   11.280    0.264    0.227   41.244  200.669
  771.506   11.894    0.273    0.215   41.677  202.332
  771.756   12.313    0.285    0.196   41.071  204.203
  772.006   12.582    0.293    0.238   33.744  201.728
  772.256   12.393    0.301    0.242   31.427  201.221
  772.506   11.787    0.309    0.240   31.860  201.437
  772.756   11.335    0.301    0.227   34.614  201.444
  773.006   10.662    0.284    0.232   41.096  201.349
  773.256    9.937    0.259    0.188   45.867  201.357
  773.506    9.194    0.227    0.136   50.699  207.159
  773.756    8.712    0.214    0.121   55.225  210.892
  774.006    8.471    0.206    0.128   58.713  211.315
  774.256    8.641    0.236    0.128   60.062  210.909
  774.506    9.383    0.277    0.117   60.617  209.056
  774.756   10.380    0.296    0.133   59.339  206.478
  775.006   12.292    0.288    0.165   51.584  204.727
  775.256   14.529    0.230    0.119   46.029  203.701
  775.506   16.953    0.198    0.088   42.857  203.399
  775.756   20.262    0.169    0.018   39.990  203.615
  776.006   24.127    0.085    0.006   36.940  204.347
  776.256   28.049    0.066   -0.002   33.768  205.184
  776.506   30.404    0.066   -0.009   30.779  205.813
  776.756   31.649    0.073   -0.013   32.373  206.131
  777.006   32.460    0.093   -0.005   33.966  205.829
  777.256   32.871    0.114    0.012   34.093  205.424
