~VERSION INFORMATION
 VERS.                 2.0:   CWLS LOG ASCII STANDARD -VERSION 2.0
 WRAP.                  NO:   ONE LINE PER DEPTH STEP
~WELL INFORMATION BLOCK
#MNEM.UNIT           DATA                    DESCRIPTION OF MNEMONIC
#---------    -------------------            -------------------------------
# Generated from Intellog Unique Number	CW_70_72/WELL/3030
NULL.         -999.25                        : NULL_VALUE
WELL.         MESA SULPETRO MEYER 11-22      : Well_name    - WELL              
LOC .         11-22-070-24W4                 : Location     - LOCATION          
UWI .         00/11-22-070-24W4/0            : Uwi          - UNIQUE WELL ID    
ENTR.         jj                             : Entered      - ENTERED BY        
SRVC.         SCHLUMBERGER                   : Scn          - SERVICE COMPANY   
DATE.         20 JAN 77                      : Date         - LOG DATE          
STRT.M        411.48                         : top_depth    - START DEPTH       
STOP.M        633.98                         : bot_depth    - STOP DEPTH        
STEP.M        0.25                           : increment    - STEP LENGTH       
~CURVE INFORMATION BLOCK
#MNEM UNIT       ERCB CURVE CODE    CURVE DESCRIPTION
#-----------   ------------------   ----------------------------------
DEPT.M        00 001 00 00         : DEPTH        - DEPTH                       
ILD .OHMM     00 120 00 00         : RESD         - DEEP RESISTIVITY (DIL)      
CALI.MM       00 280 01 00         : CAL          - CALIPER                     
GR  .API      00 310 00 00         : GR           - GAMMA RAY                   
NPHI.V/V      00 330 00 00         : PHIN         - NEUTRON POROSITY (SANDSTONE)
DPHI.V/V      00 890 00 00         : PHID         - DENSITY POROSITY (SANDSTONE)
~PARAMETER INFORMATION       
#MNEM.UNIT           DATA             DESCRIPTION OF MNEMONIC
#---------         -----------     ------------------------------
GL  .M        619.049              : gl           - GROUND LEVEL ELEVATION      
EREF.M        624.23               : kb           - ELEVATION OF DEPTH REFERENCE
DATM.M        619.049              : datum        - DATUM ELEVATION             
TDD .M        649.224              : tdd          - TOTAL DEPTH DRILLER         
RUN .         ONE                  : Run          - RUN NUMBER                  
ENG .         LAGASSE              : Engineer     - RECORDING ENGINEER          
BASE.         EDM                  : Branch       - HOME BASE OF LOGGING UNIT   
MUD .         GEL CHEM             : Mud_type     - MUD TYPE                    
MATR.         SANDSTONE            : Logunit      - NEUTRON MATRIX              
TMAX.C        28.8889              : BHT          - MAXIMUM RECORDED TEMPERATURE
BHTD.M        647.395              : BHTDEP       - MAXIMUM RECORDED TEMPERATURE
RMT .C        13.3333              : MDTP         - TEMPERATURE OF MUD          
MUDD.KG/M     1080                 : MWT          - MUD DENSITY                 
NEUT.         1                    : NEUTRON      - NEUTRON TYPE                
RESI.         0                    : RESIST       - RESISTIVITY TYPE            
RM  .OHMM     1.45                 : RM           - RESISTIVITY OF MUD          
RMC .OHMM     0.25                 : RMC          - RESISTIVITY OF MUD CAKE     
RMF .OHMM     2.11                 : RMF          - RESISTIVITY OF MUD FILTRATE 
SUFT.C        -17.7778             : SUFT         - SURFACE TEMPERATURE         
~A  DEPTH     RESD      CAL       GR     PHIN     PHID
  411.480    2.656  203.970  111.879    0.512    0.135
  411.730    2.598  202.947  109.639    0.498    0.165
  411.980    2.518  202.746  105.035    0.489    0.167
  412.230    2.436  202.749  106.249    0.494    0.163
  412.480    2.361  204.291  108.736    0.558    0.163
  412.730    2.327  206.142  108.859    0.578    0.173
  412.980    2.331  208.711  109.467    0.562    0.176
  413.230    2.344  209.228  110.621    0.529    0.192
  413.480    2.353  205.947  108.865    0.524    0.192
  413.730    2.432  203.590  108.685    0.522    0.193
  413.980    2.538  202.465  112.566    0.498    0.181
  414.230    2.542  202.263  113.113    0.499    0.185
  414.480    2.478  202.984  111.540    0.522    0.201
  414.730    2.367  204.528  107.723    0.534    0.206
  414.980    2.332  206.172  100.029    0.547    0.213
  415.230    2.501  211.307   91.424    0.557    0.226
  415.480    2.803  209.463   80.881    0.539    0.237
  415.730    3.749  193.867   71.731    0.407    0.233
  415.980    5.183  177.758   61.491    0.374    0.219
  416.230    6.830  173.349   66.705    0.405    0.184
  416.480    7.613  173.352   63.980    0.424    0.226
  416.730    8.210  172.637   59.497    0.427    0.243
  416.980    8.645  172.435   57.256    0.441    0.230
  417.230    8.838  173.054   55.137    0.422    0.246
  417.480    8.757  175.419   57.988    0.422    0.272
  417.730    8.488  177.783   60.838    0.427    0.292
  417.980    7.886  178.914   64.598    0.433    0.279
  418.230    7.011  180.662   66.903    0.433    0.286
  418.480    6.141  182.103   69.693    0.428    0.273
  418.730    5.399  182.824   71.937    0.421    0.256
  418.980    4.943  183.135   76.181    0.414    0.231
  419.230    4.567  182.933   78.183    0.421    0.231
  419.480    4.346  182.321   79.034    0.415    0.237
  419.730    4.151  182.017   80.672    0.394    0.258
  419.980    4.009  183.457   83.280    0.408    0.264
  420.230    3.836  187.873   87.707    0.486    0.304
  420.480    3.435  197.934   91.708    0.513    0.348
  420.730    3.088  216.410   98.498    0.532    0.424
  420.980    2.796  249.151  103.288    0.541    0.430
  421.230    2.665  234.479  105.473    0.478    0.437
  421.480    2.817  213.854  105.171    0.437    0.412
  421.730    3.299  191.280   99.537    0.414    0.302
  421.980    3.922  175.889   90.993    0.427    0.235
  422.230    4.486  173.635   83.844    0.425    0.221
  422.480    5.334  172.715   77.724    0.414    0.245
  422.730    6.134  172.923   79.181    0.416    0.275
  422.980    6.506  173.542   79.971    0.437    0.274
  423.230    6.567  173.033   79.124    0.449    0.261
  423.480    6.579  173.344   78.641    0.452    0.273
  423.730    6.543  173.656   78.522    0.441    0.253
  423.980    6.580  174.069   78.039    0.429    0.237
  424.230    6.992  174.792   76.162    0.412    0.217
  424.480    8.116  175.308   74.467    0.398    0.198
  424.730    8.996  175.209   69.560    0.380    0.174
  424.980    9.631  175.006   61.380    0.296    0.141
  425.230    9.352  174.086   64.595    0.241    0.083
  425.480    8.609  173.269   75.566    0.301    0.065
  425.730    7.514  172.758   80.962    0.427    0.178
  425.980    6.414  172.968   83.631    0.436    0.228
  426.230    5.671  172.765   88.360    0.418    0.208
  426.480    4.931  172.359   90.423    0.422    0.224
  426.730    4.225  172.361   89.334    0.439    0.227
  426.980    4.065  172.982   85.397    0.444    0.198
  427.230    4.096  173.189   83.277    0.441    0.197
  427.480    4.118  174.116   86.916    0.423    0.213
  427.730    4.126  175.145   91.221    0.411    0.234
  427.980    4.059  178.023   93.768    0.402    0.230
  428.230    3.985  183.978   94.073    0.409    0.201
  428.480    3.884  190.755   91.105    0.426    0.203
  428.730    3.689  187.475   87.410    0.429    0.213
  428.980    3.582  175.162   89.594    0.406    0.256
  429.230    3.556  168.496   93.899    0.384    0.200
  429.480    3.582  167.063   96.932    0.391    0.169
  429.730    3.662  167.167   96.267    0.397    0.171
  429.980    3.690  168.711   93.239    0.404    0.206
  430.230    3.696  171.382   90.210    0.392    0.196
  430.480    3.670  175.594   91.727    0.360    0.186
  430.730    3.596  181.754   91.850    0.388    0.199
  430.980    3.486  182.476   86.337    0.417    0.179
  431.230    3.311  174.372   65.976    0.425    0.212
  431.480    2.959  169.449   53.614    0.356    0.236
  431.730    2.588  167.606   43.858    0.352    0.251
  431.980    2.296  166.993   43.315    0.363    0.273
  432.230    2.083  167.407   49.499    0.373    0.282
  432.480    1.876  167.615   53.804    0.369    0.284
  432.730    1.778  169.774   59.078    0.356    0.288
  432.980    1.782  175.217   75.080    0.349    0.273
  433.230    1.932  179.017   87.082    0.383    0.242
  433.480    2.099  181.381  103.872    0.418    0.197
  433.730    2.331  177.587   92.965    0.435    0.209
  433.980    2.514  173.074   75.755    0.397    0.221
  434.230    2.537  171.436   75.272    0.380    0.255
  434.480    2.454  172.260   82.001    0.379    0.253
  434.730    2.396  171.955   88.367    0.377    0.242
  434.980    2.486  172.165   96.430    0.367    0.224
  435.230    2.657  172.476  100.492    0.366    0.219
  435.480    2.913  174.018  103.646    0.366    0.220
  435.730    3.170  177.614  106.315    0.392    0.202
  435.980    3.326  180.388  104.923    0.408    0.191
  436.230    3.394  177.517  101.046    0.417    0.221
  436.480    3.369  170.645   92.078    0.430    0.250
  436.730    3.218  169.212   88.868    0.437    0.280
  436.980    3.096  171.781   96.931    0.452    0.264
  437.230    3.023  175.068  101.720    0.484    0.273
  437.480    2.722  182.974  106.753    0.562    0.225
  437.730    2.456  197.755  112.391    0.588    0.242
  437.980    2.240  205.251  117.969    0.573    0.225
  438.230    2.108  204.946  122.213    0.538    0.225
  438.480    2.047  198.073  118.155    0.534    0.221
  438.730    2.116  216.960  118.641    0.528    0.184
  438.980    2.341  219.734  122.037    0.494    0.230
  439.230    2.553  208.551  116.161    0.450    0.239
  439.480    2.820  179.203  111.011    0.447    0.216
  439.730    3.207  185.159   98.225    0.477    0.202
  439.980    3.785  198.299   92.348    0.481    0.237
  440.230    4.044  175.211   87.017    0.467    0.295
  440.480    3.993  171.315   85.261    0.469    0.229
  440.730    3.891  172.550   83.082    0.482    0.228
  440.980    3.772  172.656   75.265    0.483    0.267
  441.230    3.622  171.839   76.055    0.466    0.248
  441.480    3.472  171.123   78.845    0.440    0.258
  441.730    3.262  170.203   82.423    0.441    0.269
  441.980    3.081  169.899   85.273    0.431    0.271
  442.230    2.976  169.593   85.942    0.436    0.252
  442.480    2.895  169.084   84.913    0.448    0.234
  442.730    2.816  169.190   83.158    0.471    0.272
  442.980    2.785  168.577   81.342    0.454    0.282
  443.230    2.821  168.787   80.980    0.426    0.278
  443.480    2.895  168.276   83.225    0.429    0.257
  443.730    2.971  167.972   83.772    0.441    0.272
  443.980    2.955  168.078   79.835    0.435    0.272
  444.230    2.874  168.595   77.170    0.438    0.256
  444.480    2.786  168.905   76.566    0.442    0.243
  444.730    2.651  169.218   76.022    0.438    0.262
  444.980    2.560  169.221   72.631    0.440    0.261
  445.230    2.537  169.531   69.905    0.445    0.269
  445.480    2.500  169.637   67.725    0.450    0.280
  445.730    2.482  169.333   67.303    0.454    0.288
  445.980    2.482  169.131   68.214    0.438    0.276
  446.230    2.523  169.647   69.246    0.417    0.262
  446.480    2.691  169.650   68.642    0.402    0.247
  446.730    2.940  169.654   66.947    0.382    0.223
  446.980    3.211  170.889   64.464    0.319    0.197
  447.230    3.990  172.329   60.891    0.257    0.122
  447.480    5.536  173.667   57.256    0.224    0.089
  447.730    9.148  174.388   54.592    0.216    0.069
