~VERSION INFORMATION
 VERS.                 2.0:   CWLS LOG ASCII STANDARD -VERSION 2.0
 WRAP.                  NO:   ONE LINE PER DEPTH STEP
~WELL INFORMATION BLOCK
#MNEM.UNIT           DATA                    DESCRIPTION OF MNEMONIC
#---------    -------------------            -------------------------------
# Generated from Intellog Unique Number	CC_80_83/WELL/2404
NULL.         -999.25                        : NULL_VALUE
WELL.         AMOCO HOUSER                   : Well_name    - WELL              
LOC .         11-20-083-14W4                 : Location     - LOCATION          
UWI .         00/11-20-083-14W400            : Uwi          - UNIQUE WELL ID    
ENTR.         RJA                            : Entered      - ENTERED BY        
SRVC.         SCHLUMBERGER                   : Scn          - SERVICE COMPANY   
DATE.         12 MAR 77                      : Date         - LOG DATE
STRT.M        185.928                        : top_depth    - START DEPTH       
STOP.M        309.068                        : bot_depth    - STOP DEPTH        
STEP.M        0.305                          : increment    - STEP LENGTH       
~CURVE INFORMATION BLOCK
#MNEM UNIT       ERCB CURVE CODE    CURVE DESCRIPTION
#-----------   ------------------   ----------------------------------
DEPT.M        00 001 00 00         : DEPTH        - DEPTH                       
ILD .OHMM     00 120 00 00         : RESD         - DEEP RESISTIVITY (DIL)      
GR  .API      00 310 00 00         : GR           - GAMMA RAY                   
NPHI.V/V      00 330 00 00         : PHIN         - NEUTRON POROSITY (LIMESTONE)
DPHI.V/V      00 890 00 00         : PHID         - DENSITY POROSITY (LIMESTONE)
~PARAMETER INFORMATION       
#MNEM.UNIT           DATA             DESCRIPTION OF MNEMONIC
#---------         -----------     ------------------------------
GL  .M        551.078              : gl           - GROUND LEVEL ELEVATION      
EREF.M        554.736              : kb           - ELEVATION OF DEPTH REFERENCE
DATM.M        554.736              : datum        - DATUM ELEVATION             
TDD .M        310.896              : tdd          - TOTAL DEPTH DRILLER         
RUN .         ONE                  : Run          - RUN NUMBER                  
ENG .         BILL                 : Engineer     - RECORDING ENGINEER          
WIT .         JIM                  : Witness      - WITNESSED BY                
MUD .         GEL                  : Mud_type     - MUD TYPE                    
MATR.         LIMESTONE            : Logunit      - NEUTRON MATRIX              
TMAX.C        19.4444              : BHT          - MAXIMUM RECORDED TEMPERATURE
BHTD.M        310.896              : BHTDEP       - MAXIMUM RECORDED TEMPERATURE
MATR.         1                    : LOGUNIT      - NEUTRON MATRIX              
RMT .C        25                   : MDTP         - TEMPERATURE OF MUD          
NEUT.         1                    : NEUTRON      - NEUTRON TYPE                
RESI.         0                    : RESIST       - RESISTIVITY TYPE            
RMC .OHMM     0.25                 : RMC          - RESISTIVITY OF MUD CAKE     
RMF .OHMM     0.25                 : RMF          - RESISTIVITY OF MUD FILTRATE 
SUFT.C        4                    : SUFT         - SURFACE TEMPERATURE         
~A  DEPTH     RESD       GR     PHIN     PHID
# ...
  238.962   11.607   89.208    0.382    0.134
  239.267   10.973   93.493    0.378    0.201
  239.572   10.568   94.727    0.377    0.179
  239.877   10.177   92.914    0.383    0.159
  240.181    9.804   91.097    0.377    0.186
  240.486    8.930   89.284    0.384    0.203
  240.791    7.984   91.739    0.411    0.180
  241.096    7.139   94.802    0.448    0.220
  241.401    6.876   97.256    0.446    0.203
  241.705    7.541   92.392    0.446    0.211
  242.010    8.272   84.483    0.420    0.231
  242.315    9.416   83.273    0.406    0.222
  242.620   10.137   85.733    0.410    0.212
  242.925   10.322   86.962    0.413    0.188
  243.229   10.318   83.931    0.414    0.201
  243.534   10.903   79.677    0.362    0.229
  243.839   11.523   76.034    0.356    0.252
  244.144   12.178   73.612    0.367    0.245
  244.449   13.355   71.793    0.373    0.291
  244.753   13.854   69.979    0.308    0.223
  245.058   14.108   68.776    0.305    0.169
  245.363   13.091   73.669    0.347    0.204
  245.668   11.707   77.952    0.410    0.233
  245.972   10.864   79.193    0.416    0.204
  246.277   10.270   80.421    0.436    0.201
  246.582    9.891   82.266    0.446    0.234
  246.887    9.526   78.013    0.415    0.256
  247.192    9.522   77.418    0.409    0.233
  247.496    9.695   81.706    0.411    0.205
  247.801    9.873   82.940    0.415    0.228
  248.106    9.687   82.340    0.422    0.229
  248.411    9.682   78.087    0.384    0.246
  248.716    9.499   79.938    0.399    0.207
  249.020    9.674   81.169    0.379    0.184
  249.325   10.036   77.525    0.367    0.191
  249.630   10.803   72.662    0.355    0.206
  249.935   11.002   75.727    0.336    0.142
  250.240   10.400   78.179    0.405    0.206
  250.544    9.833   78.194    0.448    0.219
  250.849    9.125   81.869    0.416    0.209
  251.154    8.788   81.275    0.397    0.230
  251.459    8.783   79.458    0.407    0.207
  251.764    8.618   77.033    0.435    0.204
  252.068    8.300   78.269    0.450    0.226
  252.373    7.702   77.673    0.453    0.215
  252.678    7.418   74.639    0.446    0.210
  252.983    7.013   75.876    0.421    0.256
  253.288    6.754   78.940    0.414    0.271
  253.592    6.386   82.617    0.426    0.271
  253.897    5.605   83.238    0.470    0.283
  254.202    4.740   85.081    0.504    0.265
  254.507    4.318   87.537    0.487    0.272
  254.812    3.860   89.992    0.484    0.212
  255.116    3.788   93.053    0.499    0.199
  255.421    4.079   95.508    0.442    0.189
  255.726    4.818   95.522    0.435    0.190
  256.031    6.727   87.611    0.402    0.210
  256.336    8.248   79.091    0.366    0.178
  256.640   10.301   74.838    0.375    0.166
  256.945   11.945   77.901    0.403    0.195
  257.250   12.392   84.624    0.416    0.208
  257.555   11.499   87.688    0.402    0.200
  257.860   10.092   87.703    0.406    0.172
  258.164    9.903   88.936    0.423    0.187
  258.469    9.716   90.171    0.420    0.201
  258.774    9.712   84.703    0.398    0.180
  259.079   10.073   83.492    0.418    0.167
  259.384   10.259   81.680    0.422    0.141
  259.688   10.255   84.134    0.411    0.146
  259.993    9.876   88.419    0.420    0.202
  260.298    9.165   87.826    0.427    0.186
  260.603    8.045   86.007    0.456    0.191
  260.908    6.678   79.924    0.489    0.291
  261.212    5.543   71.404    0.526    0.326
  261.517    4.957   62.882    0.429    0.333
  261.822    5.749   57.409    0.405    0.257
  262.127    7.180   65.959    0.434    0.281
  262.432    8.968   78.171    0.463    0.326
  262.737   12.522   70.260    0.445    0.252
  263.041   13.990   85.517    0.424    0.237
  263.346   12.981   81.264    0.426    0.271
  263.651   12.048   79.450    0.466    0.306
  263.956    9.817   97.148    0.483    0.272
  264.261    8.459   95.333    0.441    0.294
  264.565    7.288   86.203    0.437    0.256
  264.870    6.396   95.365    0.497    0.242
  265.175    5.826   85.625    0.474    0.221
  265.480    5.823   74.661    0.453    0.222
  265.785    5.820   66.749    0.415    0.188
  266.089    5.819   64.326    0.408    0.119
  266.394    5.709   89.342    0.472    0.221
  266.699    5.706   93.015    0.486    0.273
  267.004    5.295   83.275    0.479    0.226
  267.309    4.562   82.680    0.479    0.204
  267.613    4.313   85.747    0.489    0.230
  267.918    4.078   86.371    0.472    0.241
  268.223    4.001   86.992    0.445    0.191
  268.528    3.999   86.400    0.420    0.188
  268.833    3.923   88.245    0.443    0.122
  269.138    3.849   90.088    0.480    0.171
  269.442    3.777   89.496    0.508    0.207
  269.747    3.706   90.117    0.480    0.199
  270.052    3.774   92.573    0.472    0.210
  270.357    4.627   88.319    0.455    0.208
  270.662    6.110   76.746    0.428    0.246
  270.966    8.220   67.615    0.324    0.296
  271.271   12.361   60.925    0.310    0.259
  271.576   15.441   59.115    0.348    0.286
  271.881   21.162   62.176    0.350    0.288
  272.186   24.538   62.797    0.269    0.217
  272.490   25.934   51.839    0.266    0.224
  272.795   24.975   46.366    0.299    0.310
  273.100   23.178   43.330    0.305    0.308
  273.405   19.242   46.398    0.329    0.280
  273.710   12.783   51.897    0.378    0.263
  274.014    8.491   61.670    0.368    0.248
  274.319    6.306   70.221    0.406    0.236
  274.624    6.073   76.945    0.430    0.244
  274.929    6.539   72.082    0.405    0.264
  275.234    7.171   65.391    0.415    0.276
  275.539    7.440   66.016    0.455    0.255
  275.843    7.436   75.786    0.472    0.213
  276.148    7.714   79.457    0.437    0.191
  276.453    8.780   78.252    0.372    0.144
  276.758    9.454   81.319    0.361    0.165
  277.063   10.369   84.380    0.375    0.216
  277.367   11.586   83.785    0.391    0.176
  277.672   12.473   83.800    0.374    0.194
  277.977   13.934   81.378    0.330    0.198
  278.282   14.729   92.368    0.345    0.210
  278.587   19.449  100.919    0.399    0.280
  278.891   22.554  102.158    0.408    0.255
  279.196   25.201   99.121    0.376    0.255
  279.501   27.640   88.768    0.337    0.256
  279.806   30.316   66.224    0.312    0.247
  280.111   32.639   63.799    0.310    0.268
  280.415   35.792   68.088    0.337    0.238
  280.720   33.843   71.757    0.348    0.206
  281.025   27.577   76.653    0.348    0.180
  281.330   24.659   78.494    0.353    0.175
  281.635   22.460   78.508    0.356    0.172
  281.940   24.181   79.744    0.365    0.167
  282.244   30.769   70.611    0.383    0.177
  282.549   41.395   61.481    0.389    0.253
  282.854   55.689   62.720    0.404    0.276
  283.159   57.772   64.560    0.427    0.260
  283.464   49.772   67.625    0.368    0.244
  283.768   41.318   67.030    0.366    0.225
  284.073   39.065   67.653    0.368    0.213
  284.378   36.253   70.107    0.355    0.204
  284.683   30.660   71.955    0.339    0.180
  284.988   26.415   73.797    0.333    0.175
  285.292   24.058   72.592    0.335    0.174
  285.597   23.173   67.732    0.356    0.173
  285.902   21.909   68.966    0.375    0.177
  286.207   17.524   73.859    0.391    0.175
  286.512   12.774   75.701    0.412    0.162
  286.816   12.534   73.886    0.362    0.172
  287.121   18.501   62.929    0.345    0.237
  287.426   24.889   59.896    0.342    0.229
  287.731   27.813   58.687    0.339    0.234
  288.036   32.252   54.438    0.339    0.237
  288.341   36.710   51.400    0.369    0.227
  288.645   39.526   44.709    0.382    0.237
  288.950   53.169   42.284    0.387    0.239
  289.255   61.663   34.375    0.387    0.278
  289.560   87.705   28.290    0.408    0.295
  289.865  105.550   33.791    0.396    0.284
  290.169  109.500   38.077    0.400    0.302
  290.474   99.746   40.531    0.422    0.308
  290.779   97.858   41.764    0.448    0.320
  291.084  101.522   43.002    0.431    0.335
  291.389  141.744   43.014    0.409    0.318
  291.693  194.254   38.152    0.399    0.287
