~VERSION INFORMATION
 VERS.                 2.0:   CWLS LOG ASCII STANDARD -VERSION 2.0
 WRAP.                  NO:   ONE LINE PER DEPTH STEP
~WELL INFORMATION BLOCK
#MNEM.UNIT           DATA                    DESCRIPTION OF MNEMONIC
#---------    -------------------            -------------------------------
# Generated from Intellog Unique Number	CS_73_76/WELL/3260
WELL.         BOW VALLEY INDUSTRIES LTD      : Well_name    - WELL
LOC .         00/11-10-076-14W4/0            : Location     - LOCATION
UWI .         00/11-10-076-14W4/0            : Uwi          - UNIQUE WELL ID
ENTR.         SP                             : Entered      - ENTERED BY
SRVC.         SCHLUMBERGER                   : Scn          - SERVICE COMPANY
STRT.M        315                            : top_depth    - START DEPTH
STOP.M        535                            : bot_depth    - STOP DEPTH
STEP.M        0.25                           : increment    - STEP LENGTH
 NULL. -999.2500:NULL Value
~CURVE INFORMATION BLOCK
#MNEM UNIT       ERCB CURVE CODE    CURVE DESCRIPTION
#-----------   ------------------   ----------------------------------
DEPT.M        00 001 00 00         : DEPTH        - DEPTH
ILD .OHMM     00 120 00 00         : RESD         - DEEP RESISTIVITY (DIL)
DPHI.V/V      00 890 00 00         : PHID         - DENSITY POROSITY (LIMESTONE)
NPHI.V/V      00 330 00 00         : PHIN         - NEUTRON POROSITY (LIMESTONE)
GR  .API      00 310 00 00         : GR           - GAMMA RAY
~PARAMETER INFORMATION
#MNEM.UNIT           DATA             DESCRIPTION OF MNEMONIC
#---------         -----------     ------------------------------
GL  .M        644.9                : gl           - GROUND LEVEL ELEVATION
EREF.M        648.3                : kb           - ELEVATION OF DEPTH REFERENCE
DATM.M        644.9                : datum        - DATUM ELEVATION
TDD .M        537                  : tdd          - TOTAL DEPTH DRILLER
RUN .         ONE                  : Run          - RUN NUMBER
ENG .         BILL                 : Engineer     - RECORDING ENGINEER
WIT .         JIM                  : Witness      - WITNESSED BY
MUD .         GEL                  : Mud_type     - MUD TYPE
MATR.         LIMESTONE            : Logunit      - NEUTRON MATRIX
TMAX.C        26                   : BHT          - MAXIMUM RECORDED TEMPERATURE
BHTD.M        537                  : BHTDEP       - MAXIMUM RECORDED TEMPERATURE
MATR.         1                    : LOGUNIT      - NEUTRON MATRIX
RMT .C        25                   : MDTP         - TEMPERATURE OF MUD
NEUT.         1                    : NEUTRON      - NEUTRON TYPE
RESI.         0                    : RESIST       - RESISTIVITY TYPE
RMC .OHMM     0.25                 : RMC          - RESISTIVITY OF MUD CAKE
RMF .OHMM     0.25                 : RMF          - RESISTIVITY OF MUD FILTRATE
SUFT.C        15                   : SUFT         - SURFACE TEMPERATURE
~A  DEPTH     RESD     PHID     PHIN       GR
# ...
  489.000    5.511    0.129    0.420   94.446
  489.250    5.511    0.144    0.420   99.317
  489.500    5.118    0.203    0.437  102.359
  489.750    4.496    0.207    0.502  102.352
  490.000    4.254    0.205    0.528   99.907
  490.250    4.176    0.202    0.542   95.024
  490.500    4.497    0.181    0.516   90.749
  490.750    4.934    0.163    0.487   87.694
  491.000    5.618    0.180    0.480   88.298
  491.250    5.939    0.180    0.475   89.512
  491.500    6.051    0.160    0.464   90.725
  491.750    6.164    0.138    0.458   87.061
  492.000    6.280    0.120    0.430   72.421
  492.250    6.398    0.092    0.336   71.195
  492.500    6.640    0.092    0.354   76.065
  492.750    6.891    0.132    0.379   85.816
  493.000    6.765    0.155    0.422   93.734
  493.250    6.520    0.179    0.434   94.340
  493.500    6.168    0.172    0.442   94.942
  493.750    5.944    0.157    0.441   94.326
  494.000    6.284    0.175    0.445   93.101
  494.250    6.644    0.160    0.452   92.484
  494.500    7.024    0.145    0.457   91.260
  494.750    7.426    0.150    0.450   90.033
  495.000    7.998    0.153    0.445   89.414
  495.250    8.148    0.166    0.447   88.798
  495.500    8.775    0.137    0.431   88.794
  495.750    9.277    0.120    0.422   87.571
  496.000    9.278    0.103    0.402   85.734
  496.250    8.777    0.125    0.374   88.167
  496.500    8.303    0.130    0.396   93.038
  496.750    7.570    0.172    0.422   97.300
  497.000    6.774    0.180    0.446  101.563
  497.250    6.176    0.180    0.467  102.777
  497.500    5.952    0.177    0.464  100.941
  497.750    5.843    0.165    0.454   97.885
  498.000    6.064    0.151    0.468   96.661
  498.250    6.653    0.139    0.482   95.434
  498.500    7.033    0.153    0.490   98.475
  498.750    8.008    0.173    0.469  100.300
  499.000    9.117    0.202    0.442  104.559
  499.250    9.638    0.224    0.440  106.384
  499.500   10.380    0.230    0.438  110.646
  499.750   10.974    0.216    0.424  114.299
  500.000   11.389    0.203    0.439  112.463
  500.250   12.496    0.225    0.441  107.580
  500.500   13.210    0.231    0.443  103.915
  500.750   13.458    0.230    0.446   95.981
  501.000   13.460    0.240    0.437   88.050
  501.250   13.461    0.234    0.427   92.311
  501.500   12.734    0.207    0.412   99.619
  501.750   10.982    0.189    0.402  103.274
  502.000    9.126    0.175    0.405  109.974
  502.250    8.475    0.201    0.426  114.844
  502.500    7.726    0.188    0.441  116.060
  502.750    7.175    0.193    0.454  116.663
  503.000    7.446    0.201    0.464  114.216
  503.250    9.130    0.222    0.470  111.773
  503.500   10.787    0.242    0.469  105.060
  503.750   13.472    0.250    0.468   87.981
  504.000   16.214    0.266    0.455   82.487
  504.250   20.251    0.282    0.445   77.603
  504.500   21.017    0.286    0.419   80.644
  504.750   19.883    0.269    0.413   81.859
  505.000   18.465    0.225    0.421   84.901
  505.250   17.148    0.205    0.416   86.725
  505.500   15.633    0.209    0.401   87.323
  505.750   15.347    0.227    0.395   86.709
  506.000   14.790    0.235    0.402   86.095
  506.250   15.350    0.219    0.414   83.648
  506.500   16.228    0.220    0.407   83.035
  506.750   17.478    0.226    0.397   81.199
  507.000   18.823    0.213    0.395   78.754
  507.250   20.271    0.217    0.396   76.308
  507.500   21.038    0.223    0.409   74.473
  507.750   20.654    0.217    0.424   73.856
  508.000   19.905    0.217    0.422   73.243
  508.250   19.182    0.226    0.426   75.675
  508.500   17.814    0.233    0.444   77.498
  508.750   16.544    0.216    0.432   79.930
  509.000   16.242    0.216    0.421   81.143
  509.250   16.243    0.224    0.403   78.699
  509.500   17.172    0.214    0.398   75.033
  509.750   19.192    0.217    0.389   71.978
  510.000   21.449    0.237    0.400   70.754
  510.250   24.877    0.256    0.404   67.089
  510.500   26.792    0.273    0.400   62.815
  510.750   27.295    0.268    0.394   54.273
  511.000   25.823    0.254    0.380   59.754
  511.250   23.540    0.244    0.378   67.674
  511.500   17.184    0.231    0.389   75.594
  511.750   14.018    0.233    0.414   76.808
  512.000   10.045    0.255    0.430   79.239
  512.250    8.347    0.252    0.455   82.892
  512.500    7.470    0.235    0.470   92.031
  512.750    6.937    0.219    0.481   88.366
  513.000    7.472    0.223    0.491   83.483
  513.250    8.350    0.290    0.478   68.842
  513.500    9.161    0.309    0.436   63.350
  513.750   10.625    0.312    0.411   63.952
  514.000   13.518    0.310    0.414   64.554
  514.250   17.521    0.303    0.419   65.159
  514.500   18.870    0.290    0.425   67.591
  514.750   17.203    0.281    0.432   72.464
  515.000   15.395    0.274    0.424   78.556
  515.250   13.524    0.260    0.418   87.693
  515.500   12.560    0.240    0.419   90.737
  515.750   12.330    0.221    0.434   95.610
  516.000   12.562    0.238    0.440   92.554
  516.250   13.037    0.249    0.447   92.547
  516.500   13.281    0.256    0.449   91.932
  516.750   13.283    0.259    0.449   93.145
  517.000   12.566    0.255    0.441   96.185
  517.250   11.456    0.251    0.431   97.400
  517.500   10.837    0.254    0.429  100.443
  517.750   10.064    0.241    0.436  103.486
  518.000    9.347    0.222    0.429  108.356
  518.250    8.842    0.194    0.435  112.617
  518.500    8.365    0.174    0.459  115.052
  518.750    8.212    0.178    0.457  116.874
  519.000    7.915    0.186    0.453  115.040
  519.250    7.915    0.190    0.446  113.202
  519.500    8.214    0.194    0.443  113.197
  519.750    8.368    0.202    0.441  112.581
  520.000    9.353    0.206    0.436  111.357
  520.250    9.888    0.209    0.429  108.911
  520.500   10.074    0.231    0.427  108.905
  520.750   10.263    0.226    0.423  111.336
  521.000   10.264    0.205    0.418  112.551
  521.250   10.076    0.209    0.411  108.275
  521.500   10.077    0.223    0.406  106.440
  521.750   10.458    0.232    0.407  103.385
  522.000   10.655    0.236    0.429  100.331
  522.250   11.689    0.242    0.433   94.838
  522.500   12.589    0.248    0.427   85.076
  522.750   13.812    0.232    0.421   78.362
  523.000   14.334    0.182    0.417   74.088
  523.250   14.876    0.102    0.415   71.033
  523.500   14.878    0.083    0.412   69.196
  523.750   14.879    0.098    0.378   69.192
  524.000   14.076    0.194    0.357   72.842
  524.250   13.072    0.219    0.398   74.667
  524.500   11.917    0.229    0.394   77.709
  524.750   10.864    0.231    0.391   79.532
  525.000   10.469    0.224    0.389   78.915
  525.250    9.545    0.230    0.388   77.080
  525.500    9.370    0.239    0.387   74.636
  525.750    9.199    0.251    0.382   74.019
  526.000    9.200    0.253    0.375   75.233
  526.250    9.032    0.216    0.373   80.714
  526.500    9.032    0.211    0.398   85.586
  526.750    8.705    0.227    0.393   89.847
  527.000    8.546    0.228    0.388   86.184
  527.250    8.236    0.231    0.381   81.299
  527.500    7.791    0.278    0.404   72.757
  527.750    7.371    0.295    0.411   65.434
  528.000    6.973    0.301    0.406   68.473
  528.250    6.476    0.301    0.403   72.127
  528.500    6.357    0.295    0.416   79.438
  528.750    6.358    0.286    0.405   87.359
  529.000    6.477    0.253    0.398   98.937
  529.250    7.106    0.244    0.392  108.077
  529.500    7.797    0.222    0.386  115.998
  529.750    8.397    0.212    0.385  120.260
  530.000    8.714    0.187    0.382  125.130
  530.250    8.715    0.170    0.381  112.930
  530.500    8.716    0.178    0.380  103.167
  530.750    8.716    0.181    0.391   98.894
  531.000    8.400    0.178    0.389   94.620
  531.250    8.096    0.170    0.384   92.175
  531.500    7.947    0.175    0.386   89.729
  531.750    7.659    0.171    0.399   87.895
  532.000    7.519    0.157    0.419   84.840
  532.250    7.382    0.146    0.428   80.566
