~VERSION INFORMATION
 VERS.                 2.0:   CWLS LOG ASCII STANDARD -VERSION 2.0
 WRAP.                  NO:   ONE LINE PER DEPTH STEP
~WELL INFORMATION BLOCK
#MNEM.UNIT           DATA                    DESCRIPTION OF MNEMONIC
#---------    -------------------            -------------------------------
# Generated from Intellog Unique Number	CS_71_72/WELL/3247
WELL.         GEOG WANDER                    : Well_name    - WELL
LOC .         00/11-18-071-13W4/0            : Location     - LOCATION
UWI .         00/11-18-071-13W4/0            : Uwi          - UNIQUE WELL ID
ENTR.         T                              : Entered      - ENTERED BY
SRVC.         SCHLUMBERGER                   : Scn          - SERVICE COMPANY
DATE.         01/30/92                       : Date         - LOG DATE
STRT.M        329.184                        : top_depth    - START DEPTH
STOP.M        545.684                        : bot_depth    - STOP DEPTH
STEP.M        0.25                           : increment    - STEP LENGTH
 NULL. -999.2500:NULL Value
~CURVE INFORMATION BLOCK
#MNEM UNIT       ERCB CURVE CODE    CURVE DESCRIPTION
#-----------   ------------------   ----------------------------------
DEPT.M        00 001 00 00         : DEPTH        - DEPTH
GR  .API      00 310 00 00         : GR           - GAMMA RAY
NPHI.V/V      00 330 00 00         : PHIN         - NEUTRON POROSITY (SANDSTONE)
ILD .OHMM     00 120 00 00         : RESD         - DEEP RESISTIVITY (DIL)
~PARAMETER INFORMATION
#MNEM.UNIT           DATA             DESCRIPTION OF MNEMONIC
#---------         -----------     ------------------------------
GL  .M        644.957              : gl           - GROUND LEVEL ELEVATION
EREF.M        648.005              : kb           - ELEVATION OF DEPTH REFERENCE
DATM.M        648.005              : datum        - DATUM ELEVATION
TDD .M        546.811              : tdd          - TOTAL DEPTH DRILLER
RUN .         ONE                  : Run          - RUN NUMBER
ENG .         BILL                 : Engineer     - RECORDING ENGINEER
WIT .         JIM                  : Witness      - WITNESSED BY
MUD .         GEL                  : Mud_type     - MUD TYPE
MATR.         SANDSTONE            : Logunit      - NEUTRON MATRIX
TMAX.C        26.6667              : BHT          - MAXIMUM RECORDED TEMPERATURE
BHTD.M        546.202              : BHTDEP       - MAXIMUM RECORDED TEMPERATURE
RMT .C        17.7778              : MDTP         - TEMPERATURE OF MUD
MUDD.KG/M     10000                : MWT          - MUD DENSITY
NEUT.         1                    : NEUTRON      - NEUTRON TYPE
RESI.         0                    : RESIST       - RESISTIVITY TYPE
RM  .OHMM     5                    : RM           - RESISTIVITY OF MUD
RMC .OHMM     4.1                  : RMC          - RESISTIVITY OF MUD CAKE
RMF .OHMM     3.5                  : RMF          - RESISTIVITY OF MUD FILTRATE
SUFT.C        4                    : SUFT         - SURFACE TEMPERATURE
~A  DEPTH       GR     PHIN     RESD
  329.184  101.017    0.560    1.434
  329.434  100.470    0.556    1.491
  329.684  100.492    0.552    1.583
  329.934   99.347    0.545    1.679
  330.184   98.778    0.535    1.713
  330.434   97.626    0.513    1.748
  330.684   97.072    0.495    1.854
  330.934   95.912    0.481    1.968
  331.184   92.398    0.460    2.007
  331.434   90.057    0.384    2.172
  331.684   84.187    0.361    2.305
  331.934   78.901    0.381    2.350
  332.184   90.742    0.453    2.445
  332.434   96.087    0.488    2.447
  332.684   97.888    0.494    2.448
  332.934   99.105    0.498    2.403
  333.184   99.732    0.506    2.312
  333.434  100.367    0.515    2.183
  333.684  100.979    0.536    2.142
  333.934  101.001    0.542    2.102
  334.184  101.023    0.539    2.023
  334.434  101.059    0.539    2.024
  334.684  101.081    0.529    2.025
  334.934  101.117    0.518    2.067
  335.184  101.146    0.507    2.067
  335.434  101.175    0.510    2.151
  335.684  101.204    0.513    2.195
  335.934  101.234    0.508    2.239
  336.184  101.263    0.502    2.197
  336.434   97.748    0.501    2.157
  336.684   91.878    0.503    2.158
  336.934   88.356    0.505    2.201
  337.184   84.251    0.509    2.291
  337.434   80.146    0.519    2.337
  337.684   77.229    0.536    2.339
  337.934   74.889    0.546    2.340
  338.184   71.972    0.556    2.387
  338.434   69.631    0.565    2.583
  338.684   66.117    0.573    2.794
  338.934   60.830    0.575    3.144
  339.184   53.181    0.552    3.335
  339.434   43.761    0.417    3.402
  339.684   40.844    0.382    3.404
  339.934   43.243    0.378    3.340
  340.184   44.446    0.380    3.153
  340.434   47.435    0.383    3.035
  340.684   51.008    0.388    3.036
  340.934   54.581    0.392    3.038
  341.184   58.737    0.397    3.161
  341.434   67.632    0.391    3.288
  341.684   75.930    0.383    3.489
  341.934   81.275    0.379    3.559
  342.184   84.257    0.381    3.777
  342.434   87.837    0.382    3.853
  342.684   90.819    0.389    3.856
  342.934   94.990    0.390    3.935
  343.184   96.193    0.395    4.014
  343.434   98.584    0.400    4.096
  343.684  101.574    0.405    4.179
  343.934  103.375    0.411    4.264
  344.184  104.585    0.416    4.266
  344.434  105.795    0.424    4.187
  344.684  107.013    0.427    4.029
  344.934  105.270    0.428    3.877
  345.184  101.158    0.425    3.805
  345.434   92.918    0.422    3.734
  345.684   87.049    0.418    3.736
  345.934   86.487    0.414    3.739
  346.184   84.744    0.410    3.741
  346.434   83.001    0.404    3.743
  346.684   81.857    0.400    3.603
  346.934   82.469    0.392    3.535
  347.184   83.687    0.391    3.607
  347.434   84.306    0.384    3.753
  347.684   85.524    0.384    4.059
  347.934   85.553    0.389    4.392
  348.184   85.568    0.397    4.570
  348.434   84.415    0.406    4.572
  348.684   83.270    0.413    4.488
  348.934   80.347    0.422    4.403
  349.184   76.241    0.430    4.493
  349.434   70.955    0.433    4.495
  349.684   68.621    0.430    4.497
  349.934   68.075    0.424    4.329
  350.184   68.089    0.422    4.086
  350.434   68.118    0.425    3.855
  350.684   67.564    0.431    3.639
  350.934   67.593    0.433    3.434
  351.184   67.622    0.431    3.370
  351.434   68.242    0.428    3.372
  351.684   68.271    0.423    3.374
  351.934   68.898    0.420    3.377
  352.184   68.927    0.421    3.444
  352.434   68.358    0.421    3.447
  352.684   68.395    0.420    3.449
  352.934   68.416    0.421    3.589
  353.184   69.051    0.431    3.591
  353.434   69.663    0.437    3.455
  353.684   70.290    0.435    3.198
  353.934   70.312    0.435    3.077
  354.184   69.167    0.435    3.020
  354.434   68.598    0.438    3.142
  354.684   67.446    0.442    3.269
  354.934   67.475    0.442    3.402
  355.184   68.102    0.441    3.403
  355.434   69.918    0.441    3.340
  355.684   71.121    0.445    3.342
  355.934   74.096    0.446    3.280
  356.184   75.306    0.446    3.281
  356.434   75.940    0.446    3.348
  356.684   75.962    0.444    3.350
  356.934   75.393    0.439    3.352
  357.184   75.437    0.438    3.355
  357.434   76.049    0.433    3.293
  357.684   77.865    0.430    3.294
  357.934   79.061    0.429    3.296
  358.184   81.452    0.428    3.298
  358.434   80.891    0.426    3.431
  358.684   79.746    0.421    3.936
  358.934   79.177    0.407    4.257
  359.184   80.402    0.382    4.606
  359.434   83.967    0.349    4.792
  359.684   88.131    0.318    4.890
  359.934   92.294    0.355    4.893
  360.184   95.867    0.374    4.895
  360.434  101.809    0.432    4.532
  360.684  104.791    0.448    4.361
  360.934  109.545    0.448    4.115
  361.184  113.125    0.454    3.735
  361.434  115.517    0.461    3.457
  361.684  116.727    0.467    3.138
  361.934  117.938    0.475    2.962
  362.184  118.557    0.476    2.796
  362.434  118.586    0.478    2.689
  362.684  118.623    0.471    2.589
  362.934  118.652    0.460    2.491
  363.184  118.083    0.452    2.444
  363.434  117.536    0.444    2.645
  363.684  116.975    0.434    2.917
  363.934  115.815    0.428    3.479
  364.184  114.072    0.426    3.913
  364.434  109.384    0.421    4.577
  364.684  106.453    0.418    4.856
  364.934  103.529    0.416    5.052
  365.184  100.021    0.411    5.156
  365.434   95.916    0.411    5.157
  365.684   92.985    0.411    4.867
  365.934   90.061    0.409    4.333
  366.184   87.735    0.408    4.010
  366.434   85.985    0.408    3.860
  366.684   84.833    0.408    3.788
  366.934   90.177    0.408    3.789
  367.184   96.710    0.417    3.719
  367.434  100.283    0.424    3.649
  367.684   98.540    0.423    3.651
  367.934   95.624    0.422    3.654
  368.184   94.464    0.414    3.655
  368.434   92.722    0.409    3.730
  368.684   93.341    0.405    3.807
  368.934   99.882    0.397    3.960
  369.184  102.266    0.396    4.040
  369.434  105.255    0.399    4.123
  369.684  106.458    0.402    4.207
  369.934  107.085    0.400    4.293
  370.184  107.705    0.399    4.294
  370.434  108.923    0.399    4.382
  370.684  109.535    0.403    4.057
  370.934  111.941    0.410    3.827
  371.184  112.546    0.421    3.474
  371.434  113.764    0.434    3.546
  371.684  110.833    0.442    3.617
  371.934  102.003    0.445    3.837
  372.184   95.542    0.445    4.151
  372.434   94.383    0.443    4.154
  372.684   94.426    0.443    3.844
  372.934   94.441    0.446    3.422
  373.184   95.075    0.449    3.046
  373.434   96.883    0.451    2.765
  373.684   97.489    0.452    2.609
  373.934   98.116    0.452    2.768
  374.184   96.963    0.452    2.995
  374.434   95.804    0.446    3.116
  374.684   92.289    0.433    3.242
  374.934   89.971    0.428    3.307
  375.184   88.804    0.426    3.375
  375.434   88.257    0.426    3.511
  375.684   88.279    0.426    3.583
  375.934   88.898    0.424    3.728
  376.184   87.163    0.421    3.803
  376.434   86.004    0.418    4.035
  376.684   84.268    0.416    4.117
  376.934   82.533    0.418    4.201
  377.184   81.373    0.414    4.286
  377.434   78.457    0.405    4.547
  377.684   77.290    0.395    4.919
  377.934   75.547    0.380    5.321
  378.184   75.007    0.358    6.103
  378.434   75.029    0.309    6.604
  378.684   76.240    0.235    6.112
  378.934   82.168    0.382    5.768
  379.184   86.921    0.419    5.338
  379.434   88.737    0.430    4.845
  379.684   89.947    0.443    4.485
  379.934   91.158    0.446    4.071
  380.184   91.770    0.447    3.918
  380.434   92.995    0.449    3.919
  380.684   93.600    0.452    3.923
  380.934   93.636    0.457    3.849
  381.184   93.665    0.465    3.777
  381.434   93.695    0.469    3.779
  381.684   94.314    0.469    3.637
  381.934   94.941    0.469    3.639
  382.184   95.554    0.466    3.642
  382.434   96.173    0.463    3.716
  382.684   97.398    0.459    3.791
  382.934   97.413    0.451    3.868
  383.184   98.032    0.438    3.947
