~VERSION INFORMATION
 VERS.                 2.0:   CWLS LOG ASCII STANDARD -VERSION 2.0
 WRAP.                  NO:   ONE LINE PER DEPTH STEP
~WELL INFORMATION BLOCK
#MNEM.UNIT           DATA                    DESCRIPTION OF MNEMONIC
#---------    -------------------            -------------------------------
# Generated from Intellog Unique Number	CX_WELLS/WELL/2787
WELL.         10-26-088-16W4                 : Well_name    - WELL
LOC .         00/10-26-081-10W4/0            : Location     - LOCATION
UWI .         00/10-26-081-10W400            : Uwi          - UNIQUE WELL ID
ENTR.         T                              : Entered      - ENTERED BY
SRVC.         SCHLUMBERGER                   : Scn          - SERVICE COMPANY
STRT.F        850                            : top_depth    - START DEPTH
STOP.F        1589.83                        : bot_depth    - STOP DEPTH
STEP.F        0.82                           : increment    - STEP LENGTH
 NULL. -999.2500:NULL Value
~CURVE INFORMATION BLOCK
#MNEM UNIT       ERCB CURVE CODE    CURVE DESCRIPTION
#-----------   ------------------   ----------------------------------
DEPT.F        00 001 00 00         : DEPTH        - DEPTH
GR  .API      00 310 00 00         : GR           - GAMMA RAY
DPHI.V/V      00 890 00 00         : PHID         - DENSITY POROSITY (SANDSTONE)
ILD .OHMM     00 120 00 00         : RESD         - DEEP RESISTIVITY (OTHER)
~PARAMETER INFORMATION
#MNEM.UNIT           DATA             DESCRIPTION OF MNEMONIC
#---------         -----------     ------------------------------
GL  .F        2316                 : gl           - GROUND LEVEL ELEVATION
EREF.F        2327                 : kb           - ELEVATION OF DEPTH REFERENCE
DATM.F        2327                 : datum        - DATUM ELEVATION
TDD .F        1610                 : tdd          - TOTAL DEPTH DRILLER
RUN .         ONE                  : Run          - RUN NUMBER
ENG .         BILL                 : Engineer     - RECORDING ENGINEER
WIT .         JIM                  : Witness      - WITNESSED BY
MUD .         GEL                  : Mud_type     - MUD TYPE
MATR.         SANDSTONE            : Logunit      - NEUTRON MATRIX
TMAX.F        69                   : BHT          - MAXIMUM RECORDED TEMPERATURE
BHTD.F        1610                 : BHTDEP       - MAXIMUM RECORDED TEMPERATURE
MATR.         1                    : LOGUNIT      - NEUTRON MATRIX
RMT .F        45                   : MDTP         - TEMPERATURE OF MUD
NEUT.         1                    : NEUTRON      - NEUTRON TYPE
RESI.         2                    : RESIST       - RESISTIVITY TYPE
RMC .OHMM     2                    : RMC          - RESISTIVITY OF MUD CAKE
RMF .OHMM     2                    : RMF          - RESISTIVITY OF MUD FILTRATE
SUFT.F        32                   : SUFT         - SURFACE TEMPERATURE
~A  DEPTH       GR     PHID     RESD
# ...
 1205.970   57.672    0.317    6.409
 1206.790   57.096    0.317    6.787
 1207.610   56.529    0.316    7.052
 1208.430   57.169    0.314    7.327
 1209.250   57.185    0.309    7.762
 1210.070   58.416    0.305    7.914
 1210.890   59.663    0.299    8.072
 1211.710   60.894    0.292    7.781
 1212.530   61.525    0.288    7.785
 1213.350   62.165    0.293    7.644
 1214.170   62.788    0.297    7.508
 1214.990   63.412    0.298    7.513
 1215.810   64.051    0.296    7.520
 1216.630   65.290    0.293    7.669
 1217.450   65.322    0.292    7.673
 1218.270   63.557    0.289    7.826
 1219.090   61.783    0.288    7.981
 1219.910   58.827    0.289    8.139
 1220.730   58.867    0.292    8.300
 1221.560   58.891    0.296    8.466
 1222.380   59.531    0.298    8.633
 1223.200   60.154    0.298    8.804
 1224.020   60.194    0.301    9.324
 1224.840   59.028    0.300    9.872
 1225.660   58.453    0.298   10.458
 1226.480   57.286    0.280   10.866
 1227.300   56.128    0.262   11.081
 1228.120   54.962    0.233   11.515
 1228.940   51.997    0.212   11.526
 1229.760   47.243    0.164   11.534
 1230.580   43.671    0.136   11.542
 1231.400   40.116    0.165   11.337
 1232.220   43.136    0.223   11.132
 1233.040   46.765    0.254   10.934
 1233.860   51.000    0.282   10.736
 1234.680   49.842    0.296   10.155
 1235.500   47.477    0.309    9.970
 1236.320   49.315    0.317    9.609
 1237.140   49.930    0.321    9.089
 1237.960   50.578    0.314    8.759
 1238.780   49.395    0.305    8.283
 1239.600   48.229    0.293    7.836
 1240.420   51.873    0.283    7.693
 1241.240   55.501    0.281    7.415
 1242.060   59.721    0.282    7.147
 1242.880   64.547    0.285    7.150
 1243.700   64.579    0.288    6.890
 1244.520   65.227    0.289    6.397
 1245.340   65.851    0.283    6.049
 1246.160   67.681    0.280    5.613
 1246.980   70.718    0.269    5.309
 1247.800   72.540    0.268    4.928
 1248.620   73.795    0.269    4.748
 1249.440   73.212    0.269    4.576
 1250.260   70.863    0.269    4.494
 1251.080   68.481    0.269    4.499
 1251.900   62.520    0.269    4.675
 1252.720   54.162    0.270    4.766
 1253.540   47.602    0.271    5.144
 1254.360   42.241    0.264    5.345
 1255.180   36.887    0.246    5.767
 1256.000   41.106    0.217    6.465
 1256.820   46.532    0.165    6.846
 1257.640   54.963    0.199    6.980
 1258.460   60.389    0.232    7.120
 1259.280   65.815    0.245    7.124
 1260.100   70.043    0.249    6.998
 1260.930   72.480    0.254    6.743
 1261.750   69.524    0.258    6.498
 1262.570   67.151    0.264    6.263
 1263.390   61.789    0.266    5.924
 1264.210   51.633    0.250    5.602
 1265.030   47.478    0.245    5.500
 1265.850   52.896    0.252    5.012
 1266.670   45.736    0.263    4.920
 1267.490   35.588    0.270    4.566
 1268.310   37.419    0.272    4.239
 1269.130   39.241    0.275    3.933
 1269.950   43.476    0.279    3.449
 1270.770   47.712    0.281    3.141
 1271.590   50.732    0.286    2.705
 1272.410   54.368    0.291    2.605
 1273.230   55.599    0.283    2.608
 1274.050   55.632    0.273    2.659
 1274.870   55.664    0.262    2.925
 1275.690   55.097    0.262    3.156
 1276.510   53.331    0.263    3.537
 1277.330   49.767    0.264    4.115
 1278.150   49.800    0.265    4.790
 1278.970   49.232    0.266    5.267
 1279.790   47.467    0.263    5.791
 1280.610   72.079    0.215    6.616
 1281.430   76.913    0.155    7.005
 1282.250   73.342    0.127    7.416
 1283.070   67.988    0.111    8.313
 1283.890   63.234    0.092    8.802
 1284.710   60.869    0.083    9.321
 1285.530   64.489    0.088   10.252
 1286.350   67.518    0.161   11.060
 1287.170   72.344    0.210   11.494
 1287.990   79.585    0.232   10.667
 1288.810   82.014    0.255    9.357
 1289.630   83.237    0.252    8.362
 1290.450   82.678    0.249    7.761
 1291.270   82.111    0.246    7.068
 1292.090   82.143    0.250    6.684
 1292.910   81.576    0.250    6.564
 1293.730   81.017    0.251    6.698
 1294.550   80.450    0.252    6.826
 1295.370   80.482    0.258    6.961
 1296.190   80.506    0.265    7.373
 1297.010   80.538    0.264    7.958
 1297.830   78.781    0.267    8.268
 1298.650   76.416    0.300    9.266
 1299.480   74.666    0.306    9.811
 1300.300   74.083    0.310   10.589
 1301.120   73.524    0.310   10.601
 1301.940   73.556    0.302   10.021
 1302.760   73.588    0.289    9.477
 1303.580   74.220    0.277    8.634
 1304.400   74.244    0.269    8.320
 1305.220   74.883    0.263    8.016
 1306.040   74.916    0.256    7.727
 1306.860   74.357    0.250    7.589
 1307.680   73.806    0.256    7.593
 1308.500   73.222    0.263    7.460
 1309.320   73.255    0.271    7.325
 1310.140   73.279    0.272    7.331
 1310.960   73.327    0.270    7.335
 1311.780   73.959    0.265    7.343
 1312.600   74.590    0.261    7.346
 1313.420   74.622    0.260    7.494
 1314.240   74.655    0.266    7.497
 1315.060   74.687    0.269    7.646
 1315.880   75.318    0.275    7.652
 1316.700   75.350    0.275    7.658
 1317.520   72.386    0.271    7.663
 1318.340   68.223    0.268    7.815
 1319.160   66.457    0.268    7.971
 1319.980   65.299    0.271    8.127
 1320.800   64.724    0.281    8.133
 1321.620   65.372    0.286    8.295
 1322.440   65.388    0.289    8.301
 1323.260   66.627    0.291    8.001
 1324.080   67.258    0.290    7.856
 1324.900   68.497    0.286    7.431
 1325.720   69.720    0.283    7.160
 1326.540   71.558    0.280    6.775
 1327.360   73.388    0.274    6.779
 1328.180   75.218    0.269    6.411
 1329.000   76.449    0.268    5.948
 1329.820   74.092    0.269    5.316
 1330.640   73.517    0.274    4.843
 1331.460   70.569    0.276    5.032
 1332.280   68.787    0.276    5.641
 1333.100   65.831    0.276    6.086
 1333.920   62.267    0.269    6.691
 1334.740   60.501    0.257    7.641
 1335.560   58.136    0.227    9.234
 1336.380   56.379    0.196   10.950
 1337.200   54.613    0.151   12.270
 1338.020   55.844    0.103   14.277
 1338.850   58.864    0.144   14.562
 1339.670   64.290    0.219   12.769
 1340.490   70.332    0.230    9.631
 1341.310   73.952    0.247    8.609
 1342.130   75.782    0.248    7.694
 1342.950   77.021    0.247    7.276
 1343.770   77.653    0.247    7.014
 1344.590   77.693    0.248    7.017
 1345.410   75.927    0.253    7.025
 1346.230   74.761    0.252    7.029
 1347.050   74.785    0.244    7.169
 1347.870   76.024    0.239    7.175
 1348.690   76.663    0.233    7.181
 1349.510   77.279    0.232    7.185
 1350.330   77.926    0.232    7.057
 1351.150   77.967    0.232    7.061
 1351.970   78.598    0.232    6.933
 1352.790   78.614    0.232    6.941
 1353.610   79.254    0.231    6.945
 1354.430   79.278    0.229    6.821
 1355.250   79.934    0.228    6.826
 1356.070   79.350    0.230    6.704
 1356.890   78.200    0.235    6.222
 1357.710   77.026    0.242    5.883
 1358.530   75.859    0.247    5.359
 1359.350   75.292    0.251    5.067
 1360.170   74.717    0.256    4.615
 1360.990   72.968    0.270    3.898
 1361.810   72.400    0.275    3.550
 1362.630   71.234    0.263    3.294
 1363.450   71.266    0.253    3.115
 1364.270   71.290    0.245    3.059
 1365.090   70.723    0.244    3.062
 1365.910   71.355    0.241    3.368
 1366.730   71.403    0.235    3.634
 1367.550   72.026    0.232    4.309
 1368.370   71.468    0.228    5.110
 1369.190   69.094    0.222    5.835
 1370.010   65.539    0.217    6.179
 1370.830   64.972    0.214    6.303
 1371.650   65.595    0.207    6.307
 1372.470   68.025    0.206    6.193
 1373.290   72.268    0.223    5.537
 1374.110   75.289    0.241    4.947
 1374.930   76.520    0.258    4.178
 1375.750   77.159    0.265    3.735
 1376.570   77.183    0.267    3.600
 1377.400   77.823    0.268    3.535
 1378.220   77.855    0.257    3.538
 1379.040   78.487    0.250    3.539
 1379.860   80.916    0.241    3.611
 1380.680   84.552    0.239    3.681
 1381.500   87.573    0.240    3.754
 1382.320   88.205    0.241    3.829
 1383.140   84.050    0.240    3.905
