~VERSION INFORMATION
 VERS.                 2.0:   CWLS LOG ASCII STANDARD -VERSION 2.0
 WRAP.                  NO:   ONE LINE PER DEPTH STEP
~WELL INFORMATION BLOCK
#MNEM.UNIT           DATA                    DESCRIPTION OF MNEMONIC
#---------    -------------------            -------------------------------
# Generated from Intellog Unique Number	CW_73_75/WELL/3526
WELL.         G W ET AL SPUR                 : Well_name    - WELL
LOC .         00/11-06-073-01W5/0            : Location     - LOCATION
UWI .         00/11-06-073-01W5/0            : Uwi          - UNIQUE WELL ID
ENTR.         TIM                            : Entered      - ENTERED BY
SRVC.         SCHLUMBERGER                   : Scn          - SERVICE COMPANY
STRT.M        370                            : top_depth    - START DEPTH
STOP.M        615                            : bot_depth    - STOP DEPTH
STEP.M        0.25                           : increment    - STEP LENGTH
 NULL. -999.2500:NULL Value
~CURVE INFORMATION BLOCK
#MNEM UNIT       ERCB CURVE CODE    CURVE DESCRIPTION
#-----------   ------------------   ----------------------------------
DEPT.M        00 001 00 00         : DEPTH        - DEPTH
GR  .API      00 310 00 00         : GR           - GAMMA RAY
CALI.MM       00 280 01 00         : CAL          - CALIPER
NPHI.V/V      00 330 00 00         : PHIN         - NEUTRON POROSITY (SANDSTONE)
ILD .OHMM     00 120 00 00         : RESD         - DEEP RESISTIVITY (DIL)
~PARAMETER INFORMATION
#MNEM.UNIT           DATA             DESCRIPTION OF MNEMONIC
#---------         -----------     ------------------------------
GL  .M        612.1                : gl           - GROUND LEVEL ELEVATION
EREF.M        615.2                : kb           - ELEVATION OF DEPTH REFERENCE
DATM.M        615.2                : datum        - DATUM ELEVATION
TDD .M        624                  : tdd          - TOTAL DEPTH DRILLER
RUN .         ONE                  : Run          - RUN NUMBER
ENG .         BILL                 : Engineer     - RECORDING ENGINEER
WIT .         JIM                  : Witness      - WITNESSED BY
MUD .         GEL                  : Mud_type     - MUD TYPE
MATR.         SANDSTONE            : Logunit      - NEUTRON MATRIX
TMAX.C        28                   : BHT          - MAXIMUM RECORDED TEMPERATURE
BHTD.M        624                  : BHTDEP       - MAXIMUM RECORDED TEMPERATURE
MATR.         1                    : LOGUNIT      - NEUTRON MATRIX
RMT .C        23                   : MDTP         - TEMPERATURE OF MUD
NEUT.         1                    : NEUTRON      - NEUTRON TYPE
RESI.         0                    : RESIST       - RESISTIVITY TYPE
RMC .OHMM     3.417                : RMC          - RESISTIVITY OF MUD CAKE
RMF .OHMM     3.8                  : RMF          - RESISTIVITY OF MUD FILTRATE
SUFT.C        5                    : SUFT         - SURFACE TEMPERATURE
~A  DEPTH       GR      CAL     PHIN     RESD
  370.000  122.321  159.294    0.412    3.485
  370.250  128.772  159.280    0.410    3.182
  370.500  129.351  159.265    0.407    2.958
  370.750  118.754  159.240    0.415    2.853
  371.000   91.104  159.216    0.423    2.653
  371.250   82.859  159.196    0.425    2.558
  371.500   98.137  159.172    0.401    2.467
  371.750   93.421  159.162    0.419    2.705
  372.000   70.471  159.143    0.456    2.912
  372.250   39.289  159.123    0.472    3.251
  372.500   43.397  159.104    0.403    3.698
  372.750   59.263  158.104    0.337    4.284
  373.000   68.072  158.084    0.305    4.528
  373.250   76.882  157.080    0.294    4.531
  373.500   78.631  157.060    0.305    4.449
  373.750   74.506  156.051    0.376    4.371
  374.000   58.616  156.036    0.388    4.536
  374.250   50.371  155.041    0.369    4.973
  374.500   33.303  152.067    0.319    5.257
  374.750   27.996  149.117    0.202    5.356
  375.000   27.396  149.102    0.212    5.358
  375.250   30.322  149.083    0.251    5.264
  375.500   31.492  148.083    0.291    5.077
  375.750   33.829  147.078    0.317    4.987
  376.000   34.406  147.054    0.318    4.810
  376.250   34.985  147.044    0.312    4.811
  376.500   36.735  147.015    0.311    4.903
  376.750   37.899  146.995    0.324    4.904
  377.000   39.066  147.961    0.336    4.998
  377.250   41.989  148.921    0.344    5.092
  377.500   43.154  148.902    0.349    5.189
  377.750   44.321  149.853    0.346    5.192
  378.000   46.067  150.818    0.332    5.099
  378.250   47.823  150.803    0.339    5.101
  378.500   50.163  151.764    0.345    5.011
  378.750   52.501  152.725    0.346    5.013
  379.000   54.259  152.705    0.339    5.016
  379.250   57.182  153.661    0.333    5.018
  379.500   58.940  153.641    0.331    5.020
  379.750   61.869  153.626    0.327    5.022
  380.000   65.386  153.597    0.326    4.844
  380.250   68.311  153.582    0.332    4.757
  380.500   71.825  153.558    0.339    4.505
  380.750   72.993  153.538    0.353    4.266
  381.000   75.333  153.524    0.369    4.040
  381.250   71.796  153.495    0.385    3.897
  381.500   64.136  153.475    0.394    3.828
  381.750   61.184  153.460    0.399    4.046
  382.000   58.232  153.441    0.392    4.276
  382.250   57.044  154.401    0.368    4.438
  382.500   60.558  155.362    0.358    4.522
  382.750   64.078  155.342    0.343    4.523
  383.000   67.006  156.303    0.318    4.525
  383.250   68.171  156.283    0.319    4.365
  383.500   68.159  156.259    0.325    3.985
  383.750   69.911  157.224    0.328    3.843
  384.000   72.840  157.200    0.329    3.706
  384.250   77.533  157.180    0.339    3.641
  384.500   79.870  157.161    0.356    3.576
  384.750   77.506  157.146    0.363    3.577
  385.000   75.142  157.127    0.368    3.579
  385.250   80.423  157.107    0.369    3.515
  385.500   88.644  157.078    0.369    3.453
  385.750   95.102  157.068    0.371    3.270
  386.000   96.266  156.059    0.377    3.154
  386.250   93.902  156.039    0.387    2.987
  386.500   88.598  156.024    0.409    2.881
  386.750   81.529  155.995    0.420    2.830
  387.000   83.870  155.980    0.416    2.680
  387.250   91.503  154.971    0.399    2.632
  387.500   96.193  154.966    0.381    2.585
  387.750   96.772  154.947    0.383    2.540
  388.000   96.760  154.927    0.394    2.494
  388.250   95.569  154.903    0.412    2.362
  388.500   94.382  154.883    0.425    2.237
  388.750   93.779  154.863    0.436    2.157
  389.000   93.764  154.844    0.442    2.080
  389.250   94.346  154.824    0.448    2.043
  389.500   95.511  154.800    0.452    2.045
  389.750   97.263  154.785    0.453    2.046
  390.000   99.601  155.746    0.453    2.009
  390.250  102.527  155.721    0.453    2.010
  390.500  103.694  155.707    0.457    2.011
  390.750  105.446  154.697    0.459    1.975
  391.000  105.438  154.688    0.468    1.941
  391.250  102.483  154.658    0.479    1.906
  391.500   98.942  154.644    0.493    1.838
  391.750   94.811  155.604    0.504    1.773
  392.000   93.038  155.589    0.501    1.710
  392.250   92.436  155.555    0.503    1.590
  392.500   93.597  155.541    0.509    1.562
  392.750   94.176  155.516    0.525    1.534
  393.000   95.341  155.506    0.519    1.563
  393.250   96.505  155.487    0.511    1.593
  393.500   97.084  155.467    0.499    1.623
  393.750   98.249  155.448    0.486    1.653
  394.000   98.822  155.428    0.482    1.685
  394.250   98.808  155.399    0.490    1.717
  394.500   98.802  155.389    0.498    1.749
  394.750   96.429  155.360    0.505    1.816
  395.000   95.247  155.350    0.500    1.816
  395.250   94.053  155.326    0.492    1.851
  395.500   94.047  155.306    0.484    1.886
  395.750   96.388  155.277    0.481    1.886
  396.000  101.075  155.262    0.478    1.887
  396.250  103.418  155.247    0.473    1.888
  396.500  104.583  155.228    0.464    1.889
  396.750  105.156  154.223    0.456    1.855
  397.000  105.150  154.204    0.470    1.856
  397.250  105.139  154.184    0.494    1.857
  397.500  105.712  154.165    0.510    1.858
  397.750   99.231  154.150    0.511    1.859
  398.000  100.984  154.131    0.493    1.894
  398.250  102.736  155.086    0.479    1.930
  398.500  100.372  155.072    0.460    1.931
  398.750   99.184  156.022    0.451    1.932
  399.000  100.349  156.008    0.464    1.933
  399.250  102.689  156.963    0.484    1.933
  399.500  103.851  156.949    0.500    1.934
  399.750  104.424  156.924    0.495    1.900
  400.000  103.239  156.905    0.484    1.936
  400.250  102.637  156.885    0.502    1.973
  400.500  102.631  156.866    0.503    2.047
  400.750  102.025  156.851    0.480    2.124
  401.000  101.428  156.827    0.456    2.246
  401.250   98.473  156.807    0.442    2.288
  401.500   96.112  156.792    0.478    2.331
  401.750   93.748  155.793    0.495    2.376
  402.000   91.381  155.763    0.441    2.465
  402.250   89.020  154.769    0.433    2.654
  402.500   83.716  154.749    0.427    2.964
  402.750   74.883  154.725    0.418    3.076
  403.000   68.991  154.705    0.402    3.077
  403.250   68.976  153.710    0.387    2.708
  403.500   80.726  153.686    0.377    2.427
  403.750   86.007  153.671    0.377    2.216
  404.000   85.995  153.637    0.389    1.986
  404.250   84.807  153.622    0.410    1.813
  404.500   88.321  153.613    0.437    1.814
  404.750   90.664  153.588    0.467    1.989
  405.000   90.650  153.569    0.487    2.102
  405.250   84.760  153.549    0.497    2.347
  405.500   74.163  153.529    0.481    2.670
  405.750   68.856  153.510    0.465    2.821
  406.000   64.728  153.490    0.443    3.094
  406.250   61.773  153.471    0.416    3.269
  406.500   62.940  153.451    0.397    3.520
  406.750   65.869  153.432    0.386    3.521
  407.000   71.738  153.407    0.385    3.274
  407.250   76.430  153.388    0.382    3.100
  407.500   81.123  153.368    0.378    3.045
  407.750   85.816  153.349    0.370    3.279
  408.000   82.864  153.329    0.375    3.529
  408.250   74.031  153.310    0.385    3.799
  408.500   60.491  154.265    0.411    4.165
  408.750   57.542  154.251    0.436    4.484
  409.000   51.059  155.201    0.436    4.569
  409.250   47.515  155.187    0.429    4.488
  409.500   49.268  156.152    0.421    4.408
  409.750   51.020  156.128    0.391    4.099
  410.000   52.185  156.108    0.350    3.811
  410.250   51.582  156.089    0.355    3.676
  410.500   50.985  155.089    0.377    3.745
  410.750   49.209  154.089    0.404    3.816
  411.000   49.195  153.090    0.405    3.748
  411.250   51.538  152.085    0.395    3.615
  411.500   53.882  152.071    0.377    3.551
  411.750   60.339  152.046    0.382    3.425
  412.000   68.560  152.022    0.384    3.426
  412.250   80.897  152.012    0.377    3.491
  412.500   90.295  151.992    0.377    3.557
  412.750   98.513  152.948    0.388    3.624
  413.000   92.036  152.933    0.414    3.432
  413.250   84.964  153.889    0.470    3.133
