~VERSION INFORMATION
 VERS.                 2.0:   CWLS LOG ASCII STANDARD -VERSION 2.0
 WRAP.                  NO:   ONE LINE PER DEPTH STEP
~WELL INFORMATION BLOCK
#MNEM.UNIT           DATA                    DESCRIPTION OF MNEMONIC
#---------    -------------------            -------------------------------
# Generated from Intellog Unique Number	CS_71_72/WELL/898
WELL.         BVX ET AL NIXON                : Well_name    - WELL
LOC .         00/11-15-072-16W4/0            : Location     - LOCATION
UWI .         00/11-15-072-16W4/0            : Uwi          - UNIQUE WELL ID
ENTR.         SP                             : Entered      - ENTERED BY
SRVC.         SCHLUMBERGER                   : Scn          - SERVICE COMPANY
STRT.M        256.032                        : top_depth    - START DEPTH
STOP.M        435.532                        : bot_depth    - STOP DEPTH
STEP.M        0.25                           : increment    - STEP LENGTH
 NULL. -999.2500:NULL Value
~CURVE INFORMATION BLOCK
#MNEM UNIT       ERCB CURVE CODE    CURVE DESCRIPTION
#-----------   ------------------   ----------------------------------
DEPT.M        00 001 00 00         : DEPTH        - DEPTH
GR  .API      00 310 00 00         : GR           - GAMMA RAY
DPHI.V/V      00 890 00 00         : PHID         - DENSITY POROSITY (SANDSTONE)
NPHI.V/V      00 330 00 00         : PHIN         - NEUTRON POROSITY (SANDSTONE)
ILD .OHMM     00 120 00 00         : RESD         - DEEP RESISTIVITY (DIL)
~PARAMETER INFORMATION
#MNEM.UNIT           DATA             DESCRIPTION OF MNEMONIC
#---------         -----------     ------------------------------
GL  .M        577.596              : gl           - GROUND LEVEL ELEVATION
EREF.M        580.644              : kb           - ELEVATION OF DEPTH REFERENCE
DATM.M        577.596              : datum        - DATUM ELEVATION
TDD .M        438.912              : tdd          - TOTAL DEPTH DRILLER
RUN .         ONE                  : Run          - RUN NUMBER
ENG .         BILL                 : Engineer     - RECORDING ENGINEER
WIT .         JIM                  : Witness      - WITNESSED BY
MUD .         GEL                  : Mud_type     - MUD TYPE
MATR.         SANDSTONE            : Logunit      - NEUTRON MATRIX
TMAX.C        15.5556              : BHT          - MAXIMUM RECORDED TEMPERATURE
BHTD.M        438.912              : BHTDEP       - MAXIMUM RECORDED TEMPERATURE
MATR.         1                    : LOGUNIT      - NEUTRON MATRIX
RMT .C        25                   : MDTP         - TEMPERATURE OF MUD
NEUT.         1                    : NEUTRON      - NEUTRON TYPE
RESI.         0                    : RESIST       - RESISTIVITY TYPE
RMC .OHMM     0.25                 : RMC          - RESISTIVITY OF MUD CAKE
RMF .OHMM     0.25                 : RMF          - RESISTIVITY OF MUD FILTRATE
SUFT.C        15                   : SUFT         - SURFACE TEMPERATURE
~A  DEPTH       GR     PHID     PHIN     RESD
  256.032  107.840    0.239    0.512    2.983
  256.282  106.327    0.242    0.513    2.984
  256.532  102.980    0.229    0.504    2.983
  256.782  100.748    0.213    0.488    3.040
  257.032   99.013    0.205    0.478    3.170
  257.282   99.603    0.208    0.487    3.293
  257.532   97.052    0.203    0.505    3.403
  257.782   90.770    0.109    0.530    3.415
  258.032   87.533    0.041    0.468    3.341
  258.282   92.674    0.003    0.449    3.292
  258.532  101.585    0.069    0.523    3.317
  258.782  105.747    0.201    0.532    3.356
  259.032  100.207    0.232    0.528    3.258
  259.282   97.358    0.239    0.520    3.173
  259.532   96.891    0.244    0.532    3.241
  259.782   97.062    0.252    0.544    3.139
  260.032   88.889    0.245    0.550    2.999
  260.282   79.011    0.287    0.569    3.056
  260.532   65.076    0.342    0.583    3.356
  260.782   50.580    0.425    0.612    4.058
  261.032   40.430    0.623    0.631    4.852
  261.282   47.765    0.572    0.642    6.180
  261.532   52.696    0.515    0.608    7.166
  261.782   58.763    0.395    0.519    7.346
  262.032   62.192    0.332    0.460    6.480
  262.282   66.509    0.313    0.458    5.801
  262.532   69.150    0.318    0.460    5.399
  262.782   72.116    0.321    0.453    5.055
  263.032   74.966    0.320    0.437    4.750
  263.282   77.272    0.308    0.426    4.750
  263.532   79.221    0.296    0.421    4.756
  263.782   77.130    0.283    0.429    4.612
  264.032   75.719    0.294    0.435    4.402
  264.282   75.960    0.299    0.444    4.408
  264.532   78.579    0.314    0.445    4.407
  264.782   81.526    0.314    0.434    4.486
  265.032   83.826    0.297    0.430    4.689
  265.282   87.999    0.289    0.443    4.928
  265.532   90.465    0.285    0.445    5.053
  265.782   95.209    0.291    0.445    5.144
  266.032   98.470    0.286    0.452    5.304
  266.282  101.139    0.282    0.444    5.458
  266.532  102.243    0.277    0.438    5.446
  266.782   96.875    0.269    0.431    5.579
  267.032   96.185    0.272    0.427    5.452
  267.282   96.963    0.275    0.428    5.470
  267.532   92.676    0.264    0.440    5.311
  267.782   88.187    0.268    0.451    5.269
  268.032   83.424    0.283    0.451    5.431
  268.282   77.766    0.300    0.434    5.501
  268.532   72.706    0.292    0.423    5.690
  268.782   68.941    0.281    0.396    5.692
  269.032   67.747    0.266    0.377    5.694
  269.282   73.273    0.255    0.366    5.708
  269.532   80.688    0.243    0.363    5.487
  269.782   90.491    0.235    0.362    5.372
  270.032   95.896    0.222    0.388    5.304
  270.282   99.581    0.206    0.414    5.349
  270.532  100.797    0.194    0.428    5.522
  270.782   99.353    0.238    0.431    5.430
  271.032   90.498    0.250    0.416    5.359
  271.282   88.731    0.230    0.406    5.031
  271.532   89.725    0.233    0.404    4.745
  271.782   91.314    0.241    0.411    4.663
  272.032   95.476    0.223    0.429    4.599
  272.282   99.795    0.211    0.449    4.556
  272.532  104.683    0.184    0.476    4.423
  272.782  108.689    0.166    0.493    4.215
  273.032  110.729    0.156    0.511    4.049
  273.282  113.672    0.171    0.528    3.905
  273.532  118.095    0.197    0.538    3.904
  273.782  123.067    0.177    0.543    3.992
  274.032  124.857    0.200    0.535    3.985
  274.282  125.944    0.199    0.526    3.871
  274.532  125.333    0.179    0.526    3.681
  274.782  124.231    0.158    0.543    3.509
  275.032  126.006    0.167    0.545    3.321
  275.282  122.865    0.180    0.529    3.178
  275.532  114.199    0.179    0.546    3.029
  275.782  117.590    0.151    0.556    3.410
  276.032  121.686    0.123    0.562    4.053
  276.282  121.241    0.222    0.499    4.624
  276.532  115.430    0.256    0.463    5.018
  276.782  113.507    0.251    0.449    5.450
  277.032  112.152    0.245    0.429    6.005
  277.282  108.909    0.235    0.423    6.127
  277.532   98.686    0.228    0.427    6.402
  277.782   89.087    0.253    0.447    6.397
  278.032   90.595    0.265    0.449    6.337
  278.282   95.119    0.255    0.429    6.068
  278.532  103.697    0.228    0.432    5.648
  278.782  107.376    0.210    0.473    5.314
  279.032  107.908    0.189    0.487    4.981
  279.282  109.667    0.171    0.500    4.673
  279.532  109.084    0.198    0.517    4.612
  279.782  106.423    0.208    0.525    4.686
  280.032   97.269    0.212    0.513    4.903
  280.282   91.109    0.245    0.467    5.386
  280.532   83.133    0.285    0.444    5.730
  280.782   83.833    0.260    0.447    5.917
  281.032   82.783    0.247    0.439    6.234
  281.282   79.671    0.269    0.434    6.436
  281.532   78.479    0.289    0.436    6.466
  281.782   81.105    0.296    0.438    6.478
  282.032   83.145    0.278    0.445    6.348
  282.282   83.061    0.255    0.449    6.342
  282.532   83.018    0.242    0.443    6.251
  282.782   85.219    0.220    0.450    6.258
  283.032   89.126    0.240    0.452    6.262
  283.282   93.593    0.288    0.451    6.266
  283.532   99.098    0.278    0.440    6.273
  283.782  103.232    0.255    0.435    6.278
  284.032  104.135    0.220    0.434    6.193
  284.282  104.875    0.188    0.435    6.171
  284.532  107.437    0.216    0.432    6.173
  284.782  109.791    0.219    0.436    6.191
  285.032  111.880    0.227    0.452    6.057
  285.282  113.956    0.236    0.465    6.072
  285.532  120.399    0.247    0.469    6.074
  285.782  124.359    0.243    0.460    6.061
  286.032  125.611    0.249    0.450    5.972
  286.282  118.006    0.250    0.446    6.031
  286.532  113.338    0.269    0.457    6.092
  286.782  108.074    0.285    0.459    6.087
  287.032  108.013    0.271    0.448    6.218
  287.282  109.045    0.242    0.436    6.340
  287.532  111.646    0.230    0.423    6.327
  287.782  111.085    0.218    0.416    6.476
  288.032  113.201    0.223    0.413    6.468
  288.282  118.178    0.221    0.407    6.482
  288.532  120.866    0.217    0.427    6.327
  288.782  122.248    0.202    0.446    6.063
  289.032  124.268    0.192    0.462    5.349
  289.282  126.325    0.177    0.485    5.044
  289.532  127.275    0.201    0.512    4.590
  289.782  109.799    0.211    0.485    4.484
  290.032   93.843    0.231    0.462    4.496
  290.282   87.648    0.262    0.451    4.629
  290.532   86.666    0.273    0.441    4.852
  290.782   89.001    0.276    0.455    4.938
  291.032   89.993    0.284    0.471    5.064
  291.282   91.955    0.283    0.474    5.126
  291.532   95.017    0.261    0.468    5.131
  291.782   98.585    0.258    0.461    5.299
  292.032  103.547    0.260    0.453    5.329
  292.282  104.844    0.269    0.445    5.426
  292.532  105.309    0.286    0.438    5.429
  292.782  104.237    0.279    0.434    5.551
  293.032  103.460    0.260    0.454    5.640
  293.282   98.948    0.251    0.450    5.744
  293.532   97.170    0.261    0.435    5.878
  293.782   98.495    0.237    0.429    6.082
  294.032   99.710    0.237    0.441    6.124
  294.282   95.025    0.245    0.462    6.457
  294.532   89.042    0.251    0.461    6.713
  294.782   82.195    0.277    0.439    7.301
  295.032   77.668    0.291    0.425    7.906
  295.282   78.677    0.293    0.419    8.335
  295.532   83.293    0.288    0.422    8.741
  295.782   87.344    0.262    0.437    8.925
  296.032   91.986    0.248    0.446    8.195
  296.282   95.918    0.231    0.459    7.505
  296.532   98.547    0.258    0.457    6.871
  296.782   99.395    0.266    0.452    6.382
  297.032  101.332    0.276    0.463    5.933
  297.282  107.211    0.241    0.458    5.381
  297.532  109.021    0.219    0.455    5.005
  297.782  107.575    0.219    0.473    4.853
  298.032  105.506    0.238    0.480    4.813
  298.282  104.377    0.247    0.488    4.684
  298.532   99.507    0.239    0.496    4.930
  298.782   90.564    0.261    0.512    5.086
  299.032   82.376    0.286    0.475    5.372
  299.282   79.589    0.293    0.450    5.630
