~VERSION INFORMATION
 VERS.                 2.0:   CWLS LOG ASCII STANDARD -VERSION 2.0
 WRAP.                  NO:   ONE LINE PER DEPTH STEP
~WELL INFORMATION BLOCK
#MNEM.UNIT           DATA                    DESCRIPTION OF MNEMONIC
#---------    -------------------            -------------------------------
# Generated from Intellog Unique Number	CS_73_76/WELL/3270
WELL.         TOTAL PETROLEUM (N.A) LTD.     : Well_name    - WELL
LOC .         00/12-10-075-09W4/0            : Location     - LOCATION
UWI .         00/12-10-075-09W4/0            : Uwi          - UNIQUE WELL ID
ENTR.         SP                             : Entered      - ENTERED BY
SRVC.         SCHLUMBERGER                   : Scn          - SERVICE COMPANY
STRT.M        270                            : top_depth    - START DEPTH
STOP.M        490                            : bot_depth    - STOP DEPTH
STEP.M        0.25                           : increment    - STEP LENGTH
 NULL. -999.2500:NULL Value
~CURVE INFORMATION BLOCK
#MNEM UNIT       ERCB CURVE CODE    CURVE DESCRIPTION
#-----------   ------------------   ----------------------------------
DEPT.M        00 001 00 00         : DEPTH        - DEPTH
ILD .OHMM     00 120 00 00         : RESD         - DEEP RESISTIVITY (DIL)
GR  .API      00 310 00 00         : GR           - GAMMA RAY
NPHI.V/V      00 330 00 00         : PHIN         - NEUTRON POROSITY (LIMESTONE)
DPHI.V/V      00 890 00 00         : PHID         - DENSITY POROSITY (LIMESTONE)
~PARAMETER INFORMATION
#MNEM.UNIT           DATA             DESCRIPTION OF MNEMONIC
#---------         -----------     ------------------------------
GL  .M        659.92               : gl           - GROUND LEVEL ELEVATION
EREF.M        662.92               : kb           - ELEVATION OF DEPTH REFERENCE
DATM.M        659.92               : datum        - DATUM ELEVATION
TDD .M        502                  : tdd          - TOTAL DEPTH DRILLER
RUN .         ONE                  : Run          - RUN NUMBER
ENG .         BILL                 : Engineer     - RECORDING ENGINEER
WIT .         JIM                  : Witness      - WITNESSED BY
MUD .         GEL                  : Mud_type     - MUD TYPE
MATR.         LIMESTONE            : Logunit      - NEUTRON MATRIX
TMAX.C        22.5                 : BHT          - MAXIMUM RECORDED TEMPERATURE
BHTD.M        502                  : BHTDEP       - MAXIMUM RECORDED TEMPERATURE
MATR.         1                    : LOGUNIT      - NEUTRON MATRIX
RMT .C        25                   : MDTP         - TEMPERATURE OF MUD
NEUT.         1                    : NEUTRON      - NEUTRON TYPE
RESI.         0                    : RESIST       - RESISTIVITY TYPE
RMC .OHMM     0.25                 : RMC          - RESISTIVITY OF MUD CAKE
RMF .OHMM     0.25                 : RMF          - RESISTIVITY OF MUD FILTRATE
SUFT.C        15                   : SUFT         - SURFACE TEMPERATURE
~A  DEPTH     RESD       GR     PHIN     PHID
  270.000    2.971  115.099    0.577    0.263
  270.250    3.027  112.044    0.555    0.267
  270.500    3.028  112.048    0.541    0.276
  270.750    3.085  114.503    0.542    0.263
  271.000    3.086  116.955    0.558    0.264
  271.250    3.086  118.184    0.564    0.266
  271.500    3.145  121.865    0.555    0.259
  271.750    3.205  121.256    0.561    0.250
  272.000    3.205  116.365    0.569    0.245
  272.250    3.266  114.532    0.570    0.248
  272.500    3.328  113.311    0.564    0.250
  272.750    3.588  112.092    0.537    0.231
  273.000    3.796  112.096    0.518    0.211
  273.250    3.942  103.531    0.478    0.183
  273.500    4.171   99.249    0.464    0.102
  273.750    4.250  102.928    0.491    0.045
  274.000    4.331  109.055    0.516    0.180
  274.250    4.332  111.509    0.527    0.233
  274.500    4.252  113.351    0.535    0.231
  274.750    4.020  114.579    0.550    0.237
  275.000    3.872  113.362    0.557    0.249
  275.250    3.729  113.977    0.557    0.254
  275.500    3.593  114.595    0.552    0.245
  275.750    3.593  116.435    0.542    0.243
  276.000    3.526  116.441    0.532    0.249
  276.250    3.662  115.833    0.521    0.265
  276.500    3.731  117.675    0.509    0.258
  276.750    3.874  110.945    0.502    0.243
  277.000    4.100  107.277    0.493    0.249
  277.250    4.178  106.059    0.519    0.255
  277.500    4.257  108.511    0.536    0.243
  277.750    4.258  110.965    0.544    0.250
  278.000    4.101  112.807    0.517    0.260
  278.250    3.950  114.036    0.476    0.273
  278.500    4.026  107.306    0.454    0.286
  278.750    4.506  104.250    0.456    0.299
  279.000    5.336  109.155    0.461    0.313
  279.250    5.973  112.831    0.445    0.293
  279.500    7.624  118.959    0.449    0.277
  279.750    9.733  123.248    0.454    0.266
  280.000   11.311  114.683    0.435    0.251
  280.250   11.527  105.504    0.422    0.258
  280.500   11.103   94.488    0.393    0.256
  280.750   11.104   79.800    0.369    0.275
  281.000   11.105   71.846    0.386    0.294
  281.250   11.531   63.892    0.379    0.305
  281.500   12.201   57.774    0.365    0.318
  281.750   13.403   51.044    0.379    0.320
  282.000   13.917   57.784    0.409    0.300
  282.250   14.451   74.931    0.422    0.281
  282.500   14.726   78.609    0.433    0.276
  282.750   14.185   79.227    0.444    0.273
  283.000   12.676   81.682    0.438    0.266
  283.250   11.760   84.746    0.426    0.275
  283.500   10.708   85.975    0.423    0.268
  283.750    9.934   93.328    0.436    0.243
  284.000    9.569   98.229    0.456    0.248
  284.250    8.878   85.990    0.462    0.265
  284.500    8.714   74.364    0.467    0.278
  284.750    8.393   67.633    0.472    0.300
  285.000    8.238   56.617    0.428    0.303
  285.250    8.554   59.072    0.414    0.289
  285.500    9.397   57.852    0.412    0.292
  285.750   10.323   48.673    0.401    0.305
  286.000   11.555   40.719    0.393    0.314
  286.250   12.934   45.622    0.387    0.311
  286.500   14.208   62.769    0.410    0.302
  286.750   15.608   68.284    0.428    0.284
  287.000   16.514   70.738    0.419    0.284
  287.250   17.147   65.844    0.410    0.292
  287.500   16.830   63.401    0.419    0.295
  287.750   16.212   67.079    0.421    0.308
  288.000   15.616   71.370    0.421    0.297
  288.250   15.327   71.375    0.437    0.282
  288.500   14.490   61.585    0.435    0.292
  288.750   14.221   55.466    0.432    0.317
  289.000   14.223   45.676    0.425    0.338
  289.250   14.225   43.233    0.439    0.344
  289.500   14.496   45.074    0.430    0.335
  289.750   14.772   46.914    0.424    0.336
  290.000   15.630   56.105    0.435    0.342
  290.250   16.229   60.394    0.453    0.342
  290.500   16.538   64.072    0.451    0.336
  290.750   16.853   68.362    0.457    0.348
  291.000   16.855   69.591    0.468    0.346
  291.250   16.236   69.596    0.461    0.338
  291.500   15.935   72.051    0.453    0.333
  291.750   15.351   73.279    0.446    0.276
  292.000   15.066   77.570    0.445    0.244
  292.250   14.788   93.493    0.494    0.218
  292.500   14.789  111.864    0.516    0.202
  292.750   14.516  122.889    0.532    0.208
  293.000   12.493  128.404    0.532    0.228
  293.250   10.163  126.572    0.541    0.206
  293.500    8.268  124.129    0.554    0.175
  293.750    7.251  125.970    0.549    0.205
  294.000    6.359  125.974    0.543    0.219
  294.250    5.682  127.816    0.552    0.222
  294.500    5.173  130.882    0.559    0.233
  294.750    4.711  130.275    0.577    0.241
  295.000    4.289  116.812    0.572    0.266
  295.250    3.905  103.347    0.465    0.298
  295.500    3.692   91.107    0.455    0.311
  295.750    3.361   83.153    0.448    0.315
  296.000    3.178   83.158    0.452    0.306
  296.250    3.624   83.164    0.459    0.312
  296.500    4.373   81.943    0.469    0.310
  296.750    5.277   79.499    0.470    0.312
  297.000    7.261   77.667    0.469    0.314
  297.250    9.805   75.837    0.470    0.311
  297.500   12.056   74.006    0.476    0.300
  297.750   12.997   73.398    0.484    0.299
  298.000   13.752   72.789    0.471    0.314
  298.250   14.014   74.631    0.455    0.315
  298.500   14.015   77.697    0.450    0.306
  298.750   13.756   83.824    0.449    0.315
  299.000   13.502   88.115    0.449    0.317
  299.250   12.764   90.567    0.458    0.306
  299.500   12.295   94.248    0.464    0.298
  299.750   11.623   95.475    0.457    0.283
  300.000   11.408   98.542    0.450    0.272
  300.250   10.988  100.995    0.442    0.271
  300.500   10.786  112.632    0.449    0.253
  300.750   10.586  124.882    0.502    0.214
  301.000   10.197  132.233    0.547    0.196
  301.250   10.009  135.299    0.555    0.185
  301.500    9.641  138.368    0.562    0.197
  301.750    8.944  138.984    0.545    0.202
  302.000    7.844  138.987    0.539    0.225
  302.250    6.879  138.380    0.525    0.217
  302.500    6.032  136.548    0.507    0.212
  302.750    5.290  134.716    0.486    0.218
  303.000    4.727  132.272    0.477    0.240
  303.250    4.553  128.605    0.471    0.251
  303.500    4.386  125.547    0.459    0.262
  303.750    4.641  120.655    0.447    0.279
  304.000    5.003  115.761    0.464    0.295
  304.250    5.706  110.257    0.475    0.311
  304.500    6.268  106.588    0.459    0.322
  304.750    6.886  101.696    0.451    0.305
  305.000    7.854  104.762    0.466    0.290
  305.250    8.791  107.216    0.482    0.279
  305.500    9.840  109.670    0.470    0.274
  305.750   10.411  111.511    0.453    0.287
  306.000   10.412  114.576    0.442    0.290
  306.250    9.660  117.642    0.461    0.277
  306.500    9.305  116.423    0.478    0.267
  306.750    8.315  112.754    0.482    0.294
  307.000    8.161  104.189    0.482    0.293
  307.250    7.715   98.072    0.482    0.284
  307.500    7.432   93.178    0.467    0.278
  307.750    7.294   90.121    0.454    0.272
  308.000    7.295   90.126    0.441    0.263
  308.250    7.434   91.968    0.467    0.264
  308.500    7.576   96.870    0.491    0.273
  308.750    7.576  102.386    0.502    0.283
  309.000    7.577  104.227    0.508    0.285
  309.250    7.299  104.844    0.509    0.279
  309.500    6.900  104.236    0.508    0.275
  309.750    6.402  103.018    0.515    0.266
  310.000    6.283   99.963    0.503    0.269
  310.250    6.167   97.518    0.494    0.280
  310.500    6.168   95.685    0.489    0.274
  310.750    6.285   92.019    0.476    0.248
  311.000    6.286   90.797    0.463    0.266
  311.250    6.406   87.741    0.439    0.279
  311.500    6.406   84.072    0.428    0.294
  311.750    6.652   79.178    0.446    0.294
  312.000    7.172   85.307    0.483    0.283
  312.250    7.447   93.271    0.497    0.273
  312.500    7.588   98.785    0.504    0.278
  312.750    7.448  100.014    0.500    0.288
  313.000    6.910   94.508    0.493    0.299
  313.250    6.411   82.269    0.471    0.317
