~VERSION INFORMATION
 VERS.                 2.0:   CWLS LOG ASCII STANDARD -VERSION 2.0
 WRAP.                  NO:   ONE LINE PER DEPTH STEP
~WELL INFORMATION BLOCK
#MNEM.UNIT           DATA                    DESCRIPTION OF MNEMONIC
#---------    -------------------            -------------------------------
# Generated from Intellog Unique Number	CW_79_81/WELL/2490
WELL.         13-31-080-23W4                 : Well_name    - WELL
LOC .         00/13-31-080-23W4/0            : Location     - LOCATION
UWI .         00/13-31-080-23W4/0            : Uwi          - UNIQUE WELL ID
ENTR.         MAX                            : Entered      - ENTERED BY
SRVC.         SCHLUMBERGER                   : Scn          - SERVICE COMPANY
STRT.M        250                            : top_depth    - START DEPTH
STOP.M        479.75                         : bot_depth    - STOP DEPTH
STEP.M        0.25                           : increment    - STEP LENGTH
 NULL. -999.2500:NULL Value
~CURVE INFORMATION BLOCK
#MNEM UNIT       ERCB CURVE CODE    CURVE DESCRIPTION
#-----------   ------------------   ----------------------------------
DEPT.M        00 001 00 00         : DEPTH        - DEPTH
ILD .OHMM     00 120 00 00         : RESD         - DEEP RESISTIVITY (DIL)
NPHI.V/V      00 330 00 00         : PHIN         - NEUTRON POROSITY (SANDSTONE)
DPHI.V/V      00 890 00 00         : PHID         - DENSITY POROSITY (SANDSTONE)
GR  .API      00 310 00 00         : GR           - GAMMA RAY
CALI.MM       00 280 01 00         : CAL          - CALIPER
~PARAMETER INFORMATION
#MNEM.UNIT           DATA             DESCRIPTION OF MNEMONIC
#---------         -----------     ------------------------------
GL  .M        599.82               : gl           - GROUND LEVEL ELEVATION
EREF.M        604.05               : kb           - ELEVATION OF DEPTH REFERENCE
DATM.M        599.82               : datum        - DATUM ELEVATION
TDD .M        482                  : tdd          - TOTAL DEPTH DRILLER
RUN .         ONE                  : Run          - RUN NUMBER
ENG .         BILL                 : Engineer     - RECORDING ENGINEER
WIT .         JIM                  : Witness      - WITNESSED BY
MUD .         GEL                  : Mud_type     - MUD TYPE
MATR.         SANDSTONE            : Logunit      - NEUTRON MATRIX
TMAX.C        29                   : BHT          - MAXIMUM RECORDED TEMPERATURE
BHTD.M        482                  : BHTDEP       - MAXIMUM RECORDED TEMPERATURE
MATR.         1                    : LOGUNIT      - NEUTRON MATRIX
RMT .C        15                   : MDTP         - TEMPERATURE OF MUD
NEUT.         1                    : NEUTRON      - NEUTRON TYPE
RESI.         0                    : RESIST       - RESISTIVITY TYPE
RMC .OHMM     6.9                  : RMC          - RESISTIVITY OF MUD CAKE
RMF .OHMM     6.67                 : RMF          - RESISTIVITY OF MUD FILTRATE
SUFT.C        -20                  : SUFT         - SURFACE TEMPERATURE
~A  DEPTH     RESD     PHIN     PHID       GR      CAL
# ...
  396.000   13.027    0.448    0.214   87.213  223.743
  396.250   13.098    0.457    0.212   87.617  223.638
  396.500   13.118    0.465    0.215   89.560  223.834
  396.750   13.221    0.473    0.217   90.282  224.324
  397.000   13.659    0.481    0.215   84.175  224.415
  397.250   13.886    0.475    0.215   80.918  224.887
  397.500   13.803    0.467    0.215   81.214  225.064
  397.750   13.569    0.460    0.214   83.275  225.146
  398.000   13.293    0.455    0.211   85.979  225.235
  398.250   13.002    0.452    0.208   88.881  225.263
  398.500   12.926    0.456    0.209   88.946  224.925
  398.750   12.850    0.460    0.210   89.692  225.021
  399.000   12.845    0.463    0.212   90.804  225.110
  399.250   12.865    0.468    0.215   91.452  225.193
  399.500   12.861    0.474    0.217   91.394  225.275
  399.750   12.791    0.477    0.214   90.983  225.387
  400.000   12.814    0.457    0.221   91.032  225.469
  400.250   12.832    0.463    0.217   88.946  225.547
  400.500   12.778    0.459    0.207   88.113  225.645
  400.750   12.702    0.453    0.201   89.347  225.539
  401.000   12.606    0.452    0.202   92.173  225.324
  401.250   12.442    0.464    0.210   94.935  225.427
  401.500   12.460    0.463    0.215   95.482  225.509
  401.750   12.480    0.448    0.216   91.038  225.587
  402.000   12.430    0.445    0.212   90.674  225.383
  402.250   12.266    0.449    0.210   92.857  225.268
  402.500   12.038    0.455    0.211   96.164  225.246
  402.750   11.847    0.460    0.210   99.059  224.883
  403.000   11.683    0.468    0.203   97.876  224.563
  403.250   11.530    0.466    0.195   96.736  225.044
  403.500   11.378    0.464    0.174   92.948  225.230
  403.750   11.268    0.465    0.166   91.348  225.312
  404.000   11.202    0.467    0.181   93.292  225.393
  404.250   11.141    0.461    0.208   96.667  225.498
  404.500   11.156    0.457    0.203   96.705  225.588
  404.750   11.342    0.449    0.195   92.277  226.052
  405.000   11.467    0.452    0.193   90.491  226.535
  405.250   11.656    0.460    0.191   89.238  226.819
  405.500   11.978    0.469    0.190   88.817  226.899
  405.750   12.511    0.467    0.195   92.592  227.006
  406.000   12.824    0.446    0.196   95.843  227.106
  406.250   12.470    0.447    0.196   95.895  226.790
  406.500   11.851    0.466    0.200   97.373  225.588
  406.750   11.272    0.485    0.202   99.437  224.300
  407.000   10.902    0.486    0.194  101.139  223.509
  407.250   10.907    0.454    0.169  100.842  223.595
  407.500   11.269    0.432    0.155   97.942  223.676
  407.750   11.120    0.418    0.150   99.407  223.772
  408.000   10.850    0.416    0.162  102.117  223.559
  408.250   10.470    0.427    0.180  103.593  222.263
  408.500   10.166    0.446    0.193  102.763  219.690
  408.750   10.289    0.460    0.188   98.791  216.330
  409.000   10.468    0.466    0.175   92.936  216.821
  409.250   10.407    0.468    0.178   95.588  218.090
  409.500   10.987    0.470    0.189   96.286  214.920
  409.750   12.580    0.467    0.187   94.090  206.921
  410.000   15.479    0.449    0.158   90.004  197.748
  410.250   19.554    0.388    0.100   87.383  196.177
  410.500   25.017    0.363    0.161   89.407  201.594
  410.750   29.388    0.388    0.201   89.223  202.460
  411.000   33.887    0.429    0.207   84.957  202.677
  411.250   36.676    0.429    0.183   78.266  202.768
  411.500   36.938    0.385    0.137   71.164  203.218
  411.750   36.083    0.358    0.099   66.617  204.582
  412.000   35.584    0.397    0.177   69.626  205.147
  412.250   34.088    0.435    0.214   76.061  205.987
  412.500   31.549    0.444    0.219   77.886  208.022
  412.750   29.590    0.419    0.185   75.693  209.865
  413.000   28.565    0.380    0.150   72.670  210.433
  413.250   28.284    0.386    0.201   75.407  208.560
  413.500   28.767    0.406    0.232   79.402  206.599
  413.750   29.027    0.425    0.243   79.454  204.716
  414.000   28.643    0.440    0.257   79.333  204.304
  414.250   27.950    0.457    0.270   79.033  204.973
  414.500   26.964    0.475    0.277   78.434  206.143
  414.750   25.063    0.477    0.254   76.815  207.467
  415.000   23.257    0.444    0.207   74.396  209.583
  415.250   23.297    0.355    0.091   68.302  210.860
  415.500   23.852    0.311    0.057   66.640  211.540
  415.750   23.796    0.320    0.108   69.177  211.824
  416.000   22.921    0.374    0.199   73.251  211.809
  416.250   21.830    0.446    0.246   74.130  211.340
  416.500   21.200    0.460    0.267   75.897  210.619
  416.750   20.772    0.481    0.264   76.664  210.705
  417.000   20.807    0.474    0.260   75.472  210.786
  417.250   21.299    0.461    0.256   72.448  210.676
  417.500   22.845    0.452    0.248   68.066  210.487
  417.750   27.945    0.434    0.226   62.711  210.549
  418.000   30.724    0.371    0.181   60.549  210.166
  418.250   36.866    0.284    0.135   56.824  209.842
  418.500   42.796    0.256    0.089   54.328  209.530
  418.750   42.170    0.273    0.072   54.614  209.424
  419.000   35.298    0.320    0.099   58.274  209.417
  419.250   27.900    0.392    0.176   66.232  209.039
  419.500   25.303    0.413    0.205   72.695  208.728
  419.750   25.531    0.420    0.167   72.274  208.421
  420.000   26.906    0.378    0.121   67.421  208.699
  420.250   28.704    0.325    0.086   64.749  209.167
  420.500   29.965    0.292    0.076   66.392  210.028
  420.750   29.301    0.309    0.112   70.453  212.432
  421.000   28.022    0.350    0.163   72.719  214.164
  421.250   25.273    0.407    0.196   74.184  215.433
  421.500   22.668    0.436    0.207   73.707  216.406
  421.750   20.635    0.456    0.190   72.340  217.478
  422.000   19.316    0.465    0.159   72.093  218.648
  422.250   18.613    0.439    0.160   76.825  219.786
  422.500   17.806    0.433    0.207   81.312  221.099
  422.750   17.177    0.434    0.206   85.393  221.991
  423.000   16.205    0.424    0.207   86.977  222.562
  423.250   15.300    0.420    0.209   87.851  222.841
  423.500   14.434    0.425    0.210   88.910  223.031
  423.750   13.257    0.436    0.212   89.966  223.602
  424.000   12.876    0.437    0.216   89.025  224.094
  424.250   12.894    0.438    0.202   87.890  224.180
  424.500   12.917    0.439    0.175   87.291  224.576
  424.750   12.796    0.436    0.150   88.407  225.065
  425.000   12.463    0.431    0.145   91.237  225.446
  425.250   11.810    0.438    0.189   95.107  225.538
  425.500   11.210    0.439    0.199   97.618  225.611
  425.750   10.979    0.439    0.193  102.398  225.304
  426.000   10.922    0.437    0.195  106.469  224.701
  426.250   10.900    0.434    0.197  107.703  224.000
  426.500   10.789    0.436    0.193  106.040  223.299
  426.750   10.444    0.446    0.177  103.251  222.450
  427.000   10.220    0.447    0.177  102.075  221.711
  427.250   10.236    0.442    0.173  103.314  221.412
  427.500   10.253    0.451    0.174  105.255  220.806
  427.750   10.192    0.466    0.182  105.774  220.297
  428.000   10.057    0.478    0.188  104.169  219.990
  428.250    9.914    0.464    0.177  101.557  219.617
  428.500    9.851    0.458    0.179  103.576  219.288
  428.750    9.795    0.450    0.174  105.761  218.981
  429.000    9.790    0.445    0.159  107.414  218.976
  429.250    9.840    0.438    0.148  109.000  218.866
  429.500    9.947    0.429    0.147  110.878  218.649
  429.750   10.192    0.426    0.155  113.258  218.758
  430.000   10.612    0.427    0.164  113.056  218.912
  430.250   11.193    0.427    0.180  109.799  219.323
  430.500   11.426    0.424    0.174  105.296  219.504
  430.750   11.230    0.416    0.159  103.218  219.792
  431.000   10.674    0.406    0.146  104.453  220.171
  431.250    9.857    0.408    0.152  106.727  220.282
  431.500    9.498    0.441    0.170  104.806  220.364
  431.750    9.374    0.460    0.181  103.203  220.433
  432.000    9.614    0.470    0.192  103.019  218.737
  432.250   10.100    0.447    0.181  102.477  215.864
