~VERSION INFORMATION
 VERS.                 2.0:   CWLS LOG ASCII STANDARD -VERSION 2.0
 WRAP.                  NO:   ONE LINE PER DEPTH STEP
~WELL INFORMATION BLOCK
#MNEM.UNIT           DATA                    DESCRIPTION OF MNEMONIC
#---------    -------------------            -------------------------------
# Generated from Intellog Unique Number	CC_80_83/WELL/2440
NULL.         -999.25                        : NULL_VALUE
WELL.         GULF RESDELN                   : Well_name    - WELL              
LOC .         15-19-083-06W4                 : Location     - LOCATION          
UWI .         00/15-19-083-06W4/0            : Uwi          - UNIQUE WELL ID    
ENTR.         RJA                            : Entered      - ENTERED BY        
SRVC.         SCHLUMBERGER                   : Scn          - SERVICE COMPANY   
DATE.         13 DEC 80                      : Date         - LOG DATE
STRT.M        125                            : top_depth    - START DEPTH       
STOP.M        374.896                        : bot_depth    - STOP DEPTH        
STEP.M        0.3                            : increment    - STEP LENGTH       
~CURVE INFORMATION BLOCK
#MNEM UNIT       ERCB CURVE CODE    CURVE DESCRIPTION
#-----------   ------------------   ----------------------------------
DEPT.M        00 001 00 00         : DEPTH        - DEPTH                       
DPHI.V/V      00 890 00 00         : PHID         - DENSITY POROSITY (LIMESTONE)
NPHI.V/V      00 330 00 00         : PHIN         - NEUTRON POROSITY (LIMESTONE)
GR  .API      00 310 00 00         : GR           - GAMMA RAY                   
ILD .OHMM     00 120 00 00         : RESD         - DEEP RESISTIVITY (DIL)      
~PARAMETER INFORMATION       
#MNEM.UNIT           DATA             DESCRIPTION OF MNEMONIC
#---------         -----------     ------------------------------
GL  .M        588.35               : gl           - GROUND LEVEL ELEVATION      
EREF.M        592.9                : kb           - ELEVATION OF DEPTH REFERENCE
DATM.M        592.9                : datum        - DATUM ELEVATION             
TDD .M        418                  : tdd          - TOTAL DEPTH DRILLER         
RUN .         ONE                  : Run          - RUN NUMBER                  
ENG .         BILL                 : Engineer     - RECORDING ENGINEER          
WIT .         JIM                  : Witness      - WITNESSED BY                
MUD .         GEL                  : Mud_type     - MUD TYPE                    
MATR.         LIMESTONE            : Logunit      - NEUTRON MATRIX              
TMAX.C        20                   : BHT          - MAXIMUM RECORDED TEMPERATURE
BHTD.M        418                  : BHTDEP       - MAXIMUM RECORDED TEMPERATURE
MATR.         1                    : LOGUNIT      - NEUTRON MATRIX              
RMT .C        25                   : MDTP         - TEMPERATURE OF MUD          
NEUT.         1                    : NEUTRON      - NEUTRON TYPE                
RESI.         0                    : RESIST       - RESISTIVITY TYPE            
RMC .OHMM     0.25                 : RMC          - RESISTIVITY OF MUD CAKE     
RMF .OHMM     0.25                 : RMF          - RESISTIVITY OF MUD FILTRATE 
SUFT.C        4                    : SUFT         - SURFACE TEMPERATURE         
~A  DEPTH     PHID     PHIN       GR     RESD
# ...
  333.798    0.367    0.416   26.027  126.950
  334.098    0.364    0.423   25.357  149.994
  334.398    0.365    0.417   23.425  170.777
  334.698    0.356    0.412   22.134  180.508
  334.998    0.354    0.419   23.343  180.395
  335.298    0.361    0.440   25.157  180.296
  335.598    0.362    0.431   24.488  170.432
  335.898    0.360    0.419   23.825  167.221
  336.198    0.363    0.427   25.663  176.696
  336.498    0.365    0.455   28.111  183.310
  336.798    0.364    0.466   27.451  204.861
  337.098    0.373    0.474   28.031  233.235
  337.398    0.376    0.456   26.707  251.149
  337.698    0.359    0.483   25.409  302.338
  337.998    0.352    0.492   25.996  377.733
  338.298    0.354    0.441   27.826  422.160
  338.598    0.358    0.459   28.420  454.526
  338.898    0.345    0.442   28.989  517.495
  339.198    0.321    0.419   28.325  709.593
  339.498    0.328    0.422   26.383  920.303
  339.798    0.343    0.422   25.727  777.925
  340.098    0.344    0.404   25.032  526.146
  340.398    0.332    0.411   26.237  249.856
  340.698    0.336    0.422   27.456  125.469
  340.998    0.317    0.417   33.059   66.622
  341.298    0.387    0.371   38.022   41.821
  341.598    0.433    0.419   44.881   33.436
  341.898    0.440    0.452   56.751   28.265
  342.198    0.264    0.364   60.457   26.721
  342.498    0.267    0.375   60.419   26.215
  342.798    0.260    0.407   56.608   32.754
  343.098    0.287    0.418   44.023   48.383
  343.398    0.332    0.425   30.802   63.922
  343.698    0.356    0.421   31.379   86.038
  343.998    0.357    0.411   28.817  124.764
  344.298    0.362    0.422   21.242  155.887
  344.598    0.360    0.411   18.697  184.189
  344.898    0.368    0.403   19.271  262.172
  345.198    0.350    0.408   21.738  277.078
  345.498    0.353    0.415   21.693  234.248
  345.798    0.363    0.402   22.872  209.403
  346.098    0.349    0.390   24.096  197.932
  346.398    0.359    0.406   27.188  187.078
  346.698    0.368    0.434   26.509  146.829
  346.998    0.365    0.442   25.224  115.223
  347.298    0.365    0.410   24.550  104.924
  347.598    0.379    0.441   30.140   99.185
  347.898    0.398    0.480   29.473   87.034
  348.198    0.371    0.503   28.168   70.887
  348.498    0.374    0.485   27.497   70.843
  348.798    0.370    0.441   29.955   70.820
  349.098    0.291    0.442   36.807   62.141
  349.398    0.296    0.377   42.387   50.616
  349.698    0.304    0.413   42.348   72.033
  349.997    0.326    0.442   39.163  166.301
  350.297    0.341    0.454   37.243  182.419
  350.597    0.345    0.415   35.322  114.515
  350.897    0.345    0.419   31.503   63.114
  351.197    0.344    0.422   41.493   43.482
  351.497    0.308    0.390   45.830   36.759
  351.797    0.321    0.421   40.753   36.060
  352.097    0.343    0.465   37.585   39.555
  352.397    0.335    0.470   40.056   46.743
  352.697    0.297    0.441   41.888   57.329
  352.997    0.320    0.455   31.177   77.163
  353.297    0.342    0.466   27.371   87.855
  353.597    0.359    0.448   27.319   59.413
  353.897    0.365    0.438   32.288   31.547
  354.197    0.348    0.426   41.645   20.555
  354.497    0.329    0.383   51.015   12.903
  354.797    0.252    0.406   61.631    8.888
  355.097    0.249    0.401   62.837    7.799
  355.397    0.250    0.364   62.161    7.237
  355.697    0.243    0.367   65.877    6.969
  355.997    0.222    0.372   65.192    7.504
  356.297    0.221    0.360   65.772    8.230
  356.597    0.234    0.359   66.988    8.699
  356.897    0.246    0.370   66.318    9.720
  357.197    0.258    0.382   65.017   10.273
  357.497    0.279    0.381   56.808   10.858
  357.797    0.287    0.392   56.140   10.853
  358.097    0.273    0.407   71.142   10.451
  358.397    0.251    0.413   70.466   10.253
  358.697    0.260    0.386   61.643   11.246
  358.997    0.289    0.390   51.552   13.537
  359.297    0.301    0.389   47.748   15.704
  359.597    0.306    0.406   52.718   19.258
  359.897    0.315    0.430   51.416   22.337
  360.197    0.327    0.405   46.984   24.964
  360.497    0.343    0.429   45.675   23.595
  360.797    0.344    0.446   48.128   21.489
  361.097    0.313    0.420   51.226   18.167
  361.397    0.292    0.408   51.814   15.075
  361.697    0.298    0.410   53.643   13.730
  361.997    0.292    0.414   52.328   13.470
  362.297    0.294    0.421   49.775   18.129
  362.597    0.305    0.424   47.233   25.803
  362.897    0.324    0.430   46.553   34.094
  363.197    0.334    0.407   48.393   44.211
  363.497    0.342    0.429   38.916   45.015
  363.797    0.341    0.446   33.237   43.349
  364.097    0.329    0.446   26.927   42.530
  364.397    0.332    0.433   21.223   41.728
  364.697    0.334    0.406   20.565   38.718
  364.997    0.336    0.387   28.035   15.843
  365.297    0.271    0.368   45.555   10.132
  365.597    0.180    0.384   86.896    8.408
  365.897    0.165    0.414   86.843    7.517
  366.197    0.182    0.384   83.673    7.105
  366.497    0.215    0.410   64.808    7.102
  366.797    0.233    0.455   52.222    7.366
  367.097    0.211    0.468   45.276    7.786
  367.397    0.208    0.463   45.224    7.928
  367.697    0.231    0.423   43.286    7.354
  367.997    0.222    0.399   41.997    7.082
  368.297    0.216    0.386   44.456    6.820
  368.597    0.240    0.346   40.016    6.692
  368.897    0.276    0.360   32.441    6.687
  369.197    0.308    0.414   27.386    6.685
  369.497    0.307    0.431   24.822    6.935
  369.797    0.271    0.385   28.541    8.827
  370.097    0.100    0.275   26.608   11.448
  370.397    0.052    0.226   23.430   16.599
  370.697    0.000    0.179   20.244   20.357
  370.997    0.000    0.161   20.200   24.508
  371.297    0.009    0.176   23.293   24.038
  371.597    0.000    0.278   35.784   23.150
  371.897    0.006    0.292   35.095   22.716
  372.197    0.021    0.187   26.264   33.552
  372.497    0.014    0.157   22.465   38.202
  372.797    0.004    0.156   22.430   44.308
  373.097    0.000    0.152   28.022   45.970
  373.397    0.003    0.153   29.215   39.586
  373.697    0.026    0.152   29.188   32.249
  373.997    0.051    0.161   35.410   21.010
  374.297    0.068    0.225   57.313   15.305
  374.596    0.061    0.288   66.678   12.701
  374.896    0.062    0.304   65.998   11.568
