~VERSION INFORMATION
 VERS.                 2.0:   CWLS LOG ASCII STANDARD -VERSION 2.0
 WRAP.                  NO:   ONE LINE PER DEPTH STEP
~WELL INFORMATION BLOCK
#MNEM.UNIT           DATA                    DESCRIPTION OF MNEMONIC
#---------    -------------------            -------------------------------
# Generated from Intellog Unique Number	CN_91_93/WELL/2803
WELL.         PARAMOUNT RESOURCES LTD.       : Well_name    - WELL
LOC .         00/16-33-093-21W4/0            : Location     - LOCATION
UWI .         00/16-33-093-21W4/0            : Uwi          - UNIQUE WELL ID
ENTR.         JOETTE                         : Entered      - ENTERED BY
SRVC.         COMPUTALOG                     : Scn          - SERVICE COMPANY
DATE.         03/24/92                       : Date         - LOG DATE
STRT.M        190                            : top_depth    - START DEPTH
STOP.M        360                            : bot_depth    - STOP DEPTH
STEP.M        0.25                           : increment    - STEP LENGTH
 NULL. -999.2500:NULL Value
~CURVE INFORMATION BLOCK
#MNEM UNIT       ERCB CURVE CODE    CURVE DESCRIPTION
#-----------   ------------------   ----------------------------------
DEPT.M        00 001 00 00         : DEPTH        - DEPTH
CALI.MM       00 280 01 00         : CAL          - CALIPER
GR  .API      00 310 00 00         : GR           - GAMMA RAY
NPHI.V/V      00 330 00 00         : PHIN         - NEUTRON POROSITY (SANDSTONE)
DPHI.V/V      00 890 00 00         : PHID         - DENSITY POROSITY (SANDSTONE)
ILD .OHMM     00 120 00 00         : RESD         - DEEP RESISTIVITY (DIL)
~PARAMETER INFORMATION
#MNEM.UNIT           DATA             DESCRIPTION OF MNEMONIC
#---------         -----------     ------------------------------
GL  .M        445.9                : gl           - GROUND LEVEL ELEVATION
EREF.M        449.3                : kb           - ELEVATION OF DEPTH REFERENCE
DATM.M        449.3                : datum        - DATUM ELEVATION
TDD .M        359.4                : tdd          - TOTAL DEPTH DRILLER
RUN .         ONE                  : Run          - RUN NUMBER
ENG .         BILL                 : Engineer     - RECORDING ENGINEER
WIT .         JIM                  : Witness      - WITNESSED BY
MUD .         GEL                  : Mud_type     - MUD TYPE
MATR.         SANDSTONE            : Logunit      - NEUTRON MATRIX
TMAX.C        29                   : BHT          - MAXIMUM RECORDED TEMPERATURE
BHTD.M        359.4                : BHTDEP       - MAXIMUM RECORDED TEMPERATURE
RMT .C        11                   : MDTP         - TEMPERATURE OF MUD
MUDD.KG/M     1110                 : MWT          - MUD DENSITY
NEUT.         1                    : NEUTRON      - NEUTRON TYPE
RESI.         0                    : RESIST       - RESISTIVITY TYPE
RM  .OHMM     3.2                  : RM           - RESISTIVITY OF MUD
RMC .OHMM     3.2                  : RMC          - RESISTIVITY OF MUD CAKE
RMF .OHMM     3.2                  : RMF          - RESISTIVITY OF MUD FILTRATE
SUFT.C        4                    : SUFT         - SURFACE TEMPERATURE
~A  DEPTH      CAL       GR     PHIN     PHID     RESD
# ...
  226.500  154.628   50.395    0.372    0.331   26.011
  226.750  154.493   55.247    0.354    0.331   25.917
  227.000  153.415   60.083    0.351    0.330   25.880
  227.250  153.308   60.649    0.356    0.326   26.291
  227.500  153.174   55.054    0.355    0.320   26.234
  227.750  154.117   51.917    0.358    0.321   25.621
  228.000  155.034   45.691    0.355    0.332   25.058
  228.250  155.951   43.783    0.341    0.327   24.055
  228.500  155.871   48.651    0.333    0.321   23.075
  228.750  156.761   51.028    0.348    0.314   23.009
  229.000  155.656   50.349    0.362    0.308   23.391
  229.250  153.500   53.374    0.374    0.307   24.700
  229.500  158.487   56.382    0.369    0.307   25.601
  229.750  161.479   52.032    0.360    0.302   25.527
  230.000  165.468   43.348    0.348    0.302   23.558
  230.250  163.286   37.752    0.331    0.305   21.741
  230.500  162.208   35.230    0.339    0.305   20.870
  230.750  160.025   38.238    0.347    0.305   20.412
  231.000  157.842   44.335    0.367    0.302   20.353
  231.250  157.762   54.103    0.371    0.299   20.280
  231.500  160.700   62.044    0.357    0.298   21.833
  231.750  161.671   68.125    0.341    0.303   23.088
  232.000  162.588   64.972    0.352    0.310   24.415
  232.250  160.432   59.393    0.359    0.313   27.342
  232.500  156.201   49.479    0.353    0.319   28.872
  232.750  155.069   39.582    0.333    0.311   28.769
  233.000  156.013   28.456    0.321    0.299   28.707
  233.250  158.978   25.303    0.300    0.290   28.096
  233.500  159.841   30.155    0.298    0.290   24.944
  233.750  159.787   30.705    0.310    0.291   21.722
  234.000  157.605   32.500    0.322    0.292   19.271
  234.250  157.497   37.967    0.331    0.289   19.974
  234.500  157.444   46.522    0.342    0.293   20.291
  234.750  157.336   47.687    0.354    0.311   19.092
  235.000  157.229   48.851    0.355    0.312   17.632
  235.250  157.068   54.932    0.350    0.258   15.049
  235.500  155.963   60.415    0.351    0.212   13.114
  235.750  154.831   70.797    0.358    0.198    9.966
  236.000  154.724   80.582    0.365    0.218    8.513
  236.250  155.641   92.193    0.379    0.244    7.413
  236.500  156.584  100.732    0.397    0.240    6.082
  236.750  160.547  103.757    0.406    0.232    5.510
  237.000  162.515  109.223    0.412    0.230    4.791
  237.250  165.427  114.075    0.420    0.229    4.603
  237.500  166.370  113.994    0.433    0.229    4.327
  237.750  166.263  109.644    0.447    0.228    4.151
  238.000  165.158  110.809    0.454    0.227    4.217
  238.250  165.051  114.448    0.465    0.226    4.208
  238.500  164.943  117.456    0.482    0.226    4.622
  238.750  164.863  114.303    0.474    0.228    4.983
  239.000  165.753  111.780    0.470    0.230    6.030
  239.250  164.594  111.117    0.471    0.231    8.860
  239.500  163.516  107.366    0.463    0.240    9.922
  239.750  159.312   90.693    0.426    0.261   11.550
  240.000  158.154   83.852    0.399    0.284   11.509
  240.250  159.097   86.877    0.384    0.289   10.629
  240.500  159.987   93.572    0.405    0.274    9.802
  240.750  160.931  101.513    0.415    0.263    9.402
  241.000  162.872  102.661    0.390    0.246    9.026
  241.250  165.837   98.311    0.360    0.144    8.658
  241.500  166.754   93.330    0.350    0.163    7.534
  241.750  167.698   92.037    0.357    0.204    6.435
  242.000  169.585   97.503    0.371    0.222    5.497
  242.250  169.531  101.725    0.392    0.230    4.877
  242.500  169.424  101.062    0.421    0.230    4.585
  242.750  170.314   99.768    0.440    0.229    4.661
  243.000  170.180  100.933    0.439    0.229    4.835
  243.250  170.126  103.326    0.435    0.228    5.516
  243.500  169.992  105.122    0.444    0.224    6.063
  243.750  168.887  105.656    0.454    0.218    6.795
  244.000  166.704  105.607    0.475    0.205    9.234
  244.250  164.548  104.314    0.469    0.194    9.956
  244.500  162.419   99.333    0.452    0.157   10.513
  244.750  160.183   93.738    0.413    0.168   10.282
  245.000  160.129   86.881    0.386    0.198    9.495
  245.250  160.076   90.520    0.378    0.227    8.424
  245.500  160.966   91.087    0.376    0.243    7.609
  245.750  161.882   88.564    0.390    0.243    7.593
  246.000  162.799   88.499    0.409    0.245    7.582
  246.250  162.692   89.033    0.413    0.244    8.006
  246.500  163.609   89.584    0.404    0.217    8.466
  246.750  163.501   91.993    0.389    0.204    9.481
  247.000  163.394   96.231    0.374    0.222   10.222
  247.250  163.287   93.094    0.379    0.243   12.369
  247.500  163.206   83.811    0.363    0.157   13.851
  247.750  164.123   75.143    0.349    0.166   14.346
  248.000  165.013   75.693    0.329    0.193   14.595
  248.250  164.932   81.774    0.345    0.216   14.274
  248.500  165.822   90.313    0.357    0.219   13.154
  248.750  165.742   97.639    0.360    0.223   12.395
  249.000  165.742   96.330    0.363    0.233    9.603
  249.250  161.430   94.438    0.369    0.243    8.363
  249.500  162.320   93.128    0.407    0.249    7.138
  249.750  162.239   95.522    0.402    0.253    6.592
  250.000  163.183   98.546    0.399    0.251    5.518
  250.250  163.076  105.242    0.435    0.245    4.362
  250.500  163.993  108.250    0.451    0.240    3.793
  250.750  163.858  105.129    0.458    0.236    3.710
  251.000  163.751  101.361    0.463    0.239    3.848
  251.250  164.668  101.281    0.498    0.249    3.988
  251.500  164.587  101.248    0.489    0.274    4.215
  251.750  164.426   99.955    0.477    0.284    4.457
  252.000  164.372   98.047    0.462    0.280    4.991
  252.250  164.265   96.737    0.452    0.271    5.377
  252.500  164.131   96.042    0.452    0.270    5.259
  252.750  164.077   95.395    0.456    0.262    4.948
  253.000  163.970   94.716    0.465    0.247    4.479
  253.250  166.935   95.266    0.465    0.218    4.128
  253.500  170.924   97.046    0.468    0.183    4.196
  253.750  169.793   95.736    0.478    0.204    4.346
  254.000  165.562   92.599    0.468    0.243    4.425
  254.250  163.433   94.394    0.463    0.262    4.495
  254.500  160.199  111.537    0.469    0.248    4.666
  254.750  161.143  110.874    0.480    0.239    4.836
  255.000  162.086  110.195    0.480    0.241    4.287
  255.250  166.022  111.974    0.462    0.242    4.113
  255.500  166.966  116.211    0.443    0.246    4.101
  255.750  167.936  111.845    0.457    0.247    4.247
  256.000  169.850  100.703    0.468    0.246    4.324
  256.250  170.767  103.711    0.468    0.240    4.655
  256.500  171.684  104.261    0.455    0.229    4.736
  256.750  172.628  102.984    0.443    0.206    5.099
  257.000  171.469  100.461    0.432    0.107    5.288
  257.250  167.238   93.022    0.425    0.043    5.477
  257.500  165.136   87.411    0.432    0.074    5.465
  257.750  163.978   92.894    0.446    0.169    5.454
  258.000  164.894  103.907    0.455    0.200    5.224
  258.250  166.862  119.804    0.464    0.228    5.015
  258.500  169.801  119.740    0.465    0.228    4.905
  258.750  170.744  116.603    0.458    0.224    4.705
  259.000  170.664  114.711    0.455    0.216    4.688
  259.250  168.481  116.490    0.465    0.209    4.585
  259.500  168.347  120.113    0.477    0.215    4.661
  259.750  168.293  120.048    0.474    0.218    4.651
  260.000  170.207  119.369    0.467    0.215    4.725
  260.250  175.221  121.763    0.463    0.214    4.711
  260.500  175.114  121.084    0.458    0.213    4.786
  260.750  170.883  118.562    0.472    0.218    4.779
  261.000  167.756  116.653    0.500    0.276    4.859
  261.250  162.528  118.433    0.493    0.290    4.841
  261.500  164.469  122.072    0.484    0.227    4.824
  261.750  169.482  126.939    0.458    0.206    4.817
  262.000  173.472  129.932    0.469    0.211    4.796
  262.250  173.391  128.654    0.484    0.215    4.694
  262.500  172.260  124.886    0.489    0.214    4.684
  262.750  170.104  123.609    0.488    0.213    4.664
