~VERSION INFORMATION
 VERS.                 2.0:   CWLS LOG ASCII STANDARD -VERSION 2.0
 WRAP.                  NO:   ONE LINE PER DEPTH STEP
~WELL INFORMATION BLOCK
#MNEM.UNIT           DATA                    DESCRIPTION OF MNEMONIC
#---------    -------------------            -------------------------------
# Generated from Intellog Unique Number	CS_71_72/WELL/2055
WELL.         ACL BVX UNIGAS CALL            : Well_name    - WELL
LOC .         00/11-08-072-17W4/0            : Location     - LOCATION
UWI .         00/11-08-072-17W4/0            : Uwi          - UNIQUE WELL ID
ENTR.         TIM                            : Entered      - ENTERED BY
SRVC.         SCHLUMBERGER                   : Scn          - SERVICE COMPANY
DATE.         04/09/92                       : Date         - LOG DATE
STRT.M        274.32                         : top_depth    - START DEPTH
STOP.M        466.32                         : bot_depth    - STOP DEPTH
STEP.M        0.25                           : increment    - STEP LENGTH
 NULL. -999.2500:NULL Value
~CURVE INFORMATION BLOCK
#MNEM UNIT       ERCB CURVE CODE    CURVE DESCRIPTION
#-----------   ------------------   ----------------------------------
DEPT.M        00 001 00 00         : DEPTH        - DEPTH
ILD .OHMM     00 120 00 00         : RESD         - DEEP RESISTIVITY (DIL)
NPHI.V/V      00 330 00 00         : PHIN         - NEUTRON POROSITY (SANDSTONE)
GR  .API      00 310 00 00         : GR           - GAMMA RAY
~PARAMETER INFORMATION
#MNEM.UNIT           DATA             DESCRIPTION OF MNEMONIC
#---------         -----------     ------------------------------
GL  .M        590.398              : gl           - GROUND LEVEL ELEVATION
EREF.M        593.446              : kb           - ELEVATION OF DEPTH REFERENCE
DATM.M        593.446              : datum        - DATUM ELEVATION
TDD .M        473.05               : tdd          - TOTAL DEPTH DRILLER
RUN .         ONE                  : Run          - RUN NUMBER
ENG .         BILL                 : Engineer     - RECORDING ENGINEER
WIT .         JIM                  : Witness      - WITNESSED BY
MUD .         GEL                  : Mud_type     - MUD TYPE
MATR.         SANDSTONE            : Logunit      - NEUTRON MATRIX
TMAX.C        21.6667              : BHT          - MAXIMUM RECORDED TEMPERATURE
BHTD.M        471.221              : BHTDEP       - MAXIMUM RECORDED TEMPERATURE
RMT .C        21.1111              : MDTP         - TEMPERATURE OF MUD
MUDD.KG/M     9250                 : MWT          - MUD DENSITY
NEUT.         1                    : NEUTRON      - NEUTRON TYPE
RESI.         0                    : RESIST       - RESISTIVITY TYPE
RM  .OHMM     2.06                 : RM           - RESISTIVITY OF MUD
RMC .OHMM     2.06                 : RMC          - RESISTIVITY OF MUD CAKE
RMF .OHMM     2.06                 : RMF          - RESISTIVITY OF MUD FILTRATE
SUFT.C        4                    : SUFT         - SURFACE TEMPERATURE
~A  DEPTH     RESD     PHIN       GR
# ...
  328.570    6.030    0.553   76.210
  328.820    6.987    0.568   67.742
  329.070    8.556    0.565   60.484
  329.320    8.881    0.546   52.621
  329.570    8.725    0.505   46.573
  329.820    8.572    0.514   49.597
  330.070    8.117    0.516   55.040
  330.320    7.686    0.515   55.645
  330.570    7.280    0.512   56.250
  330.820    7.019    0.511   56.855
  331.070    6.649    0.511   55.040
  331.320    6.531    0.514   52.016
  331.570    6.300    0.518   49.597
  331.820    6.302    0.520   48.387
  332.070    6.191    0.523   50.202
  332.320    6.196    0.527   55.645
  332.570    6.199    0.530   59.879
  332.820    6.090    0.526   61.089
  333.070    6.093    0.528   59.879
  333.320    6.099    0.532   59.274
  333.570    6.100    0.534   55.645
  333.820    6.103    0.532   55.040
  334.070    6.107    0.529   55.645
  334.320    6.111    0.524   55.645
  334.570    6.114    0.523   56.250
  334.820    6.118    0.523   56.250
  335.070    6.121    0.522   56.250
  335.320    6.126    0.525   56.855
  335.570    6.130    0.528   56.855
  335.820    6.132    0.531   56.855
  336.070    6.135    0.533   57.460
  336.320    6.028    0.533   58.669
  336.570    6.030    0.532   59.879
  336.820    6.035    0.534   59.879
  337.070    5.928    0.538   59.879
  337.320    5.933    0.545   59.274
  337.570    5.936    0.549   58.669
  337.820    5.939    0.553   57.460
  338.070    5.834    0.544   56.855
  338.320    5.838    0.539   55.645
  338.570    5.735    0.544   59.274
  338.820    5.737    0.550   62.298
  339.070    5.742    0.552   64.113
  339.320    5.745    0.552   64.718
  339.570    5.643    0.553   62.903
  339.820    5.647    0.552   59.879
  340.070    5.651    0.547   59.274
  340.320    5.654    0.540   61.694
  340.570    5.555    0.536   63.508
  340.820    5.557    0.535   62.903
  341.070    5.560    0.536   61.694
  341.320    5.463    0.539   61.694
  341.570    5.465    0.544   61.694
  341.820    5.468    0.549   61.694
  342.070    5.472    0.543   61.694
  342.320    5.474    0.532   60.484
  342.570    5.478    0.530   59.274
  342.820    5.481    0.531   58.669
  343.070    5.487    0.535   58.669
  343.320    5.488    0.546   59.274
  343.570    5.490    0.552   61.694
  343.820    5.494    0.548   62.298
  344.070    5.497    0.539   63.508
  344.320    5.500    0.534   61.694
  344.570    5.503    0.541   61.089
  344.820    5.507    0.544   61.089
  345.070    5.510    0.546   61.089
  345.320    5.513    0.548   61.694
  345.570    5.516    0.551   61.694
  345.820    5.622    0.553   61.089
  346.070    5.626    0.551   60.484
  346.320    5.629    0.549   58.669
  346.570    5.633    0.544   56.855
  346.820    5.634    0.539   56.250
  347.070    5.638    0.530   58.669
  347.320    5.747    0.532   59.879
  347.570    5.750    0.537   61.694
  347.820    5.753    0.541   62.298
  348.070    5.863    0.533   62.903
  348.320    5.868    0.522   63.508
  348.570    5.869    0.519   64.113
  348.820    5.873    0.520   65.323
  349.070    5.877    0.522   65.323
  349.320    5.879    0.523   65.323
  349.570    5.883    0.523   65.323
  349.820    5.886    0.511   65.927
  350.070    5.890    0.498   67.137
  350.320    5.893    0.500   68.952
  350.570    5.897    0.508   71.371
  350.820    5.900    0.513   72.581
  351.070    5.903    0.515   71.371
  351.320    5.907    0.513   68.952
  351.570    5.911    0.506   67.137
  351.820    5.914    0.505   67.137
  352.070    5.917    0.510   67.742
  352.320    5.920    0.514   67.742
  352.570    5.817    0.486   67.742
  352.820    5.611    0.471   69.556
  353.070    5.613    0.434   71.976
  353.320    5.514    0.403   75.000
  353.570    5.222    0.399   79.839
  353.820    5.130    0.395   84.677
  354.070    4.859    0.386   85.282
  354.320    4.686    0.392   85.282
  354.570    4.603    0.402   84.677
  354.820    4.606    0.413   84.677
  355.070    4.608    0.414   84.677
  355.320    4.784    0.417   84.073
  355.570    4.966    0.419   83.468
  355.820    5.250    0.424   84.677
  356.070    5.351    0.428   86.492
  356.320    5.452    0.426   83.468
  356.570    5.659    0.419   84.073
  356.820    5.769    0.425   85.887
  357.070    5.877    0.432   87.097
  357.320    5.465    0.438   85.887
  357.570    5.175    0.430   85.887
  357.820    4.811    0.439   86.492
  358.070    4.312    0.425   86.492
  358.320    3.936    0.456   84.073
  358.570    3.401    0.475   85.282
  358.820    3.105    0.496   85.887
  359.070    3.050    0.512   84.073
  359.320    3.166    0.527   79.839
  359.570    3.537    0.538   73.790
  359.820    3.671    0.553   66.532
  360.070    4.026    0.566   65.927
  360.320    4.335    0.569   65.927
  360.570    4.417    0.574   63.508
  360.820    4.502    0.582   61.089
  361.070    4.505    0.575   58.669
  361.320    4.507    0.563   58.065
  361.570    4.510    0.546   58.065
  361.820    4.512    0.539   59.879
  362.070    4.516    0.539   60.484
  362.320    4.518    0.541   62.298
  362.570    4.520    0.546   62.903
  362.820    4.523    0.550   64.113
  363.070    4.525    0.550   64.718
  363.320    4.529    0.546   65.323
  363.570    4.531    0.538   68.952
  363.820    4.534    0.542   71.976
  364.070    4.537    0.551   70.766
  364.320    4.540    0.549   67.742
  364.570    4.542    0.543   65.323
  364.820    4.545    0.535   63.508
  365.070    4.547    0.530   63.508
  365.320    4.466    0.532   63.508
  365.570    4.470    0.535   63.508
  365.820    4.472    0.531   62.298
  366.070    4.475    0.526   61.694
  366.320    4.397    0.518   61.089
  366.570    4.319    0.508   62.298
  366.820    4.322    0.512   62.903
  367.070    4.323    0.518   62.298
  367.320    4.326    0.521   61.089
  367.570    4.329    0.519   60.484
  367.820    4.492    0.508   60.484
  368.070    4.837    0.484   59.879
  368.320    5.209    0.459   59.274
  368.570    5.928    0.440   56.855
  368.820    6.382    0.472   56.250
  369.070    6.749    0.513   58.065
  369.320    6.159    0.546   60.484
  369.570    5.322    0.549   62.903
  369.820    4.947    0.548   65.323
  370.070    4.517    0.541   65.323
  370.320    4.357    0.536   64.718
  370.570    4.280    0.527   63.508
  370.820    4.283    0.517   62.903
  371.070    4.363    0.496   62.298
  371.320    4.530    0.472   59.879
  371.570    4.702    0.398   58.669
  371.820    5.063    0.371   57.460
  372.070    5.552    0.299   55.645
  372.320    6.675    0.262   55.040
  372.570    8.173    0.256   53.831
  372.820   12.025    0.261   53.226
  373.070   14.996    0.268   55.040
  373.320   15.005    0.282   56.855
  373.570   11.400    0.313   59.274
  373.820    7.902    0.432   61.089
  374.070    6.461    0.479   64.113
  374.320    5.480    0.501   66.532
  374.570    5.095    0.509   69.556
  374.820    4.737    0.503   70.161
  375.070    4.487    0.493   68.952
  375.320    4.490    0.473   66.532
  375.570    4.575    0.452   64.113
  375.820    4.749    0.396   66.532
  376.070    5.304    0.365   65.927
  376.320    5.926    0.360   65.323
  376.570    6.380    0.377   63.508
  376.820    6.502    0.408   62.298
  377.070    6.045    0.476   59.879
  377.320    5.320    0.509   62.298
  377.570    4.946    0.513   64.113
  377.820    4.598    0.508   65.323
  378.070    4.435    0.514   65.927
  378.320    4.200    0.517   64.113
  378.570    4.126    0.516   62.903
  378.820    4.282    0.517   62.298
  379.070    4.785    0.515   62.298
  379.320    5.248    0.506   62.298
  379.570    5.651    0.504   62.903
  379.820    5.654    0.505   63.508
  380.070    5.657    0.510   64.718
  380.320    5.558    0.518   65.927
  380.570    5.360    0.531   67.742
  380.820    5.170    0.543   68.347
  381.070    4.897    0.546   68.952
  381.320    4.810    0.545   69.556
  381.570    4.555    0.543   68.952
  381.820    4.394    0.539   68.347
  382.070    4.315    0.538   68.347
  382.320    4.318    0.538   68.347
  382.570    4.322    0.539   67.742
