~VERSION INFORMATION
 VERS.                 2.0:   CWLS LOG ASCII STANDARD -VERSION 2.0
 WRAP.                  NO:   ONE LINE PER DEPTH STEP
~WELL INFORMATION BLOCK
#MNEM.UNIT           DATA                    DESCRIPTION OF MNEMONIC
#---------    -------------------            -------------------------------
# Generated from Intellog Unique Number	CS_73_76/WELL/908
WELL.         HOLSTON OIL                    : Well_name    - WELL
LOC .         00/10-20-076-17W4/0            : Location     - LOCATION
UWI .         00/10-20-076-17W4/0            : Uwi          - UNIQUE WELL ID
ENTR.         T                              : Entered      - ENTERED BY
SRVC.         SCHLUMBERGER                   : Scn          - SERVICE COMPANY
STRT.F        1100                           : top_depth    - START DEPTH
STOP.F        1810.3                         : bot_depth    - STOP DEPTH
STEP.F        0.82                           : increment    - STEP LENGTH
 NULL. -999.2500:NULL Value
~CURVE INFORMATION BLOCK
#MNEM UNIT       ERCB CURVE CODE    CURVE DESCRIPTION
#-----------   ------------------   ----------------------------------
DEPT.F        00 001 00 00         : DEPTH        - DEPTH
GR  .API      00 310 00 00         : GR           - GAMMA RAY
DPHI.V/V      00 890 00 00         : PHID         - DENSITY POROSITY (SANDSTONE)
ILD .OHMM     00 120 00 00         : RESD         - DEEP RESISTIVITY (DIL)
~PARAMETER INFORMATION
#MNEM.UNIT           DATA             DESCRIPTION OF MNEMONIC
#---------         -----------     ------------------------------
GL  .F        2324                 : gl           - GROUND LEVEL ELEVATION
EREF.F        2334                 : kb           - ELEVATION OF DEPTH REFERENCE
DATM.F        2334                 : datum        - DATUM ELEVATION
TDD .F        1870                 : tdd          - TOTAL DEPTH DRILLER
RUN .         ONE                  : Run          - RUN NUMBER
ENG .         BILL                 : Engineer     - RECORDING ENGINEER
WIT .         JIM                  : Witness      - WITNESSED BY
MUD .         GEL                  : Mud_type     - MUD TYPE
MATR.         SANDSTONE            : Logunit      - NEUTRON MATRIX
TMAX.F        69                   : BHT          - MAXIMUM RECORDED TEMPERATURE
BHTD.F        1870                 : BHTDEP       - MAXIMUM RECORDED TEMPERATURE
MATR.         1                    : LOGUNIT      - NEUTRON MATRIX
RMT .F        73                   : MDTP         - TEMPERATURE OF MUD
NEUT.         1                    : NEUTRON      - NEUTRON TYPE
RESI.         0                    : RESIST       - RESISTIVITY TYPE
RMC .OHMM     1.64                 : RMC          - RESISTIVITY OF MUD CAKE
RMF .OHMM     1.64                 : RMF          - RESISTIVITY OF MUD FILTRATE
SUFT.F        59                   : SUFT         - SURFACE TEMPERATURE
~A  DEPTH       GR     PHID     RESD
 1100.000   78.743    0.215    1.970
 1100.820   78.149    0.219    2.007
 1101.640   77.552    0.220    2.008
 1102.460   76.354    0.223    2.083
 1103.280   76.961    0.223    2.161
 1104.100   80.572    0.219    2.242
 1104.920   79.975    0.215    2.369
 1105.740   78.178    0.212    2.457
 1106.560   77.582    0.206    2.458
 1107.380   77.587    0.202    2.504
 1108.200   77.592    0.202    2.550
 1109.020   76.996    0.205    2.646
 1109.840   77.001    0.202    2.745
 1110.660   78.810    0.201    2.848
 1111.480   80.017    0.195    2.955
 1112.300   83.629    0.192    3.010
 1113.120   84.836    0.190    3.123
 1113.940   83.641    0.189    3.123
 1114.760   81.241    0.185    3.124
 1115.580   80.045    0.177    3.124
 1116.400   80.052    0.173    3.125
 1117.220   79.453    0.174    3.069
 1118.040   78.857    0.177    3.069
 1118.860   78.263    0.178    3.070
 1119.690   77.666    0.180    3.070
 1120.510   77.672    0.181    3.071
 1121.330   78.278    0.184    3.071
 1122.150   78.885    0.186    3.016
 1122.970   80.093    0.192    3.017
 1123.790   80.699    0.194    2.962
 1124.610   81.906    0.196    2.963
 1125.430   82.512    0.190    2.910
 1126.250   83.719    0.183    2.910
 1127.070   83.723    0.185    2.911
 1127.890   83.728    0.191    2.911
 1128.710   82.531    0.192    2.859
 1129.530   82.538    0.190    2.808
 1130.350   82.543    0.184    2.757
 1131.170   82.548    0.176    2.708
 1131.990   81.351    0.171    2.659
 1132.810   78.952    0.178    2.659
 1133.630   74.751    0.184    2.709
 1134.450   69.947    0.182    3.080
 1135.270   64.541    0.181    3.632
 1136.090   65.750    0.173    4.205
 1136.910   66.956    0.174    4.781
 1137.730   69.365    0.196    5.638
 1138.550   72.378    0.221    6.179
 1139.370   74.187    0.219    6.649
 1140.190   75.395    0.214    6.899
 1141.010   75.398    0.209    6.900
 1141.830   73.600    0.205    6.532
 1142.650   69.397    0.196    6.184
 1143.470   60.386    0.195    6.535
 1144.290   52.577    0.202    7.566
 1145.110   48.976    0.217    9.087
 1145.930   54.391    0.271   11.960
 1146.750   56.800    0.279   14.900
 1147.570   53.801    0.263   15.744
 1148.390   57.413    0.247   14.370
 1149.210   61.625    0.240   13.358
 1150.030   66.440    0.231   12.192
 1150.850   67.646    0.208   11.333
 1151.670   67.651    0.201   10.344
 1152.490   64.050    0.201    9.793
 1153.310   56.842    0.214    9.795
 1154.130   50.236    0.224    9.797
 1154.950   44.230    0.239    9.798
 1155.770   59.864    0.251    9.800
 1156.590   65.280    0.238    9.983
 1157.410   66.488    0.225   10.169
 1158.230   65.892    0.211   10.171
 1159.060   62.890    0.218    9.989
 1159.880   58.087    0.223    9.989
 1160.700   52.682    0.226    9.992
 1161.520   49.682    0.227    9.993
 1162.340   48.486    0.230   10.180
 1163.160   47.289    0.233   10.181
 1163.980   43.088    0.240   10.372
 1164.800   40.687    0.253   10.565
 1165.620   37.086    0.257   11.579
 1166.440   35.890    0.239   12.460
 1167.260   40.704    0.212   13.657
 1168.080   45.517    0.170   14.697
 1168.900   50.931    0.175   14.970
 1169.720   57.548    0.219   14.701
 1170.540   65.968    0.218   12.023
 1171.360   74.991    0.209   10.199
 1172.180   76.802    0.192    8.974
 1173.000   76.806    0.195    7.896
 1173.820   78.615    0.205    7.207
 1174.640   79.219    0.215    6.949
 1175.460   78.623    0.224    7.210
 1176.280   75.624    0.230    7.480
 1177.100   73.225    0.237    7.760
 1177.920   73.830    0.231    8.050
 1178.740   78.043    0.223    8.664
 1179.560   80.454    0.212    9.324
 1180.380   82.263    0.211   10.033
 1181.200   84.071    0.211   11.201
 1182.020   84.076    0.211   11.409
 1182.840   81.075    0.211   11.411
 1183.660   75.670    0.215   11.413
 1184.480   65.457    0.220   11.626
 1185.300   55.845    0.228   12.062
 1186.120   45.030    0.244   12.979
 1186.940   35.418    0.252   15.306
 1187.760   29.413    0.262   19.068
 1188.580   28.218    0.275   27.501
 1189.400   28.223    0.279   32.432
 1190.220   27.026    0.281   30.704
 1191.040   28.833    0.274   27.017
 1191.860   40.860    0.254   22.918
 1192.680   64.307    0.250   14.243
 1193.500   66.718    0.217   11.229
 1194.320   61.913    0.208   10.632
 1195.140   56.508    0.207   10.440
 1195.960   60.121    0.218   10.067
 1196.780   70.345    0.227    9.886
 1197.600   80.568    0.224    9.190
 1198.430   87.185    0.190    8.700
 1199.250   87.792    0.176    7.941
 1200.070   88.397    0.168    7.382
 1200.890   89.607    0.162    6.862
 1201.710   89.610    0.156    6.378
 1202.530   89.615    0.148    5.716
 1203.350   90.224    0.133    5.313
 1204.170   91.430    0.121    4.591
 1204.990   92.637    0.111    4.190
 1205.810   93.844    0.115    3.824
 1206.630   95.652    0.140    3.755
 1207.450   97.461    0.163    3.556
 1208.270   98.067    0.168    3.428
 1209.090   99.274    0.173    3.187
 1209.910  100.481    0.175    3.073
 1210.730  102.290    0.180    3.018
 1211.550  102.899    0.190    2.910
 1212.370   99.897    0.197    2.910
 1213.190   95.695    0.197    3.075
 1214.010   90.891    0.195    3.432
 1214.830   92.100    0.193    4.517
 1215.650   90.903    0.192    5.838
 1216.470   89.707    0.190    6.637
 1217.290   89.108    0.189    6.761
 1218.110   88.512    0.187    6.639
 1218.930   89.118    0.187    6.520
 1219.750   89.125    0.187    6.403
 1220.570   87.928    0.185    6.405
 1221.390   82.523    0.184    6.405
 1222.210   75.316    0.182    6.406
 1223.030   71.714    0.184    6.526
 1223.850   67.513    0.198    6.527
 1224.670   66.916    0.210    6.897
 1225.490   67.522    0.209    7.287
 1226.310   69.332    0.193    8.285
 1227.130   69.936    0.205    8.754
 1227.950   72.349    0.218    8.755
 1228.770   73.556    0.226    8.757
 1229.590   74.162    0.231    8.758
 1230.410   77.171    0.228    8.760
 1231.230   78.980    0.220    8.143
 1232.050   81.389    0.219    7.709
 1232.870   85.002    0.220    7.571
 1233.690   88.011    0.217    7.435
 1234.510   92.825    0.214    7.436
 1235.330   96.438    0.212    7.302
 1236.150   94.038    0.211    7.438
 1236.980   86.229    0.209    7.440
 1237.800   77.218    0.207    7.306
 1238.620   70.011    0.201    6.791
 1239.440   62.803    0.216    6.793
 1240.260   57.400    0.225    7.445
 1241.080   57.405    0.230    7.866
 1241.900   57.411    0.238    8.943
 1242.720   57.415    0.245    9.983
 1243.540   57.420    0.246   11.143
 1244.360   58.026    0.244   13.384
 1245.180   59.834    0.241   13.633
 1246.000   61.643    0.241   10.749
 1246.820   65.856    0.242    6.680
 1247.640   74.276    0.238    5.266
 1248.460   75.483    0.232    4.807
 1249.280   56.855    0.211    4.635
 1250.100   49.647    0.218    5.367
 1250.920   43.641    0.226    6.101
 1251.740   44.849    0.236    6.687
 1252.560   46.660    0.240    7.743
 1253.380   49.669    0.242    8.181
 1254.200   49.674    0.249    8.804
 1255.020   48.478    0.258    8.968
 1255.840   48.484    0.265    9.135
 1256.660   48.487    0.271   10.198
 1257.480   49.697    0.270   10.974
 1258.300   50.300    0.268   10.776
 1259.120   52.109    0.266    9.836
 1259.940   55.119    0.264    8.193
 1260.760   58.732    0.259    7.209
 1261.580   61.142    0.258    6.579
 1262.400   64.152    0.252    6.345
 1263.220   68.365    0.245    6.117
 1264.040   71.976    0.236    6.007
 1264.860   72.582    0.229    6.008
 1265.680   71.986    0.231    6.120
 1266.500   69.587    0.235    6.349
 1267.320   65.986    0.233    6.468
 1268.140   66.595    0.225    6.469
 1268.960   69.003    0.216    6.470
 1269.780   72.614    0.211    6.471
 1270.600   75.025    0.204    6.127
 1271.420   74.429    0.203    5.695
 1272.240   75.035    0.205    5.491
 1273.060   75.641    0.209    5.012
 1273.880   73.842    0.212    4.659
 1274.700   63.629    0.216    4.746
 1275.520   52.214    0.215    5.107
 1276.350   45.607    0.221    5.807
 1277.170   39.601    0.252    7.103
