~VERSION INFORMATION
 VERS.                 2.0:   CWLS LOG ASCII STANDARD -VERSION 2.0
 WRAP.                  NO:   ONE LINE PER DEPTH STEP
~WELL INFORMATION BLOCK
#MNEM.UNIT           DATA                    DESCRIPTION OF MNEMONIC
#---------    -------------------            -------------------------------
# Generated from Intellog Unique Number	CS_71_72/WELL/880
WELL.         AMOCO AEC IPIATIK              : Well_name    - WELL
LOC .         00/10-34-072-06W4/0            : Location     - LOCATION
UWI .         00/10-34-072-06W4/0            : Uwi          - UNIQUE WELL ID
ENTR.         SP                             : Entered      - ENTERED BY
SRVC.         SCHLUMBERGER                   : Scn          - SERVICE COMPANY
STRT.M        325                            : top_depth    - START DEPTH
STOP.M        575                            : bot_depth    - STOP DEPTH
STEP.M        0.25                           : increment    - STEP LENGTH
 NULL. -999.2500:NULL Value
~CURVE INFORMATION BLOCK
#MNEM UNIT       ERCB CURVE CODE    CURVE DESCRIPTION
#-----------   ------------------   ----------------------------------
DEPT.M        00 001 00 00         : DEPTH        - DEPTH
ILD .OHMM     00 120 00 00         : RESD         - DEEP RESISTIVITY (DIL)
DPHI.V/V      00 890 00 00         : PHID         - DENSITY POROSITY (LIMESTONE)
NPHI.V/V      00 330 00 00         : PHIN         - NEUTRON POROSITY (LIMESTONE)
GR  .API      00 310 00 00         : GR           - GAMMA RAY
~PARAMETER INFORMATION
#MNEM.UNIT           DATA             DESCRIPTION OF MNEMONIC
#---------         -----------     ------------------------------
GL  .M        709.8                : gl           - GROUND LEVEL ELEVATION
EREF.M        714                  : kb           - ELEVATION OF DEPTH REFERENCE
DATM.M        709.8                : datum        - DATUM ELEVATION
TDD .M        588.2                : tdd          - TOTAL DEPTH DRILLER
RUN .         ONE                  : Run          - RUN NUMBER
ENG .         BILL                 : Engineer     - RECORDING ENGINEER
WIT .         JIM                  : Witness      - WITNESSED BY
MUD .         GEL                  : Mud_type     - MUD TYPE
MATR.         LIMESTONE            : Logunit      - NEUTRON MATRIX
TMAX.C        11                   : BHT          - MAXIMUM RECORDED TEMPERATURE
BHTD.M        588.2                : BHTDEP       - MAXIMUM RECORDED TEMPERATURE
MATR.         1                    : LOGUNIT      - NEUTRON MATRIX
RMT .C        25                   : MDTP         - TEMPERATURE OF MUD
NEUT.         1                    : NEUTRON      - NEUTRON TYPE
RESI.         0                    : RESIST       - RESISTIVITY TYPE
RMC .OHMM     0.25                 : RMC          - RESISTIVITY OF MUD CAKE
RMF .OHMM     0.25                 : RMF          - RESISTIVITY OF MUD FILTRATE
SUFT.C        15                   : SUFT         - SURFACE TEMPERATURE
~A  DEPTH     RESD     PHID     PHIN       GR
# ...
  455.500    1.200    0.267    0.566  104.401
  455.750    1.293    0.262    0.558  103.796
  456.000    1.529    0.263    0.552  101.971
  456.250    1.648    0.273    0.548   99.539
  456.500    1.809    0.287    0.551   98.937
  456.750    2.062    0.270    0.552   98.941
  457.000    2.394    0.259    0.530   98.337
  457.250    2.779    0.263    0.511   94.077
  457.500    3.288    0.273    0.498   91.642
  457.750    3.478    0.264    0.485   88.600
  458.000    3.610    0.242    0.470   84.949
  458.250    3.610    0.223    0.463   83.734
  458.500    3.478    0.203    0.458   83.740
  458.750    3.289    0.224    0.484   86.794
  459.000    3.289    0.258    0.507   89.853
  459.250    3.228    0.265    0.491   91.077
  459.500    3.168    0.242    0.482   92.912
  459.750    3.168    0.235    0.475   94.138
  460.000    3.168    0.230    0.507   95.362
  460.250    3.110    0.235    0.519   95.368
  460.500    2.996    0.245    0.502   95.375
  460.750    2.996    0.256    0.493   94.770
  461.000    2.996    0.236    0.480   94.777
  461.250    2.996    0.228    0.481   96.002
  461.500    2.996    0.219    0.479   98.449
  461.750    2.996    0.232    0.471  100.284
  462.000    2.996    0.243    0.470  100.900
  462.250    3.053    0.235    0.484  101.515
  462.500    3.053    0.240    0.466  101.521
  462.750    3.053    0.253    0.462  102.136
  463.000    3.053    0.252    0.459  102.142
  463.250    3.053    0.240    0.479  102.759
  463.500    3.170    0.242    0.473  103.373
  463.750    3.229    0.235    0.465   99.721
  464.000    3.352    0.224    0.462   91.800
  464.250    3.546    0.242    0.469   80.831
  464.500    3.750    0.254    0.469   76.569
  464.750    3.893    0.235    0.449   78.408
  465.000    3.893    0.218    0.441   80.243
  465.250    3.821    0.197    0.433   82.079
  465.500    3.230    0.242    0.436   83.915
  465.750    3.054    0.270    0.448   84.529
  466.000    2.782    0.288    0.492   85.751
  466.250    2.582    0.283    0.510   87.588
  466.500    2.183    0.265    0.503   88.814
  466.750    1.951    0.233    0.487   89.428
  467.000    1.778    0.216    0.485   91.265
  467.250    1.560    0.250    0.497   92.493
  467.500    1.448    0.275    0.510   93.106
  467.750    1.369    0.280    0.564   93.722
  468.000    1.344    0.289    0.549   92.507
  468.250    1.319    0.288    0.543   84.589
  468.500    1.319    0.292    0.541   83.983
  468.750    1.319    0.295    0.538   83.989
  469.000    1.319    0.305    0.545   91.315
  469.250    1.319    0.293    0.577   91.319
  469.500    1.369    0.289    0.594   92.548
  469.750    1.395    0.295    0.600   92.549
  470.000    1.421    0.294    0.593   91.946
  470.250    1.503    0.280    0.551   90.736
  470.500    1.650    0.271    0.526   89.521
  470.750    1.881    0.261    0.499   88.307
  471.000    1.989    0.261    0.481   84.656
  471.250    2.104    0.277    0.465   82.831
  471.500    2.143    0.266    0.456   84.056
  471.750    2.225    0.257    0.466   86.501
  472.000    2.353    0.284    0.466   81.020
  472.250    2.584    0.276    0.459   77.367
  472.500    2.944    0.261    0.464   73.105
  472.750    4.044    0.267    0.454   68.842
  473.000    5.555    0.303    0.433   65.190
  473.250    7.351    0.324    0.416   62.757
  473.500   11.084    0.324    0.411   61.542
  473.750   12.870    0.317    0.411   61.550
  474.000   13.868    0.339    0.420   61.556
  474.250   14.397    0.349    0.446   60.343
  474.500   14.397    0.346    0.461   59.133
  474.750   14.397    0.331    0.463   59.137
  475.000   14.132    0.317    0.463   59.142
  475.250   14.132    0.309    0.468   59.147
  475.500   14.132    0.304    0.461   60.374
  475.750   14.133    0.300    0.455   60.988
  476.000   14.133    0.306    0.449   63.436
  476.250   14.133    0.313    0.449   64.659
  476.500   14.134    0.311    0.451   60.396
  476.750   13.873    0.308    0.461   59.793
  477.000   13.616    0.311    0.473   59.799
  477.250   13.873    0.295    0.468   59.806
  477.500   14.949    0.283    0.458   60.421
  477.750   17.037    0.300    0.444   58.600
  478.000   20.922    0.254    0.422   57.995
  478.250   24.293    0.171    0.362   58.000
  478.500   26.177    0.024    0.188   58.618
  478.750   27.173    0.008    0.178   59.234
  479.000   25.694    0.011    0.196   59.237
  479.250   18.707    0.050    0.223   58.637
  479.500   16.725    0.084    0.263   58.641
  479.750   15.522    0.119    0.318   58.036
  480.000   14.677    0.216    0.345   57.433
  480.250   14.406    0.284    0.438   56.829
  480.500   14.406    0.314    0.470   56.836
  480.750   14.678    0.327    0.472   55.014
  481.000   17.043    0.325    0.455   54.409
  481.250   19.064    0.314    0.439   53.810
  481.500   22.552    0.301    0.427   53.205
  481.750   26.679    0.284    0.411   52.599
  482.000   29.842    0.045    0.162   50.776
  482.250   32.157    0.024    0.145   50.170
  482.500   32.158    0.012    0.140   47.739
  482.750   34.652    0.008    0.140   46.525
  483.000   36.649   -0.002    0.152   45.922
  483.250   38.045    0.004    0.161   45.928
  483.500   38.046    0.013    0.156   47.153
  483.750   35.310    0.003    0.162   47.767
  484.000   33.387    0.007    0.175   51.438
  484.250   31.569    0.013    0.191   53.271
  484.500   28.756    0.081    0.240   55.104
  484.750   24.309    0.179    0.300   56.939
  485.000   19.430    0.263    0.356   58.776
  485.250   16.735    0.293    0.395   60.000
  485.500   15.244    0.312    0.434   60.617
  485.750   15.244    0.319    0.451   60.016
  486.000   15.532    0.298    0.463   59.410
  486.250   15.533    0.284    0.475   58.805
  486.500   15.826    0.284    0.490   58.201
  486.750   15.826    0.315    0.490   57.598
  487.000   16.429    0.330    0.477   61.264
  487.250   16.739    0.312    0.475   63.098
  487.500   17.376    0.296    0.480   64.323
  487.750   17.704    0.291    0.498   63.719
  488.000   17.704    0.292    0.486   62.508
  488.250   17.056    0.301    0.476   63.733
  488.500   16.741    0.316    0.491   64.347
  488.750   16.432    0.321    0.507   62.525
  489.000   16.432    0.325    0.488   60.092
  489.250   16.742    0.319    0.460   58.878
  489.500   17.380    0.313    0.464   59.495
  489.750   17.708    0.298    0.468   59.499
  490.000   18.042    0.282    0.469   60.117
  490.250   18.729    0.266    0.464   60.121
  490.500   19.442    0.250    0.431   60.127
  490.750   19.809    0.236    0.416   58.917
  491.000   20.183    0.224    0.407   58.312
  491.250   19.810    0.255    0.416   57.706
  491.500   19.444    0.280    0.438   56.494
  491.750   18.732    0.297    0.464   57.112
  492.000   18.386    0.311    0.493   57.726
  492.250   19.086    0.326    0.499   58.341
  492.500   20.186    0.293    0.450   58.958
  492.750   23.005    0.225    0.422   58.354
  493.000   23.881    0.199    0.385   54.090
  493.250   23.881    0.178    0.355   52.880
  493.500   23.006    0.164    0.383   54.713
  493.750   20.569    0.200    0.411   58.988
  494.000   17.716    0.264    0.436   59.604
  494.250   17.067    0.303    0.460   59.003
  494.500   17.067    0.325    0.476   59.617
  494.750   18.051    0.338    0.492   59.623
  495.000   18.392    0.330    0.494   57.799
  495.250   18.739    0.298    0.447   55.975
  495.500   19.093    0.266    0.422   56.591
  495.750   18.393    0.249    0.417   59.646
  496.000   17.070    0.265    0.436   62.096
  496.250   16.445    0.305    0.440   62.712
  496.500   16.141    0.317    0.442   62.718
  496.750   16.142    0.300    0.440   63.333
  497.000   16.142    0.283    0.449   63.946
  497.250   15.844    0.278    0.439   65.171
  497.500   15.551    0.270    0.436   66.397
  497.750   15.264    0.282    0.445   67.014
  498.000   14.982    0.327    0.445   65.188
  498.250   14.433    0.304    0.442   60.927
  498.500   13.147    0.295    0.439   62.764
  498.750   12.431    0.303    0.443   64.597
