~VERSION INFORMATION
 VERS.                 2.0:   CWLS LOG ASCII STANDARD -VERSION 2.0
 WRAP.                  NO:   ONE LINE PER DEPTH STEP
~WELL INFORMATION BLOCK
#MNEM.UNIT           DATA                    DESCRIPTION OF MNEMONIC
#---------    -------------------            -------------------------------
# Generated from Intellog Unique Number	CC_84_87/WELL/2347
NULL.         -999.25                        : NULL_VALUE
WELL.         PETROREP ET AL HOUSE           : Well_name    - WELL              
LOC .         14-15-084-16W4                 : Location     - LOCATION          
UWI .         00/14-15-084-16W400            : Uwi          - UNIQUE WELL ID    
ENTR.         JHS                            : Entered      - ENTERED BY        
SRVC.         SCHLUMBERGER                   : Scn          - SERVICE COMPANY   
DATE.         11 MAR 80                      : Date         - LOG DATE
STRT.M        100                            : top_depth    - START DEPTH       
STOP.M        286.9                          : bot_depth    - STOP DEPTH        
STEP.M        0.3                            : increment    - STEP LENGTH       
~CURVE INFORMATION BLOCK
#MNEM UNIT       ERCB CURVE CODE    CURVE DESCRIPTION
#-----------   ------------------   ----------------------------------
DEPT.M        00 001 00 00         : DEPTH        - DEPTH                       
DPHI.V/V      00 890 00 00         : PHID         - DENSITY POROSITY (LIMESTONE)
NPHI.V/V      00 330 00 00         : PHIN         - NEUTRON POROSITY (LIMESTONE)
GR  .API      00 310 00 00         : GR           - GAMMA RAY                   
ILD .OHMM     00 120 00 00         : RESD         - DEEP RESISTIVITY (DIL)      
~PARAMETER INFORMATION       
#MNEM.UNIT           DATA             DESCRIPTION OF MNEMONIC
#---------         -----------     ------------------------------
GL  .M        528.6                : gl           - GROUND LEVEL ELEVATION      
EREF.M        531.8                : kb           - ELEVATION OF DEPTH REFERENCE
DATM.M        531.8                : datum        - DATUM ELEVATION             
TDD .M        283                  : tdd          - TOTAL DEPTH DRILLER         
RUN .         ONE                  : Run          - RUN NUMBER                  
ENG .         BILL                 : Engineer     - RECORDING ENGINEER          
WIT .         JIM                  : Witness      - WITNESSED BY                
MUD .         GEL                  : Mud_type     - MUD TYPE                    
MATR.         LIMESTONE            : Logunit      - NEUTRON MATRIX              
TMAX.C        19                   : BHT          - MAXIMUM RECORDED TEMPERATURE
BHTD.M        283                  : BHTDEP       - MAXIMUM RECORDED TEMPERATURE
MATR.         1                    : LOGUNIT      - NEUTRON MATRIX              
RMT .C        25                   : MDTP         - TEMPERATURE OF MUD          
NEUT.         1                    : NEUTRON      - NEUTRON TYPE                
RESI.         0                    : RESIST       - RESISTIVITY TYPE            
RMC .OHMM     0.25                 : RMC          - RESISTIVITY OF MUD CAKE     
RMF .OHMM     0.25                 : RMF          - RESISTIVITY OF MUD FILTRATE 
SUFT.C        15                   : SUFT         - SURFACE TEMPERATURE         
~A  DEPTH     PHID     PHIN       GR     RESD
  100.000    0.334    0.369   42.777   12.604
  100.300    0.338    0.393   45.206   14.373
  100.600    0.329    0.419   45.227   14.104
  100.900    0.334    0.406   50.672   13.583
  101.200    0.342    0.402   51.296   12.838
  101.500    0.342    0.416   55.532   11.909
  101.800    0.360    0.419   54.350   10.841
  102.100    0.326    0.426   54.371    9.869
  102.400    0.321    0.458   51.983    8.653
  102.700    0.297    0.443   49.592    7.731
  103.000    0.292    0.451   61.061    6.778
  103.300    0.335    0.493   71.927    5.833
  103.600    0.304    0.518   81.586    5.114
  103.900    0.336    0.533   76.790    4.484
  104.200    0.319    0.451   84.039    3.931
  104.500    0.327    0.475   94.302    3.320
  104.800    0.366    0.525  101.554    3.022
  105.100    0.383    0.562   96.754    2.803
  105.400    0.374    0.552   90.147    2.751
  105.700    0.259    0.510   82.940    3.511
  106.000    0.260    0.448   76.335    4.830
  106.300    0.274    0.419   78.165    7.031
  106.600    0.305    0.419   84.814    9.143
  106.900    0.289    0.426   89.652   10.041
  107.200    0.262    0.441   90.880    9.491
  107.500    0.293    0.426   87.888    9.314
  107.800    0.287    0.409   84.903   10.822
  108.100    0.301    0.409   87.333   12.340
  108.400    0.270    0.412   93.374   12.811
  108.700    0.260    0.395   95.202   12.108
  109.000    0.266    0.402   91.006   12.570
  109.300    0.271    0.405   88.016   13.050
  109.600    0.289    0.402   88.641   13.296
  109.900    0.317    0.409   90.474   13.048
  110.200    0.302    0.414   92.900   12.103
  110.500    0.277    0.408   96.536   11.227
  110.800    0.250    0.423   96.555   10.030
  111.100    0.250    0.414   89.348    9.659
  111.400    0.250    0.392   78.526   10.028
  111.700    0.252    0.394   80.959   10.411
  112.000    0.247    0.404   88.208   10.216
  112.300    0.214    0.409   96.061    9.300
  112.600    0.226    0.428  102.707    7.150
  112.900    0.236    0.468  108.150    6.038
  113.200    0.252    0.479  105.765    5.497
  113.500    0.275    0.487  102.772    5.394
  113.800    0.232    0.476  100.383    5.496
  114.100    0.187    0.493   99.198    5.599
  114.400    0.165    0.476  102.233    5.705
  114.700    0.191    0.468  107.679    5.598
  115.000    0.197    0.481  111.312    5.193
  115.300    0.207    0.486  108.323    4.727
  115.600    0.243    0.490  108.341    3.918
  115.900    0.282    0.514  105.953    3.773
  116.200    0.301    0.496   98.743    3.917
  116.500    0.296    0.431   88.525    5.289
  116.800    0.279    0.417   83.124    8.144
  117.100    0.282    0.423   85.554   11.204
  117.400    0.276    0.420   92.208   11.415
  117.700    0.265    0.425   97.042   10.994
  118.000    0.257    0.433   95.859    9.822
  118.300    0.234    0.444  101.303    9.111
  118.600    0.252    0.455   98.316    8.774
  118.900    0.279    0.456   92.911    8.610
  119.200    0.306    0.470   85.703    9.108
  119.500    0.341    0.479   76.084   11.196
  119.800    0.369    0.440   62.249   14.836
  120.100    0.281    0.386   57.451   16.918
  120.400    0.269    0.381   60.487   17.563
  120.700    0.284    0.399   60.508   18.233
  121.000    0.283    0.400   59.321   18.577
  121.300    0.304    0.384   61.757   20.403
  121.600    0.345    0.371   61.174   21.992
  121.900    0.360    0.364   63.602   24.612
  122.200    0.351    0.374   63.626   26.035
  122.500    0.345    0.395   62.440   26.526
  122.800    0.332    0.418   61.858   26.523
  123.100    0.317    0.417   60.074   26.028
  123.400    0.337    0.430   61.298   25.542
  123.700    0.347    0.437   60.121   26.517
  124.000    0.345    0.419   58.330   27.529
  124.300    0.339    0.398   59.557   27.525
  124.600    0.357    0.387   61.386   27.523
  124.900    0.350    0.390   62.009   26.014
  125.200    0.345    0.397   62.029   25.053
  125.500    0.341    0.410   65.064   24.128
  125.800    0.350    0.429   63.879   23.677
  126.100    0.343    0.428   62.092   23.675
  126.400    0.331    0.427   59.106   23.673
  126.700    0.334    0.421   57.918   24.119
  127.000    0.334    0.389   57.336   24.574
  127.300    0.337    0.404   59.164   25.037
  127.600    0.337    0.431   59.186   25.992
  127.900    0.335    0.427   55.595   26.483
  128.200    0.354    0.427   59.230   25.988
  128.500    0.350    0.439   58.648   25.503
  128.800    0.360    0.444   56.862   26.476
  129.100    0.372    0.418   59.300   27.486
  129.400    0.364    0.418   62.325   28.004
  129.700    0.349    0.429   69.578   27.481
  130.000    0.338    0.432   65.380   26.968
  130.300    0.334    0.436   61.190   26.464
  130.600    0.331    0.424   64.824   25.013
  130.900    0.321    0.413   69.666   23.201
  131.200    0.334    0.419   73.297   21.929
  131.500    0.326    0.412   71.512   21.119
  131.800    0.307    0.417   72.739   20.339
  132.100    0.324    0.429   69.750   19.224
  132.400    0.324    0.435   67.960   19.222
  132.700    0.324    0.430   68.591   19.955
  133.000    0.340    0.437   68.008   21.510
  133.300    0.341    0.425   67.422   22.754
  133.600    0.319    0.415   68.048   22.751
  133.900    0.317    0.425   69.271   22.326
  134.200    0.324    0.425   70.501   21.502
  134.500    0.336    0.425   71.728   21.100
  134.800    0.331    0.419   69.941   21.098
  135.100    0.346    0.413   67.552   21.496
  135.400    0.354    0.409   65.766   21.494
  135.700    0.357    0.417   66.993   21.092
  136.000    0.353    0.434   67.013   21.090
  136.300    0.358    0.423   67.638   20.311
  136.600    0.359    0.435   72.477   18.490
  136.900    0.342    0.444   76.110   16.832
  137.200    0.337    0.457   72.517   15.613
  137.500    0.345    0.469   74.345   15.612
  137.800    0.356    0.435   73.764   16.515
  138.100    0.332    0.421   66.556   17.145
  138.400    0.320    0.416   57.541   18.137
  138.700    0.310    0.397   52.744   19.186
  139.000    0.315    0.382   49.750   21.072
  139.300    0.337    0.385   49.176   23.143
  139.600    0.337    0.391   51.004   26.890
  139.900    0.340    0.394   49.215   29.532
  140.200    0.339    0.392   49.839   30.090
  140.500    0.349    0.392   49.862   31.238
  140.800    0.336    0.395   49.882   31.828
  141.100    0.325    0.389   51.709   32.428
  141.400    0.327    0.385   53.539   33.040
  141.700    0.344    0.385   54.764   33.663
  142.000    0.346    0.399   53.580   34.947
  142.300    0.346    0.394   53.600   35.606
  142.600    0.345    0.377   53.625   36.278
  142.900    0.331    0.363   52.438   36.273
  143.200    0.328    0.375   50.652   35.596
  143.500    0.335    0.386   51.876   34.281
  143.800    0.331    0.383   55.514   33.016
  144.100    0.329    0.392   54.933   32.398
  144.400    0.343    0.382   54.353   31.793
  144.700    0.359    0.392   56.784   31.791
  145.000    0.355    0.405   58.613   30.616
  145.300    0.341    0.404   56.825   30.614
  145.600    0.322    0.387   53.833   30.041
  145.900    0.319    0.375   53.255   30.039
  146.200    0.305    0.372   54.477   28.930
  146.500    0.325    0.394   58.114   27.343
  146.800    0.332    0.416   59.941   26.333
  147.100    0.332    0.435   57.555   24.889
  147.400    0.346    0.424   59.383   23.970
  147.700    0.335    0.411   64.223   22.234
  148.000    0.306    0.429   70.269   21.413
  148.300    0.295    0.439   66.675   21.816
  148.600    0.350    0.418   58.864   23.078
  148.900    0.353    0.397   57.682   25.347
  149.201    0.347    0.392   60.721   27.320
  149.501    0.351    0.413   61.337   27.836
  149.801    0.356    0.432   60.764   28.360
  150.101    0.354    0.416   58.372   27.831
  150.401    0.357    0.398   55.377   27.311
  150.701    0.348    0.396   54.798   27.308
  151.001    0.349    0.397   54.817   27.823
  151.301    0.347    0.415   53.633   27.304
  151.601    0.346    0.445   53.656   26.294
  151.901    0.335    0.428   56.086   25.324
