~VERSION INFORMATION
 VERS.                 2.0:   CWLS LOG ASCII STANDARD -VERSION 2.0
 WRAP.                  NO:   ONE LINE PER DEPTH STEP
~WELL INFORMATION BLOCK
#MNEM.UNIT           DATA                    DESCRIPTION OF MNEMONIC
#---------    -------------------            -------------------------------
# Generated from Intellog Unique Number	CS_71_72/WELL/903
WELL.         BVX HOL UNIGAS NIXON           : Well_name    - WELL
LOC .         00/11-24-072-15W4/0            : Location     - LOCATION
UWI .         00/11-24-072-15W4/0            : Uwi          - UNIQUE WELL ID
ENTR.         SP                             : Entered      - ENTERED BY
SRVC.         SCHLUMBERGER                   : Scn          - SERVICE COMPANY
STRT.M        274.32                         : top_depth    - START DEPTH
STOP.M        469.82                         : bot_depth    - STOP DEPTH
STEP.M        0.25                           : increment    - STEP LENGTH
 NULL. -999.2500:NULL Value
~CURVE INFORMATION BLOCK
#MNEM UNIT       ERCB CURVE CODE    CURVE DESCRIPTION
#-----------   ------------------   ----------------------------------
DEPT.M        00 001 00 00         : DEPTH        - DEPTH
GR  .API      00 310 00 00         : GR           - GAMMA RAY
DPHI.V/V      00 890 00 00         : PHID         - DENSITY POROSITY (SANDSTONE)
NPHI.V/V      00 330 00 00         : PHIN         - NEUTRON POROSITY (SANDSTONE)
ILD .OHMM     00 120 00 00         : RESD         - DEEP RESISTIVITY (DIL)
~PARAMETER INFORMATION
#MNEM.UNIT           DATA             DESCRIPTION OF MNEMONIC
#---------         -----------     ------------------------------
GL  .M        601.98               : gl           - GROUND LEVEL ELEVATION
EREF.M        605.028              : kb           - ELEVATION OF DEPTH REFERENCE
DATM.M        601.98               : datum        - DATUM ELEVATION
TDD .M        472.745              : tdd          - TOTAL DEPTH DRILLER
RUN .         ONE                  : Run          - RUN NUMBER
ENG .         BILL                 : Engineer     - RECORDING ENGINEER
WIT .         JIM                  : Witness      - WITNESSED BY
MUD .         GEL                  : Mud_type     - MUD TYPE
MATR.         SANDSTONE            : Logunit      - NEUTRON MATRIX
TMAX.C        20.5556              : BHT          - MAXIMUM RECORDED TEMPERATURE
BHTD.M        472.745              : BHTDEP       - MAXIMUM RECORDED TEMPERATURE
MATR.         1                    : LOGUNIT      - NEUTRON MATRIX
RMT .C        25                   : MDTP         - TEMPERATURE OF MUD
NEUT.         1                    : NEUTRON      - NEUTRON TYPE
RESI.         0                    : RESIST       - RESISTIVITY TYPE
RMC .OHMM     0.25                 : RMC          - RESISTIVITY OF MUD CAKE
RMF .OHMM     0.25                 : RMF          - RESISTIVITY OF MUD FILTRATE
SUFT.C        15                   : SUFT         - SURFACE TEMPERATURE
~A  DEPTH       GR     PHID     PHIN     RESD
  274.320   97.618    0.357    0.602    2.642
  274.570   93.394    0.351    0.597    2.707
  274.820   90.868    0.352    0.589    2.808
  275.070   91.011    0.350    0.585    2.900
  275.320   93.285    0.345    0.584    2.873
  275.570   95.415    0.340    0.603    2.848
  275.820   96.352    0.339    0.614    2.809
  276.070   97.079    0.340    0.623    2.758
  276.320   96.967    0.342    0.626    2.708
  276.570   95.403    0.336    0.610    2.715
  276.820   94.639    0.331    0.603    2.717
  277.070   94.700    0.327    0.600    2.720
  277.320   94.679    0.336    0.609    2.759
  277.570   95.729    0.347    0.626    2.775
  277.820   96.499    0.352    0.624    2.779
  278.070   97.470    0.348    0.607    2.778
  278.320   98.371    0.343    0.595    2.854
  278.570   97.777    0.340    0.583    2.846
  278.820   96.587    0.346    0.581    2.896
  279.070   93.848    0.348    0.596    3.014
  279.320   90.935    0.342    0.605    3.105
  279.570   88.234    0.339    0.569    3.267
  279.820   86.356    0.340    0.540    3.434
  280.070   87.716    0.344    0.532    3.603
  280.320   89.818    0.348    0.535    3.562
  280.570   91.804    0.354    0.549    3.437
  280.820   90.608    0.357    0.568    3.306
  281.070   90.341    0.361    0.564    3.123
  281.320   91.801    0.367    0.563    3.038
  281.570   91.847    0.357    0.579    2.942
  281.820   90.991    0.349    0.587    2.999
  282.070   89.511    0.343    0.591    3.088
  282.320   88.346    0.335    0.573    3.287
  282.570   90.208    0.344    0.559    3.335
  282.820   91.628    0.353    0.545    3.244
  283.070   93.385    0.348    0.542    3.099
  283.320   88.062    0.388    0.573    3.178
  283.570   78.719    0.404    0.598    3.330
  283.820   74.335    0.373    0.595    3.622
  284.070   72.264    0.273    0.527    3.890
  284.320   72.933    0.173    0.559    4.128
  284.570   70.231    0.382    0.615    4.496
  284.820   65.876    0.435    0.552    4.531
  285.070   63.280    0.428    0.475    4.559
  285.320   61.867    0.376    0.458    4.810
  285.570   64.453    0.349    0.472    4.895
  285.820   66.340    0.336    0.487    4.656
  286.070   67.570    0.337    0.480    4.639
  286.320   68.199    0.339    0.475    4.946
  286.570   67.456    0.331    0.472    5.097
  286.820   67.525    0.328    0.479    4.995
  287.070   68.264    0.339    0.482    4.997
  287.320   70.437    0.344    0.477    5.149
  287.570   75.718    0.335    0.478    5.483
  287.820   79.407    0.328    0.476    5.602
  288.070   83.048    0.323    0.462    5.587
  288.320   86.474    0.321    0.454    5.509
  288.570   87.909    0.330    0.447    5.564
  288.820   87.812    0.351    0.506    5.609
  289.070   87.826    0.398    0.549    5.529
  289.320   88.031    0.444    0.574    5.355
  289.570   89.076    0.442    0.557    5.043
  289.820   88.490    0.426    0.550    4.698
  290.070   80.126    0.410    0.559    4.313
  290.320   65.339    0.404    0.530    4.072
  290.570   52.723    0.371    0.499    3.886
  290.820   51.508    0.366    0.460    3.711
  291.070   60.124    0.372    0.426    3.666
  291.320   63.854    0.366    0.468    3.590
  291.570   64.861    0.370    0.481    3.603
  291.820   61.181    0.372    0.494    3.783
  292.070   61.889    0.374    0.506    3.904
  292.320   64.344    0.373    0.512    4.114
  292.570   69.903    0.371    0.493    4.239
  292.820   74.461    0.366    0.484    4.373
  293.070   76.627    0.356    0.477    4.511
  293.320   77.468    0.352    0.474    4.633
  293.570   76.111    0.351    0.459    4.706
  293.820   61.053    0.343    0.451    4.783
  294.070   50.312    0.332    0.450    4.655
  294.320   42.100    0.320    0.453    4.421
  294.570   35.765    0.310    0.430    4.373
  294.820   31.610    0.307    0.407    4.372
  295.070   43.213    0.323    0.386    4.476
  295.320   57.685    0.343    0.377    4.692
  295.570   64.911    0.334    0.376    4.889
  295.820   70.818    0.319    0.415    5.099
  296.070   75.381    0.320    0.443    5.184
  296.320   75.379    0.334    0.460    5.277
  296.570   71.318    0.327    0.459    5.108
  296.820   71.122    0.318    0.441    5.023
  297.070   71.497    0.356    0.437    4.920
  297.320   70.866    0.374    0.460    5.025
  297.570   67.540    0.393    0.471    5.031
  297.820   64.962    0.337    0.460    5.028
  298.070   59.776    0.295    0.476    4.883
  298.320   57.161    0.281    0.446    4.612
  298.570   54.556    0.322    0.443    4.354
  298.820   52.977    0.320    0.451    4.236
  299.070   52.962    0.313    0.450    4.136
  299.320   52.297    0.329    0.444    4.145
  299.570   53.057    0.343    0.438    4.199
  299.820   57.474    0.340    0.434    4.341
  300.070   64.165    0.331    0.439    4.392
  300.320   67.348    0.340    0.473    4.489
  300.570   72.026    0.386    0.507    4.485
  300.820   75.377    0.437    0.584    4.487
  301.070   76.923    0.506    0.647    4.448
  301.320   76.235    0.565    0.653    4.403
  301.570   81.364    0.591    0.664    4.127
  301.820   85.360    0.613    0.668    4.119
  302.070   86.877    0.599    0.656    4.124
  302.320   83.842    0.585    0.663    4.136
  302.570   83.406    0.577    0.674    4.192
  302.820   83.344    0.562    0.662    4.055
  303.070   86.534    0.550    0.649    3.898
  303.320   90.431    0.528    0.634    3.674
  303.570   94.550    0.566    0.627    3.400
  303.820   98.863    0.547    0.653    3.198
  304.070  100.969    0.483    0.662    3.081
  304.320  103.481    0.463    0.665    3.132
  304.570  104.495    0.456    0.661    3.464
  304.820  105.488    0.504    0.651    3.835
  305.070  106.154    0.511    0.637    4.195
  305.320  103.248    0.506    0.615    4.791
  305.570  100.003    0.496    0.585    5.119
  305.820  100.701    0.424    0.527    5.368
  306.070  102.111    0.352    0.496    5.655
  306.320  101.333    0.310    0.541    5.825
  306.570   96.518    0.378    0.574    5.842
  306.820   94.481    0.445    0.586    5.721
  307.070   94.038    0.449    0.538    5.748
  307.320   94.673    0.368    0.539    5.653
  307.570   91.405    0.347    0.582    5.434
  307.820   88.636    0.428    0.605    5.290
  308.070   85.465    0.472    0.625    5.090
  308.320   83.971    0.490    0.601    4.786
  308.570   85.356    0.505    0.592    4.516
  308.820   87.529    0.531    0.608    4.298
  309.070   88.851    0.482    0.626    4.316
  309.320   91.247    0.445    0.623    4.369
  309.570   95.147    0.447    0.606    4.521
  309.820   96.560    0.424    0.590    4.907
  310.070   94.359    0.403    0.619    5.214
  310.320   91.393    0.375    0.594    5.529
  310.570   90.044    0.415    0.568    5.795
  310.820   89.000    0.406    0.557    5.985
  311.070   85.587    0.354    0.539    6.167
  311.320   81.236    0.335    0.525    6.264
  311.570   76.415    0.326    0.506    6.295
  311.820   78.264    0.326    0.495    6.177
  312.070   80.276    0.333    0.501    5.991
  312.320   83.956    0.325    0.501    5.970
  312.570   87.063    0.323    0.489    6.086
  312.820   89.704    0.329    0.497    6.281
  313.070   91.830    0.332    0.504    6.484
  313.320   91.695    0.329    0.502    6.575
  313.570   88.330    0.325    0.503    6.591
  313.820   90.878    0.328    0.512    6.445
  314.070   93.376    0.332    0.508    6.261
  314.320   96.589    0.344    0.524    6.075
  314.570   99.845    0.383    0.566    6.030
  314.820  102.302    0.417    0.575    6.034
  315.070  104.887    0.359    0.552    6.033
  315.320  104.444    0.315    0.529    6.162
  315.570  104.983    0.313    0.527    6.353
  315.820  100.111    0.344    0.542    6.524
  316.070   84.410    0.416    0.570    6.640
  316.320   81.508    0.319    0.583    6.787
  316.570   77.809    0.218    0.531    6.791
  316.820   81.300    0.173    0.472    6.689
  317.070   87.615    0.226    0.513    6.546
  317.320   92.315    0.263    0.473    6.560
  317.570   96.388    0.276    0.447    6.570
