~VERSION INFORMATION
 VERS.                 2.0:   CWLS LOG ASCII STANDARD -VERSION 2.0
 WRAP.                  NO:   ONE LINE PER DEPTH STEP
~WELL INFORMATION BLOCK
#MNEM.UNIT           DATA                    DESCRIPTION OF MNEMONIC
#---------    -------------------            -------------------------------
# Generated from Intellog Unique Number	CS_67_68/WELL/838
WELL.         FISHER CREEK                   : Well_name    - WELL
LOC .         00/11-16-068-05W4/0            : Location     - LOCATION
UWI .         00/11-16-068-05W4/0            : Uwi          - UNIQUE WELL ID
ENTR.         SP                             : Entered      - ENTERED BY
SRVC.         SCHLUMBERGER                   : Scn          - SERVICE COMPANY
STRT.M        335                            : top_depth    - START DEPTH
STOP.M        555                            : bot_depth    - STOP DEPTH
STEP.M        0.25                           : increment    - STEP LENGTH
 NULL. -999.2500:NULL Value
~CURVE INFORMATION BLOCK
#MNEM UNIT       ERCB CURVE CODE    CURVE DESCRIPTION
#-----------   ------------------   ----------------------------------
DEPT.M        00 001 00 00         : DEPTH        - DEPTH
ILD .OHMM     00 120 00 00         : RESD         - DEEP RESISTIVITY (DIL)
DPHI.V/V      00 890 00 00         : PHID         - DENSITY POROSITY (LIMESTONE)
NPHI.V/V      00 330 00 00         : PHIN         - NEUTRON POROSITY (LIMESTONE)
GR  .API      00 310 00 00         : GR           - GAMMA RAY
~PARAMETER INFORMATION
#MNEM.UNIT           DATA             DESCRIPTION OF MNEMONIC
#---------         -----------     ------------------------------
GL  .M        683.92               : gl           - GROUND LEVEL ELEVATION
EREF.M        687.58               : kb           - ELEVATION OF DEPTH REFERENCE
DATM.M        683.92               : datum        - DATUM ELEVATION
TDD .M        568                  : tdd          - TOTAL DEPTH DRILLER
RUN .         ONE                  : Run          - RUN NUMBER
ENG .         BILL                 : Engineer     - RECORDING ENGINEER
WIT .         JIM                  : Witness      - WITNESSED BY
MUD .         GEL                  : Mud_type     - MUD TYPE
MATR.         LIMESTONE            : Logunit      - NEUTRON MATRIX
TMAX.C        24                   : BHT          - MAXIMUM RECORDED TEMPERATURE
BHTD.M        568                  : BHTDEP       - MAXIMUM RECORDED TEMPERATURE
MATR.         1                    : LOGUNIT      - NEUTRON MATRIX
RMT .C        25                   : MDTP         - TEMPERATURE OF MUD
NEUT.         1                    : NEUTRON      - NEUTRON TYPE
RESI.         0                    : RESIST       - RESISTIVITY TYPE
RMC .OHMM     0.25                 : RMC          - RESISTIVITY OF MUD CAKE
RMF .OHMM     0.25                 : RMF          - RESISTIVITY OF MUD FILTRATE
SUFT.C        15                   : SUFT         - SURFACE TEMPERATURE
~A  DEPTH     RESD     PHID     PHIN       GR
# ...
  378.500    6.289    0.294    0.520   77.065
  378.750    6.256    0.287    0.520   78.278
  379.000    6.223    0.283    0.532   79.915
  379.250    6.236    0.285    0.527   83.249
  379.500    6.308    0.291    0.518   86.462
  379.750    6.393    0.291    0.538   81.191
  380.000    6.468    0.284    0.523   77.616
  380.250    6.543    0.282    0.489   75.192
  380.500    6.607    0.292    0.457   73.678
  380.750    6.646    0.302    0.431   76.709
  381.000    6.672    0.303    0.414   79.134
  381.250    6.725    0.307    0.430   81.256
  381.500    6.764    0.300    0.447   81.500
  381.750    6.792    0.287    0.465   78.955
  382.000    6.819    0.273    0.482   76.471
  382.250    6.821    0.265    0.473   74.412
  382.500    6.772    0.281    0.455   77.079
  382.750    6.748    0.283    0.464   76.353
  383.000    6.776    0.279    0.467   72.232
  383.250    6.778    0.298    0.459   68.294
  383.500    6.843    0.328    0.469   65.446
  383.750    6.962    0.345    0.496   61.144
  384.000    7.109    0.339    0.498   58.236
  384.250    7.219    0.319    0.457   60.055
  384.500    7.235    0.319    0.461   64.298
  384.750    7.088    0.324    0.483   60.117
  385.000    6.765    0.326    0.482   56.603
  385.250    6.641    0.342    0.470   53.331
  385.500    6.630    0.352    0.462   50.969
  385.750    6.657    0.358    0.459   51.576
  386.000    6.646    0.355    0.456   54.122
  386.250    6.636    0.349    0.455   53.274
  386.500    6.625    0.351    0.451   49.518
  386.750    6.614    0.347    0.448   49.337
  387.000    6.629    0.342    0.457   55.701
  387.250    6.643    0.340    0.467   59.884
  387.500    6.670    0.347    0.464   61.036
  387.750    6.684    0.356    0.457   59.158
  388.000    6.724    0.354    0.455   57.038
  388.250    6.764    0.349    0.449   56.009
  388.500    6.817    0.346    0.451   55.040
  388.750    6.870    0.346    0.477   54.617
  389.000    6.885    0.347    0.497   54.739
  389.250    6.912    0.346    0.473   53.770
  389.500    7.032    0.334    0.467   53.589
  389.750    7.141    0.339    0.480   57.832
  390.000    7.251    0.345    0.476   62.257
  390.250    7.308    0.333    0.485   65.592
  390.500    7.200    0.323    0.497   66.562
  390.750    7.055    0.312    0.503   64.078
  391.000    6.887    0.294    0.508   62.625
  391.250    6.837    0.289    0.492   64.686
  391.500    6.839    0.304    0.483   66.930
  391.750    6.828    0.309    0.478   68.445
  392.000    6.830    0.304    0.477   68.810
  392.250    6.844    0.305    0.480   66.811
  392.500    6.846    0.317    0.481   65.115
  392.750    6.874    0.321    0.478   66.388
  393.000    6.889    0.312    0.481   69.177
  393.250    6.878    0.318    0.489   71.663
  393.500    6.893    0.312    0.496   70.876
  393.750    6.894    0.300    0.487   68.877
  394.000    6.909    0.282    0.464   67.363
  394.250    6.898    0.291    0.442   66.151
  394.500    6.913    0.316    0.510   63.910
  394.750    6.941    0.334    0.528   57.123
  395.000    6.956    0.344    0.490   55.669
  395.250    6.997    0.357    0.467   58.155
  395.500    6.999    0.326    0.474   59.974
  395.750    6.988    0.294    0.459   57.429
  396.000    6.977    0.291    0.438   54.703
  396.250    6.926    0.296    0.452   60.522
  396.500    6.735    0.294    0.522   66.462
  396.750    6.098    0.291    0.517   62.948
  397.000    6.054    0.308    0.488   52.343
  397.250    6.566    0.378    0.444   46.041
  397.500    7.822    0.608    0.563   39.254
  397.750    9.389    0.631    0.598   31.679
  398.000   11.102    0.690    0.634   27.438
  398.250   12.292    0.678    0.659   28.954
  398.500   13.057    0.671    0.675   31.742
  398.750   13.334    0.667    0.709   34.350
  399.000   12.701    0.670    0.722   34.835
  399.250   12.031    0.674    0.704   34.169
  399.500   11.482    0.684    0.687   33.504
  399.750   11.229    0.689    0.704   35.686
  400.000   11.065    0.692    0.720   36.354
  400.250   11.068    0.695    0.736   35.567
  400.500   11.156    0.697    0.721   32.295
  400.750   11.220    0.697    0.713   28.720
  401.000   11.371    0.698    0.732   25.630
  401.250   11.810    0.697    0.754   23.934
  401.500   12.336    0.696    0.773   22.480
  401.750   12.691    0.686    0.786   21.330
  402.000   13.010    0.680    0.761   21.270
  402.250   13.087    0.684    0.741   23.210
  402.500   12.870    0.676    0.743   27.575
  402.750   12.516    0.665    0.752   31.515
  403.000   12.012    0.651    0.753   36.183
  403.250   10.203    0.636    0.749   41.214
  403.500    8.084    0.610    0.631   48.306
  403.750    7.089    0.440    0.577   56.488
  404.000    6.627    0.389    0.530   60.671
  404.250    6.265    0.369    0.501   59.157
  404.500    6.036    0.355    0.484   56.006
  404.750    5.903    0.365    0.484   52.250
  405.000    5.838    0.371    0.480   50.190
  405.250    5.796    0.376    0.468   49.645
  405.500    5.754    0.384    0.459   48.858
  405.750    5.649    0.382    0.453   47.768
  406.000    5.566    0.381    0.451   47.102
  406.250    5.515    0.383    0.443   47.952
  406.500    5.466    0.380    0.439   49.104
  406.750    5.477    0.374    0.450   50.681
  407.000    5.489    0.380    0.485   51.955
  407.250    5.532    0.377    0.511   52.501
  407.500    5.533    0.362    0.528   50.078
  407.750    5.535    0.336    0.528   49.048
  408.000    5.567    0.342    0.508   51.898
  408.250    5.611    0.362    0.471   55.172
  408.500    5.644    0.376    0.471   56.324
  408.750    5.593    0.379    0.485   57.112
  409.000    5.521    0.373    0.500   57.053
  409.250    5.471    0.366    0.484   57.781
  409.500    5.442    0.358    0.484   58.024
  409.750    5.433    0.361    0.480   57.237
  410.000    5.404    0.368    0.456   55.541
  410.250    5.375    0.373    0.455   53.118
  410.500    5.308    0.374    0.469   50.209
  410.750    5.279    0.374    0.482   49.120
  411.000    5.231    0.376    0.483   51.969
  411.250    5.183    0.379    0.470   54.152
  411.500    5.155    0.370    0.461   54.516
  411.750    5.099    0.365    0.483   54.941
  412.000    5.061    0.361    0.496   57.366
  412.250    4.997    0.355    0.477   61.064
  412.500    4.951    0.335    0.461   65.429
  412.750    4.906    0.309    0.487   68.399
  413.000    4.871    0.291    0.510   70.582
  413.250    4.836    0.303    0.519   70.947
  413.500    4.828    0.322    0.500   69.493
  413.750    4.848    0.339    0.486   67.070
  414.000    4.895    0.353    0.490   58.343
  414.250    4.924    0.361    0.490   55.314
  414.500    4.926    0.339    0.488   54.103
  414.750    4.946    0.306    0.505   56.589
  415.000    4.966    0.297    0.511   58.892
  415.250    4.967    0.299    0.500   61.075
  415.500    4.978    0.303    0.488   63.015
  415.750    4.988    0.310    0.478   64.289
  416.000    5.055    0.312    0.465   65.926
  416.250    5.085    0.304    0.453   67.139
  416.500    5.125    0.298    0.461   67.322
  416.750    5.155    0.305    0.467   69.565
  417.000    5.205    0.312    0.471   70.596
  417.250    5.266    0.311    0.476   71.022
  417.500    5.347    0.310    0.479   69.931
  417.750    5.450    0.313    0.467   69.266
  418.000    5.534    0.314    0.463   67.570
  418.250    5.556    0.322    0.475   64.783
  418.500    5.537    0.335    0.489   61.996
  418.750    5.497    0.345    0.500   60.481
  419.000    5.499    0.354    0.487   59.513
  419.250    5.542    0.356    0.450   58.604
  419.500    5.638    0.345    0.433   58.909
  419.750    5.725    0.338    0.444   59.697
  420.000    5.803    0.334    0.454   60.547
  420.250    5.848    0.334    0.460   57.093
  420.500    5.871    0.341    0.450   58.852
  420.750    5.774    0.341    0.433   60.307
  421.000    5.733    0.334    0.418   61.277
  421.250    5.691    0.330    0.434   60.612
  421.500    5.629    0.328    0.458   59.097
  421.750    5.547    0.329    0.478   58.795
