~VERSION INFORMATION
 VERS.                 2.0:   CWLS LOG ASCII STANDARD -VERSION 2.0
 WRAP.                  NO:   ONE LINE PER DEPTH STEP
~WELL INFORMATION BLOCK
#MNEM.UNIT           DATA                    DESCRIPTION OF MNEMONIC
#---------    -------------------            -------------------------------
# Generated from Intellog Unique Number	CN_91_93/WELL/2745
NULL.         -999.2500                      : Null_value
WELL.         11-10-093-18W4                 : Well_name    - WELL              
LOC .         00/11-10-093-18W4/0            : Location     - LOCATION          
UWI .         00/11-10-093-18W400            : Uwi          - UNIQUE WELL ID    
ENTR.         JOETTE                         : Entered      - ENTERED BY        
SRVC.         SCHLUMBERGER                   : Scn          - SERVICE COMPANY   
DATE.         03/23/92                       : Date         - LOG DATE          
STRT.M        110                            : top_depth    - START DEPTH       
STOP.M        250                            : bot_depth    - STOP DEPTH        
STEP.M        0.25                           : increment    - STEP LENGTH       
~CURVE INFORMATION BLOCK
#MNEM UNIT       ERCB CURVE CODE    CURVE DESCRIPTION
#-----------   ------------------   ----------------------------------
DEPT.M        00 001 00 00         : DEPTH        - DEPTH                       
CALI.MM       00 280 01 00         : CAL          - CALIPER                     
GR  .API      00 310 00 00         : GR           - GAMMA RAY                   
NPHI.V/V      00 330 00 00         : PHIN         - NEUTRON POROSITY (SANDSTONE)
DPHI.V/V      00 890 00 00         : PHID         - DENSITY POROSITY (SANDSTONE)
ILD .OHMM     00 120 00 00         : RESD         - DEEP RESISTIVITY (DIL)      
~PARAMETER INFORMATION       
#MNEM.UNIT           DATA             DESCRIPTION OF MNEMONIC
#---------         -----------     ------------------------------
GL  .M        515.7                : gl           - GROUND LEVEL ELEVATION      
EREF.M        518.7                : kb           - ELEVATION OF DEPTH REFERENCE
DATM.M        518.7                : datum        - DATUM ELEVATION             
TDD .M        252.7                : tdd          - TOTAL DEPTH DRILLER         
RUN .         ONE                  : Run          - RUN NUMBER                  
ENG .         BILL                 : Engineer     - RECORDING ENGINEER          
WIT .         JIM                  : Witness      - WITNESSED BY                
MUD .         GEL                  : Mud_type     - MUD TYPE                    
MATR.         SANDSTONE            : Logunit      - NEUTRON MATRIX              
TMAX.C        24                   : BHT          - MAXIMUM RECORDED TEMPERATURE
BHTD.M        252.7                : BHTDEP       - MAXIMUM RECORDED TEMPERATURE
RMT .C        23                   : MDTP         - TEMPERATURE OF MUD          
MUDD.KG/M     1130                 : MWT          - MUD DENSITY                 
NEUT.         1                    : NEUTRON      - NEUTRON TYPE                
RESI.         0                    : RESIST       - RESISTIVITY TYPE            
RM  .OHMM     3.8                  : RM           - RESISTIVITY OF MUD          
RMC .OHMM     3.66                 : RMC          - RESISTIVITY OF MUD CAKE     
RMF .OHMM     3.66                 : RMF          - RESISTIVITY OF MUD FILTRATE 
SUFT.C        4                    : SUFT         - SURFACE TEMPERATURE         
~A  DEPTH      CAL       GR     PHIN     PHID     RESD
# ...
  183.000  220.610  106.221    0.412    0.198    9.271
  183.250  221.166  106.257    0.406    0.205    8.464
  183.500  221.232  106.582    0.412    0.205    8.093
  183.750  221.232  117.038    0.427    0.201    8.556
  184.000  221.345  101.583    0.435    0.175    9.049
  184.250  220.392   96.250    0.439    0.148    8.809
  184.500  218.956   87.347    0.396    0.111    8.345
  184.750  217.017   88.273    0.356    0.050    8.275
  185.000  216.581  100.221    0.290    0.052    8.831
  185.250  218.116  105.618    0.289    0.089   10.713
  185.500  219.175  106.242    0.328    0.168   13.360
  185.750  219.711  108.064    0.357    0.205   14.387
  186.000  220.267  109.287    0.366    0.213   14.935
  186.250  220.817  108.128    0.366    0.198   14.812
  186.500  220.817  105.186    0.360    0.200   14.034
  186.750  220.950  105.511    0.366    0.199   13.173
  187.000  220.976  108.228    0.364    0.195   12.708
  187.250  220.533  107.660    0.355    0.199   12.373
  187.500  220.533  106.500    0.350    0.203   12.384
  187.750  219.666  105.639    0.350    0.207   12.384
  188.000  218.210  105.377    0.364    0.211   12.520
  188.250  217.271  106.302    0.369    0.211   13.729
  188.500  215.835  110.801    0.360    0.205   15.196
  188.750  213.909  112.620    0.356    0.195   16.517
  189.000  212.466  109.078    0.352    0.191   16.991
  189.250  211.540  105.540    0.352    0.181   15.236
  189.500  210.600  104.083    0.359    0.175   14.431
  189.750  209.647  105.306    0.365    0.196   14.311
  190.000  207.715  105.040    0.369    0.202   14.587
  190.250  204.796  102.094    0.372    0.208   15.424
  190.500  201.871  100.041    0.340    0.173   16.459
  190.750  198.939   98.281    0.317    0.159   17.565
  191.000  196.014   97.722    0.314    0.142   18.575
  191.250  192.606   98.941    0.304    0.145   19.108
  191.500  190.667  101.359    0.284    0.154   19.123
  191.750  188.238  101.991    0.304    0.179   18.789
  192.000  185.809  101.427    0.334    0.195   17.160
  192.250  182.898   99.366    0.344    0.206   15.813
  192.500  180.462   88.680    0.348    0.214   19.538
  192.750  179.026   82.752    0.342    0.168   23.925
  193.000  177.597   75.640    0.270   -0.034   25.064
  193.250  176.644   80.135    0.216    0.019   26.746
  193.500  176.710   87.617    0.224    0.056   27.263
  193.750  176.710   94.200    0.277    0.160   21.307
  194.000  176.823  100.487    0.300    0.233   18.080
  194.250  176.856  102.305    0.338    0.224   16.663
  194.500  176.916   96.679    0.356    0.197   18.958
  194.750  176.976   88.073    0.371    0.124   24.080
  195.000  177.022   84.234    0.300   -0.013   25.229
  195.250  180.060   88.733    0.237    0.095   20.450
  195.500  183.581  102.171    0.237    0.159   11.282
  195.750  187.605  111.733    0.273    0.177    8.194
  196.000  191.146  114.453    0.401    0.181    8.052
  196.250  193.178  118.353    0.420    0.184    8.670
  196.500  194.720  114.215    0.414    0.203    9.775
  196.750  197.268  113.060    0.420    0.213   10.338
  197.000  198.301  114.874    0.410    0.216   10.344
  197.250  198.301  116.399    0.399    0.211   10.258
  197.500  199.407  115.542    0.415    0.184   10.174
  197.750  199.949  114.374    0.421    0.146   10.183
  198.000  199.506  111.130    0.427    0.095   10.183
  198.250  198.070  104.908    0.429    0.052   10.198
  198.500  196.138  100.174    0.400    0.034   10.303
  198.750  196.191   99.019    0.371    0.090   10.499
  199.000  201.711  113.648    0.386    0.135   10.605
  199.250  207.720  112.782    0.412    0.176   10.605
  199.500  213.240  111.329    0.403    0.201   10.623
  199.750  215.272  112.251    0.403    0.201   10.154
  200.000  214.842  113.478    0.417    0.190   10.071
  200.250  213.889  111.727    0.436    0.189   10.173
  200.500  212.453  112.354    0.432    0.194   10.182
  200.750  212.506  115.654    0.427    0.202   10.188
  201.000  213.565  117.473    0.427    0.202   10.196
  201.250  216.093  116.913    0.438    0.194   10.020
  201.500  218.132  114.562    0.420    0.191   10.028
  201.750  218.681  108.336    0.397    0.193   10.036
  202.000  218.741  118.200    0.381    0.192   10.230
  202.250  217.802  117.640    0.387    0.176   10.525
  202.500  216.372  112.009    0.373    0.148   10.925
  202.750  215.419  109.663    0.340    0.109   11.448
  203.000  215.016  121.603    0.323    0.082   11.458
  203.250  214.036  127.000    0.361    0.107   11.260
  203.500  214.599  124.351    0.386    0.139   10.962
  203.750  215.638  122.596    0.384    0.152   10.479
  204.000  217.180  122.330    0.390    0.151   10.111
  204.250  218.723  124.749    0.413    0.161    9.941
  204.500  218.789  127.457    0.425    0.177    9.673
  204.750  218.829  126.000    0.416    0.182    8.916
  205.000  217.399  123.947    0.431    0.187    8.522
  205.250  215.963  123.685    0.452    0.192    8.147
  205.500  214.031  120.139    0.472    0.168    8.155
  205.750  212.595  116.899    0.457    0.151    8.160
  206.000  211.152  117.828    0.411    0.151    8.093
  206.250  209.220  119.341    0.407    0.167    8.100
  206.500  206.301  122.061    0.418    0.172    8.106
  206.750  202.887  122.387    0.419    0.168    8.113
  207.000  200.444  121.529    0.419    0.165    8.194
  207.250  196.533  121.855    0.422    0.171    8.584
  207.500  194.098  120.398    0.431    0.170    9.948
  207.750  189.200  106.726    0.436    0.173   15.176
  208.000  185.276   90.675    0.409    0.223   23.366
  208.250  179.373   57.045    0.307    0.275   34.370
  208.500  174.462   46.653    0.278    0.313   42.072
  208.750  170.544   37.452    0.170    0.347   60.190
  209.000  169.598   32.425    0.115    0.359   69.114
  209.250  168.665   32.155    0.102    0.365   91.061
  209.500  168.221   32.489    0.109    0.362  109.485
  209.750  168.771   31.623    0.118    0.359  113.652
  210.000  168.837   32.855    0.143    0.360  113.652
  210.250  168.877   34.367    0.170    0.356  114.895
  210.500  168.937   37.679    0.194    0.341  108.826
  210.750  169.486   39.796    0.220    0.330  102.147
  211.000  169.539   42.214    0.240    0.333   94.995
  211.250  169.599   39.566    0.250    0.339   85.974
  211.500  169.646   39.594    0.254    0.342   82.174
  211.750  170.685   41.413    0.266    0.344   75.745
  212.000  172.737   41.151    0.267    0.348   68.532
  212.250  174.272   38.796    0.271    0.353   53.067
  212.500  175.814   35.556    0.288    0.341   47.580
  212.750  177.860   35.885    0.308    0.336   49.855
  213.000  177.860   36.509    0.328    0.328   60.482
  213.250  179.455   38.629    0.329    0.323   70.081
  213.500  183.472   41.342    0.332    0.324   77.582
  213.750  186.504   44.951    0.352    0.327   84.319
  214.000  191.037   48.255    0.379    0.322   86.730
  214.250  194.075   51.563    0.378    0.312   85.241
  214.500  196.107   53.084    0.382    0.306   84.523
  214.750  197.649   50.138    0.410    0.321   91.025
  215.000  199.688   44.217    0.394    0.327  100.768
  215.250  201.230   42.756    0.369    0.326  103.649
  215.500  202.276   42.788    0.353    0.314  107.616
  215.750  203.335   43.419    0.369    0.312  107.692
  216.000  203.375   44.051    0.380    0.318  101.093
  216.250  203.441   44.079    0.384    0.318   95.772
  216.500  202.985   44.110    0.382    0.312   90.713
  216.750  202.052   43.547    0.372    0.308   85.939
  217.000  201.105   43.583    0.367    0.303   84.438
  217.250  198.677   44.206    0.364    0.299   88.485
  217.500  195.758   39.770    0.358    0.304   88.539
  217.750  193.329   34.739    0.342    0.299   79.384
  218.000  189.915   34.477    0.339    0.292   55.577
  218.250  187.479   38.079    0.340    0.294   34.222
  218.500  185.044   44.365    0.336    0.296   26.992
  218.750  183.608   55.718    0.331    0.288   21.879
  219.000  182.675   73.326    0.328    0.256   16.789
  219.250  182.728   89.746    0.372    0.233   14.777
