~VERSION INFORMATION
 VERS.                 2.0:   CWLS LOG ASCII STANDARD -VERSION 2.0
 WRAP.                  NO:   ONE LINE PER DEPTH STEP
~WELL INFORMATION BLOCK
#MNEM.UNIT           DATA                    DESCRIPTION OF MNEMONIC
#---------    -------------------            -------------------------------
# Generated from Intellog Unique Number	CW_76_78/WELL/2815
WELL.         11-12-076-01W5                 : Well_name    - WELL
LOC .         00/11-12-076-01W5/0            : Location     - LOCATION
UWI .         00/11-12-076-01W5/0            : Uwi          - UNIQUE WELL ID
ENTR.         JJ                             : Entered      - ENTERED BY
SRVC.         SCHLUMBERGER                   : Scn          - SERVICE COMPANY
DATE.         4 MAR 68                       : Date         - LOG DATE
STRT.M        731.52                         : top_depth    - START DEPTH
STOP.M        829.02                         : bot_depth    - STOP DEPTH
STEP.M        0.25                           : increment    - STEP LENGTH
 NULL. -999.2500:NULL Value
~CURVE INFORMATION BLOCK
#MNEM UNIT       ERCB CURVE CODE    CURVE DESCRIPTION
#-----------   ------------------   ----------------------------------
DEPT.M        00 001 00 00         : DEPTH        - DEPTH
DELT.US/F     00 520 00 00         : DELT         - SONIC TRAVEL TIME
GR  .API      00 310 00 00         : GR           - GAMMA RAY
ILD .OHMM     00 120 00 00         : RESD         - DEEP RESISTIVITY (DIL)
~PARAMETER INFORMATION
#MNEM.UNIT           DATA             DESCRIPTION OF MNEMONIC
#---------         -----------     ------------------------------
GL  .M        911.718              : gl           - GROUND LEVEL ELEVATION
EREF.M        915.162              : kb           - ELEVATION OF DEPTH REFERENCE
DATM.M        915.162              : datum        - DATUM ELEVATION
TDD .M        830.58               : tdd          - TOTAL DEPTH DRILLER
RUN .         ONE                  : Run          - RUN NUMBER
ENG .         SWINARTON            : Engineer     - RECORDING ENGINEER
WIT .         SANDERSON            : Witness      - WITNESSED BY
BASE.         EDMONTON             : Branch       - HOME BASE OF LOGGING UNIT
MUD .         GEL-CHEM             : Mud_type     - MUD TYPE
MATR.         SANDSTONE            : Logunit      - NEUTRON MATRIX
TMAX.C        27.2222              : BHT          - MAXIMUM RECORDED TEMPERATURE
BHTD.M        829.97               : BHTDEP       - MAXIMUM RECORDED TEMPERATURE
RMT .C        17.7778              : MDTP         - TEMPERATURE OF MUD
MUDD.KG/M     1092                 : MWT          - MUD DENSITY
NEUT.         1                    : NEUTRON      - NEUTRON TYPE
RESI.         0                    : RESIST       - RESISTIVITY TYPE
RM  .OHMM     5.31                 : RM           - RESISTIVITY OF MUD
RMC .OHMM     3.05                 : RMC          - RESISTIVITY OF MUD CAKE
RMF .OHMM     5.02                 : RMF          - RESISTIVITY OF MUD FILTRATE
SUFT.C        5                    : SUFT         - SURFACE TEMPERATURE
~A  DEPTH     DELT       GR     RESD
# ...
  785.770  322.367   78.463    7.288
  786.020  299.180   79.158    6.861
  786.270  340.180   83.397    6.716
  786.520  342.682   83.441    6.837
  786.770  335.407   79.588    7.328
  787.020  311.547   79.382    7.770
  787.270  345.197   83.121    8.375
  787.520  351.003   87.911    9.451
  787.770  322.625   88.704   10.630
  788.020  313.598   82.653   11.930
  788.270  319.605   76.451   13.595
  788.520  316.444   74.297   15.667
  788.770  322.182   75.689   18.980
  789.020  306.816   72.086   22.720
  789.270  273.450   69.831   25.687
  789.520  304.808   70.773   27.230
  789.770  253.103   68.619   26.498
  790.020  221.219   63.867   23.200
  790.270  235.991   67.506   19.560
  790.520  259.798   71.196   16.730
  790.770  294.527   74.337   14.699
  791.020  315.436   78.378   14.286
  791.270  323.061   78.871   14.446
  791.520  323.271   76.067   14.465
  791.770  324.222   78.009   14.020
  792.020  296.923   81.598   13.510
  792.270  325.854   85.739   12.816
  792.520  333.614   87.880   12.041
  792.770  330.520   85.126   11.182
  793.020  325.942   82.772    9.859
  793.270  312.465   81.366    9.002
  793.520  316.855   85.807    8.411
  793.770  319.559   92.744    8.939
  794.020  332.174   98.832   10.345
  794.270  335.821   98.376   11.314
  794.520  223.301   90.676   13.041
  794.770  222.499   74.034   14.909
  795.020  312.514   68.282   14.585
  795.270  332.883   74.220   13.688
  795.520  324.058   77.511   12.790
  795.770  329.661   81.651   11.671
  796.020  313.015   83.693   11.020
  796.270  323.607   82.138   10.608
  796.520  316.130   81.031   10.302
  796.770  315.328   80.776   10.238
  797.020  340.214   80.470   10.275
  797.270  310.893   78.914   10.073
  797.520  308.810   75.510    9.359
  797.770  331.740   78.850    8.482
  798.020  328.511   83.591    8.524
  798.270  327.304   88.129    8.765
  798.520  322.794   87.824    9.046
  798.770  337.162   87.418    9.555
  799.020  325.505   83.415    9.855
  799.270  296.521   76.713   10.039
  799.520  315.676   73.360   10.053
  799.770  349.933   78.748    9.686
  800.020  345.490   83.988    9.034
  800.270  306.258   81.932    8.361
  800.520  318.941   82.825    7.937
  800.770  327.847   86.614    7.647
  801.020  340.395   89.306    7.237
  801.270  334.468   93.946    6.626
  801.520  343.105   98.636    6.055
  801.770  357.002   95.881    5.563
  802.020  338.804   90.979    5.299
  802.270  290.268   90.074    6.397
  802.520  386.958   92.316    7.817
  802.770  417.305   90.910   10.051
  803.020  361.824   80.962   18.244
  803.270  375.922   68.367   21.353
  803.520  405.258   57.719   21.699
  803.770  391.780   52.317   21.412
  804.020  375.539   51.811   21.002
  804.270  367.928   52.454   20.553
  804.520  362.406   53.395   20.369
  804.770  358.773   52.990   19.716
  805.020  368.487   52.685   18.657
  805.270  341.458   53.427   17.048
  805.520  363.648   54.620   15.889
  805.770  348.620   55.810   16.172
  806.020  329.209   56.504   18.285
  806.270  345.532   57.047   22.980
  806.520  351.810   57.292   25.235
  806.770  355.524   50.341   27.877
  807.020  386.748   41.941   30.640
  807.270  378.597   36.240   30.436
  807.520  386.897   34.985   28.423
  807.770  386.971   35.977   26.933
  808.020  348.617   37.270   25.203
  808.270  356.579   37.512   24.449
  808.520  356.316   37.656   23.737
  808.770  356.862   38.748   23.145
  809.020  358.015   38.941   22.087
  809.270  352.832   38.286   21.027
  809.520  344.478   35.081   19.724
  809.770  353.991   32.026   18.378
  810.020  351.369   33.270   16.953
  810.270  347.870   37.660   15.446
  810.520  351.721   40.951   14.063
  810.770  349.098   41.943   13.226
  811.020  349.981   39.239   12.129
  811.270  348.371   36.485   11.392
  811.520  350.738   37.928   10.476
  811.770  350.745   40.569    9.802
  812.020  358.978   45.208    9.536
  812.270  359.658   44.952    9.717
  812.520  353.463   45.744   10.245
  812.770  347.603   49.684   10.649
  813.020  348.622   49.628   11.116
  813.270  347.551   47.173   11.703
  813.520  301.576   48.365   11.640
  813.770  328.957   50.008   10.905
  814.020  353.235   49.652   10.151
  814.270  346.028   44.749    9.522
  814.520  303.492   45.293    9.438
  814.770  305.589   48.833    9.617
  815.020  332.295   52.723    9.065
  815.270  344.978   57.712    8.596
  815.520  329.073   62.652    8.941
  815.770  291.863   65.692    9.325
  816.020  319.850   69.880    8.775
  816.270  331.994   72.823    8.306
  816.520  324.045   76.314    8.079
  816.770  334.704   79.354    8.343
  817.020  337.206   82.495    8.725
  817.270  297.973   85.736    8.011
  817.520  322.724   85.779    7.015
  817.770  350.847   79.628    6.178
  818.020  336.965   72.977    5.607
  818.270  324.094   71.522    5.403
  818.520  343.788   75.512    5.623
  818.770  389.036   79.852    6.193
  819.020  386.548   79.345    7.106
  819.270  363.025   70.847    7.958
  819.520  344.558   58.901    7.750
  819.770  338.025   51.050    6.529
  820.020  301.557   46.048    5.307
  820.270  339.657   44.742    4.511
  820.520  340.204   42.189    4.006
  820.770  327.199   36.837    3.799
  821.020  353.230   31.285    3.695
  821.270  346.969   25.384    3.816
  821.520  344.009   27.825    4.038
  821.770  343.881   29.667    4.301
  822.020  344.765   32.658    4.522
  822.270  346.186   29.304    4.824
  822.520  339.856   21.305    5.189
  822.770  338.380   21.447    5.533
  823.020  334.746   24.039    5.796
  823.270  330.506   27.979    5.835
  823.520  328.018   31.869    5.771
  823.770  352.095   44.002    5.706
  824.020  363.968   54.936    5.544
  824.270  367.751   60.126    5.459
  824.520  347.262   65.764    5.336
  824.770  343.628   69.554    5.314
  825.020  332.309   66.001    5.372
  825.270  345.395   63.794    5.678
  825.520  355.448   63.040    6.082
  825.770  353.837   62.783    6.953
  826.020  356.541   63.077    7.805
  826.270  229.727   64.419    8.353
  826.520  229.869   65.862    8.248
  826.770  236.348   66.205    7.050
  827.020  246.334   57.505    6.049
  827.270  217.956   53.252    5.236
  827.520  252.216   52.896    4.703
  827.770  253.300   54.038    4.172
  828.020  336.506   54.932    4.070
  828.270  338.266   55.575    4.149
  828.520  338.272   54.819    4.288
  828.770  338.550   52.964    4.429
  829.020  338.490   51.209    4.589
