~VERSION INFORMATION
 VERS.                 2.0:   CWLS LOG ASCII STANDARD -VERSION 2.0
 WRAP.                  NO:   ONE LINE PER DEPTH STEP
~WELL INFORMATION BLOCK
#MNEM.UNIT           DATA                    DESCRIPTION OF MNEMONIC
#---------    -------------------            -------------------------------
# Generated from Intellog Unique Number	CN_94_101/WELL/5002
WELL.         DOME PETROLEUM LTD.            : Well_name    - WELL
LOC .         00/10-10-097-19W4/0            : Location     - LOCATION
UWI .         00/10-10-097-19W4/0            : Uwi          - UNIQUE WELL ID
ENTR.         JOETTE                         : Entered      - ENTERED BY
SRVC.         SCHLUMBERGER                   : Scn          - SERVICE COMPANY
DATE.         08/17/92                       : Date         - LOG DATE
STRT.M        426.72                         : top_depth    - START DEPTH
STOP.M        530.47                         : bot_depth    - STOP DEPTH
STEP.M        0.25                           : increment    - STEP LENGTH
 NULL. -999.2500:NULL Value
~CURVE INFORMATION BLOCK
#MNEM UNIT       ERCB CURVE CODE    CURVE DESCRIPTION
#-----------   ------------------   ----------------------------------
DEPT.M        00 001 00 00         : DEPTH        - DEPTH
ILD .OHMM     00 120 00 00         : RESD         - DEEP RESISTIVITY (DIL)
GR  .API      00 310 00 00         : GR           - GAMMA RAY
NPHI.V/V      00 330 00 00         : PHIN         - NEUTRON POROSITY (SANDSTONE)
~PARAMETER INFORMATION
#MNEM.UNIT           DATA             DESCRIPTION OF MNEMONIC
#---------         -----------     ------------------------------
GL  .M        786.232              : gl           - GROUND LEVEL ELEVATION
EREF.M        788.548              : kb           - ELEVATION OF DEPTH REFERENCE
DATM.M        788.548              : datum        - DATUM ELEVATION
TDD .M        534.924              : tdd          - TOTAL DEPTH DRILLER
RUN .         ONE                  : Run          - RUN NUMBER
ENG .         BILL                 : Engineer     - RECORDING ENGINEER
WIT .         JIM                  : Witness      - WITNESSED BY
MUD .         GEL                  : Mud_type     - MUD TYPE
MATR.         SANDSTONE            : Logunit      - NEUTRON MATRIX
TMAX.C        21.1111              : BHT          - MAXIMUM RECORDED TEMPERATURE
BHTD.M        534.924              : BHTDEP       - MAXIMUM RECORDED TEMPERATURE
RMT .C        21.1111              : MDTP         - TEMPERATURE OF MUD
MUDD.KG/M     9500                 : MWT          - MUD DENSITY
NEUT.         1                    : NEUTRON      - NEUTRON TYPE
RESI.         0                    : RESIST       - RESISTIVITY TYPE
RM  .OHMM     10.5                 : RM           - RESISTIVITY OF MUD
RMC .OHMM     10.5                 : RMC          - RESISTIVITY OF MUD CAKE
RMF .OHMM     10.5                 : RMF          - RESISTIVITY OF MUD FILTRATE
SUFT.C        4                    : SUFT         - SURFACE TEMPERATURE
~A  DEPTH     RESD       GR     PHIN
# ...
  480.970    4.350   88.372    0.359
  481.220    4.438   90.254    0.350
  481.470    4.448   84.216    0.358
  481.720    4.458   77.585    0.328
  481.970    4.384   81.290    0.297
  482.220    4.390   93.509    0.283
  482.470    4.399   96.013    0.353
  482.720    4.573   93.638    0.334
  482.970    4.843   93.088    0.318
  483.220    5.035   98.024    0.310
  483.470    5.336   95.041    0.316
  483.720    5.659   92.666    0.327
  483.970    5.881   92.116    0.323
  484.220    5.999   93.389    0.324
  484.470    6.122   97.095    0.303
  484.720    6.251   94.112    0.281
  484.970    6.266   96.602    0.278
  485.220    6.271  100.916    0.276
  485.470    6.286   99.149    0.279
  485.720    6.294   98.598    0.283
  485.970    6.424  101.116    0.290
  486.220    6.559   98.742    0.284
  486.470    6.697   96.352    0.281
  486.720    6.710   95.194    0.278
  486.970    6.719   96.467    0.274
  487.220    6.860  100.781    0.273
  487.470    6.870  100.230    0.283
  487.720    6.883   96.031    0.298
  487.970    6.895   92.440    0.315
  488.220    6.660   91.296    0.327
  488.470    6.429   96.826    0.323
  488.720    6.210  103.586    0.318
  488.970    5.998  102.442    0.295
  489.220    6.003  101.255    0.303
  489.470    5.909   97.055    0.315
  489.720    5.915   98.358    0.319
  489.970    6.036   97.199    0.310
  490.220    6.047  100.282    0.315
  490.470    6.172  100.340    0.310
  490.720    6.305   96.141    0.301
  490.970    6.313   89.509    0.295
  491.220    6.570   91.999    0.301
  491.470    6.699   90.855    0.293
  491.720    6.971   96.399    0.289
  491.970    7.376  100.698    0.300
  492.220    8.115  100.148    0.312
  492.470    8.278   97.773    0.337
  492.720    8.149   95.398    0.354
  492.970    7.863   94.862    0.347
  493.220    7.455   97.959    0.333
  493.470    7.328  101.071    0.322
  493.720    7.075   99.290    0.338
  493.970    6.830   94.483    0.332
  494.220    6.590   88.460    0.323
  494.470    6.365   92.774    0.325
  494.720    6.260   98.304    0.308
  494.970    6.272   94.713    0.302
  495.220    6.286   92.367    0.299
  495.470    6.301   93.626    0.298
  495.720    6.306   96.738    0.312
  495.970    6.318   94.957    0.313
  496.220    6.213   92.582    0.311
  496.470    6.225   87.775    0.355
  496.720    6.015   89.048    0.341
  496.970    5.810   96.417    0.346
  497.220    5.708  101.975    0.382
  497.470    5.409  101.396    0.377
  497.720    4.854  100.237    0.377
  497.970    4.598   97.254    0.383
  498.220    4.438   91.839    0.382
  498.470    4.363   94.951    0.379
  498.720    4.293   98.657    0.374
  498.970    4.303  101.769    0.367
  499.220    4.309   98.164    0.356
  499.470    4.319   96.411    0.351
  499.720    4.409   95.846    0.353
  499.970    4.757   98.336    0.347
  500.220    4.766  100.840    0.350
  500.470    4.862   99.681    0.358
  500.720    4.871   98.522    0.358
  500.970    4.971  100.404    0.341
  501.220    4.980  106.542    0.318
  501.470    4.994  112.723    0.356
  501.720    5.001  109.104    0.369
  501.970    5.008   97.622    0.374
  502.220    4.835   96.463    0.383
  502.470    4.670   94.088    0.371
  502.720    4.344   94.740    0.378
  502.970    4.270   99.662    0.397
  503.220    4.126   99.719    0.388
  503.470    4.054   94.304    0.377
  503.720    4.065   93.145    0.380
  503.970    4.151   96.879    0.379
  504.220    4.082   93.896    0.390
  504.470    4.086   90.913    0.381
  504.720    4.022   92.173    0.364
  504.970    3.952   97.703    0.365
  505.220    3.961   97.760    0.380
  505.470    4.041  100.887    0.388
  505.720    4.126  105.794    0.384
  505.970    4.213  105.852    0.372
  506.220    4.297   99.828    0.356
  506.470    4.386   94.427    0.342
  506.720    4.560   92.660    0.323
  506.970    4.741   92.110    0.302
  507.220    4.933   97.017    0.301
  507.470    5.127   98.334    0.328
  507.720    5.232   98.363    0.352
  507.970    5.242   97.204    0.354
  508.220    4.878   94.829    0.354
  508.470    4.707   90.022    0.364
  508.720    4.222   92.512    0.390
  508.970    3.926   93.785    0.403
  509.220    3.519   92.018    0.415
  509.470    3.040   90.251    0.423
  509.720    2.882   95.202    0.406
  509.970    2.887   92.205    0.402
  510.220    2.946   89.830    0.396
  510.470    3.179   92.942    0.394
  510.720    3.496   94.216    0.389
  510.970    3.635   89.408    0.386
  511.220    3.640   79.722    0.377
  511.470    3.580   65.808    0.372
  511.720    3.457   64.650    0.377
  511.970    3.594   62.275    0.361
  512.220    3.737   59.292    0.342
  512.470    3.958   59.349    0.309
  512.720    4.194   60.015    0.290
  512.970    4.609   60.058    0.311
  513.220    4.976   57.683    0.321
  513.470    5.466   60.809    0.330
  513.720    6.840   56.610    0.349
  513.970    8.100   54.829    0.343
  514.220    8.739   54.886    0.333
  514.470    9.085   56.768    0.348
  514.720    9.446   61.704    0.358
  514.970   10.196   66.018    0.357
  515.220   11.001   71.548    0.364
  515.470   12.096   67.349    0.356
  515.720   11.672   61.934    0.345
  515.970    9.898   62.599    0.329
  516.220    8.714   64.481    0.332
  516.470    8.574   64.538    0.335
  516.720    9.246   57.907    0.320
  516.970    9.608   50.682    0.302
  517.220   14.218   47.091    0.340
  517.470   15.347   44.093    0.343
  517.720   17.183   40.517    0.345
  517.970   19.230   36.911    0.334
  518.220   21.136   51.591    0.308
  518.470   21.985   51.648    0.295
  518.720   22.025   49.288    0.299
  518.970   21.273   47.492    0.317
  519.220   21.302   43.916    0.313
  519.470   21.741   42.743    0.308
  519.720   23.467   41.613    0.304
  519.970   24.854   41.656    0.317
  520.220   26.816   40.511    0.313
  520.470   28.932   37.514    0.289
  520.720   31.814   29.044    0.290
  520.970   34.309   19.980    0.317
  521.220   38.414   19.430    0.312
  521.470   43.875   20.718    0.310
  521.720   45.573   18.951    0.319
  521.970   47.381   19.008    0.314
  522.220   45.763   21.498    0.314
  522.470   43.368   23.394    0.320
  522.720   41.848   25.275    0.323
  522.970   39.658   27.171    0.327
  523.220   37.600   29.053    0.330
  523.470   35.617   31.528    0.324
  523.720   30.766   31.586    0.320
  523.970   23.344   28.009    0.320
  524.220   19.431   25.026    0.317
  524.470   20.202   26.299    0.313
  524.720   22.214   26.357    0.310
  524.970   24.872   25.806    0.313
  525.220   28.913   25.256    0.315
  525.470   32.357   26.529    0.318
  525.720   39.034   27.817    0.327
  525.970   44.542   29.076    0.337
  526.220   45.459   29.134    0.328
  526.470   43.100   27.989    0.312
  526.720   43.160   26.845    0.306
  526.970   43.239   26.280    0.314
  527.220   43.319   25.729    0.325
  527.470   43.419   25.787    0.321
  527.720   43.479   27.060    0.316
  527.970   42.759   30.766    0.317
  528.220   30.689   41.175    0.309
  528.470   21.612   47.921    0.302
  528.720   17.989   54.074    0.282
  528.970   17.367   57.779    0.213
  529.220   17.399   59.053    0.185
  529.470   18.097   54.246    0.171
  529.720   19.900   20.845    0.155
  529.970   21.076   19.092    0.140
  530.220   21.510   19.135    0.145
  530.470   20.766   19.207    0.156
