~VERSION INFORMATION
 VERS.                 2.0:   CWLS LOG ASCII STANDARD -VERSION 2.0
 WRAP.                  NO:   ONE LINE PER DEPTH STEP
~WELL INFORMATION BLOCK
#MNEM.UNIT           DATA                    DESCRIPTION OF MNEMONIC
#---------    -------------------            -------------------------------
# Generated from Intellog Unique Number	CS_73_76/WELL/3266
WELL.         BOW VALLEY EXPLORATION         : Well_name    - WELL
LOC .         00/11-21-075-15W4/0            : Location     - LOCATION
UWI .         00/11-21-075-15W4/0            : Uwi          - UNIQUE WELL ID
ENTR.         SP                             : Entered      - ENTERED BY
SRVC.         SCHLUMBERGER                   : Scn          - SERVICE COMPANY
STRT.M        425                            : top_depth    - START DEPTH
STOP.M        610                            : bot_depth    - STOP DEPTH
STEP.M        0.25                           : increment    - STEP LENGTH
 NULL. -999.2500:NULL Value
~CURVE INFORMATION BLOCK
#MNEM UNIT       ERCB CURVE CODE    CURVE DESCRIPTION
#-----------   ------------------   ----------------------------------
DEPT.M        00 001 00 00         : DEPTH        - DEPTH
ILD .OHMM     00 120 00 00         : RESD         - DEEP RESISTIVITY (DIL)
DPHI.V/V      00 890 00 00         : PHID         - DENSITY POROSITY (LIMESTONE)
NPHI.V/V      00 330 00 00         : PHIN         - NEUTRON POROSITY (LIMESTONE)
GR  .API      00 310 00 00         : GR           - GAMMA RAY
~PARAMETER INFORMATION
#MNEM.UNIT           DATA             DESCRIPTION OF MNEMONIC
#---------         -----------     ------------------------------
GL  .M        790.66               : gl           - GROUND LEVEL ELEVATION
EREF.M        793.69               : kb           - ELEVATION OF DEPTH REFERENCE
DATM.M        790.66               : datum        - DATUM ELEVATION
TDD .M        619                  : tdd          - TOTAL DEPTH DRILLER
RUN .         ONE                  : Run          - RUN NUMBER
ENG .         BILL                 : Engineer     - RECORDING ENGINEER
WIT .         JIM                  : Witness      - WITNESSED BY
MUD .         GEL                  : Mud_type     - MUD TYPE
MATR.         LIMESTONE            : Logunit      - NEUTRON MATRIX
TMAX.C        12.2                 : BHT          - MAXIMUM RECORDED TEMPERATURE
BHTD.M        619                  : BHTDEP       - MAXIMUM RECORDED TEMPERATURE
MATR.         1                    : LOGUNIT      - NEUTRON MATRIX
RMT .C        25                   : MDTP         - TEMPERATURE OF MUD
NEUT.         1                    : NEUTRON      - NEUTRON TYPE
RESI.         0                    : RESIST       - RESISTIVITY TYPE
RMC .OHMM     0.25                 : RMC          - RESISTIVITY OF MUD CAKE
RMF .OHMM     0.25                 : RMF          - RESISTIVITY OF MUD FILTRATE
SUFT.C        15                   : SUFT         - SURFACE TEMPERATURE
~A  DEPTH     RESD     PHID     PHIN       GR
# ...
  468.500    5.516    0.176    0.438   88.094
  468.750    5.827    0.213    0.445   84.460
  469.000    6.388    0.257    0.436   78.399
  469.250    6.749    0.276    0.433   71.727
  469.500    7.535    0.293    0.436   62.628
  469.750    8.411    0.307    0.426   55.350
  470.000    8.724    0.322    0.402   52.324
  470.250    9.387    0.326    0.393   52.336
  470.500    9.560    0.325    0.405   53.565
  470.750    9.734    0.328    0.409   53.571
  471.000    9.729    0.334    0.405   54.190
  471.250    9.906    0.336    0.399   54.201
  471.500    9.722    0.335    0.403   54.213
  471.750    9.719    0.347    0.408   54.222
  472.000    9.716    0.354    0.402   54.838
  472.250    9.713    0.351    0.402   56.671
  472.500    9.710    0.343    0.403   59.720
  472.750    9.529    0.338    0.396   60.337
  473.000    9.526    0.332    0.402   59.136
  473.250    9.350    0.341    0.409   57.933
  473.500    9.347    0.348    0.420   57.941
  473.750    9.171    0.355    0.431   57.343
  474.000    9.169    0.348    0.431   56.138
  474.250    9.166    0.346    0.414   57.365
  474.500    8.995    0.338    0.416   58.588
  474.750    8.992    0.331    0.426   56.172
  475.000    8.989    0.339    0.423   54.966
  475.250    8.986    0.345    0.416   54.370
  475.500    8.983    0.346    0.423   55.597
  475.750    8.979    0.346    0.418   57.429
  476.000    8.976    0.350    0.414   59.263
  476.250    8.974    0.356    0.415   59.880
  476.500    8.805    0.351    0.421   59.890
  476.750    8.803    0.353    0.428   58.080
  477.000    8.800    0.343    0.438   55.662
  477.250    8.798    0.337    0.428   55.063
  477.500    8.794    0.341    0.424   56.291
  477.750    8.791    0.343    0.434   58.123
  478.000    8.789    0.341    0.441   57.525
  478.250    8.786    0.354    0.447   56.319
  478.500    8.783    0.356    0.453   55.117
  478.750    8.618    0.359    0.464   55.126
  479.000    8.775    0.362    0.437   56.959
  479.250    8.773    0.363    0.429   58.185
  479.500    8.609    0.354    0.409   58.803
  479.750    8.606    0.351    0.430   56.387
  480.000    8.604    0.352    0.437   54.576
  480.250    8.601    0.357    0.449   53.974
  480.500    8.598    0.364    0.444   52.770
  480.750    8.594    0.365    0.440   51.567
  481.000    8.751    0.365    0.436   50.363
  481.250    8.749    0.365    0.431   50.375
  481.500    8.744    0.361    0.419   50.994
  481.750    8.741    0.357    0.413   51.002
  482.000    8.739    0.351    0.412   51.621
  482.250    8.900    0.358    0.419   54.063
  482.500    8.895    0.354    0.425   53.465
  482.750    9.058    0.356    0.424   52.262
  483.000    9.055    0.354    0.424   51.060
  483.250    9.221    0.347    0.437   50.460
  483.500    9.560    0.347    0.439   49.259
  483.750    9.558    0.349    0.435   48.659
  484.000    9.733    0.342    0.427   48.066
  484.250    9.730    0.340    0.425   49.896
  484.500    9.907    0.343    0.421   51.119
  484.750    9.905    0.353    0.429   49.917
  485.000   10.084    0.359    0.434   48.108
  485.250   10.269    0.350    0.438   47.508
  485.500   10.266    0.344    0.433   46.306
  485.750   10.451    0.341    0.436   45.102
  486.000   10.449    0.337    0.437   45.114
  486.250   10.446    0.338    0.428   43.912
  486.500   10.441    0.338    0.420   43.917
  486.750   10.438    0.339    0.433   43.322
  487.000   10.244    0.340    0.438   42.120
  487.250   10.242    0.343    0.434   42.128
  487.500   10.235    0.336    0.433   41.533
  487.750   10.232    0.333    0.426   40.936
  488.000   10.229    0.338    0.421   40.342
  488.250   10.226    0.340    0.431   40.348
  488.500   10.222    0.339    0.440   39.756
  488.750   10.219    0.336    0.443   40.369
  489.000   10.217    0.332    0.444   42.202
  489.250   10.024    0.331    0.439   42.821
  489.500   10.021    0.337    0.432   40.403
  489.750   10.018    0.338    0.429   39.805
  490.000   10.016    0.345    0.423   40.427
  490.250    9.828    0.351    0.428   41.041
  490.500    9.826    0.344    0.420   42.270
  490.750    9.823    0.338    0.414   42.279
  491.000    9.818    0.335    0.409   42.895
  491.250    9.815    0.335    0.406   42.907
  491.500    9.634    0.341    0.415   43.525
  491.750    9.628    0.345    0.426   43.535
  492.000    9.625    0.350    0.428   43.546
  492.250    9.622    0.346    0.424   43.554
  492.500    9.620    0.344    0.417   43.571
  492.750    9.617    0.340    0.417   43.581
  493.000    9.614    0.342    0.428   43.588
  493.250    9.608    0.342    0.431   44.213
  493.500    9.430    0.345    0.430   44.220
  493.750    9.428    0.343    0.431   44.227
  494.000    9.425    0.346    0.421   44.850
  494.250    9.420    0.355    0.413   44.857
  494.500    9.593    0.351    0.416   45.472
  494.750    9.590    0.337    0.416   46.700
  495.000    9.586    0.337    0.404   47.929
  495.250    9.583    0.343    0.404   48.541
  495.500    9.578    0.346    0.410   49.159
  495.750    9.575    0.336    0.424   49.779
  496.000    9.573    0.337    0.437   49.787
  496.250    9.569    0.335    0.444   50.409
  496.500    9.567    0.338    0.442   50.417
  496.750    9.563    0.346    0.436   49.215
  497.000    9.560    0.334    0.433   49.832
  497.250    9.381    0.344    0.437   52.878
  497.500    9.378    0.347    0.438   56.533
  497.750    9.205    0.350    0.438   60.190
  498.000    9.032    0.357    0.441   62.631
  498.250    9.030    0.350    0.444   63.244
  498.500    9.026    0.345    0.449   64.471
  498.750    9.024    0.326    0.452   64.480
  499.000    9.020    0.323    0.449   63.885
  499.250    9.186    0.335    0.440   61.465
  499.500    9.527    0.335    0.442   60.870
  499.750   10.441    0.335    0.445   61.486
  500.000   11.032    0.343    0.443   62.713
  500.250   12.777    0.345    0.437   62.726
  500.500   13.254    0.345    0.440   62.736
  500.750   14.262    0.350    0.452   61.530
  501.000   13.742    0.354    0.458   60.325
  501.250   12.760    0.361    0.463   60.341
  501.500   12.296    0.363    0.468   60.346
  501.750   11.417    0.355    0.467   60.965
  502.000   11.001    0.346    0.456   59.152
  502.250   10.995    0.344    0.449   58.557
  502.500   10.993    0.353    0.445   58.567
  502.750   11.614    0.367    0.443   59.793
  503.000   12.046    0.377    0.447   61.022
  503.250   12.265    0.373    0.458   61.637
  503.500   11.817    0.371    0.470   62.254
  503.750   11.179    0.351    0.470   63.484
  504.000   10.381    0.349    0.470   63.490
  504.250   10.187    0.363    0.474   64.111
  504.500    9.999    0.362    0.471   64.730
  504.750    9.633    0.356    0.481   64.738
  505.000    9.631    0.335    0.481   64.749
  505.250    9.450    0.324    0.472   65.367
  505.500    9.447    0.317    0.466   65.987
  505.750    9.444    0.318    0.460   66.603
  506.000    9.269    0.320    0.458   67.217
  506.250    9.095    0.321    0.455   68.448
  506.500    9.093    0.317    0.452   69.063
  506.750    9.090    0.312    0.454   69.685
  507.000    8.922    0.308    0.461   70.300
  507.250    8.918    0.310    0.467   70.914
  507.500    8.752    0.317    0.465   72.145
  507.750    8.433    0.322    0.465   72.760
  508.000    8.276    0.330    0.454   73.385
  508.250    7.974    0.335    0.447   74.000
  508.500    7.826    0.340    0.455   74.008
  508.750    7.681    0.342    0.466   74.624
  509.000    7.678    0.344    0.459   74.026
  509.250    7.535    0.346    0.450   74.645
  509.500    7.532    0.349    0.464   77.692
  509.750    7.530    0.354    0.471   75.273
  510.000    7.527    0.349    0.478   77.109
  510.250    7.524    0.319    0.483   78.938
  510.500    7.522    0.301    0.472   79.556
  510.750    6.732    0.284    0.449   79.568
  511.000    6.252    0.275    0.448   84.438
  511.250    5.596    0.254    0.436   87.485
  511.500    5.009    0.229    0.432   87.496
  511.750    4.651    0.236    0.443   89.938
