~VERSION INFORMATION
 VERS.                 2.0:   CWLS LOG ASCII STANDARD -VERSION 2.0
 WRAP.                  NO:   ONE LINE PER DEPTH STEP
~WELL INFORMATION BLOCK
#MNEM.UNIT           DATA                    DESCRIPTION OF MNEMONIC
#---------    -------------------            -------------------------------
# Generated from Intellog Unique Number	CS_67_68/WELL/851
WELL.         ESSO RESOURCES CANADA LTD      : Well_name    - WELL
LOC .         00/12-18-068-07W4/0            : Location     - LOCATION
UWI .         00/12-18-068-07W4/0            : Uwi          - UNIQUE WELL ID
ENTR.         SP                             : Entered      - ENTERED BY
SRVC.         SCHLUMBERGER                   : Scn          - SERVICE COMPANY
STRT.M        290                            : top_depth    - START DEPTH
STOP.M        525                            : bot_depth    - STOP DEPTH
STEP.M        0.25                           : increment    - STEP LENGTH
 NULL. -999.2500:NULL Value
~CURVE INFORMATION BLOCK
#MNEM UNIT       ERCB CURVE CODE    CURVE DESCRIPTION
#-----------   ------------------   ----------------------------------
DEPT.M        00 001 00 00         : DEPTH        - DEPTH
ILD .OHMM     00 120 00 00         : RESD         - DEEP RESISTIVITY (DIL)
DPHI.V/V      00 890 00 00         : PHID         - DENSITY POROSITY (LIMESTONE)
NPHI.V/V      00 330 00 00         : PHIN         - NEUTRON POROSITY (LIMESTONE)
GR  .API      00 310 00 00         : GR           - GAMMA RAY
~PARAMETER INFORMATION
#MNEM.UNIT           DATA             DESCRIPTION OF MNEMONIC
#---------         -----------     ------------------------------
GL  .M        619.1                : gl           - GROUND LEVEL ELEVATION
EREF.M        623.3                : kb           - ELEVATION OF DEPTH REFERENCE
DATM.M        619.1                : datum        - DATUM ELEVATION
TDD .M        533                  : tdd          - TOTAL DEPTH DRILLER
RUN .         ONE                  : Run          - RUN NUMBER
ENG .         BILL                 : Engineer     - RECORDING ENGINEER
WIT .         JIM                  : Witness      - WITNESSED BY
MUD .         GEL                  : Mud_type     - MUD TYPE
MATR.         LIMESTONE            : Logunit      - NEUTRON MATRIX
TMAX.C        29                   : BHT          - MAXIMUM RECORDED TEMPERATURE
BHTD.M        533                  : BHTDEP       - MAXIMUM RECORDED TEMPERATURE
MATR.         1                    : LOGUNIT      - NEUTRON MATRIX
RMT .C        25                   : MDTP         - TEMPERATURE OF MUD
NEUT.         1                    : NEUTRON      - NEUTRON TYPE
RESI.         0                    : RESIST       - RESISTIVITY TYPE
RMC .OHMM     0.25                 : RMC          - RESISTIVITY OF MUD CAKE
RMF .OHMM     0.25                 : RMF          - RESISTIVITY OF MUD FILTRATE
SUFT.C        15                   : SUFT         - SURFACE TEMPERATURE
~A  DEPTH     RESD     PHID     PHIN       GR
# ...
  377.000    1.989    0.307    0.480   97.209
  377.250    2.203    0.312    0.472   96.839
  377.500    2.476    0.310    0.459   86.722
  377.750    2.732    0.303    0.446   78.997
  378.000    3.020    0.301    0.442   73.110
  378.250    3.301    0.296    0.436   68.266
  378.500    3.547    0.286    0.432   78.623
  378.750    3.678    0.300    0.426   85.119
  379.000    3.605    0.317    0.418   87.324
  379.250    3.546    0.310    0.422   86.709
  379.500    3.561    0.297    0.442   83.581
  379.750    3.610    0.290    0.470   80.820
  380.000    3.715    0.284    0.485   81.492
  380.250    3.845    0.290    0.481   79.774
  380.500    4.134    0.320    0.475   72.968
  380.750    4.229    0.340    0.450   63.587
  381.000    4.402    0.338    0.427   60.152
  381.250    4.590    0.317    0.421   57.821
  381.500    4.759    0.298    0.419   60.822
  381.750    4.898    0.293    0.426   62.230
  382.000    5.041    0.290    0.443   63.883
  382.250    5.139    0.294    0.457   65.966
  382.500    5.220    0.302    0.469   63.512
  382.750    5.261    0.311    0.469   61.977
  383.000    5.265    0.323    0.465   62.343
  383.250    5.267    0.327    0.456   60.318
  383.500    5.260    0.332    0.462   57.619
  383.750    5.262    0.340    0.471   60.437
  384.000    5.315    0.353    0.461   61.538
  384.250    5.439    0.357    0.431   61.353
  384.500    5.576    0.334    0.406   59.573
  384.750    5.804    0.277    0.379   61.900
  385.000    5.996    0.239    0.390   67.047
  385.250    6.044    0.267    0.422   72.869
  385.500    5.923    0.294    0.437   76.545
  385.750    5.763    0.282    0.452   77.769
  386.000    5.658    0.280    0.436   77.092
  386.250    5.618    0.293    0.427   79.114
  386.500    5.537    0.301    0.431   81.441
  386.750    5.487    0.308    0.454   81.868
  387.000    5.449    0.294    0.475   84.563
  387.250    5.483    0.268    0.491   87.442
  387.500    5.527    0.262    0.490   84.192
  387.750    5.550    0.262    0.465   78.243
  388.000    5.543    0.277    0.440   74.380
  388.250    5.494    0.286    0.417   73.581
  388.500    5.404    0.282    0.410   81.364
  388.750    5.347    0.278    0.417   84.733
  389.000    5.289    0.272    0.435   83.260
  389.250    5.233    0.268    0.454   83.871
  389.500    5.186    0.280    0.469   85.586
  389.750    5.093    0.290    0.466   85.400
  390.000    5.028    0.280    0.436   84.356
  390.250    5.002    0.269    0.418   85.519
  390.500    4.987    0.265    0.413   80.674
  390.750    4.989    0.260    0.429   83.124
  391.000    5.001    0.258    0.445   88.210
  391.250    4.994    0.256    0.457   92.131
  391.500    4.987    0.254    0.443   91.577
  391.750    4.971    0.254    0.433   87.959
  392.000    4.974    0.254    0.432   85.260
  392.250    4.976    0.256    0.434   83.173
  392.500    4.998    0.260    0.448   82.313
  392.750    5.019    0.261    0.465   88.318
  393.000    5.031    0.257    0.483   92.362
  393.250    5.062    0.255    0.487   95.548
  393.500    5.074    0.256    0.479   91.684
  393.750    5.096    0.260    0.444   85.675
  394.000    5.098    0.260    0.415   82.240
  394.250    5.101    0.258    0.399   88.797
  394.500    5.103    0.252    0.395   92.534
  394.750    5.097    0.245    0.393   94.310
  395.000    5.099    0.244    0.393   94.308
  395.250    5.083    0.245    0.389   94.613
  395.500    5.056    0.247    0.384   96.082
  395.750    5.031    0.250    0.395   95.038
  396.000    5.014    0.252    0.399   92.094
  396.250    4.998    0.249    0.403   92.153
  396.500    4.991    0.244    0.417   90.312
  396.750    4.984    0.239    0.434   87.613
  397.000    4.950    0.235    0.453   89.143
  397.250    4.896    0.234    0.451   93.555
  397.500    4.736    0.234    0.442   94.472
  397.750    4.616    0.235    0.436   92.080
  398.000    4.473    0.234    0.431   89.442
  398.250    4.318    0.238    0.428   92.075
  398.500    4.168    0.250    0.424   95.507
  398.750    4.069    0.251    0.421   98.263
  399.000    3.907    0.241    0.416   95.503
  399.250    3.765    0.241    0.407   92.436
  399.500    3.655    0.259    0.397   91.821
  399.750    3.535    0.273    0.402   97.458
  400.000    3.426    0.271    0.427  102.360
  400.250    3.332    0.259    0.446  105.423
  400.500    3.296    0.252    0.430  103.030
  400.750    3.200    0.246    0.423  102.967
  401.000    3.148    0.261    0.422  104.743
  401.250    3.120    0.264    0.424  105.415
  401.500    3.169    0.269    0.435   99.713
  401.750    3.267    0.278    0.432   95.971
  402.000    3.413    0.288    0.430   92.475
  402.250    3.600    0.299    0.448   90.512
  402.500    3.761    0.309    0.467   89.222
  402.750    3.892    0.297    0.485   87.504
  403.000    3.894    0.287    0.473   85.540
  403.250    3.767    0.286    0.444   84.619
  403.500    3.719    0.283    0.433   83.636
  403.750    3.672    0.280    0.428   82.960
  404.000    3.627    0.281    0.450   83.019
  404.250    3.621    0.289    0.470   83.630
  404.500    3.610    0.303    0.483   80.441
  404.750    3.618    0.318    0.488   74.554
  405.000    3.661    0.334    0.476   68.299
  405.250    3.754    0.350    0.463   68.849
  405.500    3.631    0.362    0.458   70.564
  405.750    3.772    0.362    0.460   70.991
  406.000    3.890    0.356    0.452   69.640
  406.250    4.034    0.346    0.456   70.067
  406.500    3.756    0.340    0.449   68.471
  406.750    3.794    0.337    0.442   64.240
  407.000    3.817    0.340    0.438   60.621
  407.250    3.812    0.340    0.445   66.749
  407.500    3.694    0.324    0.459   73.000
  407.750    3.599    0.314    0.472   79.495
  408.000    3.663    0.316    0.456   82.497
  408.250    3.878    0.318    0.457   83.905
  408.500    4.214    0.303    0.467   80.103
  408.750    4.486    0.295    0.451   74.952
  409.000    5.016    0.302    0.402   73.846
  409.250    5.513    0.299    0.335   74.886
  409.500    5.749    0.207    0.314   70.409
  409.750    5.839    0.066    0.344   61.703
  410.000    5.908    0.231    0.379   58.697
  410.250    5.703    0.277    0.416   62.741
  410.500    5.404    0.313    0.423   64.823
  410.750    4.986    0.166    0.410   62.124
  411.000    4.592    0.193    0.403   58.934
  411.250    4.262    0.291    0.427   62.243
  411.500    4.061    0.329    0.444   66.348
  411.750    3.920    0.341    0.455   69.595
  412.000    3.806    0.345    0.460   70.880
  412.250    3.730    0.343    0.469   65.913
  412.500    3.711    0.340    0.469   61.681
  412.750    3.706    0.337    0.460   64.315
  413.000    3.736    0.332    0.452   65.355
  413.250    3.780    0.325    0.442   65.721
  413.500    3.818    0.320    0.434   65.597
  413.750    3.870    0.318    0.425   69.089
  414.000    3.909    0.314    0.419   73.010
  414.250    3.940    0.309    0.426   75.521
  414.500    3.950    0.300    0.434   80.055
  414.750    3.937    0.290    0.429   84.099
  415.000    3.909    0.277    0.428   84.772
  415.250    3.831    0.265    0.418   83.911
  415.500    3.741    0.259    0.406   85.197
  415.750    3.652    0.250    0.405   87.156
  416.000    3.532    0.242    0.411   89.974
  416.250    3.436    0.237    0.419   90.646
  416.500    3.380    0.238    0.437   89.847
  416.750    3.356    0.240    0.444   87.087
  417.000    3.384    0.241    0.436   84.633
  417.250    3.411    0.242    0.427   83.405
  417.500    3.438    0.242    0.419   90.636
  417.750    3.532    0.243    0.417   94.987
  418.000    3.704    0.243    0.434   96.517
  418.250    3.862    0.243    0.450   95.106
  418.500    3.960    0.243    0.458   95.716
  418.750    4.022    0.244    0.466   94.611
  419.000    4.024    0.245    0.451   91.973
  419.250    3.899    0.245    0.427   91.052
  419.500    3.605    0.248    0.409   90.805
  419.750    3.222    0.262    0.401   93.622
  420.000    2.934    0.280    0.427   98.279
  420.250    2.708    0.282    0.443   99.994
