~VERSION INFORMATION
 VERS.                 2.0:   CWLS LOG ASCII STANDARD -VERSION 2.0
 WRAP.                  NO:   ONE LINE PER DEPTH STEP
~WELL INFORMATION BLOCK
#MNEM.UNIT           DATA                    DESCRIPTION OF MNEMONIC
#---------    -------------------            -------------------------------
# Generated from Intellog Unique Number	CS_77_79/WELL/1008
WELL.         PCI PCEJ CHARD                 : Well_name    - WELL
LOC .         00/11-33-079-07W4/0            : Location     - LOCATION
UWI .         00/11-33-079-07W4/0            : Uwi          - UNIQUE WELL ID
ENTR.         JHS                            : Entered      - ENTERED BY
SRVC.         SCHLUMBERGER                   : Scn          - SERVICE COMPANY
STRT.M        140                            : top_depth    - START DEPTH
STOP.M        380                            : bot_depth    - STOP DEPTH
STEP.M        0.25                           : increment    - STEP LENGTH
 NULL. -999.2500:NULL Value
~CURVE INFORMATION BLOCK
#MNEM UNIT       ERCB CURVE CODE    CURVE DESCRIPTION
#-----------   ------------------   ----------------------------------
DEPT.M        00 001 00 00         : DEPTH        - DEPTH
DPHI.V/V      00 890 00 00         : PHID         - DENSITY POROSITY (LIMESTONE)
NPHI.V/V      00 330 00 00         : PHIN         - NEUTRON POROSITY (LIMESTONE)
GR  .API      00 310 00 00         : GR           - GAMMA RAY
ILD .OHMM     00 120 00 00         : RESD         - DEEP RESISTIVITY (DIL)
RHOB.KG/M3    00 350 00 00         : DENS         - BULK DENSITY
~PARAMETER INFORMATION
#MNEM.UNIT           DATA             DESCRIPTION OF MNEMONIC
#---------         -----------     ------------------------------
GL  .M        589.9                : gl           - GROUND LEVEL ELEVATION
EREF.M        593.55               : kb           - ELEVATION OF DEPTH REFERENCE
DATM.M        593.55               : datum        - DATUM ELEVATION
TDD .M        406                  : tdd          - TOTAL DEPTH DRILLER
RUN .         ONE                  : Run          - RUN NUMBER
ENG .         BILL                 : Engineer     - RECORDING ENGINEER
WIT .         JIM                  : Witness      - WITNESSED BY
MUD .         GEL                  : Mud_type     - MUD TYPE
MATR.         LIMESTONE            : Logunit      - NEUTRON MATRIX
TMAX.C        23                   : BHT          - MAXIMUM RECORDED TEMPERATURE
BHTD.M        406                  : BHTDEP       - MAXIMUM RECORDED TEMPERATURE
MATR.         1                    : LOGUNIT      - NEUTRON MATRIX
RMT .C        25                   : MDTP         - TEMPERATURE OF MUD
NEUT.         1                    : NEUTRON      - NEUTRON TYPE
RESI.         0                    : RESIST       - RESISTIVITY TYPE
RMC .OHMM     0.25                 : RMC          - RESISTIVITY OF MUD CAKE
RMF .OHMM     0.25                 : RMF          - RESISTIVITY OF MUD FILTRATE
SUFT.C        15                   : SUFT         - SURFACE TEMPERATURE
~A  DEPTH     PHID     PHIN       GR     RESD     DENS
# ...
  213.000    0.298    0.414   55.163   17.052    0.000
  213.250    0.297    0.417   55.174   21.797    0.000
  213.500    0.318    0.426   54.577   23.071    0.000
  213.750    0.325    0.427   53.367   22.643    0.000
  214.000    0.314    0.427   52.159   22.223    0.000
  214.250    0.312    0.432   55.222   21.811    0.000
  214.500    0.319    0.444   58.282   21.814    0.000
  214.750    0.325    0.449   60.123   22.233    0.000
  215.000    0.324    0.437   59.523   22.236    0.000
  215.250    0.325    0.434   55.265   22.663    0.000
  215.500    0.327    0.459   51.618   22.667    0.000
  215.750    0.324    0.433   49.801   22.670    0.000
  216.000    0.324    0.400   52.861   22.673    0.000
  216.250    0.334    0.435   54.093   23.108    0.000
  216.500    0.322    0.440   51.665   23.552    0.000
  216.750    0.321    0.433   49.239   24.005    0.000
  217.000    0.326    0.446   49.859   24.466    0.000
  217.250    0.332    0.459   50.478   24.936    0.000
  217.500    0.336    0.445   46.222   25.415    0.000
  217.750    0.337    0.428   45.014   25.902    0.000
  218.000    0.338    0.424   49.292   25.907    0.000
  218.250    0.341    0.429   51.133   25.426    0.000
  218.500    0.343    0.435   51.146   25.430    0.000
  218.750    0.348    0.440   51.157   24.958    0.000
  219.000    0.344    0.440   52.387   24.962    0.000
  219.250    0.333    0.429   55.452   24.965    0.000
  219.500    0.332    0.422   55.459   25.445    0.000
  219.750    0.344    0.420   54.861   25.934    0.000
  220.000    0.344    0.428   56.092   26.935    0.000
  220.250    0.343    0.421   53.666   27.452    0.000
  220.500    0.353    0.425   51.237   27.979    0.000
  220.750    0.353    0.451   52.468   28.516    0.000
  221.000    0.351    0.445   56.139   28.520    0.000
  221.250    0.351    0.453   59.809   28.524    0.000
  221.500    0.353    0.439   57.381   28.529    0.000
  221.750    0.351    0.434   54.343   29.077    0.000
  222.000    0.345    0.463   51.306   29.635    0.000
  222.250    0.339    0.459   50.707   29.639    0.000
  222.500    0.339    0.438   53.159   30.208    0.000
  222.750    0.349    0.424   56.218   30.212    0.000
  223.000    0.350    0.415   56.841   30.217    0.000
  223.250    0.351    0.436   56.852   30.798    0.000
  223.500    0.361    0.425   58.690   31.389    0.000
  223.750    0.365    0.422   63.582   31.393    0.000
  224.000    0.366    0.433   64.202   31.397    0.000
  224.250    0.366    0.432   60.554   31.403    0.000
  224.500    0.366    0.437   55.689   31.407    0.000
  224.750    0.365    0.446   56.312   31.412    0.000
  225.000    0.366    0.441   56.930   32.015    0.000
  225.250    0.367    0.431   55.725   32.022    0.000
  225.500    0.373    0.436   55.124   32.635    0.000
  225.750    0.377    0.443   53.309   32.639    0.000
  226.000    0.368    0.450   53.320   32.644    0.000
  226.250    0.357    0.437   55.767   32.038    0.000
  226.500    0.358    0.433   63.705   30.857    0.000
  226.750    0.362    0.456   64.327   29.718    0.000
  227.000    0.366    0.469   60.071   28.622    0.000
  227.250    0.369    0.460   55.203   28.090    0.000
  227.500    0.378    0.453   53.386   27.569    0.000
  227.750    0.367    0.450   55.836   27.057    0.000
  228.000    0.365    0.453   57.067   27.062    0.000
  228.250    0.378    0.457   57.078   27.065    0.000
  228.500    0.376    0.451   56.482   27.585    0.000
  228.750    0.369    0.456   54.664   27.074    0.000
  229.000    0.378    0.459   53.454   26.572    0.000
  229.250    0.378    0.457   55.294   26.576    0.000
  229.500    0.370    0.460   59.577   27.086    0.000
  229.750    0.370    0.456   58.367   27.089    0.000
  230.000    0.380    0.454   55.328   27.610    0.000
  230.250    0.382    0.461   53.515   28.140    0.000
  230.500    0.379    0.473   53.522   28.680    0.000
  230.750    0.377    0.460   54.755   29.231    0.000
  231.000    0.379    0.457   56.594   29.792    0.000
  231.250    0.388    0.466   57.217   29.796    0.000
  231.500    0.393    0.466   55.398   30.369    0.000
  231.750    0.387    0.464   52.360   30.372    0.000
  232.000    0.371    0.446   49.323   30.377    0.000
  232.250    0.364    0.445   48.114   30.382    0.000
  232.500    0.374    0.453   49.957   30.386    0.000
  232.750    0.390    0.472   51.798   29.823    0.000
  233.000    0.388    0.475   52.416   29.828    0.000
  233.250    0.382    0.456   53.649   29.274    0.000
  233.500    0.378    0.445   51.222   29.279    0.000
  233.750    0.377    0.469   50.011   29.284    0.000
  234.000    0.380    0.474   50.027   29.288    0.000
  234.250    0.383    0.474   51.865   29.292    0.000
  234.500    0.387    0.468   54.926   28.749    0.000
  234.750    0.389    0.458   55.548   28.751    0.000
  235.000    0.384    0.454   54.947   28.756    0.000
  235.250    0.373    0.495   55.570   28.223    0.000
  235.500    0.373    0.481   53.140   28.227    0.000
  235.750    0.378    0.467   50.103   27.703    0.000
  236.000    0.381    0.458   51.944   27.708    0.000
  236.250    0.374    0.466   50.126   27.711    0.000
  236.500    0.367    0.474   48.917   27.715    0.000
  236.750    0.381    0.469   53.199   27.720    0.000
  237.000    0.388    0.460   52.598   27.724    0.000
  237.250    0.383    0.454   49.562   27.209    0.000
  237.500    0.383    0.460   47.136   27.214    0.000
  237.750    0.371    0.486   44.097   27.217    0.000
  238.000    0.364    0.490   43.497   27.220    0.000
  238.250    0.383    0.490   47.781   26.717    0.000
  238.500    0.385    0.507   48.398   26.720    0.000
  238.750    0.375    0.494   47.803   26.724    0.000
  239.000    0.374    0.494   49.031   26.729    0.000
  239.250    0.380    0.483   50.872   26.733    0.000
  239.500    0.384    0.466   52.713   26.737    0.000
  239.750    0.383    0.467   49.676   26.740    0.000
  240.000    0.379    0.498   47.247   26.244    0.000
  240.250    0.379    0.493   46.649   26.248    0.000
  240.500    0.381    0.493   47.881   25.761    0.000
  240.750    0.389    0.499   49.721   25.283    0.000
  241.000    0.392    0.489   49.732   24.814    0.000
  241.250    0.385    0.486   49.136   24.817    0.000
  241.500    0.373    0.468   49.755   24.357    0.000
  241.750    0.373    0.452   51.598   24.360    0.000
  242.000    0.382    0.455   50.391   23.909    0.000
  242.250    0.381    0.498   50.399   23.465    0.000
  242.500    0.381    0.504   52.241   23.030    0.000
  242.750    0.382    0.489   54.080   22.602    0.000
  243.000    0.382    0.482   55.313   22.183    0.000
  243.250    0.381    0.476   54.106   21.771    0.000
  243.500    0.373    0.473   52.900   20.968    0.000
  243.750    0.361    0.463   52.297   20.194    0.000
  244.000    0.360    0.467   52.920   17.698    0.000
  244.250    0.364    0.489   54.762   15.220    0.000
  244.500    0.352    0.487   57.211   11.687    0.000
  244.750    0.347    0.461   60.879    7.717    0.000
  245.000    0.336    0.455   66.989    6.271    0.000
  245.250    0.334    0.488   79.806    6.272    0.000
  245.500    0.374    0.604   77.990    7.867    0.000
  245.750    0.385    0.562   72.511   10.248    0.000
  246.000    0.315    0.507   58.497   12.855    0.000
  246.250    0.274    0.447   50.583   15.238    0.000
  246.500    0.240    0.441   48.765   15.530    0.000
  246.750    0.227    0.490   51.824   13.106    0.000
  247.000    0.243    0.513   62.202   10.451    0.000
  247.250    0.286    0.501   67.704    8.655    0.000
  247.500    0.330    0.494   72.592    7.443    0.000
  247.750    0.337    0.483   77.482    6.281    0.000
  248.000    0.298    0.486   82.370    5.505    0.000
  248.250    0.281    0.501   92.138    4.916    0.000
  248.500    0.271    0.508   93.370    4.390    0.000
  248.750    0.257    0.524   93.990    4.149    0.000
  249.000    0.250    0.561   96.440    3.921    0.000
  249.250    0.263    0.578   96.452    3.706    0.000
