~VERSION INFORMATION
 VERS.                 2.0:   CWLS LOG ASCII STANDARD -VERSION 2.0
 WRAP.                  NO:   ONE LINE PER DEPTH STEP
~WELL INFORMATION BLOCK
#MNEM.UNIT           DATA                    DESCRIPTION OF MNEMONIC
#---------    -------------------            -------------------------------
# Generated from Intellog Unique Number	CW_79_81/WELL/877
WELL.         10-32-079-21W4                 : Well_name    - WELL
LOC .         00/10-32-079-21W4/0            : Location     - LOCATION
UWI .         00/10-32-079-21W4/0            : Uwi          - UNIQUE WELL ID
ENTR.         MAX                            : Entered      - ENTERED BY
SRVC.         SCHLUMBERGER                   : Scn          - SERVICE COMPANY
STRT.M        195                            : top_depth    - START DEPTH
STOP.M        415                            : bot_depth    - STOP DEPTH
STEP.M        0.25                           : increment    - STEP LENGTH
 NULL. -999.2500:NULL Value
~CURVE INFORMATION BLOCK
#MNEM UNIT       ERCB CURVE CODE    CURVE DESCRIPTION
#-----------   ------------------   ----------------------------------
DEPT.M        00 001 00 00         : DEPTH        - DEPTH
ILD .OHMM     00 120 00 00         : RESD         - DEEP RESISTIVITY (DIL)
NPHI.V/V      00 330 00 00         : PHIN         - NEUTRON POROSITY (SANDSTONE)
DPHI.V/V      00 890 00 00         : PHID         - DENSITY POROSITY (SANDSTONE)
CALI.MM       00 280 01 00         : CAL          - CALIPER
GR  .API      00 310 00 00         : GR           - GAMMA RAY
~PARAMETER INFORMATION
#MNEM.UNIT           DATA             DESCRIPTION OF MNEMONIC
#---------         -----------     ------------------------------
GL  .M        576.83               : gl           - GROUND LEVEL ELEVATION
EREF.M        580.8                : kb           - ELEVATION OF DEPTH REFERENCE
DATM.M        576.83               : datum        - DATUM ELEVATION
TDD .M        446.75               : tdd          - TOTAL DEPTH DRILLER
RUN .         ONE                  : Run          - RUN NUMBER
ENG .         BILL                 : Engineer     - RECORDING ENGINEER
WIT .         JIM                  : Witness      - WITNESSED BY
MUD .         GEL                  : Mud_type     - MUD TYPE
MATR.         SANDSTONE            : Logunit      - NEUTRON MATRIX
TMAX.C        27.2                 : BHT          - MAXIMUM RECORDED TEMPERATURE
BHTD.M        446.75               : BHTDEP       - MAXIMUM RECORDED TEMPERATURE
RMT .C        12.2                 : MDTP         - TEMPERATURE OF MUD
MUDD.KG/M     1188                 : MWT          - MUD DENSITY
NEUT.         1                    : NEUTRON      - NEUTRON TYPE
RESI.         0                    : RESIST       - RESISTIVITY TYPE
RM  .OHMM     1.35                 : RM           - RESISTIVITY OF MUD
RMC .OHMM     0                    : RMC          - RESISTIVITY OF MUD CAKE
RMF .OHMM     4.93                 : RMF          - RESISTIVITY OF MUD FILTRATE
SUFT.C        -5                   : SUFT         - SURFACE TEMPERATURE
~A  DEPTH     RESD     PHIN     PHID      CAL       GR
# ...
  341.000   16.738    0.425    0.208  238.959   81.247
  341.250   16.146    0.436    0.211  240.046   78.907
  341.500   15.722    0.440    0.208  241.158   75.678
  341.750   15.737    0.413    0.165  242.756   75.448
  342.000   16.049    0.414    0.182  245.364   79.091
  342.250   16.210    0.439    0.178  246.451   86.332
  342.500   16.077    0.476    0.194  247.051   86.401
  342.750   15.367    0.492    0.205  248.151   86.471
  343.000   14.962    0.455    0.208  250.247   87.130
  343.250   14.976    0.444    0.197  251.858   87.782
  343.500   15.001    0.438    0.207  253.444   88.150
  343.750   15.006    0.454    0.220  255.540   86.716
  344.000   15.300    0.452    0.214  257.177   84.376
  344.250   15.458    0.449    0.205  257.777   86.539
  344.500   15.329    0.431    0.213  258.851   87.797
  344.750   15.065    0.433    0.214  260.462   86.371
  345.000   15.065    0.454    0.213  261.549   84.046
  345.250   14.951    0.455    0.203  262.686   83.502
  345.500   14.695    0.443    0.213  264.770   83.555
  345.750   14.437    0.436    0.203  269.859   85.719
  346.000   14.461    0.444    0.198  273.975   86.087
  346.250   14.200    0.449    0.175  275.062   85.251
  346.500   14.215    0.445    0.199  276.148   85.013
  346.750   14.362    0.431    0.203  277.261   83.586
  347.000   14.779    0.421    0.206  278.373   84.537
  347.250   14.928    0.431    0.210  280.981   88.480
  347.500   14.807    0.442    0.205  282.055   87.053
  347.750   14.686    0.444    0.200  283.653   84.721
  348.000   14.564    0.439    0.210  284.752   84.483
  348.250   14.564    0.445    0.210  284.854   85.151
  348.500   14.593    0.456    0.197  284.969   85.511
  348.750   14.338    0.471    0.193  285.072   85.266
  349.000   14.223    0.471    0.212  285.174   82.941
  349.250   14.106    0.442    0.207  286.772   82.704
  349.500   14.116    0.453    0.182  288.383   85.457
  349.750   14.011    0.461    0.166  287.986   84.621
  350.000   13.888    0.472    0.177  287.590   80.502
  350.250   13.899    0.469    0.195  287.705   80.249
  350.500   13.912    0.467    0.204  287.321   81.208
  350.750   13.671    0.462    0.187  286.938   85.465
  351.000   13.560    0.478    0.182  286.938   88.525
  351.250   13.448    0.482    0.182  286.605   88.886
  351.500   13.459    0.459    0.201  286.209   87.743
  351.750   13.227    0.456    0.200  286.324   85.120
  352.000   12.879    0.463    0.186  285.940   86.684
  352.250   12.654    0.458    0.165  285.058   87.942
  352.500   12.551    0.473    0.190  284.151   88.901
  352.750   12.679    0.500    0.194  283.256   89.254
  353.000   12.928    0.473    0.199  281.862   89.914
  353.250   13.058    0.463    0.212  280.980   91.187
  353.500   12.955    0.477    0.209  279.586   90.942
  353.750   12.269    0.484    0.204  278.691   88.310
  354.000   12.054    0.474    0.159  278.282   87.183
  354.250   11.954    0.459    0.162  277.374   87.835
  354.500   12.191    0.435    0.174  276.978   89.998
  354.750   12.895    0.410    0.178  276.121   89.453
  355.000   13.641    0.404    0.194  275.201   89.829
  355.250   13.527    0.426    0.202  274.319   92.276
  355.500   12.235    0.443    0.184  273.424   94.148
  355.750   11.376    0.463    0.174  272.516   92.399
  356.000   10.875    0.452    0.180  271.122   87.973
  356.250   10.395    0.448    0.147  268.246   87.136
  356.500   10.310    0.421    0.128  264.871   88.394
  356.750   10.415    0.407    0.183  261.956   91.164
  357.000   10.716    0.426    0.188  260.562   93.020
  357.250   11.234    0.444    0.206  259.169   93.979
  357.500   11.039    0.444    0.220  256.778   94.339
  357.750   10.747    0.430    0.209  252.891   92.897
  358.000   10.465    0.435    0.188  247.036   89.077
  358.250   10.570    0.435    0.172  244.134   87.044
  358.500   11.287    0.407    0.191  242.229   85.311
  358.750   12.276    0.423    0.239  240.337   85.671
  359.000   13.108    0.411    0.223  238.445   84.528
  359.250   13.361    0.409    0.218  237.550   82.795
  359.500   13.878    0.423    0.226  236.182   80.163
  359.750   14.149    0.414    0.252  235.760   79.028
  360.000   14.426    0.403    0.242  235.875   82.089
  360.250   14.440    0.418    0.232  236.054   86.047
  360.500   14.455    0.418    0.240  236.079   87.911
  360.750   14.467    0.399    0.225  236.680   87.374
  361.000   14.615    0.414    0.179  236.795   85.939
  361.250   14.901    0.421    0.138  237.396   82.395
  361.500   15.194    0.390    0.127  238.495   82.465
  361.750   15.490    0.404    0.204  239.083   81.329
  362.000   15.650    0.408    0.222  239.198   77.195
  362.250   15.956    0.414    0.206  239.313   69.777
  362.500   16.270    0.424    0.187  239.403   62.352
  362.750   16.740    0.400    0.133  239.518   60.618
  363.000   17.877    0.380    0.158  239.620   66.969
  363.250   18.907    0.403    0.221  239.620   70.927
  363.500   19.102    0.423    0.229  239.850   70.099
  363.750   18.944    0.404    0.200  240.438   68.956
  364.000   18.280    0.389    0.184  240.528   68.427
  364.250   18.462    0.359    0.158  240.643   68.480
  364.500   19.716    0.342    0.125  240.745   67.660
  364.750   20.471    0.387    0.174  240.834   66.808
  365.000   20.683    0.413    0.218  240.937   65.374
  365.250   20.512    0.424    0.192  241.052   63.049
  365.500   20.529    0.377    0.168  241.154   61.308
  365.750   21.130    0.337    0.127  241.767   58.086
  366.000   22.144    0.261    0.068  242.381   56.944
  366.250   28.698    0.249    0.093  242.471   59.398
  366.500   36.500    0.264    0.121  243.059   63.065
  366.750   40.812    0.316    0.189  243.174   64.023
  367.000   37.594    0.351    0.205  243.276   64.691
  367.250   26.270    0.395    0.213  243.889   65.642
  367.500   23.326    0.414    0.209  244.490   66.593
  367.750   21.889    0.426    0.225  244.580   66.670
  368.000   21.309    0.443    0.246  245.206   66.724
  368.250   20.942    0.441    0.246  245.781   68.288
  368.500   20.785    0.431    0.234  246.382   67.153
  368.750   20.415    0.435    0.226  247.494   65.112
  369.000   20.239    0.427    0.210  248.095   64.276
  369.250   20.072    0.434    0.206  249.706   65.841
  369.500   20.282    0.435    0.225  250.294   66.800
  369.750   20.301    0.435    0.226  251.406   65.972
  370.000   20.316    0.429    0.206  252.519   64.829
  370.250   20.337    0.426    0.218  253.618   64.890
  370.500   20.172    0.432    0.222  255.216   66.754
  370.750   19.822    0.433    0.198  256.303   68.019
  371.000   19.481    0.428    0.203  257.913   68.066
  371.250   19.332    0.423    0.205  259.524   68.135
  371.500   18.809    0.430    0.203  260.611   72.085
  371.750   18.311    0.428    0.194  261.723   75.445
  372.000   17.665    0.432    0.185  262.311   75.813
  372.250   16.887    0.451    0.202  263.423   78.267
  372.500   16.887    0.457    0.214  265.034   80.423
  372.750   16.465    0.433    0.216  265.622   81.689
  373.000   16.022    0.428    0.201  266.249   84.143
  373.250   15.178    0.420    0.201  266.325   86.897
  373.500   14.776    0.402    0.186  265.955   88.170
  373.750   14.521    0.396    0.174  267.041   87.917
  374.000   14.270    0.403    0.182  267.655   86.797
  374.250   14.152    0.410    0.168  266.747   90.441
  374.500   14.152    0.421    0.171  266.363   94.100
  374.750   13.177    0.423    0.174  265.469   94.153
  375.000   12.022    0.418    0.144  264.075   91.223
  375.250   11.706    0.413    0.108  263.666   93.079
  375.500   11.717    0.416    0.092  263.282   96.431
  375.750   11.620    0.423    0.155  263.372   97.697
  376.000   11.106    0.432    0.182  263.487   95.979
  376.250   10.616    0.431    0.180  263.103   94.230
  376.500   10.626    0.410    0.175  262.195   91.599
  376.750   11.346    0.392    0.177  261.313   92.573
  377.000   11.679    0.416    0.172  260.431   95.319
  377.250   11.686    0.441    0.152  259.037   96.569
