~VERSION INFORMATION
 VERS.                 2.0:   CWLS LOG ASCII STANDARD -VERSION 2.0
 WRAP.                  NO:   ONE LINE PER DEPTH STEP
~WELL INFORMATION BLOCK
#MNEM.UNIT           DATA                    DESCRIPTION OF MNEMONIC
#---------    -------------------            -------------------------------
# Generated from Intellog Unique Number	CS_67_68/WELL/850
LOC .         00/11-32-068-16W4/0            : Location     - LOCATION
UWI .         00/11-32-068-16W4/0            : Uwi          - UNIQUE WELL ID
ENTR.         SP                             : Entered      - ENTERED BY
SRVC.         SCHLUMBERGER                   : Scn          - SERVICE COMPANY
STRT.M        243.84                         : top_depth    - START DEPTH
STOP.M        487.34                         : bot_depth    - STOP DEPTH
STEP.M        0.25                           : increment    - STEP LENGTH
 NULL. -999.2500:NULL Value
~CURVE INFORMATION BLOCK
#MNEM UNIT       ERCB CURVE CODE    CURVE DESCRIPTION
#-----------   ------------------   ----------------------------------
DEPT.M        00 001 00 00         : DEPTH        - DEPTH
GR  .API      00 310 00 00         : GR           - GAMMA RAY
DPHI.V/V      00 890 00 00         : PHID         - DENSITY POROSITY (SANDSTONE)
NPHI.V/V      00 330 00 00         : PHIN         - NEUTRON POROSITY (SANDSTONE)
ILD .OHMM     00 120 00 00         : RESD         - DEEP RESISTIVITY (DIL)
~PARAMETER INFORMATION
#MNEM.UNIT           DATA             DESCRIPTION OF MNEMONIC
#---------         -----------     ------------------------------
GL  .M        558.576              : gl           - GROUND LEVEL ELEVATION
EREF.M        562.234              : kb           - ELEVATION OF DEPTH REFERENCE
DATM.M        558.576              : datum        - DATUM ELEVATION
TDD .M        494.995              : tdd          - TOTAL DEPTH DRILLER
RUN .         ONE                  : Run          - RUN NUMBER
ENG .         BILL                 : Engineer     - RECORDING ENGINEER
WIT .         JIM                  : Witness      - WITNESSED BY
MUD .         GEL                  : Mud_type     - MUD TYPE
MATR.         SANDSTONE            : Logunit      - NEUTRON MATRIX
TMAX.C        23.8889              : BHT          - MAXIMUM RECORDED TEMPERATURE
BHTD.M        494.995              : BHTDEP       - MAXIMUM RECORDED TEMPERATURE
MATR.         1                    : LOGUNIT      - NEUTRON MATRIX
RMT .C        25                   : MDTP         - TEMPERATURE OF MUD
NEUT.         1                    : NEUTRON      - NEUTRON TYPE
RESI.         0                    : RESIST       - RESISTIVITY TYPE
RMC .OHMM     0.25                 : RMC          - RESISTIVITY OF MUD CAKE
RMF .OHMM     0.25                 : RMF          - RESISTIVITY OF MUD FILTRATE
SUFT.C        15                   : SUFT         - SURFACE TEMPERATURE
~A  DEPTH       GR     PHID     PHIN     RESD
# ...
  287.340  116.187    0.186    0.465    2.849
  287.590  115.860    0.175    0.479    2.845
  287.840  115.458    0.186    0.498    2.753
  288.090  115.971    0.202    0.514    2.621
  288.340  117.113    0.198    0.523    2.494
  288.590  117.732    0.202    0.509    2.334
  288.840  117.729    0.198    0.504    2.235
  289.090  116.991    0.213    0.508    2.195
  289.340  115.689    0.211    0.507    2.214
  289.590  114.757    0.194    0.499    2.250
  289.840  114.216    0.186    0.498    2.308
  290.090  114.491    0.195    0.507    2.367
  290.340  115.530    0.205    0.518    2.414
  290.590  117.378    0.203    0.517    2.458
  290.840  120.557    0.221    0.520    2.484
  291.090  122.461    0.219    0.529    2.482
  291.340  122.052    0.228    0.521    2.463
  291.590  119.629    0.224    0.514    2.458
  291.840  116.780    0.230    0.515    2.459
  292.090  114.197    0.224    0.527    2.469
  292.340  111.500    0.235    0.516    2.458
  292.590  108.815    0.236    0.508    2.416
  292.840  108.481    0.208    0.538    2.350
  293.090  111.546    0.194    0.564    2.326
  293.340  107.352    0.213    0.580    2.351
  293.590   99.854    0.233    0.462    2.402
  293.840   94.718    0.226    0.424    2.456
  294.090   90.097    0.212    0.400    2.539
  294.340   96.279    0.272    0.408    2.602
  294.590  102.103    0.295    0.417    2.620
  294.840  110.265    0.300    0.423    2.593
  295.090  115.468    0.278    0.426    2.570
  295.340  117.949    0.258    0.431    2.593
  295.590  119.421    0.249    0.443    2.640
  295.840  117.209    0.250    0.456    2.728
  296.090  106.471    0.266    0.465    2.827
  296.340   94.471    0.290    0.384    2.942
  296.590   81.261    0.299    0.385    3.031
  296.840   68.326    0.307    0.395    2.895
  297.090   61.618    0.303    0.403    2.638
  297.340   64.254    0.292    0.406    2.293
  297.590   71.947    0.282    0.394    2.054
  297.840   77.763    0.272    0.389    1.879
  298.090   83.328    0.265    0.396    1.827
  298.340   87.786    0.270    0.408    1.986
  298.590   90.524    0.285    0.421    2.145
  298.840   92.704    0.277    0.419    2.273
  299.090   94.220    0.272    0.405    2.424
  299.340   95.331    0.252    0.396    2.595
  299.590   95.851    0.238    0.406    2.683
  299.840   95.544    0.256    0.423    2.758
  300.090   93.180    0.278    0.428    2.840
  300.340   91.323    0.292    0.430    2.884
  300.590   93.495    0.278    0.432    2.908
  300.840   98.701    0.262    0.422    2.910
  301.090  101.469    0.245    0.417    2.901
  301.340  101.801    0.231    0.412    3.053
  301.590  100.943    0.221    0.413    3.328
  301.840  100.032    0.226    0.414    3.439
  302.090   98.361    0.236    0.412    3.486
  302.340   95.172    0.238    0.409    3.255
  302.590   92.905    0.220    0.405    3.051
  302.840   97.165    0.209    0.413    2.974
  303.090  102.340    0.184    0.419    2.971
  303.340  105.138    0.161    0.424    3.052
  303.590  106.914    0.150    0.422    3.185
  303.840  105.964    0.144    0.413    3.314
  304.090  103.906    0.167    0.432    3.417
  304.340  104.298    0.213    0.473    3.387
  304.590  106.287    0.237    0.485    3.292
  304.840  105.440    0.239    0.480    3.191
  305.090  104.269    0.253    0.456    3.124
  305.340  103.672    0.250    0.433    3.125
  305.590  104.929    0.237    0.438    3.204
  305.840  107.545    0.230    0.447    3.274
  306.090  109.517    0.228    0.450    3.399
  306.340  110.620    0.240    0.457    3.526
  306.590  109.955    0.240    0.453    3.620
  306.840  107.587    0.237    0.455    3.631
  307.090  105.801    0.229    0.452    3.627
  307.340  105.492    0.218    0.444    3.589
  307.590  105.477    0.203    0.447    3.550
  307.840  104.158    0.203    0.450    3.473
  308.090  103.782    0.218    0.451    3.433
  308.340  104.518    0.244    0.453    3.372
  308.590  105.118    0.257    0.457    3.275
  308.840  104.378    0.260    0.452    3.218
  309.090  102.178    0.250    0.441    3.156
  309.340   98.189    0.234    0.450    3.110
  309.590   95.936    0.215    0.467    3.125
  309.840   95.139    0.203    0.471    3.292
  310.090   95.770    0.208    0.454    3.516
  310.340   97.198    0.218    0.446    3.712
  310.590   97.284    0.249    0.459    3.807
  310.840   98.585    0.266    0.468    3.833
  311.090   99.126    0.260    0.456    3.761
  311.340   96.070    0.250    0.452    3.663
  311.590   92.823    0.237    0.452    3.587
  311.840   93.748    0.230    0.455    3.547
  312.090   98.801    0.221    0.471    3.531
  312.340  103.993    0.226    0.483    3.510
  312.590  109.200    0.246    0.485    3.511
  312.840  112.928    0.235    0.486    3.509
  313.090  115.266    0.219    0.491    3.497
  313.340  116.938    0.199    0.501    3.427
  313.590  120.755    0.179    0.520    3.314
  313.840  124.704    0.184    0.527    3.280
  314.090  126.599    0.175    0.536    3.302
  314.340  124.768    0.191    0.548    3.344
  314.590  128.896    0.195    0.496    3.300
  314.840  132.532    0.210    0.477    3.194
  315.090  135.539    0.216    0.457    3.161
  315.340  131.118    0.228    0.438    3.254
  315.590  125.778    0.234    0.422    3.376
  315.840  121.641    0.226    0.408    3.444
  316.090  117.844    0.223    0.402    3.532
  316.340  121.125    0.225    0.411    3.680
  316.590  123.212    0.225    0.417    3.806
  316.840  124.343    0.220    0.409    3.907
  317.090  124.749    0.220    0.419    4.000
  317.340  124.938    0.227    0.439    4.091
  317.590  124.571    0.217    0.441    4.178
  317.840  121.885    0.210    0.449    4.239
  318.090  120.417    0.217    0.457    4.246
  318.340  121.234    0.216    0.454    4.173
  318.590  122.479    0.218    0.440    4.083
  318.840  124.497    0.217    0.431    3.908
  319.090  126.553    0.216    0.445    3.773
  319.340  128.169    0.217    0.458    3.652
  319.590  129.326    0.219    0.465    3.576
  319.840  129.580    0.224    0.443    3.545
  320.090  129.950    0.230    0.432    3.557
  320.340  129.910    0.228    0.437    3.608
  320.590  127.308    0.233    0.448    3.648
  320.840  124.387    0.249    0.453    3.694
  321.090  122.425    0.238    0.427    3.733
  321.340  124.831    0.218    0.410    3.787
  321.590  125.912    0.209    0.414    3.867
  321.840  127.446    0.207    0.418    3.911
  322.090  129.410    0.209    0.420    3.977
  322.340  131.809    0.204    0.419    3.989
  322.590  134.671    0.211    0.432    3.832
  322.840  137.738    0.200    0.450    3.566
  323.090  140.426    0.186    0.469    3.328
  323.340  141.580    0.203    0.488    3.084
  323.590  138.103    0.234    0.499    2.891
  323.840  132.899    0.226    0.482    2.750
  324.090  127.433    0.229    0.475    2.681
  324.340  120.071    0.251    0.474    2.704
  324.590  112.064    0.240    0.472    2.718
  324.840  105.149    0.223    0.493    2.720
  325.090  101.805    0.232    0.476    2.700
  325.340  100.340    0.249    0.454    2.651
  325.590   99.608    0.260    0.439    2.642
  325.840   97.544    0.268    0.447    2.655
  326.090   92.570    0.285    0.437    2.750
  326.340   84.796    0.276    0.345    2.928
  326.590   77.001    0.201    0.294    3.282
  326.840   71.803    0.133    0.243    3.809
  327.090   65.425    0.074    0.212    4.333
  327.340   60.667    0.052    0.209    5.151
  327.590   58.716    0.104    0.258    7.068
  327.840   66.510    0.196    0.313   10.104
  328.090   72.633    0.246    0.354   13.247
  328.340   77.795    0.285    0.419   12.025
  328.590   79.796    0.323    0.470    9.319
  328.840   80.100    0.324    0.463    6.763
  329.090   80.352    0.319    0.454    5.592
  329.340   80.445    0.321    0.446    4.845
  329.590   80.368    0.325    0.440    4.536
  329.840   81.827    0.316    0.439    4.274
  330.090   86.220    0.306    0.438    4.182
  330.340   89.374    0.297    0.438    4.056
  330.590   90.838    0.288    0.439    3.899
