~VERSION INFORMATION
 VERS.                 2.0:   CWLS LOG ASCII STANDARD -VERSION 2.0
 WRAP.                  NO:   ONE LINE PER DEPTH STEP
~WELL INFORMATION BLOCK
#MNEM.UNIT           DATA                    DESCRIPTION OF MNEMONIC
#---------    -------------------            -------------------------------
# Generated from Intellog Unique Number	CC_80_83/WELL/2368
NULL.         -999.25                        : NULL_VALUE
WELL.         GULF RESDELN                   : Well_name    - WELL              
LOC .         10-23-083-07W4                 : Location     - LOCATION          
UWI .         00/10-23-083-07W4/0            : Uwi          - UNIQUE WELL ID    
ENTR.         DW                             : Entered      - ENTERED BY        
SRVC.         SCHLUMBERGER                   : Scn          - SERVICE COMPANY   
DATE.         14 JAN 79                      : Date         - LOG DATE
STRT.M        150                            : top_depth    - START DEPTH       
STOP.M        414.895                        : bot_depth    - STOP DEPTH        
STEP.M        0.3                            : increment    - STEP LENGTH       
~CURVE INFORMATION BLOCK
#MNEM UNIT       ERCB CURVE CODE    CURVE DESCRIPTION
#-----------   ------------------   ----------------------------------
DEPT.M        00 001 00 00         : DEPTH        - DEPTH                       
DPHI.V/V      00 890 00 00         : PHID         - DENSITY POROSITY (LIMESTONE)
NPHI.V/V      00 330 00 00         : PHIN         - NEUTRON POROSITY (LIMESTONE)
GR  .API      00 310 00 00         : GR           - GAMMA RAY                   
ILD .OHMM     00 120 00 00         : RESD         - DEEP RESISTIVITY (DIL)      
~PARAMETER INFORMATION       
#MNEM.UNIT           DATA             DESCRIPTION OF MNEMONIC
#---------         -----------     ------------------------------
GL  .M        611.12               : gl           - GROUND LEVEL ELEVATION      
EREF.M        614.5                : kb           - ELEVATION OF DEPTH REFERENCE
DATM.M        614.5                : datum        - DATUM ELEVATION             
TDD .M        418                  : tdd          - TOTAL DEPTH DRILLER         
RUN .         ONE                  : Run          - RUN NUMBER                  
ENG .         BILL                 : Engineer     - RECORDING ENGINEER          
WIT .         JIM                  : Witness      - WITNESSED BY                
MUD .         GEL                  : Mud_type     - MUD TYPE                    
MATR.         LIMESTONE            : Logunit      - NEUTRON MATRIX              
TMAX.C        23                   : BHT          - MAXIMUM RECORDED TEMPERATURE
BHTD.M        418                  : BHTDEP       - MAXIMUM RECORDED TEMPERATURE
MATR.         1                    : LOGUNIT      - NEUTRON MATRIX              
RMT .C        25                   : MDTP         - TEMPERATURE OF MUD          
NEUT.         1                    : NEUTRON      - NEUTRON TYPE                
RESI.         0                    : RESIST       - RESISTIVITY TYPE            
RMC .OHMM     0.25                 : RMC          - RESISTIVITY OF MUD CAKE     
RMF .OHMM     0.25                 : RMF          - RESISTIVITY OF MUD FILTRATE 
SUFT.C        4                    : SUFT         - SURFACE TEMPERATURE         
~A  DEPTH     PHID     PHIN       GR     RESD
  150.000    0.319    0.584  107.237    2.437
  150.300    0.315    0.611  104.161    2.431
  150.600    0.312    0.615   99.845    2.335
  150.900    0.303    0.600  102.967    2.329
  151.200    0.289    0.584  109.188    2.322
  151.500    0.240    0.603  112.308    2.407
  151.800    0.238    0.532  101.793    2.495
  152.100    0.274    0.550  101.198    2.536
  152.400    0.299    0.564  108.655    2.483
  152.700    0.305    0.581  109.303    2.430
  153.000    0.295    0.586  109.320    2.377
  153.300    0.293    0.571  104.384    2.415
  153.600    0.288    0.529  102.547    2.412
  153.900    0.279    0.519  109.386    2.500
  154.200    0.268    0.539  107.548    2.689
  154.500    0.290    0.587  103.233    2.894
  154.800    0.279    0.609  103.876    2.998
  155.100    0.281    0.543  110.096    3.106
  155.400    0.260    0.517  115.697    3.473
  155.700    0.246    0.477  106.421    3.956
  156.000    0.259    0.509  110.782    4.177
  156.300    0.292    0.520  108.946    4.090
  156.600    0.268    0.540  108.968    3.855
  156.900    0.263    0.582  118.908    3.562
  157.200    0.256    0.540  105.293    3.490
  157.500    0.269    0.516  104.695    3.481
  157.800    0.275    0.516  109.059    3.607
  158.100    0.276    0.503  113.419    3.954
  158.400    0.265    0.458  106.001    4.020
  158.700    0.254    0.444  106.646    3.937
  159.000    0.261    0.478  102.948    3.852
  159.300    0.250    0.500  105.447    4.387
  159.600    0.230    0.452  102.370    4.905
  159.900    0.219    0.440   92.475    5.279
  160.200    0.225    0.454  112.953    5.268
  160.500    0.250    0.484  118.554    4.779
  160.800    0.265    0.515  119.197    4.173
  161.100    0.257    0.537  109.302    4.085
  161.400    0.285    0.518   95.067    4.398
  161.700    0.278    0.443   83.311    5.942
  162.000    0.266    0.410   90.773    7.727
  162.300    0.283    0.433   94.516    8.972
  162.600    0.301    0.437   91.437   10.215
  162.900    0.323    0.417   89.604   10.791
  163.200    0.317    0.412   91.481   10.365
  163.500    0.317    0.460  103.279    9.771
  163.800    0.297    0.511  115.079    9.036
  164.100    0.238    0.528  120.064    7.890
  164.400    0.230    0.445  115.746    7.300
  164.700    0.228    0.443  108.948    6.747
  165.000    0.211    0.470  110.834    6.606
  165.300    0.201    0.486  110.233    6.843
  165.600    0.206    0.484  104.677    7.221
  165.900    0.219    0.452   94.159    7.632
  166.200    0.219    0.426   92.326    8.365
  166.500    0.208    0.431   82.427    9.180
  166.800    0.229    0.441   70.054   11.718
  167.100    0.234    0.423   62.017   13.348
  167.400    0.267    0.404   62.658   14.091
  167.700    0.298    0.429   66.405   14.321
  168.000    0.324    0.494   67.048   14.016
  168.300    0.316    0.480   70.163   13.470
  168.600    0.260    0.413   68.948   13.188
  168.900    0.268    0.404   72.688   12.425
  169.200    0.276    0.421   86.346   11.938
  169.500    0.263    0.428   91.328   11.245
  169.800    0.266    0.427   90.113   10.595
  170.100    0.267    0.433  111.830    9.987
  170.400    0.256    0.444  121.151    9.589
  170.700    0.248    0.446  121.794    9.205
  171.000    0.226    0.452  118.713    9.016
  171.300    0.232    0.464  121.837    8.818
  171.600    0.232    0.477  127.437    8.805
  171.900    0.241    0.470  129.942    9.480
  172.200    0.237    0.392  125.621   10.008
  172.500    0.241    0.401   94.031   10.373
  172.800    0.249    0.456  105.211   10.741
  173.100    0.259    0.467  108.951   10.714
  173.400    0.271    0.430  104.635   10.693
  173.700    0.255    0.375   94.739   11.505
  174.000    0.279    0.401   91.041   12.614
  174.300    0.330    0.438   89.828   13.835
  174.600    0.350    0.488   88.610   14.898
  174.900    0.360    0.479   84.291   16.970
  175.200    0.349    0.440   75.017   18.957
  175.500    0.341    0.428   76.278   19.635
  175.800    0.343    0.440   82.503   19.592
  176.100    0.328    0.452   81.280   19.196
  176.400    0.326    0.419   75.106   18.767
  176.700    0.331    0.443   79.466   18.383
  177.000    0.334    0.467   77.627   19.041
  177.300    0.328    0.485   69.591   19.349
  177.600    0.320    0.469   80.151   19.327
  177.900    0.309    0.448   80.799   19.636
  178.200    0.311    0.446   82.063   19.598
  178.500    0.299    0.451   86.422   18.458
  178.800    0.284    0.441   95.737   17.738
  179.100    0.266    0.438  102.582   16.406
  179.400    0.257    0.462  101.980   13.531
  179.700    0.250    0.459   99.523   11.828
  180.000    0.261    0.463  120.003    9.577
  180.300    0.269    0.479  120.026    8.854
  180.600    0.300    0.503  115.086    9.894
  180.900    0.322    0.450  110.769   12.395
  181.200    0.344    0.442  103.357   15.825
  181.500    0.342    0.440   91.598   18.014
  181.800    0.327    0.460   87.902   19.012
  182.100    0.324    0.462   77.386   19.353
  182.400    0.328    0.445   60.672   20.427
  182.700    0.323    0.391   55.118   21.991
  183.000    0.334    0.406   58.245   23.211
  183.300    0.348    0.428   59.499   23.597
  183.600    0.354    0.440   58.282   23.082
  183.900    0.349    0.434   62.643   22.616
  184.200    0.341    0.430   67.626   22.130
  184.500    0.339    0.437   70.130   21.265
  184.800    0.331    0.455   72.628   19.651
  185.100    0.313    0.424   64.593   18.529
  185.400    0.292    0.403   69.574   17.793
  185.700    0.291    0.395   78.896   16.775
  186.000    0.294    0.417   81.397   16.112
  186.300    0.295    0.451   76.461   16.066
  186.600    0.305    0.448   74.620   16.008
  186.900    0.295    0.403   74.025   15.979
  187.200    0.283    0.393   87.683   15.953
  187.500    0.267    0.394   94.523   15.606
  187.800    0.284    0.422   88.348   15.569
  188.100    0.290    0.443   79.072   15.237
  188.400    0.290    0.428   89.633   15.206
  188.700    0.295    0.416   89.657   15.179
  189.000    0.286    0.431   81.002   15.129
  189.300    0.279    0.438   81.020   15.101
  189.600    0.285    0.384   84.147   15.062
  189.900    0.284    0.397   84.785   14.746
  190.200    0.267    0.405   88.525   13.889
  190.500    0.252    0.416   96.606   12.138
  190.800    0.253    0.425   96.012   10.599
  191.100    0.231    0.443  102.849   10.377
  191.400    0.192    0.480  102.870   10.960
  191.700    0.191    0.471   89.878   12.489
  192.000    0.253    0.420   85.562   15.340
  192.300    0.324    0.410   89.922   17.479
  192.600    0.341    0.405   88.706   19.162
  192.900    0.319    0.407   89.969   20.624
  193.200    0.313    0.380  126.559   21.359
  193.500    0.306    0.409  142.698   21.736
  193.800    0.329    0.420  165.036   21.636
  194.100    0.302    0.402  173.117   21.592
  194.400    0.323    0.427  161.981   21.554
  194.700    0.305    0.408   94.437   20.711
  195.000    0.288    0.408   99.419   19.882
  195.300    0.272    0.425  103.165   19.117
  195.600    0.279    0.436   95.127   17.344
  195.900    0.277    0.453   90.806   15.729
  196.200    0.271    0.444  100.130   14.827
  196.500    0.268    0.447  101.392   14.242
  196.800    0.258    0.437  100.798   13.411
  197.100    0.255    0.432  104.537   12.896
  197.400    0.268    0.432  108.276   12.855
  197.700    0.266    0.447  107.676   13.079
  198.000    0.265    0.444   84.766   14.338
  198.300    0.296    0.437   81.069   15.726
  198.600    0.305    0.456   80.471   16.609
  198.900    0.290    0.426   74.296   16.570
  199.201    0.271    0.453   76.175   16.837
  199.501    0.274    0.434   74.958   16.789
  199.801    0.263    0.435   81.178   16.443
  200.101    0.287    0.445   89.881   15.803
  200.401    0.275    0.428   86.184   13.543
  200.701    0.254    0.429   91.164   12.291
  201.001    0.271    0.460   96.145   11.575
  201.301    0.281    0.482   96.787   11.555
  201.601    0.275    0.458   99.908   11.964
  201.901    0.248    0.442  101.175   12.395
