~VERSION INFORMATION
 VERS.                 2.0:   CWLS LOG ASCII STANDARD -VERSION 2.0
 WRAP.                  NO:   ONE LINE PER DEPTH STEP
~WELL INFORMATION BLOCK
#MNEM.UNIT           DATA                    DESCRIPTION OF MNEMONIC
#---------    -------------------            -------------------------------
# Generated from Intellog Unique Number	CS_71_72/WELL/887
WELL.         AMOCO AEC IPIATIK KIRBY        : Well_name    - WELL
LOC .         00/11-06-072-05W4/0            : Location     - LOCATION
UWI .         00/11-06-072-05W4/0            : Uwi          - UNIQUE WELL ID
ENTR.         SP                             : Entered      - ENTERED BY
SRVC.         SCHLUMBERGER                   : Scn          - SERVICE COMPANY
STRT.M        295                            : top_depth    - START DEPTH
STOP.M        535                            : bot_depth    - STOP DEPTH
STEP.M        0.25                           : increment    - STEP LENGTH
 NULL. -999.2500:NULL Value
~CURVE INFORMATION BLOCK
#MNEM UNIT       ERCB CURVE CODE    CURVE DESCRIPTION
#-----------   ------------------   ----------------------------------
DEPT.M        00 001 00 00         : DEPTH        - DEPTH
ILD .OHMM     00 120 00 00         : RESD         - DEEP RESISTIVITY (DIL)
DPHI.V/V      00 890 00 00         : PHID         - DENSITY POROSITY (LIMESTONE)
NPHI.V/V      00 330 00 00         : PHIN         - NEUTRON POROSITY (LIMESTONE)
GR  .API      00 310 00 00         : GR           - GAMMA RAY
~PARAMETER INFORMATION
#MNEM.UNIT           DATA             DESCRIPTION OF MNEMONIC
#---------         -----------     ------------------------------
GL  .M        668.3                : gl           - GROUND LEVEL ELEVATION
EREF.M        673.01               : kb           - ELEVATION OF DEPTH REFERENCE
DATM.M        668.3                : datum        - DATUM ELEVATION
TDD .M        562                  : tdd          - TOTAL DEPTH DRILLER
RUN .         ONE                  : Run          - RUN NUMBER
ENG .         BILL                 : Engineer     - RECORDING ENGINEER
WIT .         JIM                  : Witness      - WITNESSED BY
MUD .         GEL                  : Mud_type     - MUD TYPE
MATR.         LIMESTONE            : Logunit      - NEUTRON MATRIX
TMAX.C        20                   : BHT          - MAXIMUM RECORDED TEMPERATURE
BHTD.M        5622                 : BHTDEP       - MAXIMUM RECORDED TEMPERATURE
MATR.         1                    : LOGUNIT      - NEUTRON MATRIX
RMT .C        25                   : MDTP         - TEMPERATURE OF MUD
NEUT.         1                    : NEUTRON      - NEUTRON TYPE
RESI.         0                    : RESIST       - RESISTIVITY TYPE
RMC .OHMM     0.25                 : RMC          - RESISTIVITY OF MUD CAKE
RMF .OHMM     0.25                 : RMF          - RESISTIVITY OF MUD FILTRATE
SUFT.C        15                   : SUFT         - SURFACE TEMPERATURE
~A  DEPTH     RESD     PHID     PHIN       GR
# ...
  512.500    3.651    0.291    0.364   63.077
  512.750    3.651    0.272    0.362   69.116
  513.000    3.790    0.284    0.372   68.504
  513.250    3.862    0.279    0.370   63.053
  513.500    4.010    0.260    0.371   70.901
  513.750    4.086    0.255    0.376   73.920
  514.000    4.242    0.247    0.375   78.748
  514.250    4.242    0.239    0.373   79.349
  514.500    4.164    0.265    0.371   71.477
  514.750    4.012    0.281    0.372   59.373
  515.000    3.794    0.293    0.385   52.107
  515.250    3.588    0.304    0.391   46.049
  515.500    3.393    0.315    0.388   41.805
  515.750    3.269    0.324    0.384   40.589
  516.000    3.091    0.331    0.382   40.580
  516.250    3.035    0.317    0.387   44.198
  516.500    3.035    0.308    0.378   46.611
  516.750    3.151    0.303    0.368   52.043
  517.000    3.211    0.294    0.383   53.851
  517.250    3.334    0.296    0.393   56.261
  517.500    3.397    0.304    0.393   56.254
  517.750    3.461    0.308    0.400   53.220
  518.000    3.462    0.293    0.411   52.001
  518.250    3.527    0.280    0.372   51.391
  518.500    3.528    0.270    0.356   53.798
  518.750    3.528    0.261    0.337   55.606
  519.000    3.399    0.258    0.359   58.620
  519.250    3.275    0.280    0.369   53.168
  519.500    3.156    0.273    0.363   53.161
  519.750    3.098    0.268    0.358   53.152
  520.000    2.929    0.285    0.356   51.935
  520.250    2.822    0.295    0.360   56.763
  520.500    2.719    0.283    0.362   58.569
  520.750    2.620    0.288    0.369   55.538
  521.000    2.572    0.300    0.379   45.853
  521.250    2.525    0.307    0.385   42.215
  521.500    2.478    0.310    0.380   39.788
  521.750    2.479    0.314    0.386   38.569
  522.000    2.479    0.314    0.395   39.165
  522.250    2.526    0.309    0.391   43.992
  522.500    2.526    0.305    0.374   46.406
  522.750    2.574    0.300    0.355   49.421
  523.000    2.575    0.301    0.370   48.205
  523.250    2.575    0.304    0.383   42.144
  523.500    2.575    0.315    0.367   39.112
  523.750    2.576    0.322    0.369   39.106
  524.000    2.576    0.325    0.381   42.116
  524.250    2.576    0.312    0.392   42.111
  524.500    2.577    0.307    0.395   41.499
  524.750    2.577    0.303    0.380   36.650
  525.000    2.626    0.298    0.370   39.665
  525.250    2.626    0.296    0.385   41.474
  525.500    2.627    0.302    0.396   39.046
  525.750    2.676    0.312    0.401   34.199
  526.000    2.677    0.318    0.400   32.377
  526.250    2.677    0.306    0.394   32.971
  526.500    2.677    0.296    0.382   34.174
  526.750    2.728    0.283    0.381   31.140
  527.000    2.729    0.271    0.381   38.994
  527.250    2.679    0.280    0.379   47.450
  527.500    2.629    0.295    0.386   50.467
  527.750    2.581    0.304    0.400   54.087
  528.000    2.487    0.288    0.406   40.774
  528.250    2.396    0.300    0.386   33.509
  528.500    2.352    0.322    0.372   26.847
  528.750    2.266    0.338    0.369   24.420
  529.000    2.224    0.342    0.374   26.226
  529.250    2.184    0.326    0.375   26.217
  529.500    2.143    0.319    0.354   21.369
  529.750    2.144    0.318    0.341   22.569
  530.000    2.144    0.312    0.341   24.372
  530.250    2.185    0.309    0.347   24.367
  530.500    2.268    0.326    0.350   23.146
  530.750    2.490    0.335    0.357   24.956
  531.000    3.058    0.274    0.361   32.808
  531.250    4.527   -0.006    0.354   39.451
  531.500    7.496   -0.009    0.332   42.471
  531.750   10.890   -0.003    0.317   47.301
  532.000   13.374    0.007    0.275   50.920
  532.250   15.531    0.010    0.250   49.098
  532.500   17.701    0.008    0.237   47.880
  532.750   19.803    0.013    0.227   50.288
  533.000   21.743    0.015    0.220   50.281
  533.250   24.324    0.012    0.212   44.223
  533.500   27.724    0.003    0.179   37.563
  533.750   32.193    0.003    0.123   29.692
  534.000   36.692    0.012    0.111   21.821
  534.250   43.412    0.028    0.107   18.184
  534.500   47.667    0.031    0.110   22.404
  534.750   48.571    0.016    0.111   24.815
  535.000   49.495    0.010    0.117   26.622
