~VERSION INFORMATION
 VERS.                 2.0:   CWLS LOG ASCII STANDARD -VERSION 2.0
 WRAP.                  NO:   ONE LINE PER DEPTH STEP
~WELL INFORMATION BLOCK
#MNEM.UNIT           DATA                    DESCRIPTION OF MNEMONIC
#---------    -------------------            -------------------------------
# Generated from Intellog Unique Number	CS_69_70/WELL/903
NULL.         -999.25                        : NULL_VALUE
WELL.         SULPETRO ET AL IPIATIK         : Well_name    - WELL              
LOC .         00/13-33-070-09W4/0            : Location     - LOCATION          
UWI .         00/13-33-070-09W4/0            : Uwi          - UNIQUE WELL ID    
ENTR.         SP                             : Entered      - ENTERED BY        
SRVC.         SCHLUMBERGER                   : Scn          - SERVICE COMPANY   
STRT.M        250                            : top_depth    - START DEPTH       
STOP.M        450                            : bot_depth    - STOP DEPTH        
STEP.M        0.25                           : increment    - STEP LENGTH       
~CURVE INFORMATION BLOCK
#MNEM UNIT       ERCB CURVE CODE    CURVE DESCRIPTION
#-----------   ------------------   ----------------------------------
DEPT.M        00 001 00 00         : DEPTH        - DEPTH                       
ILD .OHMM     00 120 00 00         : RESD         - DEEP RESISTIVITY (DIL)      
DPHI.V/V      00 890 00 00         : PHID         - DENSITY POROSITY (LIMESTONE)
NPHI.V/V      00 330 00 00         : PHIN         - NEUTRON POROSITY (LIMESTONE)
GR  .API      00 310 00 00         : GR           - GAMMA RAY                   
~PARAMETER INFORMATION       
#MNEM.UNIT           DATA             DESCRIPTION OF MNEMONIC
#---------         -----------     ------------------------------
GL  .M        601.29               : gl           - GROUND LEVEL ELEVATION      
EREF.M        604.09               : kb           - ELEVATION OF DEPTH REFERENCE
DATM.M        601.29               : datum        - DATUM ELEVATION             
TDD .M        457.3                : tdd          - TOTAL DEPTH DRILLER         
RUN .         ONE                  : Run          - RUN NUMBER                  
ENG .         BILL                 : Engineer     - RECORDING ENGINEER          
WIT .         JIM                  : Witness      - WITNESSED BY                
MUD .         GEL                  : Mud_type     - MUD TYPE                    
MATR.         LIMESTONE            : Logunit      - NEUTRON MATRIX              
TMAX.C        26.8                 : BHT          - MAXIMUM RECORDED TEMPERATURE
BHTD.M        457.3                : BHTDEP       - MAXIMUM RECORDED TEMPERATURE
MATR.         1                    : LOGUNIT      - NEUTRON MATRIX              
RMT .C        25                   : MDTP         - TEMPERATURE OF MUD          
NEUT.         1                    : NEUTRON      - NEUTRON TYPE                
RESI.         0                    : RESIST       - RESISTIVITY TYPE            
RMC .OHMM     0.25                 : RMC          - RESISTIVITY OF MUD CAKE     
RMF .OHMM     0.25                 : RMF          - RESISTIVITY OF MUD FILTRATE 
SUFT.C        15                   : SUFT         - SURFACE TEMPERATURE         
~A  DEPTH     RESD     PHID     PHIN       GR
  250.000    2.573    0.214    0.464  118.095
  250.250    2.558    0.217    0.442  121.085
  250.500    2.582    0.217    0.430  122.373
  250.750    2.592    0.215    0.419  121.594
  251.000    2.592    0.217    0.427  119.781
  251.250    2.597    0.219    0.445  122.284
  251.500    2.646    0.221    0.465  123.997
  251.750    2.741    0.218    0.467  122.915
  252.000    2.819    0.209    0.442  120.677
  252.250    2.899    0.206    0.424  123.121
  252.500    2.998    0.209    0.414  121.672
  252.750    3.130    0.214    0.405  117.367
  253.000    3.213    0.218    0.389  123.581
  253.250    3.298    0.220    0.370  126.386
  253.500    3.348    0.215    0.363  127.612
  253.750    3.392    0.202    0.366  125.497
  254.000    3.462    0.193    0.371  129.640
  254.250    3.587    0.198    0.366  126.309
  254.500    3.801    0.202    0.369  122.126
  254.750    3.975    0.195    0.379  123.171
  255.000    4.204    0.197    0.399  123.669
  255.250    4.364    0.201    0.410  120.519
  255.500    4.364    0.206    0.424  119.132
  255.750    4.189    0.211    0.437  122.000
  256.000    3.938    0.206    0.416  123.470
  256.250    3.648    0.201    0.423  120.746
  256.500    3.398    0.203    0.433  120.272
  256.750    3.255    0.205    0.440  120.404
  257.000    3.195    0.206    0.422  120.782
  257.250    3.183    0.204    0.433  122.009
  257.500    3.213    0.202    0.415  123.538
  257.750    3.436    0.201    0.386  125.555
  258.000    3.554    0.200    0.382  127.208
  258.250    3.801    0.202    0.367  128.555
  258.500    4.035    0.209    0.350  129.235
  258.750    4.134    0.203    0.369  125.599
  259.000    4.142    0.198    0.421  121.053
  259.250    4.126    0.199    0.464  122.827
  259.500    3.865    0.207    0.475  123.446
  259.750    3.574    0.215    0.474  106.498
  260.000    3.443    0.198    0.436   93.381
  260.250    3.710    0.209    0.407   84.216
  260.500    4.513    0.240    0.376   77.540
  260.750    7.362    0.278    0.328   70.988
  261.000    9.143    0.307    0.304   71.850
  261.250   10.400    0.311    0.319   73.320
  261.500   11.333    0.300    0.333   65.611
  261.750   12.121    0.293    0.318   60.214
  262.000   12.582    0.293    0.302   58.220
  262.250   12.489    0.296    0.321   57.137
  262.500   12.031    0.294    0.345   55.385
  262.750   11.525    0.290    0.365   53.694
  263.000   11.061    0.291    0.367   49.390
  263.250   10.381    0.296    0.333   46.302
  263.500   10.458    0.298    0.330   46.252
  263.750   11.270    0.297    0.326   46.810
  264.000   11.808    0.290    0.311   54.297
  264.250   11.590    0.285    0.289   65.189
  264.500   11.291    0.278    0.309   74.196
  264.750   10.478    0.271    0.339   85.633
  265.000    9.724    0.260    0.322   96.645
  265.250    9.778    0.248    0.305  101.945
  265.500    9.615    0.231    0.289  104.264
  265.750    9.194    0.211    0.327  113.211
  266.000    8.907    0.201    0.352  122.764
  266.250    8.596    0.193    0.364  131.649
  266.500    8.374    0.191    0.354  134.640
  266.750    8.250    0.195    0.357  134.589
  267.000    8.158    0.202    0.375  127.368
  267.250    8.022    0.210    0.384  122.033
  267.500    7.963    0.218    0.361  118.396
  267.750    7.977    0.208    0.361  115.549
  268.000    8.082    0.202    0.375  120.666
  268.250    8.437    0.200    0.362  123.898
  268.500    8.742    0.218    0.339  122.451
  268.750    8.940    0.246    0.320  113.102
  269.000    9.177    0.271    0.347  106.002
  269.250    9.402    0.269    0.355  100.240
  269.500    9.778    0.244    0.354   99.338
  269.750    9.889    0.235    0.329  103.300
  270.000   10.188    0.267    0.334   87.205
  270.250   10.419    0.279    0.339   77.431
  270.500   10.439    0.286    0.347   77.263
  270.750   10.458    0.290    0.352   75.751
  271.000   10.458    0.284    0.341   72.056
  271.250   10.342    0.278    0.335   72.066
  271.500   10.094    0.270    0.345   75.786
  271.750    9.562    0.266    0.310   78.411
  272.000    8.940    0.240    0.282   81.461
  272.250    8.343    0.219    0.278   89.069
  272.500    7.743    0.208    0.278  103.425
  272.750    7.000    0.189    0.284  112.858
  273.000    6.258    0.162    0.324  119.919
  273.250    5.491    0.142    0.358  127.527
  273.500    4.946    0.140    0.371  132.523
  273.750    4.607    0.165    0.371  131.865
  274.000    4.316    0.180    0.379  136.434
  274.250    3.968    0.189    0.403  140.640
  274.500    3.696    0.190    0.413  143.994
  274.750    3.508    0.189    0.407  146.740
  275.000    3.354    0.200    0.415  146.690
  275.250    3.213    0.209    0.453  141.231
  275.500    3.136    0.213    0.482  137.415
  275.750    4.119    0.221    0.491  131.954
  276.000    5.984    0.227    0.423  110.694
  276.250    8.128    0.232    0.376  106.145
  276.500    9.420    0.227    0.374  107.555
  276.750    9.797    0.224    0.369  109.695
  277.000    9.852    0.222    0.384  111.102
  277.250    9.833    0.207    0.400  112.876
  277.500    9.669    0.175    0.397  111.611
  277.750    9.211    0.148    0.373  109.920
  278.000    8.661    0.154    0.339  113.397
  278.250    7.963    0.165    0.332  120.641
  278.500    7.515    0.174    0.355  128.188
  278.750    7.172    0.188    0.378  134.095
  279.000    6.870    0.207    0.413  132.648
  279.250    6.756    0.237    0.429  119.773
  279.500    7.132    0.264    0.424  107.507
  279.750    7.473    0.292    0.397   89.468
  280.000    7.801    0.313    0.356   75.498
  280.250    8.143    0.273    0.355   81.831
  280.500    8.343    0.254    0.374  100.866
  280.750    8.564    0.272    0.393  106.712
  281.000    8.791    0.305    0.411   94.446
  281.250    9.075    0.318    0.410   78.473
  281.500    9.228    0.318    0.389   67.117
  281.750    9.402    0.317    0.353   75.579
  282.000    9.491    0.307    0.358   84.281
  282.250    9.562    0.302    0.363   94.988
  282.500    9.526    0.307    0.378   93.238
  282.750    9.491    0.314    0.360   92.762
  283.000    9.420    0.320    0.345   99.216
  283.250    9.420    0.319    0.352   99.105
  283.500    9.350    0.311    0.370   89.574
  283.750    9.228    0.298    0.394   91.835
  284.000    9.092    0.281    0.392   94.278
  284.250    9.007    0.266    0.344   96.719
  284.500    8.857    0.255    0.331  105.361
  284.750    8.758    0.248    0.333  113.517
  285.000    8.661    0.252    0.341  116.992
  285.250    8.628    0.263    0.358  112.750
  285.500    8.596    0.276    0.391  112.882
  285.750    8.693    0.287    0.400  108.030
  286.000    9.007    0.297    0.380   94.428
  286.250    9.007    0.302    0.358   88.178
  286.500    9.007    0.287    0.344   95.484
  286.750    8.957    0.270    0.336  101.270
  287.000    8.661    0.252    0.336  107.905
  287.250    7.977    0.232    0.332  115.332
  287.500    7.132    0.216    0.329  124.885
  287.750    6.545    0.214    0.346  133.830
  288.000    6.200    0.234    0.400  130.377
  288.250    6.388    0.245    0.409  123.643
  288.500    6.606    0.249    0.382  119.337
  288.750    7.039    0.248    0.368  114.791
  289.000    7.671    0.251    0.366  111.520
  289.250    8.143    0.261    0.386  114.570
  289.500    8.645    0.268    0.418  117.803
  289.750    9.143    0.274    0.417  117.266
  290.000    9.455    0.281    0.396  110.471
  290.250    9.633    0.287    0.380  106.167
  290.500    9.508    0.277    0.365  108.612
  290.750    9.211    0.268    0.357  111.660
  291.000    8.923    0.261    0.373  110.941
  291.250    8.532    0.260    0.397  109.676
  291.500    8.158    0.263    0.429  110.844
  291.750    7.599    0.265    0.453  112.677
  292.000    7.159    0.266    0.474  113.417
  292.250    6.922    0.267    0.431  109.721
  292.500    7.052    0.268    0.391  112.651
  292.750    7.253    0.269    0.367  113.633
  293.000    7.403    0.268    0.361  113.705
  293.250    7.543    0.266    0.375  113.777
