~VERSION INFORMATION
 VERS.                 2.0:   CWLS LOG ASCII STANDARD -VERSION 2.0
 WRAP.                  NO:   ONE LINE PER DEPTH STEP
~WELL INFORMATION BLOCK
#MNEM.UNIT           DATA                    DESCRIPTION OF MNEMONIC
#---------    -------------------            -------------------------------
# Generated from Intellog Unique Number	CX_WELLS/WELL/4017
WELL.         HOMESTEAD LOCHIEL              : Well_name    - WELL
LOC .         00/10-05-079-04W4/0            : Location     - LOCATION
UWI .         00/10-05-079-04W4/0            : Uwi          - UNIQUE WELL ID
ENTR.         T                              : Entered      - ENTERED BY
SRVC.         SCHLUMBERGER                   : Scn          - SERVICE COMPANY
STRT.F        390                            : top_depth    - START DEPTH
STOP.F        1250.4                         : bot_depth    - STOP DEPTH
STEP.F        0.82                           : increment    - STEP LENGTH
 NULL. -999.2500:NULL Value
~CURVE INFORMATION BLOCK
#MNEM UNIT       ERCB CURVE CODE    CURVE DESCRIPTION
#-----------   ------------------   ----------------------------------
DEPT.F        00 001 00 00         : DEPTH        - DEPTH
GR  .API      00 310 00 00         : GR           - GAMMA RAY
NPHI.V/V      00 330 00 00         : PHIN         - NEUTRON POROSITY (SANDSTONE)
DPHI.V/V      00 890 00 00         : PHID         - DENSITY POROSITY (SANDSTONE)
ILD .OHMM     00 120 00 00         : RESD         - DEEP RESISTIVITY (DIL)
~PARAMETER INFORMATION
#MNEM.UNIT           DATA             DESCRIPTION OF MNEMONIC
#---------         -----------     ------------------------------
GL  .F        1695                 : gl           - GROUND LEVEL ELEVATION
EREF.F        1707                 : kb           - ELEVATION OF DEPTH REFERENCE
DATM.F        1707                 : datum        - DATUM ELEVATION
TDD .F        1290                 : tdd          - TOTAL DEPTH DRILLER
RUN .         ONE                  : Run          - RUN NUMBER
ENG .         BILL                 : Engineer     - RECORDING ENGINEER
WIT .         JIM                  : Witness      - WITNESSED BY
MUD .         GEL                  : Mud_type     - MUD TYPE
MATR.         SANDSTONE            : Logunit      - NEUTRON MATRIX
TMAX.F        69                   : BHT          - MAXIMUM RECORDED TEMPERATURE
BHTD.F        1290                 : BHTDEP       - MAXIMUM RECORDED TEMPERATURE
MATR.         1                    : LOGUNIT      - NEUTRON MATRIX
RMT .F        77                   : MDTP         - TEMPERATURE OF MUD
NEUT.         1                    : NEUTRON      - NEUTRON TYPE
RESI.         4.5                  : RESIST       - RESISTIVITY TYPE
RMC .OHMM     4.5                  : RMC          - RESISTIVITY OF MUD CAKE
RMF .OHMM     4.5                  : RMF          - RESISTIVITY OF MUD FILTRATE
SUFT.F        59                   : SUFT         - SURFACE TEMPERATURE
~A  DEPTH       GR     PHIN     PHID     RESD
# ...
  960.866  115.580    0.464    0.198    6.387
  961.686  114.398    0.467    0.200    6.278
  962.507  113.811    0.461    0.201    6.165
  963.327  113.223    0.452    0.202    6.058
  964.147  112.659    0.442    0.204    6.062
  964.967  112.072    0.434    0.204    6.069
  965.787  112.119    0.440    0.203    6.189
  966.608  112.142    0.446    0.201    6.193
  967.428  112.173    0.447    0.198    6.200
  968.248  111.594    0.439    0.195    6.090
  969.068  111.014    0.429    0.192    5.984
  969.888  111.046    0.427    0.197    5.769
  970.709  114.146    0.454    0.221    5.667
  971.529  115.993    0.480    0.230    5.463
  972.349  117.857    0.484    0.242    5.172
  973.169  118.498    0.494    0.243    5.079
  973.990  118.545    0.522    0.238    4.897
  974.810  118.569    0.519    0.235    4.721
  975.630  118.592    0.489    0.235    4.638
  976.450  116.799    0.490    0.235    4.556
  977.270  115.006    0.491    0.235    4.476
  978.091  114.419    0.491    0.235    4.397
  978.911  114.442    0.486    0.236    4.401
  979.731  113.267    0.483    0.236    4.405
  980.551  113.298    0.481    0.234    4.327
  981.371  113.314    0.485    0.232    4.331
  982.192  112.735    0.482    0.232    4.338
  983.012  112.781    0.481    0.235    4.340
  983.832  112.186    0.479    0.236    4.344
  984.652  112.225    0.479    0.232    4.348
  985.472  112.272    0.480    0.227    4.519
  986.293  112.288    0.482    0.222    4.607
  987.113  112.327    0.472    0.219    4.880
  987.933  112.358    0.466    0.221    4.881
  988.753  112.397    0.472    0.221    4.979
  989.573  111.817    0.489    0.220    5.174
  990.394  111.222    0.489    0.218    5.178
  991.214  111.253    0.480    0.216    5.283
  992.034  111.895    0.474    0.216    5.385
  992.854  112.537    0.478    0.217    5.391
  993.675  113.187    0.477    0.219    5.395
  994.495  113.828    0.474    0.219    5.401
  995.315  113.860    0.478    0.217    5.307
  996.135  112.067    0.485    0.217    5.309
  996.955  110.869    0.492    0.217    5.120
  997.776  107.244    0.486    0.216    5.030
  998.596  103.603    0.450    0.215    4.851
  999.416   98.749    0.439    0.215    4.763
 1000.240   92.063    0.428    0.218    4.679
 1001.060   84.758    0.410    0.223    4.513
 1001.880   78.682    0.397    0.228    4.270
 1002.700   72.607    0.385    0.239    4.042
 1003.520   67.142    0.378    0.262    3.684
 1004.340   60.456    0.379    0.284    3.357
 1005.160   51.938    0.380    0.305    2.737
 1005.980   44.030    0.383    0.315    2.403
 1006.800   39.176    0.387    0.340    2.071
 1007.620   36.764    0.399    0.357    1.997
 1008.440   34.979    0.408    0.365    1.999
 1009.260   34.384    0.412    0.391    2.039
 1010.080   33.202    0.405    0.404    2.040
 1010.900   32.622    0.381    0.404    2.081
 1011.720   32.035    0.346    0.407    2.083
 1012.540   30.853    0.326    0.414    2.125
 1013.360   30.876    0.317    0.401    2.166
 1014.180   29.701    0.325    0.398    2.168
 1015.000   29.122    0.342    0.391    2.170
 1015.820   29.153    0.361    0.382    2.214
 1016.640   29.184    0.382    0.365    2.215
 1017.460   29.208    0.390    0.355    2.218
 1018.280   29.239    0.391    0.351    2.219
 1019.100   29.278    0.391    0.351    2.180
 1019.920   29.920    0.391    0.349    2.182
 1020.740   29.951    0.392    0.347    2.144
 1021.560   31.211    0.395    0.350    2.106
 1022.380   31.837    0.401    0.357    2.031
 1023.200   33.113    0.405    0.361    1.994
 1024.020   33.747    0.406    0.354    1.923
 1024.840   33.771    0.404    0.346    1.925
 1025.660   34.428    0.398    0.337    1.927
 1026.480   35.054    0.395    0.330    1.929
 1027.300   35.086    0.390    0.326    1.966
 1028.120   35.727    0.386    0.329    2.043
 1028.940   36.369    0.388    0.331    2.124
 1029.760   37.011    0.389    0.333    2.165
 1030.580   35.210    0.388    0.333    2.209
 1031.400   32.814    0.386    0.333    2.252
 1032.220   31.616    0.385    0.334    2.254
 1033.040   30.418    0.388    0.338    2.174
 1033.860   32.282    0.392    0.339    2.176
 1034.690   36.000    0.395    0.343    2.177
 1035.510   36.626    0.398    0.352    2.179
 1036.330   38.490    0.401    0.341    2.223
 1037.150   39.742    0.400    0.317    2.397
 1037.970   43.445    0.406    0.307    2.537
 1038.790   47.743    0.412    0.278    2.687
 1039.610   53.881    0.417    0.288    2.792
 1040.430   59.416    0.412    0.316    2.794
 1041.250   60.669    0.382    0.325    2.796
 1042.070   55.204    0.377    0.325    2.748
 1042.890   47.907    0.376    0.314    2.649
 1043.710   45.495    0.377    0.307    2.554
 1044.530   44.916    0.375    0.306    2.417
 1045.350   44.955    0.366    0.309    2.288
 1046.170   46.207    0.360    0.308    2.289
 1046.990   46.841    0.357    0.307    2.208
 1047.810   47.499    0.361    0.304    2.210
 1048.630   47.522    0.365    0.305    2.171
 1049.450   46.324    0.369    0.317    2.173
 1050.270   43.928    0.370    0.325    2.174
 1051.090   42.722    0.373    0.323    2.136
 1051.910   40.311    0.375    0.327    2.138
 1052.730   37.900    0.379    0.335    2.100
 1053.550   34.885    0.382    0.348    2.064
 1054.370   33.084    0.381    0.345    2.064
 1055.190   31.894    0.378    0.339    2.030
 1056.010   30.093    0.378    0.337    2.032
 1056.830   30.124    0.382    0.340    1.995
 1057.650   31.377    0.383    0.336    1.997
 1058.470   35.080    0.383    0.335    1.998
 1059.290   37.554    0.385    0.332    2.001
 1060.110   38.196    0.388    0.332    2.003
 1060.930   37.608    0.385    0.337    2.004
 1061.750   36.434    0.382    0.340    2.006
 1062.570   35.839    0.380    0.343    2.046
 1063.390   35.878    0.380    0.339    2.086
 1064.210   36.512    0.383    0.337    2.128
 1065.030   36.558    0.383    0.338    2.170
 1065.850   36.582    0.382    0.341    2.172
 1066.670   36.629    0.384    0.343    2.215
 1067.490   36.644    0.386    0.344    2.258
 1068.310   36.065    0.389    0.341    2.436
 1069.130   36.096    0.386    0.336    2.678
 1069.950   39.180    0.371    0.329    2.943
 1070.770   45.318    0.366    0.314    3.233
 1071.590   50.235    0.376    0.282    3.554
 1072.410   61.266    0.383    0.244    3.625
 1073.230   65.572    0.390    0.276    3.304
 1074.060   63.771    0.394    0.281    3.246
 1074.880   61.367    0.389    0.258    3.436
 1075.700   58.948    0.383    0.234    3.777
 1076.520   60.811    0.374    0.229    3.923
 1077.340   66.949    0.374    0.268    4.154
 1078.160   77.369    0.378    0.291    4.316
 1078.980   68.233    0.381    0.314    4.320
 1079.800   56.661    0.382    0.316    3.793
 1080.620   51.807    0.384    0.324    3.149
 1081.440   46.953    0.384    0.338    2.664
 1082.260   42.709    0.384    0.342    2.384
 1083.080   39.076    0.383    0.341    2.256
 1083.900   36.665    0.383    0.341    2.216
 1084.720   36.085    0.383    0.343    2.177
 1085.540   34.300    0.383    0.342    2.139
 1086.360   34.316    0.383    0.338    2.101
 1087.180   34.355    0.386    0.330    2.103
 1088.000   35.623    0.387    0.332    2.067
 1088.820   35.638    0.382    0.331    2.030
 1089.640   36.280    0.380    0.333    1.994
 1090.460   36.922    0.380    0.339    1.995
 1091.280   37.564    0.382    0.339    1.997
 1092.100   37.603    0.381    0.336    1.962
 1092.920   37.626    0.378    0.333    1.964
 1093.740   38.268    0.378    0.332    1.966
 1094.560   38.299    0.378    0.332    2.005
 1095.380   36.506    0.370    0.324    2.006
 1096.200   35.308    0.368    0.321    2.046
 1097.020   33.507    0.374    0.327    2.127
 1097.840   31.119    0.377    0.339    2.169
 1098.660   30.524    0.379    0.331    2.211
 1099.480   29.342    0.380    0.320    2.213
 1100.300   29.373    0.380    0.328    2.174
 1101.120   28.786    0.378    0.335    2.096
 1101.940   28.214    0.375    0.334    2.022
 1102.760   27.627    0.371    0.332    2.023
