~VERSION INFORMATION
 VERS.                 2.0:   CWLS LOG ASCII STANDARD -VERSION 2.0
 WRAP.                  NO:   ONE LINE PER DEPTH STEP
~WELL INFORMATION BLOCK
#MNEM.UNIT           DATA                    DESCRIPTION OF MNEMONIC
#---------    -------------------            -------------------------------
# Generated from Intellog Unique Number	CS_73_76/WELL/2185
WELL.         AMOCO KIRBEY                   : Well_name    - WELL
LOC .         00/10-08-074-04W4/0            : Location     - LOCATION
UWI .         00/10-08-074-04W4/0            : Uwi          - UNIQUE WELL ID
ENTR.         SP                             : Entered      - ENTERED BY
SRVC.         SCHLUMBERGER                   : Scn          - SERVICE COMPANY
STRT.M        207.264                        : top_depth    - START DEPTH
STOP.M        405.014                        : bot_depth    - STOP DEPTH
STEP.M        0.25                           : increment    - STEP LENGTH
 NULL. -999.2500:NULL Value
~CURVE INFORMATION BLOCK
#MNEM UNIT       ERCB CURVE CODE    CURVE DESCRIPTION
#-----------   ------------------   ----------------------------------
DEPT.M        00 001 00 00         : DEPTH        - DEPTH
GR  .API      00 310 00 00         : GR           - GAMMA RAY
DPHI.V/V      00 890 00 00         : PHID         - DENSITY POROSITY (SANDSTONE)
NPHI.V/V      00 330 00 00         : PHIN         - NEUTRON POROSITY (SANDSTONE)
ILD .OHMM     00 120 00 00         : RESD         - DEEP RESISTIVITY (DIL)
~PARAMETER INFORMATION
#MNEM.UNIT           DATA             DESCRIPTION OF MNEMONIC
#---------         -----------     ------------------------------
GL  .M        613.867              : gl           - GROUND LEVEL ELEVATION
EREF.M        616.915              : kb           - ELEVATION OF DEPTH REFERENCE
DATM.M        613.867              : datum        - DATUM ELEVATION
TDD .M        417.576              : tdd          - TOTAL DEPTH DRILLER
RUN .         ONE                  : Run          - RUN NUMBER
ENG .         BILL                 : Engineer     - RECORDING ENGINEER
WIT .         JIM                  : Witness      - WITNESSED BY
MUD .         GEL                  : Mud_type     - MUD TYPE
MATR.         SANDSTONE            : Logunit      - NEUTRON MATRIX
TMAX.C        23.3333              : BHT          - MAXIMUM RECORDED TEMPERATURE
BHTD.M        417.576              : BHTDEP       - MAXIMUM RECORDED TEMPERATURE
MATR.         1                    : LOGUNIT      - NEUTRON MATRIX
RMT .C        25                   : MDTP         - TEMPERATURE OF MUD
NEUT.         1                    : NEUTRON      - NEUTRON TYPE
RESI.         0                    : RESIST       - RESISTIVITY TYPE
RMC .OHMM     0.25                 : RMC          - RESISTIVITY OF MUD CAKE
RMF .OHMM     0.25                 : RMF          - RESISTIVITY OF MUD FILTRATE
SUFT.C        15                   : SUFT         - SURFACE TEMPERATURE
~A  DEPTH       GR     PHID     PHIN     RESD
  207.264   85.368    0.188    0.429    3.242
  207.514   84.782    0.197    0.428    3.258
  207.764   83.818    0.194    0.413    3.316
  208.014   82.399    0.183    0.403    3.310
  208.264   80.350    0.186    0.405    3.312
  208.514   80.092    0.181    0.394    3.314
  208.764   82.225    0.175    0.408    3.315
  209.014   83.573    0.168    0.417    3.288
  209.264   84.942    0.167    0.422    3.256
  209.514   86.195    0.168    0.422    3.152
  209.764   84.385    0.165    0.413    3.164
  210.014   81.735    0.177    0.411    3.269
  210.264   80.302    0.185    0.417    3.371
  210.514   80.013    0.194    0.418    3.468
  210.764   79.971    0.199    0.419    3.399
  211.014   81.227    0.205    0.422    3.297
  211.264   83.918    0.206    0.415    3.190
  211.514   84.296    0.209    0.412    3.046
  211.764   83.180    0.211    0.412    3.072
  212.014   79.718    0.206    0.408    3.173
  212.264   77.877    0.207    0.422    3.273
  212.514   75.163    0.210    0.435    3.359
  212.764   73.254    0.214    0.434    3.284
  213.014   72.223    0.220    0.441    3.187
  213.264   71.948    0.224    0.449    3.093
  213.514   71.522    0.221    0.456    3.002
  213.764   73.139    0.193    0.454    2.902
  214.014   74.911    0.193    0.447    2.953
  214.264   74.085    0.183    0.432    3.054
  214.514   72.205    0.157    0.405    3.391
  214.764   68.771    0.153    0.376    4.241
  215.014   66.367    0.177    0.361    4.842
  215.264   65.176    0.202    0.363    5.447
  215.514   68.803    0.211    0.374    5.833
  215.764   71.769    0.195    0.388    6.051
  216.014   74.879    0.191    0.395    5.713
  216.264   76.514    0.194    0.397    5.380
  216.514   78.296    0.195    0.392    5.030
  216.764   76.423    0.182    0.373    4.926
  217.014   74.677    0.186    0.362    5.205
  217.264   71.973    0.187    0.368    5.202
  217.514   68.822    0.188    0.372    5.176
  217.764   67.419    0.193    0.368    4.941
  218.014   66.240    0.203    0.367    4.801
  218.264   63.573    0.206    0.371    4.539
  218.514   64.267    0.207    0.375    4.267
  218.764   64.394    0.213    0.379    4.144
  219.014   63.722    0.213    0.372    4.022
  219.264   63.272    0.210    0.364    3.968
  219.514   62.938    0.202    0.359    3.771
  219.764   62.541    0.203    0.366    3.821
  220.014   61.476    0.206    0.373    4.123
  220.264   61.352    0.213    0.372    4.278
  220.514   61.339    0.218    0.376    4.353
  220.764   63.179    0.226    0.387    4.593
  221.014   67.972    0.228    0.396    4.614
  221.264   70.380    0.213    0.397    4.693
  221.514   71.393    0.165    0.384    4.807
  221.764   73.232    0.166    0.363    4.804
  222.014   75.611    0.159    0.366    4.811
  222.264   79.698    0.146    0.373    4.887
  222.514   82.909    0.144    0.380    4.999
  222.764   84.756    0.166    0.388    5.032
  223.014   81.533    0.188    0.393    5.011
  223.264   73.669    0.199    0.398    4.914
  223.514   68.715    0.211    0.393    4.737
  223.764   63.827    0.222    0.387    4.252
  224.014   62.646    0.220    0.378    4.160
  224.264   62.993    0.210    0.369    4.164
  224.514   63.248    0.199    0.359    4.167
  224.764   63.816    0.180    0.349    4.169
  225.014   63.891    0.168    0.341    4.164
  225.264   63.913    0.149    0.346    4.255
  225.514   63.929    0.148    0.354    4.378
  225.764   62.493    0.153    0.351    4.567
  226.014   58.370    0.156    0.337    4.770
  226.264   54.259    0.159    0.342    4.802
  226.514   50.051    0.164    0.349    4.762
  226.764   46.996    0.169    0.358    4.524
  227.014   45.012    0.179    0.343    4.349
  227.264   43.150    0.188    0.334    4.101
  227.514   43.259    0.195    0.334    3.913
  227.764   43.517    0.191    0.332    3.751
  228.014   44.566    0.180    0.329    3.686
  228.264   45.612    0.168    0.328    3.610
  228.514   47.203    0.165    0.336    3.804
  228.764   52.097    0.146    0.347    3.916
  229.014   61.063    0.127    0.362    4.039
  229.264   68.869    0.111    0.375    4.148
  229.514   78.010    0.108    0.389    4.144
  229.764   88.353    0.126    0.399    4.095
  230.014   96.379    0.138    0.411    4.068
  230.264   99.419    0.137    0.418    3.799
  230.514   99.120    0.137    0.430    3.563
  230.764   98.000    0.133    0.428    3.517
  231.014   96.470    0.132    0.431    3.515
  231.264   95.479    0.134    0.445    3.492
  231.514   95.293    0.130    0.446    3.381
  231.764   99.384    0.135    0.445    3.169
  232.014  102.440    0.150    0.447    3.136
  232.264   99.999    0.162    0.446    3.036
  232.514   96.128    0.175    0.433    3.018
  232.764   93.625    0.179    0.421    3.129
  233.014   92.210    0.179    0.400    3.397
  233.264   90.080    0.190    0.388    3.833
  233.514   83.674    0.201    0.376    4.433
  233.764   76.753    0.217    0.366    5.000
  234.014   70.768    0.241    0.353    5.799
  234.264   66.607    0.255    0.344    7.058
  234.514   68.460    0.255    0.333    8.474
  234.764   67.715    0.246    0.332   10.177
  235.014   64.665    0.240    0.336   11.345
  235.264   64.102    0.240    0.337   12.112
  235.514   65.949    0.233    0.332   12.273
  235.764   67.254    0.228    0.328   12.440
  236.014   69.876    0.221    0.336   12.863
  236.264   72.599    0.213    0.342   12.928
  236.514   73.907    0.199    0.349   12.937
  236.764   75.347    0.188    0.357   12.805
  237.014   74.380    0.190    0.346   12.689
  237.264   72.825    0.208    0.341   12.306
  237.514   72.808    0.217    0.344   11.606
  237.764   72.834    0.223    0.347   10.943
  238.014   74.323    0.232    0.350   10.471
  238.264   76.274    0.241    0.344   10.126
  238.514   78.955    0.245    0.336    9.821
  238.764   76.727    0.240    0.328    9.636
  239.014   72.907    0.237    0.318    9.969
  239.264   68.085    0.232    0.313   10.405
  239.514   63.503    0.231    0.314   11.400
  239.764   58.913    0.240    0.315   12.410
  240.014   55.417    0.245    0.304   13.228
  240.264   53.603    0.242    0.288   14.211
  240.514   53.512    0.221    0.297   15.624
  240.764   55.168    0.224    0.301   16.891
  241.014   55.505    0.241    0.287   18.105
  241.264   55.119    0.263    0.277   19.455
  241.514   52.621    0.279    0.261   20.703
  241.764   51.753    0.290    0.259   22.046
  242.014   52.813    0.262    0.259   22.989
  242.264   56.490    0.248    0.261   22.741
  242.514   59.402    0.244    0.268   22.012
  242.764   63.047    0.239    0.284   19.925
  243.014   64.873    0.226    0.300   17.949
  243.264   64.271    0.219    0.312   16.562
  243.514   66.026    0.214    0.323   15.119
  243.764   67.415    0.213    0.327   13.623
  244.014   68.709    0.212    0.331   12.841
  244.264   69.142    0.216    0.310   11.663
  244.514   69.906    0.230    0.292   11.002
  244.764   66.756    0.254    0.271   11.636
  245.014   62.795    0.282    0.255   12.395
  245.264   57.747    0.260    0.281   12.914
  245.514   52.926    0.240    0.297   11.878
  245.764   52.222    0.226    0.304   10.480
  246.014   53.079    0.233    0.311    9.724
  246.264   54.039    0.232    0.321    8.857
  246.514   56.039    0.224    0.355    8.159
  246.764   58.079    0.228    0.362    7.491
  247.014   61.219    0.217    0.374    6.832
  247.264   62.341    0.203    0.382    6.471
  247.514   63.372    0.197    0.396    6.432
  247.764   64.337    0.199    0.396    6.438
  248.014   66.368    0.197    0.385    6.483
  248.264   70.078    0.186    0.377    6.566
  248.514   71.659    0.171    0.375    6.570
  248.764   72.462    0.155    0.371    6.574
  249.014   74.179    0.145    0.370    6.579
  249.264   77.765    0.136    0.373    6.584
  249.514   82.276    0.137    0.381    6.592
  249.764   86.192    0.141    0.390    6.484
  250.014   89.972    0.136    0.395    6.486
  250.264   92.069    0.138    0.399    6.340
  250.514   90.476    0.138    0.404    6.155
