~VERSION INFORMATION
 VERS.                 2.0:   CWLS LOG ASCII STANDARD -VERSION 2.0
 WRAP.                  NO:   ONE LINE PER DEPTH STEP
~WELL INFORMATION BLOCK
#MNEM.UNIT           DATA                    DESCRIPTION OF MNEMONIC
#---------    -------------------            -------------------------------
# Generated from Intellog Unique Number	CS_71_72/WELL/928
WELL.         ET AL IPIATIK                  : Well_name    - WELL
LOC .         00/16-34-071-10W4/0            : Location     - LOCATION
UWI .         00/16-34-071-10W4/0            : Uwi          - UNIQUE WELL ID
ENTR.         SP                             : Entered      - ENTERED BY
SRVC.         SCHLUMBERGER                   : Scn          - SERVICE COMPANY
STRT.M        310                            : top_depth    - START DEPTH
STOP.M        518                            : bot_depth    - STOP DEPTH
STEP.M        0.25                           : increment    - STEP LENGTH
 NULL. -999.2500:NULL Value
~CURVE INFORMATION BLOCK
#MNEM UNIT       ERCB CURVE CODE    CURVE DESCRIPTION
#-----------   ------------------   ----------------------------------
DEPT.M        00 001 00 00         : DEPTH        - DEPTH
ILD .OHMM     00 120 00 00         : RESD         - DEEP RESISTIVITY (DIL)
DPHI.V/V      00 890 00 00         : PHID         - DENSITY POROSITY (LIMESTONE)
NPHI.V/V      00 330 00 00         : PHIN         - NEUTRON POROSITY (LIMESTONE)
GR  .API      00 310 00 00         : GR           - GAMMA RAY
~PARAMETER INFORMATION
#MNEM.UNIT           DATA             DESCRIPTION OF MNEMONIC
#---------         -----------     ------------------------------
GL  .M        658.64               : gl           - GROUND LEVEL ELEVATION
EREF.M        662.14               : kb           - ELEVATION OF DEPTH REFERENCE
DATM.M        653.64               : datum        - DATUM ELEVATION
TDD .M        523                  : tdd          - TOTAL DEPTH DRILLER
RUN .         ONE                  : Run          - RUN NUMBER
ENG .         BILL                 : Engineer     - RECORDING ENGINEER
WIT .         JIM                  : Witness      - WITNESSED BY
MUD .         GEL                  : Mud_type     - MUD TYPE
MATR.         LIMESTONE            : Logunit      - NEUTRON MATRIX
TMAX.C        24                   : BHT          - MAXIMUM RECORDED TEMPERATURE
BHTD.M        523                  : BHTDEP       - MAXIMUM RECORDED TEMPERATURE
MATR.         1                    : LOGUNIT      - NEUTRON MATRIX
RMT .C        25                   : MDTP         - TEMPERATURE OF MUD
NEUT.         1                    : NEUTRON      - NEUTRON TYPE
RESI.         0                    : RESIST       - RESISTIVITY TYPE
RMC .OHMM     0.25                 : RMC          - RESISTIVITY OF MUD CAKE
RMF .OHMM     0.25                 : RMF          - RESISTIVITY OF MUD FILTRATE
SUFT.C        15                   : SUFT         - SURFACE TEMPERATURE
~A  DEPTH     RESD     PHID     PHIN       GR
# ...
  484.000    5.881    0.256    0.364   82.597
  484.250    5.414    0.246    0.360   87.440
  484.500    5.224    0.234    0.358   91.556
  484.750    5.381    0.213    0.356   94.157
  485.000    5.964    0.188    0.352   94.091
  485.250    6.523    0.172    0.345   91.116
  485.500    6.976    0.161    0.340   93.838
  485.750    7.545    0.170    0.335   94.318
  486.000    7.920    0.179    0.332   89.343
  486.250    8.114    0.173    0.334   89.156
  486.500    8.358    0.158    0.337   91.332
  486.750    8.435    0.148    0.334   92.903
  487.000    8.291    0.139    0.336   89.746
  487.250    8.075    0.159    0.332   86.469
  487.500    7.849    0.169    0.326   88.706
  487.750    7.616    0.177    0.322   86.458
  488.000    8.713    0.166    0.331   74.453
  488.250    9.729    0.204    0.346   64.266
  488.500   10.464    0.241    0.358   50.383
  488.750   10.286    0.266    0.354   58.983
  489.000    9.105    0.250    0.371   76.251
  489.250    7.324    0.114    0.383  101.457
  489.500    6.434    0.093    0.393  109.936
  489.750    5.706    0.112    0.399  106.961
  490.000    5.069    0.151    0.393   59.260
  490.250    4.693    0.192    0.384   47.619
  490.500    4.588    0.243    0.377   39.311
  490.750    4.613    0.310    0.367   37.911
  491.000    4.716    0.318    0.360   43.542
  491.250    4.768    0.313    0.353   48.204
  491.500    4.644    0.299    0.347   52.138
  491.750    4.275    0.283    0.342   53.769
  492.000    3.966    0.279    0.348   47.581
  492.250    3.678    0.294    0.358   43.638
  492.500    3.437    0.306    0.372   42.117
  492.750    3.237    0.315    0.372   43.021
  493.000    3.170    0.323    0.366   43.985
  493.250    3.157    0.325    0.361   43.132
  493.500    3.180    0.323    0.354   43.005
  493.750    3.252    0.301    0.368   43.970
  494.000    3.312    0.286    0.371   42.995
  494.250    3.324    0.298    0.365   36.808
  494.500    3.317    0.304    0.362   32.924
  494.750    3.335    0.312    0.361   38.373
  495.000    3.455    0.327    0.360   47.215
  495.250    3.633    0.276    0.355   52.969
  495.500    3.757    0.261    0.363   58.660
  495.750    3.827    0.279    0.369   58.231
  496.000    3.797    0.295    0.367   53.559
  496.250    3.754    0.304    0.374   53.008
  496.500    3.753    0.315    0.380   55.245
  496.750    3.780    0.299    0.379   57.360
  497.000    3.975    0.276    0.375   59.053
  497.250    4.118    0.269    0.372   66.199
  497.500    4.371    0.270    0.368   71.527
  497.750    4.537    0.273    0.363   74.249
  498.000    5.094    0.279    0.359   77.517
  498.250    5.268    0.277    0.358   81.693
  498.500    5.561    0.238    0.354   86.112
  498.750    6.003    0.203    0.353   90.410
  499.000    6.384    0.184    0.355   95.192
  499.250    6.639    0.171    0.361  102.520
  499.500    6.738    0.160    0.361  108.697
  499.750    6.799    0.150    0.356  112.449
  500.000    6.874    0.162    0.358  119.170
  500.250    6.937    0.177    0.361  123.044
  500.500    7.053    0.173    0.359  109.645
  500.750    7.158    0.165    0.352   78.731
  501.000    7.183    0.184    0.347   71.333
  501.250    7.155    0.209    0.352   75.448
  501.500    7.086    0.209    0.356   83.200
  501.750    7.164    0.171    0.358   92.164
  502.000    7.381    0.121    0.355   96.644
  502.250    7.849    0.112    0.354   87.730
  502.500    8.442    0.209    0.353   65.907
  502.750    9.011    0.244    0.353   60.508
  503.000    9.494    0.263    0.355   58.806
  503.250    9.818    0.272    0.359   59.406
  503.500   10.304    0.262    0.363   61.583
  503.750   10.439    0.254    0.368   63.396
  504.000   10.594    0.244    0.370   63.452
  504.250   10.893    0.239    0.368   63.871
  504.500   11.606    0.233    0.366   65.381
  504.750   12.274    0.226    0.364   65.739
  505.000   12.621    0.229    0.365   59.128
  505.250   12.454    0.262    0.369   53.850
  505.500   12.082    0.275    0.369   50.936
  505.750   11.767    0.279    0.367   62.143
  506.000   11.919    0.263    0.368   71.531
  506.250   12.747    0.241    0.370   77.040
  506.500   13.839    0.249    0.375   54.672
  506.750   15.165    0.282    0.382   42.667
  507.000   16.068    0.296    0.386   37.935
  507.250   17.024    0.304    0.380   39.748
  507.500   17.604    0.300    0.367   44.045
  507.750   11.898    0.292    0.365   45.980
  508.000    8.056    0.286    0.367   46.277
  508.250    6.337    0.282    0.361   42.030
  508.500    5.155    0.275    0.363   34.570
  508.750    4.512    0.298    0.372   32.868
  509.000    4.131    0.318    0.371   37.711
  509.250    3.875    0.331    0.365   44.796
  509.500    3.774    0.336    0.365   49.215
  509.750    3.751    0.311    0.372   51.999
  510.000    3.729    0.286    0.367   52.296
  510.250    3.750    0.271    0.361   49.624
  510.500    3.707    0.264    0.358   43.437
  510.750    3.400    0.284    0.359   37.614
  511.000    3.112    0.303    0.355   34.882
  511.250    2.958    0.313    0.362   33.483
  511.500    2.827    0.307    0.372   32.568
  511.750    2.733    0.303    0.378   31.957
  512.000    2.647    0.302    0.375   31.406
  512.250    2.573    0.312    0.367   29.522
  512.500    2.519    0.327    0.362   27.638
  512.750    2.528    0.326    0.360   27.088
  513.000    2.590    0.311    0.361   31.204
  513.250    2.713    0.311    0.360   34.714
  513.500    2.886    0.324    0.354   42.284
  513.750    3.234    0.266    0.350   57.490
  514.000    3.784    0.229    0.354   69.909
  514.250    4.462    0.204    0.353   82.085
  514.500    5.544    0.206    0.348   83.110
  514.750    7.005    0.212    0.333   79.832
  515.000    9.120    0.087    0.314   79.160
  515.250   12.919    0.047    0.281   82.064
  515.500   16.915    0.038    0.234   84.544
  515.750   20.433    0.048    0.209   86.053
  516.000   23.955    0.039    0.194   84.473
  516.250   27.254    0.034    0.182   83.498
  516.500   29.811    0.031    0.170   85.493
  516.750   26.485    0.031    0.163   87.426
  517.000   23.619    0.047    0.160   86.573
  517.250   20.983    0.056    0.164   83.901
  517.500   19.610    0.053    0.167   81.592
  517.750   18.189    0.038    0.169   78.799
  518.000   17.159    0.026    0.173   76.310
