~VERSION INFORMATION
 VERS.                 2.0:   CWLS LOG ASCII STANDARD -VERSION 2.0
 WRAP.                  NO:   ONE LINE PER DEPTH STEP
~WELL INFORMATION BLOCK
#MNEM.UNIT           DATA                    DESCRIPTION OF MNEMONIC
#---------    -------------------            -------------------------------
# Generated from Intellog Unique Number	CS_77_79/WELL/1008
WELL.         PCI PCEJ CHARD                 : Well_name    - WELL
LOC .         00/11-33-079-07W4/0            : Location     - LOCATION
UWI .         00/11-33-079-07W4/0            : Uwi          - UNIQUE WELL ID
ENTR.         JHS                            : Entered      - ENTERED BY
SRVC.         SCHLUMBERGER                   : Scn          - SERVICE COMPANY
STRT.M        140                            : top_depth    - START DEPTH
STOP.M        380                            : bot_depth    - STOP DEPTH
STEP.M        0.25                           : increment    - STEP LENGTH
 NULL. -999.2500:NULL Value
~CURVE INFORMATION BLOCK
#MNEM UNIT       ERCB CURVE CODE    CURVE DESCRIPTION
#-----------   ------------------   ----------------------------------
DEPT.M        00 001 00 00         : DEPTH        - DEPTH
DPHI.V/V      00 890 00 00         : PHID         - DENSITY POROSITY (LIMESTONE)
NPHI.V/V      00 330 00 00         : PHIN         - NEUTRON POROSITY (LIMESTONE)
GR  .API      00 310 00 00         : GR           - GAMMA RAY
ILD .OHMM     00 120 00 00         : RESD         - DEEP RESISTIVITY (DIL)
RHOB.KG/M3    00 350 00 00         : DENS         - BULK DENSITY
~PARAMETER INFORMATION
#MNEM.UNIT           DATA             DESCRIPTION OF MNEMONIC
#---------         -----------     ------------------------------
GL  .M        589.9                : gl           - GROUND LEVEL ELEVATION
EREF.M        593.55               : kb           - ELEVATION OF DEPTH REFERENCE
DATM.M        593.55               : datum        - DATUM ELEVATION
TDD .M        406                  : tdd          - TOTAL DEPTH DRILLER
RUN .         ONE                  : Run          - RUN NUMBER
ENG .         BILL                 : Engineer     - RECORDING ENGINEER
WIT .         JIM                  : Witness      - WITNESSED BY
MUD .         GEL                  : Mud_type     - MUD TYPE
MATR.         LIMESTONE            : Logunit      - NEUTRON MATRIX
TMAX.C        23                   : BHT          - MAXIMUM RECORDED TEMPERATURE
BHTD.M        406                  : BHTDEP       - MAXIMUM RECORDED TEMPERATURE
MATR.         1                    : LOGUNIT      - NEUTRON MATRIX
RMT .C        25                   : MDTP         - TEMPERATURE OF MUD
NEUT.         1                    : NEUTRON      - NEUTRON TYPE
RESI.         0                    : RESIST       - RESISTIVITY TYPE
RMC .OHMM     0.25                 : RMC          - RESISTIVITY OF MUD CAKE
RMF .OHMM     0.25                 : RMF          - RESISTIVITY OF MUD FILTRATE
SUFT.C        15                   : SUFT         - SURFACE TEMPERATURE
~A  DEPTH     PHID     PHIN       GR     RESD     DENS
# ...
  322.500    0.335    0.391   51.903    9.080 2137.310
  322.750    0.327    0.399   50.712    8.431 2150.010
  323.000    0.324    0.402   45.841    8.766 2156.440
  323.250    0.332    0.405   45.270   10.019 2141.860
  323.500    0.337    0.411   47.144   11.664 2133.570
  323.750    0.333    0.418   48.999   13.077 2140.020
  324.000    0.338    0.388   49.034   15.521 2131.720
  324.250    0.336    0.381   51.517   17.403 2136.020
  324.500    0.317    0.418   52.161   18.434 2167.630
  324.750    0.312    0.405   52.809   19.909 2176.120
  325.000    0.327    0.396   55.899   21.091 2151.090
  325.250    0.330    0.420   57.162   22.780 2144.900
  325.500    0.324    0.420   56.574   23.688 2155.510
  325.750    0.322    0.427   57.839   24.172 2159.830
  326.000    0.317    0.430   57.862   23.743 2168.320
  326.250    0.303    0.432   59.737   22.042 2191.530
  326.500    0.303    0.444   62.830   18.980 2191.640
  326.750    0.315    0.421   65.918   17.286 2170.770
  327.000    0.302    0.415   73.918   14.067 2193.990
  327.250    0.281    0.416   77.621   13.058 2229.770
  327.500    0.276    0.419   83.772   11.675 2238.290
  327.750    0.272    0.425   89.313   10.439 2244.670
  328.000    0.259    0.425   92.406   10.062 2267.870
  328.250    0.241    0.425   98.561    9.888 2297.370
  328.500    0.233    0.430  103.494   10.477 2312.170
  328.750    0.251    0.415  102.916   11.528 2280.840
  329.000    0.258    0.393   88.252   12.925 2268.340
  329.250    0.264    0.361   74.818   14.491 2257.970
  329.500    0.279    0.361   68.726   16.562 2232.910
  329.750    0.302    0.381   68.765   17.544 2193.170
  330.000    0.274    0.408   70.629   17.573 2241.550
  330.250    0.252    0.413   70.668   16.938 2279.450
  330.500    0.246    0.415   67.020   15.730 2290.040
  330.750    0.248    0.405   64.600   14.879 2285.970
  331.000    0.231    0.407   71.376   14.075 2315.460
  331.250    0.213    0.395   75.686   13.319 2344.950
  331.500    0.210    0.399   78.780   13.334 2351.350
  331.750    0.262    0.445   74.538   14.129 2261.240
  332.000    0.298    0.455   67.224   15.842 2200.540
  332.250    0.305    0.452   61.740   20.659 2188.050
  332.500    0.316    0.425   50.751   30.750 2169.290
  332.750    0.321    0.392   42.213   38.610 2161.050
  333.000    0.320    0.377   44.081   44.961 2163.240
  333.250    0.315    0.399   50.237   40.191 2171.740
  333.500    0.299    0.423   58.226   27.588 2199.160
  333.750    0.285    0.420   69.891   19.667 2222.320
  334.000    0.259    0.405   79.103   16.307 2266.510
  334.250    0.245    0.395   84.038   14.578 2291.810
  334.500    0.264    0.399   79.784   14.058 2258.350
  334.750    0.294    0.424   70.632   14.076 2208.110
  335.000    0.292    0.410   67.604   14.912 2210.370
  335.250    0.286    0.410   66.410   16.724 2220.930
  335.500    0.282    0.429   62.775   18.745 2227.340
  335.750    0.281    0.439   56.070   21.830 2229.580
  336.000    0.316    0.426   42.020   27.413 2168.860
  336.250    0.332    0.416   29.806   33.780 2141.680
  336.500    0.341    0.410   24.941   43.224 2127.120
  336.750    0.337    0.395   36.605   55.303 2133.560
  337.000    0.333    0.387   44.604   74.901 2139.930
  337.250    0.332    0.402   44.637  105.323 2142.170
  337.500    0.333    0.425   42.828  132.238 2140.170
  337.750    0.327    0.412   41.636  151.090 2150.770
  338.000    0.322    0.396   39.219  154.174 2159.300
  338.250    0.323    0.391   41.092  143.156 2157.300
  338.500    0.329    0.404   39.285  132.892 2146.960
  338.750    0.334    0.427   32.578  125.734 2138.670
  339.000    0.339    0.417   33.841  121.243 2130.400
  339.250    0.334    0.417   36.935  106.378 2138.900
  339.500    0.331    0.420   36.973   86.523 2143.220
  339.750    0.338    0.398   39.443   52.045 2132.840
  340.000    0.330    0.400   57.843   42.355 2145.540
  340.250    0.290    0.428   60.937   41.608 2214.900
  340.500    0.303    0.477   55.463   43.267 2191.940
  340.750    0.346    0.494   51.817   47.595 2118.630
  341.000    0.358    0.475   48.788   53.376 2097.780
  341.250    0.354    0.471   50.048   52.441 2104.170
  341.500    0.332    0.462   58.650   49.609 2142.060
  341.750    0.306    0.463   63.585   46.069 2186.230
  342.000    0.279    0.480   61.776   51.648 2232.510
  342.250    0.171    0.387   54.464   66.115 2417.260
  342.500    0.131    0.315   50.821   70.020 2486.620
  342.750    0.127    0.301   52.078   62.608 2493.050
  343.000    0.189    0.396   58.237   45.488 2386.140
  343.250    0.322    0.431   60.716   31.819 2159.670
  343.500    0.321    0.417   61.976   22.258 2161.890
  343.750    0.281    0.449   66.288   17.772 2229.150
  344.000    0.263    0.481   72.445   15.299 2260.720
  344.250    0.292    0.481   74.323   13.173 2210.490
  344.500    0.312    0.466   75.573   10.715 2177.040
  344.750    0.302    0.470   80.510    8.395 2193.960
  345.000    0.285    0.491   84.821    7.228 2223.440
  345.250    0.262    0.499   91.589    6.839 2261.330
  345.500    0.256    0.494   94.681    6.978 2271.920
  345.750    0.252    0.467   96.550    7.256 2278.340
  346.000    0.240    0.451   99.033    7.686 2299.430
  346.250    0.224    0.451   98.454    8.144 2326.830
  346.500    0.247    0.425   73.384    8.793 2287.070
  346.750    0.300    0.386   59.336    9.676 2196.980
  347.000    0.305    0.403   59.368   11.268 2188.720
  347.250    0.299    0.419   57.561   13.625 2199.310
  347.500    0.310    0.408   50.249   17.430 2180.560
  347.750    0.330    0.404   41.710   25.942 2145.010
  348.000    0.349    0.393   33.782   32.574 2113.640
  348.250    0.362    0.389   29.537   35.168 2090.690
  348.500    0.358    0.376   39.361   31.451 2097.100
  348.750    0.339    0.371   44.295   24.174 2130.780
  349.000    0.323    0.410   44.320   18.238 2158.200
  349.250    0.326    0.420   42.514   15.410 2152.020
  349.500    0.318    0.374   49.282   13.518 2166.820
  349.750    0.288    0.348   60.946   11.423 2217.280
  350.000    0.257    0.337   71.385   10.212 2269.840
  350.250    0.214    0.338   79.991    9.306 2343.400
  350.500    0.214    0.369   82.473    8.638 2343.530
  350.750    0.247    0.407   76.380    8.021 2286.990
  351.000    0.276    0.413   68.462    7.878 2238.850
  351.250    0.283    0.402   74.003    7.741 2226.380
  351.500    0.258    0.396   80.153    7.901 2268.450
  351.750    0.226    0.419   86.923    8.061 2323.120
  352.000    0.195    0.445   90.012    8.223 2375.700
  352.250    0.183    0.415   85.760    8.391 2396.820
  352.500    0.186    0.400   81.505    8.559 2392.750
  352.750    0.193    0.403   83.990    8.905 2380.250
  353.000    0.206    0.403   82.186    8.913 2357.300
  353.250    0.215    0.401   82.825    9.093 2342.740
  353.500    0.217    0.422   81.030    9.283 2338.660
  353.750    0.211    0.438   77.999    9.287 2349.240
  354.000    0.197    0.413   78.034    9.476 2372.440
  354.250    0.186    0.397   78.059    9.491 2391.460
  354.500    0.179    0.392   77.483    9.502 2404.170
  354.750    0.189    0.406   76.290    9.334 2387.480
  355.000    0.209    0.409   74.486    9.350 2351.930
  355.250    0.217    0.396   75.127    9.359 2339.460
  355.500    0.215    0.391   78.834    9.374 2341.690
  355.750    0.213    0.403   79.487    9.380 2345.990
  356.000    0.215    0.408   77.067    9.575 2341.920
  356.250    0.210    0.411   74.645    9.767 2350.430
  356.500    0.214    0.425   76.518    9.967 2344.280
  356.750    0.220    0.422   77.168   10.169 2333.870
  357.000    0.228    0.403   76.581   10.375 2319.300
  357.250    0.228    0.414   74.776   10.587 2319.450
  357.500    0.230    0.423   71.749   10.599 2317.430
  357.750    0.232    0.415   69.331   10.815 2313.360
  358.000    0.223    0.411   74.258   10.828 2328.210
  358.250    0.223    0.404   79.191   11.262 2328.290
  358.500    0.237    0.410   77.998   11.485 2305.340
  358.750    0.239    0.423   73.132   11.945 2301.250
