~VERSION INFORMATION
 VERS.                 2.0:   CWLS LOG ASCII STANDARD -VERSION 2.0
 WRAP.                  NO:   ONE LINE PER DEPTH STEP
~WELL INFORMATION BLOCK
#MNEM.UNIT           DATA                    DESCRIPTION OF MNEMONIC
#---------    -------------------            -------------------------------
# Generated from Intellog Unique Number	CS_69_70/WELL/868
WELL.         MANGRAN EXPLORATION CO.        : Well_name    - WELL
LOC .         00/10-16-069-16W4/0            : Location     - LOCATION
UWI .         00/10-16-069-16W4/0            : Uwi          - UNIQUE WELL ID
ENTR.         SP                             : Entered      - ENTERED BY
SRVC.         SCHLUMBERGER                   : Scn          - SERVICE COMPANY
STRT.M        280.416                        : top_depth    - START DEPTH
STOP.M        481.166                        : bot_depth    - STOP DEPTH
STEP.M        0.25                           : increment    - STEP LENGTH
 NULL. -999.2500:NULL Value
~CURVE INFORMATION BLOCK
#MNEM UNIT       ERCB CURVE CODE    CURVE DESCRIPTION
#-----------   ------------------   ----------------------------------
DEPT.M        00 001 00 00         : DEPTH        - DEPTH
GR  .API      00 310 00 00         : GR           - GAMMA RAY
DPHI.V/V      00 890 00 00         : PHID         - DENSITY POROSITY (SANDSTONE)
NPHI.V/V      00 330 00 00         : PHIN         - NEUTRON POROSITY (SANDSTONE)
ILD .OHMM     00 120 00 00         : RESD         - DEEP RESISTIVITY (DIL)
~PARAMETER INFORMATION
#MNEM.UNIT           DATA             DESCRIPTION OF MNEMONIC
#---------         -----------     ------------------------------
GL  .M        558.394              : gl           - GROUND LEVEL ELEVATION
EREF.M        562.051              : kb           - ELEVATION OF DEPTH REFERENCE
DATM.M        558.394              : datum        - DATUM ELEVATION
TDD .M        489.814              : tdd          - TOTAL DEPTH DRILLER
RUN .         ONE                  : Run          - RUN NUMBER
ENG .         BILL                 : Engineer     - RECORDING ENGINEER
WIT .         JIM                  : Witness      - WITNESSED BY
MUD .         GEL                  : Mud_type     - MUD TYPE
MATR.         SANDSTONE            : Logunit      - NEUTRON MATRIX
TMAX.C        28.3333              : BHT          - MAXIMUM RECORDED TEMPERATURE
BHTD.M        489.814              : BHTDEP       - MAXIMUM RECORDED TEMPERATURE
MATR.         1                    : LOGUNIT      - NEUTRON MATRIX
RMT .C        25                   : MDTP         - TEMPERATURE OF MUD
NEUT.         1                    : NEUTRON      - NEUTRON TYPE
RESI.         0                    : RESIST       - RESISTIVITY TYPE
RMC .OHMM     0.25                 : RMC          - RESISTIVITY OF MUD CAKE
RMF .OHMM     0.25                 : RMF          - RESISTIVITY OF MUD FILTRATE
SUFT.C        15                   : SUFT         - SURFACE TEMPERATURE
~A  DEPTH       GR     PHID     PHIN     RESD
# ...
  410.916   97.414    0.251    0.610    3.074
  411.166   97.065    0.263    0.608    3.107
  411.416   97.005    0.253    0.606    3.064
  411.666   96.868    0.247    0.605    2.998
  411.916   96.414    0.255    0.606    2.906
  412.166   96.266    0.258    0.607    2.811
  412.416   96.215    0.256    0.607    2.766
  412.666   96.301    0.269    0.607    2.730
  412.916   95.893    0.240    0.606    2.746
  413.166   95.014    0.237    0.604    2.778
  413.416   92.670    0.238    0.603    2.819
  413.666   91.098    0.216    0.599    2.900
  413.916   90.579    0.201    0.589    2.998
  414.166   93.816    0.202    0.580    3.096
  414.416   91.644    0.217    0.564    3.183
  414.666   85.316    0.208    0.576    3.317
  414.916   78.393    0.224    0.576    3.677
  415.166   76.006    0.245    0.555    4.235
  415.416   74.779    0.234    0.546    5.034
  415.666   73.417    0.233    0.540    5.675
  415.916   73.555    0.247    0.532    6.058
  416.166   74.481    0.264    0.514    5.685
  416.416   74.281    0.214    0.499    5.182
  416.666   72.084    0.177    0.462    5.131
  416.916   72.726    0.159    0.379    5.509
  417.166   75.382    0.167    0.382    6.031
  417.416   78.299    0.259    0.455    6.366
  417.666   81.654    0.264    0.539    5.772
  417.916   84.382    0.250    0.505    4.982
  418.166   86.558    0.234    0.485    4.464
  418.416   87.205    0.236    0.474    4.269
  418.666   86.726    0.211    0.463    4.277
  418.916   86.575    0.186    0.442    4.336
  419.166   86.442    0.173    0.442    4.534
  419.416   82.173    0.173    0.453    4.768
  419.666   74.434    0.162    0.446    5.192
  419.916   62.963    0.130    0.392    5.837
  420.166   56.000    0.088    0.270    6.938
  420.416   51.577    0.054    0.227   10.350
  420.666   57.080    0.032    0.207   14.215
  420.916   63.557    0.017    0.197   18.839
  421.166   71.032    0.030    0.225   19.969
  421.416   79.230    0.152    0.267   18.444
  421.666   83.905    0.177    0.319    7.428
  421.916   87.360    0.195    0.417    5.685
  422.166   89.871    0.192    0.481    5.082
  422.416   90.203    0.180    0.489    4.806
  422.666   88.231    0.172    0.497    4.781
  422.916   90.145    0.164    0.502    4.872
  423.166   92.713    0.166    0.476    4.771
  423.416   94.961    0.188    0.462    4.635
  423.666   96.896    0.193    0.459    4.495
  423.916   98.662    0.185    0.463    4.380
  424.166   99.106    0.179    0.465    4.307
  424.416   98.646    0.197    0.468    4.290
  424.666   96.381    0.206    0.467    4.295
  424.916   93.629    0.209    0.459    4.332
  425.166   91.338    0.193    0.452    4.383
  425.416   89.754    0.174    0.451    4.457
  425.666   89.710    0.151    0.466    4.530
  425.916   93.392    0.178    0.483    4.584
  426.166   97.334    0.200    0.496    4.569
  426.416   99.291    0.204    0.490    4.511
  426.666  100.408    0.199    0.484    4.600
  426.916  100.273    0.196    0.485    4.741
  427.166   98.916    0.192    0.484    4.772
  427.416   96.983    0.186    0.469    4.820
  427.666   92.817    0.171    0.459    4.834
  427.916   87.064    0.154    0.468    4.785
  428.166   86.055    0.198    0.494    4.631
  428.416   89.478    0.220    0.514    4.471
  428.666   91.575    0.206    0.515    4.301
  428.916   91.091    0.237    0.524    4.055
  429.166   88.701    0.236    0.579    3.458
  429.416   88.647    0.255    0.597    3.061
  429.666   89.959    0.304    0.601    2.574
  429.916   90.190    0.287    0.604    2.318
  430.166   89.629    0.275    0.605    2.147
  430.416   88.358    0.286    0.606    1.960
  430.666   84.181    0.286    0.604    2.556
  430.916   80.626    0.258    0.522    3.719
  431.166   81.889    0.229    0.468    4.876
  431.416   82.328    0.207    0.442    5.818
  431.666   81.120    0.196    0.473    6.472
  431.916   80.660    0.207    0.551    6.616
  432.166   82.727    0.249    0.569    6.240
  432.416   83.922    0.277    0.547    5.687
  432.666   82.515    0.257    0.523    5.117
  432.916   79.397    0.229    0.477    4.773
  433.166   75.799    0.196    0.438    4.984
  433.416   73.386    0.176    0.400    5.498
  433.666   71.006    0.163    0.388    6.394
  433.916   72.776    0.151    0.382    7.106
  434.166   79.269    0.151    0.402    7.764
  434.416   83.203    0.181    0.442    7.327
  434.666   87.599    0.226    0.489    6.307
  434.916   90.005    0.254    0.506    5.497
  435.166   92.460    0.276    0.518    4.762
  435.416   94.129    0.301    0.535    4.304
  435.666   95.000    0.276    0.552    4.129
  435.916   95.061    0.253    0.563    4.097
  436.166   93.278    0.237    0.552    4.146
  436.416   90.194    0.222    0.544    4.158
  436.666   91.129    0.197    0.538    4.145
  436.916   93.109    0.184    0.557    4.029
  437.166   94.711    0.224    0.566    3.887
  437.416   95.716    0.260    0.574    3.705
  437.666   95.749    0.256    0.579    3.543
  437.916   94.954    0.244    0.580    3.527
  438.166   92.989    0.246    0.549    3.538
  438.416   90.526    0.206    0.526    3.610
  438.666   89.855    0.176    0.513    3.691
  438.916   92.107    0.193    0.562    3.677
  439.166   94.128    0.217    0.582    3.544
  439.416   95.498    0.227    0.587    3.380
  439.666   96.109    0.225    0.576    3.245
  439.916   96.594    0.231    0.558    3.203
  440.166   96.844    0.227    0.556    3.222
  440.416   95.399    0.234    0.572    3.230
  440.666   96.823    0.235    0.594    3.189
  440.916   98.419    0.240    0.597    3.052
  441.166   99.075    0.227    0.593    2.878
  441.416   98.643    0.232    0.593    2.801
  441.666   96.886    0.223    0.600    2.818
  441.916   94.830    0.216    0.579    2.942
  442.166   94.523    0.210    0.560    3.224
  442.416   95.043    0.198    0.543    3.399
  442.666   96.211    0.174    0.516    3.484
  442.916   97.980    0.150    0.555    3.215
  443.166  100.337    0.214    0.590    2.920
  443.416   99.769    0.242    0.599    2.597
  443.666   99.088    0.247    0.612    2.574
  443.916   99.882    0.248    0.616    2.852
  444.166   94.615    0.265    0.570    3.338
  444.416   80.078    0.244    0.520    4.251
  444.666   70.480    0.202    0.424    5.149
  444.916   70.683    0.087    0.383    6.018
  445.166   73.849    0.070    0.358    6.397
  445.416   77.218    0.108    0.383    6.101
  445.666   80.934    0.151    0.408    5.434
  445.916   83.133    0.182    0.421    5.001
  446.166   83.458    0.185    0.421    5.163
  446.416   80.451    0.189    0.423    5.824
  446.666   79.968    0.195    0.415    6.333
  446.916   79.749    0.188    0.405    6.730
  447.166   79.146    0.181    0.396    6.989
  447.416   75.681    0.176    0.388    7.143
  447.666   70.088    0.176    0.382    7.656
  447.916   66.716    0.200    0.380    8.510
  448.166   65.748    0.223    0.385    9.835
  448.416   65.112    0.237    0.396   10.631
  448.666   63.543    0.242    0.408   11.169
  448.916   64.144    0.239    0.410   11.457
  449.166   65.143    0.236    0.403   11.517
  449.416   65.787    0.233    0.398   11.498
  449.666   66.502    0.217    0.400   11.355
  449.916   71.040    0.204    0.405   11.054
  450.166   74.974    0.190    0.394   10.536
  450.416   77.022    0.181    0.384    9.861
  450.666   79.103    0.176    0.377    9.009
  450.916   80.539    0.171    0.373    8.232
  451.166   80.897    0.168    0.378    7.723
  451.416   78.909    0.164    0.387    7.592
  451.666   73.030    0.176    0.398    7.988
  451.916   66.647    0.206    0.413    8.601
  452.166   63.103    0.276    0.421    9.970
  452.416   59.731    0.292    0.427   11.730
  452.666   59.703    0.275    0.431   15.862
  452.916   66.287    0.289    0.443   18.766
  453.166   71.148    0.288    0.433   20.244
  453.416   75.194    0.264    0.438   20.419
  453.666   78.050    0.249    0.445   19.946
  453.916   80.945    0.238    0.447   18.621
  454.166   82.488    0.229    0.454   16.722
