~VERSION INFORMATION
 VERS.                 2.0:   CWLS LOG ASCII STANDARD -VERSION 2.0
 WRAP.                  NO:   ONE LINE PER DEPTH STEP
~WELL INFORMATION BLOCK
#MNEM.UNIT           DATA                    DESCRIPTION OF MNEMONIC
#---------    -------------------            -------------------------------
# Generated from Intellog Unique Number	CS_67_68/WELL/2208
WELL.         MANNVILLE ET AL ATMORE         : Well_name    - WELL
LOC .         00/11-22-067-15W4/0            : Location     - LOCATION
UWI .         00/11-22-067-15W4/0            : Uwi          - UNIQUE WELL ID
ENTR.         SP                             : Entered      - ENTERED BY
SRVC.         SCHLUMBERGER                   : Scn          - SERVICE COMPANY
STRT.M        330                            : top_depth    - START DEPTH
STOP.M        540                            : bot_depth    - STOP DEPTH
STEP.M        0.25                           : increment    - STEP LENGTH
 NULL. -999.2500:NULL Value
~CURVE INFORMATION BLOCK
#MNEM UNIT       ERCB CURVE CODE    CURVE DESCRIPTION
#-----------   ------------------   ----------------------------------
DEPT.M        00 001 00 00         : DEPTH        - DEPTH
ILD .OHMM     00 120 00 00         : RESD         - DEEP RESISTIVITY (DIL)
DPHI.V/V      00 890 00 00         : PHID         - DENSITY POROSITY (LIMESTONE)
NPHI.V/V      00 330 00 00         : PHIN         - NEUTRON POROSITY (LIMESTONE)
GR  .API      00 310 00 00         : GR           - GAMMA RAY
CALI.MM       00 280 01 00         : CAL          - CALIPER
~PARAMETER INFORMATION
#MNEM.UNIT           DATA             DESCRIPTION OF MNEMONIC
#---------         -----------     ------------------------------
GL  .M        580.3                : gl           - GROUND LEVEL ELEVATION
EREF.M        583.5                : kb           - ELEVATION OF DEPTH REFERENCE
DATM.M        583.5                : datum        - DATUM ELEVATION
TDD .M        542.5                : tdd          - TOTAL DEPTH DRILLER
RUN .         ONE                  : Run          - RUN NUMBER
ENG .         BILL                 : Engineer     - RECORDING ENGINEER
WIT .         JIM                  : Witness      - WITNESSED BY
MUD .         GEL                  : Mud_type     - MUD TYPE
MATR.         LIMESTONE            : Logunit      - NEUTRON MATRIX
TMAX.C        16.6                 : BHT          - MAXIMUM RECORDED TEMPERATURE
BHTD.M        540                  : BHTDEP       - MAXIMUM RECORDED TEMPERATURE
MATR.         1                    : LOGUNIT      - NEUTRON MATRIX
RMT .C        25                   : MDTP         - TEMPERATURE OF MUD
NEUT.         1                    : NEUTRON      - NEUTRON TYPE
RESI.         0                    : RESIST       - RESISTIVITY TYPE
RMC .OHMM     0.25                 : RMC          - RESISTIVITY OF MUD CAKE
RMF .OHMM     0.25                 : RMF          - RESISTIVITY OF MUD FILTRATE
SUFT.C        15                   : SUFT         - SURFACE TEMPERATURE
~A  DEPTH     RESD     PHID     PHIN       GR      CAL
# ...
  366.500    2.857    0.213    0.466  145.293  163.045
  366.750    2.773    0.223    0.468  155.249  162.848
  367.000    2.996    0.202    0.485  149.697  162.753
  367.250    3.141    0.155    0.501  137.552  162.047
  367.500    3.061    0.098    0.316  124.064  160.326
  367.750    2.989    0.070    0.379  108.134  158.501
  368.000    2.880    0.218    0.422   84.817  155.861
  368.250    2.770    0.210    0.445   94.406  152.205
  368.500    2.709    0.200    0.461  100.882  150.787
  368.750    2.751    0.217    0.459   98.444  153.440
  369.000    2.779    0.237    0.445   95.762  152.735
  369.250    2.843    0.250    0.425   96.804  150.706
  369.500    2.925    0.256    0.411   97.969  148.985
  369.750    2.988    0.257    0.399   97.667  148.380
  370.000    3.091    0.261    0.410   95.046  148.082
  370.250    3.410    0.272    0.442   89.007  148.191
  370.500    3.963    0.280    0.466   84.981  148.299
  370.750    4.938    0.274    0.412   80.284  149.121
  371.000    6.119    0.126    0.312   75.954  150.857
  371.250    7.193    0.076    0.248   71.440  153.407
  371.500    8.795    0.042    0.194   64.606  155.958
  371.750   10.715    0.010    0.166   58.505  158.000
  372.000   12.715    0.127    0.400   62.722  158.211
  372.250   12.889    0.192    0.422   68.099  156.691
  372.500    8.777    0.228    0.440   74.575  154.256
  372.750    5.087    0.254    0.455   78.852  151.720
  373.000    3.988    0.268    0.437   81.847  150.708
  373.250    3.369    0.278    0.419   84.416  150.003
  373.500    2.990    0.251    0.424   86.251  149.704
  373.750    2.952    0.240    0.428   83.875  149.508
  374.000    2.931    0.245    0.431   84.916  149.515
  374.250    2.993    0.227    0.428   88.401  150.234
  374.500    3.138    0.215    0.416   91.457  152.276
  374.750    3.290    0.208    0.403   93.415  155.640
  375.000    3.135    0.260    0.423   90.367  158.191
  375.250    2.965    0.294    0.445   87.135  156.468
  375.500    2.665    0.306    0.438   83.415  153.728
  375.750    2.382    0.309    0.427   80.367  152.312
  376.000    2.257    0.310    0.437   78.174  151.809
  376.250    2.143    0.310    0.440   78.421  151.612
  376.500    2.080    0.308    0.438   78.731  151.111
  376.750    2.065    0.301    0.446   79.590  151.015
  377.000    2.066    0.290    0.454   77.396  150.819
  377.250    2.102    0.274    0.444   74.836  150.724
  377.500    2.196    0.269    0.435   76.733  150.325
  377.750    2.285    0.264    0.436   82.965  150.636
  378.000    2.525    0.257    0.458   83.640  151.762
  378.250    2.718    0.262    0.448   80.164  154.212
  378.500    2.818    0.256    0.431   84.136  156.151
  378.750    2.927    0.229    0.430   95.069  157.889
  379.000    3.017    0.198    0.430  105.634  159.116
  379.250    3.116    0.206    0.438  111.804  160.954
  379.500    3.279    0.232    0.429  112.480  165.336
  379.750    3.464    0.203    0.424  110.775  168.192
  380.000    3.591    0.224    0.442  113.038  168.911
  380.250    3.695    0.247    0.441  111.455  167.901
  380.500    3.788    0.253    0.421  106.819  166.586
  380.750    3.861    0.235    0.406  101.084  165.678
  381.000    3.892    0.219    0.410   98.219  165.276
  381.250    3.858    0.217    0.429  102.924  164.570
  381.500    3.731    0.217    0.429  104.516  163.764
  381.750    3.582    0.213    0.421  109.831  163.465
  382.000    3.530    0.206    0.429  114.780  166.626
  382.250    3.446    0.064    0.453  103.429  167.752
  382.500    3.487    0.054    0.476   95.863  167.455
  382.750    3.541    0.108    0.491   86.832  166.138
  383.000    3.562    0.226    0.490  107.715  163.906
  383.250    3.631    0.223    0.467  114.435  164.117
  383.500    3.723    0.205    0.471  117.614  163.818
  383.750    3.787    0.197    0.462  112.917  161.486
  384.000    3.868    0.218    0.443  101.749  158.542
  384.250    3.921    0.234    0.425   92.473  156.106
  384.500    3.952    0.241    0.413   94.981  154.892
  384.750    4.021    0.223    0.413  102.983  156.730
  385.000    4.045    0.209    0.422  108.969  159.484
  385.250    4.139    0.217    0.407  109.950  161.628
  385.500    4.267    0.202    0.387  103.300  163.468
  385.750    4.465    0.191    0.390   98.359  164.492
  386.000    4.578    0.197    0.401   99.157  165.415
  386.250    4.579    0.212    0.409  101.115  165.421
  386.500    4.590    0.203    0.421  101.363  164.919
  386.750    4.515    0.194    0.416  103.748  163.502
  387.000    4.416    0.186    0.414  107.842  162.898
  387.250    4.296    0.178    0.414  107.480  162.802
  387.500    4.017    0.170    0.397  104.310  162.912
  387.750    3.498    0.163    0.404  102.543  163.325
  388.000    3.168    0.267    0.423   98.579  163.128
  388.250    2.891    0.282    0.425   87.228  162.220
  388.500    2.531    0.291    0.418   78.441  161.209
  388.750    2.345    0.296    0.417   75.332  160.096
  389.000    2.184    0.294    0.420   74.665  158.681
  389.250    2.121    0.290    0.408   74.119  157.770
  389.500    2.071    0.283    0.397   73.391  156.353
  389.750    2.052    0.282    0.400   72.906  155.139
  390.000    2.111    0.284    0.427   76.757  153.925
  390.250    2.185    0.286    0.439   79.081  153.524
  390.500    2.257    0.272    0.436   80.122  153.429
  390.750    2.275    0.262    0.429   76.158  153.233
  391.000    2.276    0.253    0.418   71.218  152.834
  391.250    2.238    0.270    0.411   70.733  152.432
  391.500    2.181    0.282    0.411   73.668  151.626
  391.750    2.114    0.291    0.420   74.771  150.514
  392.000    2.041    0.297    0.425   72.577  149.605
  392.250    2.034    0.299    0.420   72.582  149.205
  392.500    2.081    0.292    0.413   77.164  149.009
  392.750    2.248    0.270    0.406   86.082  149.321
  393.000    2.434    0.244    0.401   95.060  150.040
  393.250    2.639    0.214    0.399   98.971  151.065
  393.500    2.938    0.201    0.401  102.150  151.579
  393.750    3.139    0.197    0.394   99.651  152.603
  394.000    3.360    0.199    0.390   95.931  153.628
  394.250    3.438    0.200    0.390   93.799  154.449
  394.500    3.452    0.202    0.385   94.109  155.473
  394.750    3.427    0.203    0.385   93.930  155.480
  395.000    3.391    0.220    0.391   92.712  155.487
  395.250    3.392    0.244    0.395   90.457  155.697
  395.500    3.400    0.238    0.392   91.256  156.317
  395.750    3.453    0.223    0.385   94.922  157.136
  396.000    3.566    0.206    0.392  101.093  159.178
  396.250    3.875    0.193    0.396  106.225  161.119
  396.500    4.147    0.186    0.387  111.907  162.753
  396.750    4.332    0.185    0.382  116.551  163.980
  397.000    4.374    0.170    0.402  120.584  165.717
  397.250    4.343    0.176    0.417  124.740  167.148
  397.500    4.345    0.191    0.430  124.805  167.563
  397.750    4.323    0.184    0.411  113.087  166.857
  398.000    4.292    0.174    0.391  111.505  165.032
  398.250    4.294    0.187    0.375  115.721  163.513
  398.500    4.271    0.188    0.379  116.030  162.197
  398.750    4.241    0.189    0.374  107.487  161.696
  399.000    4.251    0.193    0.354  100.410  161.499
  399.250    4.253    0.192    0.348  101.208  162.523
  399.500    4.344    0.181    0.369  107.683  164.362
  399.750    4.345    0.173    0.380  113.304  166.200
  400.000    4.283    0.167    0.388  116.910  167.327
  400.250    4.111    0.178    0.397  112.457  167.537
  400.500    3.946    0.202    0.389  104.769  166.322
  400.750    3.746    0.217    0.389   98.424  163.378
  401.000    3.556    0.207    0.397   97.879  157.484
  401.250    3.281    0.193    0.401  102.096  158.101
  401.500    2.922    0.182    0.416  108.815  163.807
  401.750    2.521    0.173    0.447  114.863  167.984
  402.000    2.309    0.184    0.489  119.812  175.217
  402.250    2.284    0.223    0.523  111.331  181.023
  402.500    2.281    0.222    0.486  108.404  185.914
  402.750    2.282    0.209    0.450  105.661  177.069
