~VERSION INFORMATION
 VERS.                 2.0:   CWLS LOG ASCII STANDARD -VERSION 2.0
 WRAP.                  NO:   ONE LINE PER DEPTH STEP
~WELL INFORMATION BLOCK
#MNEM.UNIT           DATA                    DESCRIPTION OF MNEMONIC
#---------    -------------------            -------------------------------
# Generated from Intellog Unique Number	CW_82_90/WELL/928
WELL.         TEXEX WABASCA 10-27            : Well_name    - WELL
LOC .         00/10-27-082-24W4/0            : Location     - LOCATION
UWI .         00/10-27-082-24W4/0            : Uwi          - UNIQUE WELL ID
ENTR.         JAYE                           : Entered      - ENTERED BY
SRVC.         SCHLUMBERGER                   : Scn          - SERVICE COMPANY
STRT.M        228.6                          : top_depth    - START DEPTH
STOP.M        457.1                          : bot_depth    - STOP DEPTH
STEP.M        0.25                           : increment    - STEP LENGTH
 NULL. -999.2500:NULL Value
~CURVE INFORMATION BLOCK
#MNEM UNIT       ERCB CURVE CODE    CURVE DESCRIPTION
#-----------   ------------------   ----------------------------------
DEPT.M        00 001 00 00         : DEPTH        - DEPTH
CALI.MM       00 280 01 00         : CAL          - CALIPER
GR  .API      00 310 00 00         : GR           - GAMMA RAY
DPHI.V/V      00 890 00 00         : PHID         - DENSITY POROSITY (SANDSTONE)
NPHI.V/V      00 330 00 00         : PHIN         - NEUTRON POROSITY (SANDSTONE)
ILD .OHMM     00 120 00 00         : RESD         - DEEP RESISTIVITY (DIL)
~PARAMETER INFORMATION
#MNEM.UNIT           DATA             DESCRIPTION OF MNEMONIC
#---------         -----------     ------------------------------
GL  .M        599.572              : gl           - GROUND LEVEL ELEVATION
EREF.M        603.23               : kb           - ELEVATION OF DEPTH REFERENCE
DATM.M        599.572              : datum        - DATUM ELEVATION
TDD .M        491.033              : tdd          - TOTAL DEPTH DRILLER
RUN .         ONE                  : Run          - RUN NUMBER
ENG .         EARLEY               : Engineer     - RECORDING ENGINEER
WIT .         SEVERS               : Witness      - WITNESSED BY
BASE.         EDMONTON             : Branch       - HOME BASE OF LOGGING UNIT
MUD .         WATER & LOST CIRC    : Mud_type     - MUD TYPE
MATR.         SANDSTONE            : Logunit      - NEUTRON MATRIX
TMAX.C        18.8889              : BHT          - MAXIMUM RECORDED TEMPERATURE
BHTD.M        490.728              : BHTDEP       - MAXIMUM RECORDED TEMPERATURE
RMT .C        4.44444              : MDTP         - TEMPERATURE OF MUD
MUDD.KG/M     1000                 : MWT          - MUD DENSITY
NEUT.         1                    : NEUTRON      - NEUTRON TYPE
RESI.         0                    : RESIST       - RESISTIVITY TYPE
RM  .OHMM     0.25                 : RM           - RESISTIVITY OF MUD
RMC .OHMM     0.25                 : RMC          - RESISTIVITY OF MUD CAKE
RMF .OHMM     0.25                 : RMF          - RESISTIVITY OF MUD FILTRATE
SUFT.C        4                    : SUFT         - SURFACE TEMPERATURE
~A  DEPTH      CAL       GR     PHID     PHIN     RESD
# ...
  411.100  215.567   82.464    0.173    0.434   11.541
  411.350  216.294   84.329    0.195    0.446   10.806
  411.600  216.507   88.990    0.211    0.458   10.326
  411.850  214.341   89.118    0.208    0.456   10.092
  412.100  214.341   88.314    0.194    0.454    9.808
  412.350  214.043   87.759    0.177    0.457    9.674
  412.600  216.533   90.246    0.165    0.452    9.668
  412.850  217.677   95.092    0.187    0.443    9.772
  413.100  218.202   95.407    0.184    0.434   10.043
  413.350  217.689   91.126    0.174    0.428   10.283
  413.600  217.075   91.068    0.161    0.423   10.587
  413.850  216.460   90.886    0.153    0.431   10.759
  414.100  215.539   89.027    0.166    0.434   10.854
  414.350  215.231   86.299    0.187    0.433   10.970
  414.600  215.231   82.888    0.168    0.415   11.168
  414.850  215.453   82.395    0.147    0.395   11.414
  415.100  216.078   83.268    0.123    0.392   11.687
  415.350  216.078   87.866    0.145    0.398   11.790
  415.600  217.957   88.553    0.151    0.418   11.803
  415.850  217.856   86.694    0.169    0.425   11.599
  416.100  218.587   86.636    0.177    0.433   11.338
  416.350  218.593   87.633    0.154    0.436   10.976
  416.600  218.807   90.555    0.133    0.436   11.011
  416.850  218.605   92.855    0.126    0.438   11.149
  417.100  219.336   90.811    0.172    0.444   10.997
  417.350  219.550   90.504    0.193    0.447   10.688
  417.600  219.868   90.135    0.188    0.455   10.271
  417.850  219.872   91.629    0.173    0.474    9.908
  418.100  219.872   93.557    0.157    0.467    9.504
  418.350  219.161   95.734    0.144    0.460    9.220
  418.600  219.066   98.283    0.126    0.456    9.027
  418.850  218.862  100.087    0.122    0.475    9.038
  419.100  218.558   98.539    0.186    0.461    9.016
  419.350  217.943   99.164    0.178    0.452    8.844
  419.600  217.943  100.347    0.176    0.455    8.610
  419.850  216.819   96.688    0.157    0.445    8.574
  420.100  215.582   91.911    0.143    0.440    8.779
  420.350  215.071   92.660    0.133    0.442    9.192
  420.600  215.389   97.134    0.183    0.447    9.482
  420.850  215.601  107.816    0.169    0.430    9.800
  421.100  216.644  109.745    0.153    0.432    9.811
  421.350  218.412  108.817    0.161    0.440    9.536
  421.600  218.621  103.606    0.168    0.444    9.095
  421.850  219.973  103.237    0.149    0.443    8.923
  422.100  222.364  106.842    0.141    0.443    8.640
  422.350  222.675  114.234    0.128    0.478    8.195
  422.600  223.923  116.845    0.158    0.465    7.876
  422.850  224.964  115.917    0.160    0.447    7.499
  423.100  223.522  111.700    0.167    0.439    7.193
  423.350  220.633  111.703    0.168    0.464    6.939
  423.600  219.188  112.390    0.167    0.486    6.756
  423.850  216.021  110.593    0.147    0.454    6.566
  424.100  215.891  106.623    0.126    0.440    6.298
  424.350  215.896  107.931    0.108    0.416    6.143
  424.600  215.902  113.336    0.090    0.419    6.016
  424.850  216.840  117.252    0.074    0.469    6.057
  425.100  217.673  113.716    0.158    0.441    6.247
  425.350  218.095  105.959    0.153    0.424    6.493
  425.600  218.100   97.706    0.122    0.401    6.824
  425.850  218.831   94.729    0.091    0.382    7.375
  426.100  219.561  100.259    0.070    0.367    8.182
  426.350  220.503  107.030    0.052    0.381    8.728
  426.600  220.505  106.413    0.136    0.421    8.836
  426.850  225.068  103.219    0.168    0.420    8.558
  427.100  224.474   93.384    0.174    0.439    8.174
  427.350  223.260   85.594    0.182    0.436    8.664
  427.600  221.834   89.206    0.178    0.406    9.183
  427.850  220.828   99.629    0.188    0.387    8.545
  428.100  220.962  103.984    0.172    0.439    8.010
  428.350  220.786   88.758    0.176    0.453    7.750
  428.600  218.736   78.676    0.187    0.447    8.169
  428.850  217.106   70.513    0.214    0.450    9.259
  429.100  215.996   67.804    0.241    0.465   10.475
  429.350  215.715   69.125    0.258    0.480   11.918
  429.600  215.433   70.439    0.257    0.474   13.840
  429.850  215.472   70.209    0.245    0.466   14.865
  430.100  215.912   72.580    0.243    0.449   15.012
  430.350  215.318   79.906    0.254    0.444   14.524
  430.600  214.203   89.277    0.247    0.440   13.615
  430.850  211.427  102.552    0.188    0.438   11.541
  431.100  220.605  103.437    0.145    0.456   10.080
  431.350  223.129   91.557    0.154    0.449    9.035
  431.600  219.937   80.731    0.189    0.433    9.922
  431.850  212.070   82.673    0.212    0.444    9.527
  432.100  211.270   84.049    0.215    0.431    9.933
  432.350  215.148   83.757    0.222    0.414   11.534
  432.600  217.677   83.338    0.207    0.409   12.739
  432.850  217.707   84.035    0.201    0.433   13.859
  433.100  217.733   86.159    0.203    0.450   14.420
  433.350  217.350   87.910    0.204    0.479   14.186
  433.600  216.755   89.165    0.212    0.485   13.934
  433.850  216.371   90.731    0.212    0.480   13.530
  434.100  216.194   93.412    0.204    0.483   13.289
  434.350  215.809   93.677    0.201    0.486   12.905
  434.600  215.846   92.269    0.212    0.484   12.935
  434.850  215.770   90.362    0.233    0.464   13.357
  435.100  215.904   88.644    0.248    0.453   13.768
  435.350  216.140   89.094    0.241    0.451   14.116
  435.600  217.006   92.394    0.240    0.455   14.416
  435.850  218.279   94.147    0.234    0.472   14.749
  436.100  218.834   92.862    0.221    0.458   15.257
  436.350  218.029   90.460    0.228    0.439   15.697
  436.600  216.087   88.497    0.227    0.431   16.034
  436.850  216.640   93.097    0.213    0.426   16.313
  437.100  218.749   98.813    0.213    0.428   15.207
  437.350  219.714   99.572    0.185    0.475   12.514
  437.600  218.809   95.437    0.132    0.486    9.828
  437.850  218.735   94.650    0.160    0.480    7.923
  438.100  219.807   97.019    0.155    0.462    6.690
  438.350  218.797   99.702    0.158    0.453    5.986
  438.600  217.686  101.204    0.169    0.455    5.591
  438.850  217.404  100.786    0.156    0.453    5.418
  439.100  217.226   97.147    0.130    0.433    5.433
  439.350  217.466   92.950    0.088    0.352    5.988
  439.600  218.432   96.374    0.059    0.279    6.687
  439.850  219.397  118.075    0.036    0.300    7.248
  440.100  220.990  138.413    0.058    0.423    7.681
  440.350  222.058  147.352    0.087    0.469    7.616
  440.600  223.030  142.474    0.141    0.499    6.994
  440.850  222.949  134.993    0.142    0.459    5.809
  441.100  220.904  123.300    0.147    0.427    5.517
  441.350  220.205  123.133    0.168    0.462    6.454
  441.600  224.918  125.441    0.225    0.510    7.839
  441.850  225.152  127.997    0.300    0.510    9.361
  442.100  224.353  131.357    0.307    0.515   10.356
  442.350  223.549  135.960    0.305    0.559   10.362
  442.600  222.648  141.307    0.340    0.591    9.202
  442.850  222.471  147.082    0.356    0.594    7.173
  443.100  222.503  150.444    0.273    0.582    6.219
  443.350  222.432  150.647    0.233    0.560    5.616
  443.600  222.668  150.105    0.227    0.535    5.264
  443.850  223.739  147.953    0.243    0.533    4.999
  444.100  224.288  146.544    0.259    0.598    4.901
  444.350  224.633  145.755    0.256    0.591    4.849
  444.600  223.726  147.383    0.211    0.561    4.453
  444.850  222.199  149.631    0.162    0.518    4.284
  445.100  220.980  149.523    0.161    0.489    4.239
  445.350  220.493  145.883    0.164    0.481    4.419
  445.600  220.837  140.633    0.187    0.484    4.693
  445.850  221.176  142.076    0.194    0.483    4.901
  446.100  221.727  143.395    0.211    0.494    4.949
  446.350  221.974  142.232    0.178    0.503    5.017
  446.600  221.065  137.167    0.150    0.488    5.076
  446.850  220.576  125.475    0.177    0.457    5.174
  447.100  221.125  128.154    0.192    0.456    5.598
  447.350  222.299  127.800    0.190    0.462    5.944
