~VERSION INFORMATION
 VERS.                 2.0:   CWLS LOG ASCII STANDARD -VERSION 2.0
 WRAP.                  NO:   ONE LINE PER DEPTH STEP
~WELL INFORMATION BLOCK
#MNEM.UNIT           DATA                    DESCRIPTION OF MNEMONIC
#---------    -------------------            -------------------------------
# Generated from Intellog Unique Number	CS_67_68/WELL/2211
WELL.         12-08-067-01W4                 : Well_name    - WELL
LOC .         00/12-08-067-01W4/0            : Location     - LOCATION
UWI .         00/12-08-067-01W4/0            : Uwi          - UNIQUE WELL ID
ENTR.         SP                             : Entered      - ENTERED BY
SRVC.         SCHLUMBERGER                   : Scn          - SERVICE COMPANY
STRT.M        315                            : top_depth    - START DEPTH
STOP.M        570                            : bot_depth    - STOP DEPTH
STEP.M        0.25                           : increment    - STEP LENGTH
 NULL. -999.2500:NULL Value
~CURVE INFORMATION BLOCK
#MNEM UNIT       ERCB CURVE CODE    CURVE DESCRIPTION
#-----------   ------------------   ----------------------------------
DEPT.M        00 001 00 00         : DEPTH        - DEPTH
ILD .OHMM     00 120 00 00         : RESD         - DEEP RESISTIVITY (DIL)
DPHI.V/V      00 890 00 00         : PHID         - DENSITY POROSITY (LIMESTONE)
NPHI.V/V      00 330 00 00         : PHIN         - NEUTRON POROSITY (LIMESTONE)
GR  .API      00 310 00 00         : GR           - GAMMA RAY
CALI.MM       00 280 01 00         : CAL          - CALIPER
~PARAMETER INFORMATION
#MNEM.UNIT           DATA             DESCRIPTION OF MNEMONIC
#---------         -----------     ------------------------------
GL  .M        609.53               : gl           - GROUND LEVEL ELEVATION
EREF.M        613.4                : kb           - ELEVATION OF DEPTH REFERENCE
DATM.M        613.4                : datum        - DATUM ELEVATION
TDD .M        576                  : tdd          - TOTAL DEPTH DRILLER
RUN .         ONE                  : Run          - RUN NUMBER
ENG .         BILL                 : Engineer     - RECORDING ENGINEER
WIT .         JIM                  : Witness      - WITNESSED BY
MUD .         GEL                  : Mud_type     - MUD TYPE
MATR.         LIMESTONE            : Logunit      - NEUTRON MATRIX
TMAX.C        25                   : BHT          - MAXIMUM RECORDED TEMPERATURE
BHTD.M        575                  : BHTDEP       - MAXIMUM RECORDED TEMPERATURE
MATR.         1                    : LOGUNIT      - NEUTRON MATRIX
RMT .C        25                   : MDTP         - TEMPERATURE OF MUD
NEUT.         1                    : NEUTRON      - NEUTRON TYPE
RESI.         0                    : RESIST       - RESISTIVITY TYPE
RMC .OHMM     0.25                 : RMC          - RESISTIVITY OF MUD CAKE
RMF .OHMM     0.25                 : RMF          - RESISTIVITY OF MUD FILTRATE
SUFT.C        15                   : SUFT         - SURFACE TEMPERATURE
~A  DEPTH     RESD     PHID     PHIN       GR      CAL
# ...
  351.500    7.837    0.277    0.519   92.481  153.519
  351.750    7.663    0.279    0.531   87.914  153.509
  352.000    7.835    0.284    0.514   83.963  153.495
  352.250    8.253    0.298    0.495   81.060  153.588
  352.500    8.549    0.324    0.467   80.621  153.266
  352.750    8.921    0.328    0.457   83.757  152.538
  353.000    9.105    0.314    0.459   88.311  152.219
  353.250    9.120    0.308    0.460   98.781  151.899
  353.500    8.753    0.304    0.467  106.291  151.578
  353.750    8.542    0.301    0.475  109.798  151.671
  354.000    8.540    0.296    0.471   99.746  151.966
  354.250    8.700    0.307    0.466   89.879  152.368
  354.500    8.862    0.326    0.460   74.835  153.589
  354.750    8.457    0.319    0.455   71.314  156.143
  355.000    7.395    0.305    0.444   75.006  157.982
  355.250    6.761    0.292    0.450   78.882  158.996
  355.500    6.513    0.287    0.462   82.942  158.165
  355.750    6.368    0.287    0.465   87.988  156.197
  356.000    6.783    0.295    0.449   93.713  155.778
  356.250    7.321    0.280    0.435   98.082  155.971
  356.500    7.812    0.272    0.424   99.985  156.474
  356.750    8.383    0.269    0.418   95.665  157.490
  357.000    8.588    0.297    0.429   89.864  158.711
  357.250    8.879    0.312    0.445   88.317  159.727
  357.500    8.978    0.307    0.457   89.111  160.743
  357.750    8.877    0.294    0.458   90.521  161.552
  358.000    8.331    0.284    0.457   91.686  161.542
  358.250    8.100    0.271    0.457   91.001  161.529
  358.500    8.328    0.279    0.458   88.591  160.799
  358.750    8.420    0.295    0.459   91.295  160.377
  359.000    8.233    0.287    0.455   95.294  159.955
  359.250    7.542    0.273    0.446   99.601  159.942
  359.500    6.781    0.262    0.440  102.429  160.340
  359.750    6.177    0.246    0.436  101.683  160.743
  360.000    6.165    0.236    0.443   93.356  161.450
  360.250    6.409    0.228    0.451   87.803  161.127
  360.500    6.714    0.236    0.459   87.735  160.606
  360.750    7.178    0.242    0.479   90.378  158.538
  361.000    7.675    0.251    0.498   92.774  156.883
  361.250    8.145    0.257    0.488   88.145  156.051
  361.500    8.773    0.231    0.455   75.936  154.807
  361.750    9.345    0.227    0.420   61.632  154.076
  362.000    9.936    0.259    0.419   57.435  152.934
  362.250   10.273    0.301    0.430   51.388  152.307
  362.500   10.271    0.326    0.439   46.452  151.782
  362.750   10.099    0.334    0.414   46.938  151.358
  363.000    9.710    0.329    0.396   50.443  151.452
  363.250    9.406    0.320    0.390   53.209  151.646
  363.500    9.352    0.310    0.391   55.298  151.736
  363.750    9.491    0.303    0.397   57.078  151.726
  364.000    9.850    0.308    0.408   56.271  151.817
  364.250   10.260    0.317    0.403   53.737  151.701
  364.500   10.707    0.322    0.397   47.628  151.589
  364.750   11.050    0.327    0.392   44.602  151.575
  365.000   11.340    0.330    0.389   43.980  151.873
  365.250   11.659    0.336    0.403   44.403  152.168
  365.500   11.943    0.331    0.403   44.150  152.672
  365.750   12.143    0.329    0.395   43.466  153.175
  366.000   12.209    0.329    0.390   42.966  154.189
  366.250   12.162    0.331    0.385   44.066  154.487
  366.500   12.138    0.326    0.384   44.984  154.475
  366.750   12.136    0.320    0.386   45.962  153.949
  367.000   12.134    0.316    0.390   46.512  153.734
  367.250   12.245    0.314    0.386   46.814  153.517
  367.500   12.312    0.316    0.394   46.068  153.813
  367.750   12.310    0.311    0.402   41.932  154.109
  368.000   12.446    0.312    0.382   41.308  154.303
  368.250   12.352    0.323    0.365   45.615  154.395
  368.500   12.327    0.332    0.373   46.040  154.483
  368.750   12.233    0.339    0.396   44.492  154.475
  369.000   11.984    0.346    0.401   52.004  154.872
  369.250   11.717    0.342    0.389   61.672  155.068
  369.500   11.456    0.332    0.394   70.724  155.057
  369.750   11.243    0.322    0.408   76.572  155.249
  370.000   10.890    0.315    0.420   78.229  155.443
  370.250   10.888    0.310    0.428   73.909  155.638
  370.500   10.908    0.314    0.432   73.963  155.833
  370.750   10.926    0.321    0.444   73.647  156.129
  371.000   10.783    0.327    0.433   72.594  156.732
  371.250   10.662    0.308    0.418   72.956  156.927
  371.500   10.385    0.287    0.405   76.893  157.738
  371.750    9.838    0.266    0.401   82.679  158.343
  372.000    9.354    0.254    0.407   86.432  158.536
  372.250    8.910    0.254    0.410   89.075  158.422
  372.500    8.393    0.262    0.413   87.219  158.411
  372.750    8.025    0.268    0.424   87.089  158.090
  373.000    7.774    0.257    0.440   89.670  157.769
  373.250    7.889    0.249    0.456   91.266  157.553
  373.500    8.249    0.261    0.437   85.035  157.440
  373.750    8.738    0.269    0.425   74.058  157.121
  374.000    9.412    0.281    0.434   65.053  157.315
  374.250   10.063    0.294    0.422   60.178  157.098
  374.500   10.482    0.306    0.394   57.337  156.882
  374.750   10.838    0.311    0.382   52.832  157.074
  375.000   10.836    0.300    0.403   51.777  157.269
  375.250   10.814    0.284    0.421   56.823  157.258
  375.500   10.732    0.272    0.397   61.992  157.347
  375.750   10.611    0.274    0.389   66.546  157.541
  376.000   10.356    0.286    0.410   68.882  157.735
  376.250   10.050    0.294    0.425   71.340  158.033
  376.500    9.863    0.279    0.418   73.551  158.329
  376.750    9.880    0.269    0.410   74.284  158.522
  377.000    9.897    0.275    0.403   74.524  158.615
  377.250   10.025    0.280    0.397   74.886  158.604
  377.500   10.117    0.273    0.397   78.022  158.795
  377.750   10.172    0.267    0.387   77.522  158.787
  378.000   10.171    0.269    0.381   74.311  158.775
  378.250   10.037    0.282    0.388   78.988  158.661
  378.500    9.869    0.288    0.395   87.854  158.749
  378.750    9.721    0.273    0.384   93.456  158.739
  379.000    9.505    0.263    0.375   98.133  158.729
  379.250    9.328    0.249    0.394  100.098  158.716
  379.500    9.019    0.256    0.405   93.497  158.500
  379.750    8.496    0.282    0.415   91.703  158.283
  380.000    7.841    0.298    0.425   92.435  158.477
  380.250    7.428    0.290    0.436   90.272  159.390
  380.500    7.276    0.321    0.451   82.130  160.508
  380.750    7.411    0.339    0.469   75.036  159.779
  381.000    7.983    0.343    0.484   69.360  157.404
  381.250    8.583    0.346    0.459   67.258  155.234
  381.500    9.058    0.349    0.446   68.791  154.300
  381.750    9.453    0.343    0.440   70.633  153.672
  382.000    9.865    0.330    0.450   69.271  153.145
  382.250   10.049    0.321    0.454   64.395  153.240
  382.500   10.217    0.322    0.437   60.320  153.330
  382.750   10.331    0.325    0.426   58.651  153.422
  383.000   10.310    0.330    0.426   56.486  153.716
  383.250   10.118    0.313    0.427   54.446  153.912
  383.500    9.638    0.288    0.414   56.965  154.619
  383.750    9.424    0.271    0.404   60.903  155.326
  384.000    9.422    0.279    0.398   64.716  155.930
  384.250    9.760    0.289    0.404   63.108  156.124
  384.500   10.204    0.301    0.413   57.986  155.908
  384.750   10.610    0.310    0.407   54.959  155.588
  385.000   11.031    0.313    0.408   58.093  154.859
  385.250   11.237    0.314    0.419   59.012  153.717
  385.500   11.110    0.317    0.416   58.820  152.781
  385.750   10.903    0.327    0.409   58.568  151.947
  386.000   10.700    0.335    0.426   58.438  152.142
  386.250   10.443    0.336    0.437   58.677  152.130
  386.500   10.268    0.324    0.446   58.484  152.119
  386.750   10.114    0.317    0.459   57.862  152.415
  387.000   10.207    0.321    0.451   54.528  152.402
  387.250   10.378    0.334    0.441   51.008  152.598
  387.500   10.591    0.337    0.433   49.522  152.792
  387.750   10.768    0.339    0.431   49.700  152.677
