~VERSION INFORMATION
 VERS.                 2.0:   CWLS LOG ASCII STANDARD -VERSION 2.0
 WRAP.                  NO:   ONE LINE PER DEPTH STEP
~WELL INFORMATION BLOCK
#MNEM.UNIT           DATA                    DESCRIPTION OF MNEMONIC
#---------    -------------------            -------------------------------
# Generated from Intellog Unique Number	CW_73_75/WELL/1053
LOC .         00/15-13-075-02W5/0            : Location     - LOCATION
UWI .         00/15-13-075-02W5/0            : Uwi          - UNIQUE WELL ID
ENTR.         JAYE                           : Entered      - ENTERED BY
SRVC.         SCHLUMBERGER                   : Scn          - SERVICE COMPANY
DATE.         19 DEC 75                      : Date         - LOG DATE
STRT.M        533.4                          : top_depth    - START DEPTH
STOP.M        722.4                          : bot_depth    - STOP DEPTH
STEP.M        0.25                           : increment    - STEP LENGTH
 NULL. -999.2500:NULL Value
~CURVE INFORMATION BLOCK
#MNEM UNIT       ERCB CURVE CODE    CURVE DESCRIPTION
#-----------   ------------------   ----------------------------------
DEPT.M        00 001 00 00         : DEPTH        - DEPTH
ILD .OHMM     00 120 00 00         : RESD         - DEEP RESISTIVITY (DIL)
NPHI.V/V      00 330 00 00         : PHIN         - NEUTRON POROSITY (SANDSTONE)
DPHI.V/V      00 890 00 00         : PHID         - DENSITY POROSITY (SANDSTONE)
GR  .API      00 310 00 00         : GR           - GAMMA RAY
CALI.MM       00 280 01 00         : CAL          - CALIPER
~PARAMETER INFORMATION
#MNEM.UNIT           DATA             DESCRIPTION OF MNEMONIC
#---------         -----------     ------------------------------
GL  .M        814.426              : gl           - GROUND LEVEL ELEVATION
EREF.M        818.54               : kb           - ELEVATION OF DEPTH REFERENCE
DATM.M        814.426              : datum        - DATUM ELEVATION
TDD .M        727.253              : tdd          - TOTAL DEPTH DRILLER
RUN .         ONE                  : Run          - RUN NUMBER
ENG .         MACDONALD            : Engineer     - RECORDING ENGINEER
BASE.         EDM                  : Branch       - HOME BASE OF LOGGING UNIT
MUD .         GEL CHEM             : Mud_type     - MUD TYPE
MATR.         SANDSTONE            : Logunit      - NEUTRON MATRIX
TMAX.C        31.1111              : BHT          - MAXIMUM RECORDED TEMPERATURE
BHTD.M        726.643              : BHTDEP       - MAXIMUM RECORDED TEMPERATURE
RMT .C        20                   : MDTP         - TEMPERATURE OF MUD
MUDD.KG/M     1056                 : MWT          - MUD DENSITY
NEUT.         1                    : NEUTRON      - NEUTRON TYPE
RESI.         0                    : RESIST       - RESISTIVITY TYPE
RM  .OHMM     2.8                  : RM           - RESISTIVITY OF MUD
RMC .OHMM     0                    : RMC          - RESISTIVITY OF MUD CAKE
RMF .OHMM     3.77                 : RMF          - RESISTIVITY OF MUD FILTRATE
SUFT.C        -17.7778             : SUFT         - SURFACE TEMPERATURE
~A  DEPTH     RESD     PHIN     PHID       GR      CAL
# ...
  642.900    5.818    0.455    0.184   77.754  226.642
  643.150    6.957    0.451    0.215   72.897  227.203
  643.400    8.009    0.443    0.205   68.165  227.655
  643.650    8.700    0.435    0.206   64.890  228.307
  643.900    8.985    0.426    0.194   65.829  228.355
  644.150    9.094    0.423    0.188   68.169  228.697
  644.400    9.022    0.431    0.185   70.142  228.841
  644.650    8.650    0.443    0.183   71.875  229.186
  644.900    8.143    0.436    0.179   73.542  229.541
  645.150    7.328    0.408    0.176   80.702  229.467
  645.400    6.749    0.413    0.172   80.604  229.299
  645.650    6.118    0.436    0.162   78.978  229.240
  645.900    5.686    0.466    0.140   78.514  229.167
  646.150    5.450    0.476    0.172   82.378  229.207
  646.400    5.516    0.453    0.169   85.086  230.388
  646.650    5.811    0.425    0.151   85.474  230.629
  646.900    6.188    0.434    0.137   83.726  230.354
  647.150    7.267    0.437    0.167   81.249  228.843
  647.400    8.597    0.431    0.190   76.757  224.126
  647.650    9.509    0.424    0.214   69.825  221.176
  647.900   10.330    0.424    0.240   67.166  221.003
  648.150   10.232    0.415    0.242   66.454  221.452
  648.400    9.772    0.405    0.235   66.174  222.425
  648.650    9.286    0.407    0.220   65.096  223.600
  648.900    9.095    0.413    0.218   64.510  224.668
  649.150    8.847    0.425    0.213   65.265  225.846
  649.400    8.620    0.432    0.191   66.263  227.121
  649.650    8.430    0.422    0.197   66.347  228.502
  649.900    8.260    0.412    0.213   66.612  229.466
  650.150    8.150    0.416    0.230   69.563  229.721
  650.400    7.941    0.433    0.223   69.767  229.958
  650.650    7.836    0.446    0.210   66.496  229.584
  650.900    7.846    0.448    0.228   65.486  228.692
  651.150    8.001    0.431    0.235   64.955  227.900
  651.400    8.232    0.410    0.220   65.528  226.707
  651.650    8.515    0.401    0.208   67.257  226.223
  651.900    8.759    0.399    0.193   68.318  225.956
  652.150    9.095    0.402    0.206   66.997  225.988
  652.400    9.288    0.405    0.215   65.433  226.233
  652.650    9.471    0.403    0.208   64.177  226.376
  652.900    9.346    0.409    0.193   63.893  226.826
  653.150    8.959    0.416    0.186   64.648  226.966
  653.400    8.254    0.406    0.168   68.576  227.320
  653.650    7.728    0.398    0.174   70.123  227.249
  653.900    7.315    0.410    0.205   71.546  227.085
  654.150    7.025    0.424    0.220   73.033  226.397
  654.400    6.834    0.440    0.190   73.179  222.302
  654.650    6.731    0.455    0.188   72.163  222.137
  654.900    6.654    0.457    0.221   70.723  224.860
  655.150    6.591    0.449    0.217   73.064  227.173
  655.400    6.671    0.442    0.228   74.611  227.724
  655.650    6.976    0.456    0.218   74.635  227.975
  655.900    7.388    0.470    0.225   73.863  228.109
  656.150    7.868    0.458    0.220   71.203  228.051
  656.400    8.332    0.426    0.195   68.785  228.292
  656.650    8.987    0.409    0.184   67.463  228.432
  656.900    9.692    0.393    0.180   64.985  228.883
  657.150   10.508    0.368    0.173   65.559  228.818
  657.400   11.794    0.333    0.155   65.397  228.341
  657.650   13.802    0.310    0.113   63.711  227.865
  657.900   16.443    0.325    0.070   60.012  227.382
  658.150   20.132    0.350    0.086   55.949  226.903
  658.400   22.636    0.369    0.136   53.836  224.358
  658.650   21.236    0.308    0.101   54.163  220.678
  658.900   18.727    0.285    0.062   58.150  223.609
  659.150   15.445    0.305    0.030   71.349  226.335
  659.400   11.913    0.365    0.086   78.081  227.924
  659.650   10.041    0.409    0.125   79.873  228.784
  659.900    8.418    0.395    0.141   77.151  228.928
  660.150    7.519    0.394    0.146   76.992  228.448
  660.400    7.222    0.419    0.161   81.465  227.973
  660.650    7.152    0.436    0.157   84.904  227.597
  660.900    7.202    0.437    0.164   87.125  227.220
  661.150    7.342    0.430    0.176   87.145  226.741
  661.400    7.525    0.444    0.182   87.169  226.681
  661.650    7.743    0.427    0.169   85.665  225.890
  661.900    7.908    0.418    0.158   80.686  224.171
  662.150    7.976    0.389    0.136   75.340  222.143
  662.400    8.030    0.398    0.114   73.353  224.246
  662.650    8.054    0.404    0.112   74.105  226.870
  662.900    8.020    0.378    0.115   74.495  228.867
  663.150    8.073    0.390    0.118   77.261  229.835
  663.400    8.247    0.417    0.143   81.064  229.980
  663.650    8.469    0.422    0.173   82.979  229.601
  663.900    8.652    0.392    0.145   79.950  228.815
  664.150    8.755    0.369    0.122   74.607  227.201
  664.400    8.703    0.387    0.079   76.763  225.379
  664.650    8.573    0.435    0.108   81.666  223.457
  664.900    8.249    0.409    0.145   83.579  221.530
  665.150    7.893    0.412    0.154   85.129  220.533
  665.400    7.635    0.426    0.137   88.565  222.121
  665.650    7.412    0.416    0.125   87.429  224.330
  665.900    7.302    0.419    0.144   85.804  226.230
  666.150    7.272    0.427    0.151   85.278  227.089
  666.400    7.375    0.420    0.171   85.543  227.024
  666.650    7.517    0.415    0.164   85.139  226.244
  666.900    7.692    0.423    0.165   85.835  225.249
  667.150    7.887    0.429    0.177   88.356  224.765
  667.400    8.069    0.430    0.164   91.918  224.809
  667.650    8.228    0.411    0.134   89.134  225.467
  667.900    8.360    0.404    0.122   90.803  226.533
  668.150    8.584    0.404    0.141   90.886  229.360
  668.400    8.895    0.403    0.166   86.516  232.495
  668.650    9.387    0.392    0.141   83.245  233.879
  668.900    9.744    0.358    0.118   80.644  230.710
  669.150    9.900    0.327    0.086   78.044  227.236
  669.400    9.542    0.355    0.079   78.067  226.143
  669.650    8.586    0.378    0.109   82.543  226.698
  669.900    7.824    0.408    0.123   89.030  227.976
  670.150    7.391    0.429    0.162   92.105  231.010
  670.400    7.021    0.439    0.172   92.676  234.248
  670.650    6.904    0.439    0.165   92.151  235.319
  670.900    6.839    0.432    0.145   90.465  233.807
  671.150    6.896    0.412    0.122   88.840  232.190
  671.400    7.058    0.409    0.096   87.092  230.059
  671.650    7.209    0.429    0.127   84.677  229.892
  671.900    7.348    0.427    0.169   83.722  230.550
  672.150    7.547    0.410    0.170   83.318  230.900
  672.400    7.865    0.421    0.166   83.338  230.631
  672.650    8.528    0.421    0.169   83.179  229.640
  672.900    9.641    0.411    0.151   80.334  228.844
  673.150   11.200    0.423    0.159   73.099  228.060
  673.400   12.684    0.442    0.209   65.800  227.369
  673.650   13.384    0.435    0.260   61.127  226.890
  673.900   13.670    0.429    0.240   59.135  226.419
  674.150   14.143    0.432    0.233   59.464  226.142
  674.400   14.709    0.420    0.241   61.011  225.665
  674.650   15.245    0.395    0.223   61.949  225.189
  674.900   15.711    0.381    0.203   58.797  224.809
  675.150   15.903    0.385    0.174   55.648  224.743
  675.400   15.467    0.394    0.172   55.673  225.093
  675.650   14.883    0.401    0.188   56.425  225.545
  675.900   14.501    0.398    0.205   57.364  225.687
  676.150   14.181    0.380    0.219   59.215  225.825
  676.400   13.995    0.383    0.205   62.410  225.553
  676.650   13.912    0.399    0.184   65.239  223.424
  676.900   13.827    0.438    0.193   64.591  219.639
  677.150   13.718    0.445    0.224   61.380  221.645
  677.400   13.664    0.427    0.230   59.637  224.471
  677.650   13.827    0.417    0.215   58.867  227.196
  677.900   14.304    0.419    0.214   58.582  229.401
  678.150   14.797    0.407    0.239   58.482  230.678
  678.400   15.308    0.396    0.222   58.871  230.713
  678.650   15.866    0.377    0.187   59.014  230.859
  678.900   16.206    0.373    0.186   59.097  231.100
  679.150   16.286    0.380    0.175   59.305  231.241
