~VERSION INFORMATION
 VERS.                 2.0:   CWLS LOG ASCII STANDARD -VERSION 2.0
 WRAP.                  NO:   ONE LINE PER DEPTH STEP
~WELL INFORMATION BLOCK
#MNEM.UNIT           DATA                    DESCRIPTION OF MNEMONIC
#---------    -------------------            -------------------------------
# Generated from Intellog Unique Number	CW_82_90/WELL/1032
WELL.         13-33-083-23W4                 : Well_name    - WELL
LOC .         00/13-33-083-23W4/0            : Location     - LOCATION
UWI .         00/13-33-083-23W4/0            : Uwi          - UNIQUE WELL ID
ENTR.         JAYE                           : Entered      - ENTERED BY
SRVC.         SCHLUMBERGER                   : Scn          - SERVICE COMPANY
DATE.         21 FEB 86                      : Date         - LOG DATE
STRT.M        200                            : top_depth    - START DEPTH
STOP.M        425                            : bot_depth    - STOP DEPTH
STEP.M        0.25                           : increment    - STEP LENGTH
 NULL. -999.2500:NULL Value
~CURVE INFORMATION BLOCK
#MNEM UNIT       ERCB CURVE CODE    CURVE DESCRIPTION
#-----------   ------------------   ----------------------------------
DEPT.M        00 001 00 00         : DEPTH        - DEPTH
CALI.MM       00 280 01 00         : CAL          - CALIPER
GR  .API      00 310 00 00         : GR           - GAMMA RAY
NPHI.V/V      00 330 00 00         : PHIN         - NEUTRON POROSITY (SANDSTONE)
DPHI.V/V      00 890 00 00         : PHID         - DENSITY POROSITY (SANDSTONE)
ILD .OHMM     00 120 00 00         : RESD         - DEEP RESISTIVITY (DIL)
~PARAMETER INFORMATION
#MNEM.UNIT           DATA             DESCRIPTION OF MNEMONIC
#---------         -----------     ------------------------------
GL  .M        593.3                : gl           - GROUND LEVEL ELEVATION
EREF.M        596.9                : kb           - ELEVATION OF DEPTH REFERENCE
DATM.M        593.3                : datum        - DATUM ELEVATION
TDD .M        424                  : tdd          - TOTAL DEPTH DRILLER
RUN .         ONE                  : Run          - RUN NUMBER
ENG .         MURRAY               : Engineer     - RECORDING ENGINEER
WIT .         KOSS                 : Witness      - WITNESSED BY
BASE.         S.L.                 : Branch       - HOME BASE OF LOGGING UNIT
MUD .         GEL CHEM             : Mud_type     - MUD TYPE
MATR.         SANDSTONE            : Logunit      - NEUTRON MATRIX
TMAX.C        22                   : BHT          - MAXIMUM RECORDED TEMPERATURE
BHTD.M        424                  : BHTDEP       - MAXIMUM RECORDED TEMPERATURE
RMT .C        10                   : MDTP         - TEMPERATURE OF MUD
MUDD.KG/M     1120                 : MWT          - MUD DENSITY
NEUT.         1                    : NEUTRON      - NEUTRON TYPE
RESI.         0                    : RESIST       - RESISTIVITY TYPE
RM  .OHMM     4.3                  : RM           - RESISTIVITY OF MUD
RMC .OHMM     0                    : RMC          - RESISTIVITY OF MUD CAKE
RMF .OHMM     3.8                  : RMF          - RESISTIVITY OF MUD FILTRATE
SUFT.C        0                    : SUFT         - SURFACE TEMPERATURE
~A  DEPTH      CAL       GR     PHIN     PHID     RESD
# ...
  236.500  247.425   60.924    0.458    0.345   24.870
  236.750  247.868   60.632    0.440    0.342   25.259
  237.000  248.214   57.620    0.431    0.337   25.804
  237.250  248.248   55.601    0.426    0.337   26.158
  237.500  248.270   55.000    0.436    0.339   26.675
  237.750  248.305   54.151    0.458    0.340   26.940
  238.000  248.331   52.006    0.453    0.341   27.108
  238.250  247.856   52.768    0.445    0.341   27.121
  238.500  246.553   55.694    0.443    0.341   27.344
  238.750  244.843   58.063    0.444    0.343   27.564
  239.000  243.649   56.537    0.457    0.344   28.161
  239.250  242.652   55.009    0.454    0.349   28.601
  239.500  241.552   54.656    0.438    0.351   28.999
  239.750  240.865   54.305    0.434    0.347   29.400
  240.000  240.490   56.983    0.455    0.346   29.638
  240.250  240.725   57.869    0.468    0.346   30.161
  240.500  241.269   57.703    0.464    0.345   30.463
  240.750  244.174   56.857    0.447    0.345   30.479
  241.000  246.664   57.246    0.433    0.347   30.729
  241.250  248.339   55.593    0.421    0.350   30.750
  241.500  249.495   55.737    0.424    0.359   30.647
  241.750  250.039   56.437    0.431    0.360   30.433
  242.000  249.565   56.764    0.447    0.359   30.395
  242.250  248.975   57.215    0.463    0.355   30.756
  242.500  248.600   56.989    0.468    0.355   31.005
  242.750  248.320   55.645    0.462    0.358   31.319
  243.000  247.944   54.984    0.461    0.358   31.511
  243.250  247.768   54.508    0.463    0.357   31.116
  243.500  246.776   56.939    0.461    0.347   31.134
  243.750  245.270   55.041    0.454    0.352   31.093
  244.000  243.356   53.392    0.458    0.347   30.877
  244.250  242.567   53.907    0.460    0.343   30.663
  244.500  242.085   54.480    0.444    0.344   30.623
  244.750  242.220   55.735    0.444    0.345   30.582
  245.000  242.659   56.683    0.463    0.345   30.314
  245.250  244.131   54.476    0.456    0.346   30.214
  245.500  245.595   53.690    0.439    0.349   30.176
  245.750  247.679   55.132    0.468    0.351   30.080
  246.000  249.247   56.140    0.479    0.348   30.039
  246.250  250.613   57.272    0.466    0.347   30.055
  246.500  251.159   57.418    0.445    0.350   30.129
  246.750  250.879   57.311    0.465    0.355   30.379
  247.000  250.298   58.012    0.475    0.355   30.622
  247.250  249.818   58.400    0.458    0.353   30.930
  247.500  250.160   57.491    0.416    0.351   30.892
  247.750  251.118   56.151    0.421    0.351   30.846
  248.000  251.762   57.468    0.434    0.351   30.980
  248.250  251.482   56.313    0.447    0.346   31.060
  248.500  249.873   54.783    0.446    0.342   31.195
  248.750  248.467   56.844    0.447    0.337   31.272
  249.000  247.166   55.442    0.437    0.339   31.170
  249.250  245.768   55.954    0.408    0.355   31.009
  249.500  245.182   56.842    0.426    0.356   30.851
  249.750  245.732   55.683    0.459    0.353   30.523
  250.000  246.991   55.763    0.483    0.353   30.139
  250.250  248.456   56.896    0.451    0.355   29.933
  250.500  248.999   57.472    0.424    0.358   29.392
  250.750  248.928   57.678    0.427    0.360   28.108
  251.000  248.038   58.190    0.430    0.364   27.287
  251.250  246.226   57.345    0.427    0.366   26.198
  251.500  244.620   58.292    0.413    0.367   25.383
  251.750  243.518   58.806    0.423    0.364   23.558
  252.000  242.523   57.895    0.463    0.360   22.191
  252.250  242.457   59.153    0.457    0.360   21.343
  252.500  244.023   60.223    0.464    0.363   20.108
  252.750  246.826   58.821    0.474    0.363   19.966
  253.000  248.290   57.416    0.455    0.360   20.246
  253.250  249.351   57.188    0.445    0.357   20.719
  253.500  249.179   57.947    0.448    0.356   21.241
  253.750  248.592   60.565    0.451    0.348   21.658
  254.000  248.008   61.821    0.457    0.339   22.460
  254.250  247.737   64.258    0.471    0.327   22.812
  254.500  247.660   64.149    0.472    0.340   24.017
  254.750  248.205   64.477    0.454    0.339   24.767
  255.000  249.164   64.313    0.490    0.315   24.547
  255.250  250.121   62.597    0.484    0.302   23.125
  255.500  250.869   62.554    0.477    0.311   21.786
  255.750  251.204   67.584    0.483    0.319   20.872
  256.000  251.241   73.292    0.498    0.325   19.700
  256.250  250.654   74.673    0.492    0.330   18.315
  256.500  249.967   69.806    0.492    0.333   17.028
  256.750  249.076   60.855    0.486    0.339   15.952
  257.000  248.492   65.018    0.475    0.346   15.900
  257.250  248.220   65.411    0.454    0.350   16.427
  257.500  248.352   63.636    0.208    0.351   16.844
  257.750  248.898   60.621    0.197    0.344   17.832
  258.000  249.438   56.868    0.195    0.231   20.241
  258.250  250.190   52.866    0.194    0.130   25.917
  258.500  251.143   47.502    0.191    0.087   38.075
  258.750  252.000   47.276    0.177    0.050   41.859
  259.000  252.232   47.605    0.154    0.053   42.038
  259.250  252.881   48.058    0.135    0.052   35.173
  259.500  253.328   48.384    0.121    0.038   29.154
  259.750  253.768   48.402    0.122    0.002   27.363
  260.000  254.414   48.362    0.133   -0.018   26.369
  260.250  254.956   48.379    0.145   -0.030   26.230
  260.500  255.706   48.831    0.160   -0.041   26.351
  260.750  256.865   48.911    0.186   -0.033   26.560
  261.000  258.233   49.239    0.203   -0.013   27.336
  261.250  259.290   49.137    0.220    0.034   28.996
  261.500  260.554   48.849    0.237    0.054   30.068
  261.750  261.405   48.554    0.316    0.064   30.256
  262.000  261.947   48.264    0.422    0.078   28.933
  262.250  261.670   48.472    0.468    0.105   24.997
  262.500  258.422   49.788    0.519    0.137   21.963
  262.750  255.275   53.580    0.520    0.254   20.040
  263.000  251.825   56.074    0.511    0.359   18.880
  263.250  249.188   55.413    0.502    0.361   18.501
  263.500  246.242   54.194    0.520    0.362   18.617
  263.750  243.506   55.140    0.528    0.364   19.088
  264.000  242.512   55.286    0.489    0.364   19.685
  264.250  242.851   55.734    0.479    0.360   20.069
  264.500  243.090   57.735    0.502    0.355   20.463
  264.750  242.811   58.000    0.497    0.352   20.550
  265.000  242.229   58.328    0.482    0.357   20.525
  265.250  241.543   59.214    0.484    0.362   20.382
  265.500  240.855   59.172    0.474    0.364   19.974
  265.750  240.794   60.426    0.463    0.362   19.504
  266.000  240.615   60.511    0.482    0.359   19.367
  266.250  240.851   59.848    0.497    0.357   19.161
  266.500  241.189   59.435    0.500    0.362   18.993
  266.750  240.914   59.700    0.494    0.365   18.789
  267.000  240.743   59.905    0.464    0.362   18.553
  267.250  240.670   60.107    0.452    0.357   18.183
  267.500  240.703   60.621    0.461    0.348   18.057
  267.750  241.970   62.435    0.472    0.343   17.999
  268.000  242.923   63.319    0.486    0.347   18.010
  268.250  243.362   64.513    0.494    0.354   18.191
  268.500  242.881   64.718    0.491    0.356   19.403
  268.750  242.916   65.543    0.484    0.354   21.573
  269.000  244.488   65.560    0.458    0.326   25.188
  269.250  246.359   64.281    0.251    0.207   29.970
  269.500  250.286   63.062    0.178    0.041   30.497
  269.750  254.216   62.031    0.209    0.093   29.721
  270.000  253.736   62.419    0.317    0.299   26.967
  270.250  248.741   64.790    0.415    0.348   25.070
  270.500  244.159   67.408    0.478    0.358   20.701
  270.750  242.450   69.281    0.471    0.359   16.620
  271.000  244.429   67.384    0.467    0.362   15.803
  271.250  246.513   66.477    0.474    0.364   15.901
  271.500  246.951   67.172    0.492    0.362   15.970
  271.750  247.192   69.171    0.485    0.354   16.134
  272.000  247.637   70.863    0.462    0.346   16.170
  272.250  247.663   70.261    0.459    0.355   16.149
  272.500  247.598   63.661    0.473    0.355   15.886
  272.750  247.625   62.941    0.492    0.347   15.569
