~VERSION INFORMATION
 VERS.                 2.0:   CWLS LOG ASCII STANDARD -VERSION 2.0
 WRAP.                  NO:   ONE LINE PER DEPTH STEP
~WELL INFORMATION BLOCK
#MNEM.UNIT           DATA                    DESCRIPTION OF MNEMONIC
#---------    -------------------            -------------------------------
# Generated from Intellog Unique Number	CC_80_83/WELL/2436
COMP.         SEAGULL ENERGY COMPANY LTD     : COMPANY
WELL.         SEAGULL NEWBY                  : Well_name    - WELL
LOC .         14-20-083-04W4                 : Location     - LOCATION
UWI .         00/14-20-083-04W4/0            : Uwi          - UNIQUE WELL ID
ENTR.         DW                             : Entered      - ENTERED BY
SRVC.         SCHLUMBERGER                   : Scn          - SERVICE COMPANY
STRT.M        70                             : top_depth    - START DEPTH
STOP.M        250.002                        : bot_depth    - STOP DEPTH
STEP.M        0.3                            : increment    - STEP LENGTH
 NULL. -999.2500:NULL Value
~CURVE INFORMATION BLOCK
#MNEM UNIT       ERCB CURVE CODE    CURVE DESCRIPTION
#-----------   ------------------   ----------------------------------
DEPT.M        00 001 00 00         : DEPTH        - DEPTH
DPHI.V/V      00 890 00 00         : PHID         - DENSITY POROSITY (LIMESTONE)
NPHI.V/V      00 330 00 00         : PHIN         - NEUTRON POROSITY (LIMESTONE)
GR  .API      00 310 00 00         : GR           - GAMMA RAY
ILD .OHMM     00 120 00 00         : RESD         - DEEP RESISTIVITY (DIL)
~PARAMETER INFORMATION
#MNEM.UNIT           DATA             DESCRIPTION OF MNEMONIC
#---------         -----------     ------------------------------
GL  .M        460.44               : gl           - GROUND LEVEL ELEVATION
EREF.M        463.5                : kb           - ELEVATION OF DEPTH REFERENCE
DATM.M        463.5                : datum        - DATUM ELEVATION
TDD .M        160                  : tdd          - TOTAL DEPTH DRILLER
RUN .         ONE                  : Run          - RUN NUMBER
ENG .         BILL                 : Engineer     - RECORDING ENGINEER
WIT .         JIM                  : Witness      - WITNESSED BY
MUD .         GEL                  : Mud_type     - MUD TYPE
MATR.         LIMESTONE            : Logunit      - NEUTRON MATRIX
TMAX.C        23                   : BHT          - MAXIMUM RECORDED TEMPERATURE
BHTD.M        260                  : BHTDEP       - MAXIMUM RECORDED TEMPERATURE
MATR.         1                    : LOGUNIT      - NEUTRON MATRIX
RMT .C        25                   : MDTP         - TEMPERATURE OF MUD
NEUT.         1                    : NEUTRON      - NEUTRON TYPE
RESI.         0                    : RESIST       - RESISTIVITY TYPE
RMC .OHMM     0.25                 : RMC          - RESISTIVITY OF MUD CAKE
RMF .OHMM     0.25                 : RMF          - RESISTIVITY OF MUD FILTRATE
SUFT.C        4                    : SUFT         - SURFACE TEMPERATURE
~A  DEPTH     PHID     PHIN       GR     RESD
# ...
  174.401    0.278    0.502   97.575    3.163
  174.701    0.288    0.509   99.361    3.213
  175.001    0.294    0.501   99.929    3.203
  175.301    0.284    0.462   95.647    3.136
  175.601    0.289    0.450   98.028    3.013
  175.901    0.324    0.473   99.808    2.950
  176.201    0.317    0.503   99.165    2.940
  176.501    0.271    0.489   93.673    3.157
  176.801    0.300    0.441   88.179    3.454
  177.101    0.345    0.446   88.144    3.922
  177.401    0.391    0.429   89.924    4.135
  177.701    0.290    0.427   94.723    4.121
  178.001    0.299    0.447   94.689    3.960
  178.301    0.390    0.459   90.411    3.871
  178.601    0.364    0.431   95.218    3.936
  178.901    0.256    0.423  100.019    4.073
  179.201    0.260    0.441   93.316    4.372
  179.501    0.264    0.409   85.405    4.785
  179.801    0.297    0.297   78.697    5.432
  180.101    0.335    0.287   75.632    6.284
  180.401    0.358    0.293   72.564    7.137
  180.701    0.355    0.328   71.315    7.518
  181.001    0.356    0.350   73.697    7.363
  181.301    0.357    0.304   69.419    6.810
  181.601    0.356    0.302   70.595    6.543
  181.901    0.363    0.349   76.612    6.287
  182.201    0.383    0.359   72.331    6.504
  182.501    0.389    0.302   68.053    6.606
  182.801    0.348    0.316   68.615    6.465
  183.101    0.348    0.321   71.611    6.208
  183.401    0.348    0.317   81.261    5.963
  183.701    0.291    0.322   88.490    5.732
  184.001    0.291    0.319   85.417    5.403
  184.301    0.285    0.321   85.982    5.288
  184.601    0.237    0.353  103.511    5.172
  184.901    0.232    0.400  107.107    5.156
  185.201    0.238    0.419  104.644    5.235
  185.501    0.233    0.409  101.578    5.222
  185.801    0.224    0.350   96.089    5.399
  186.101    0.219    0.342   89.382    5.489
  186.401    0.223    0.350   90.553    5.678
  186.701    0.229    0.377   94.152    5.874
  187.001    0.218    0.383   97.134    5.965
  187.301    0.213    0.399   98.918    5.949
  187.601    0.230    0.410  101.908    5.931
  187.901    0.239    0.413  104.896    5.700
  188.201    0.241    0.420  108.490    5.474
  188.501    0.249    0.396  111.469    5.356
  188.801    0.248    0.401  112.642    5.339
  189.101    0.243    0.428  110.791    5.319
  189.401    0.254    0.444  106.513    5.302
  189.701    0.265    0.457  107.081    5.293
  190.001    0.292    0.472  108.848    5.373
  190.301    0.291    0.482  108.822    5.256
  190.601    0.271    0.467  108.765    5.146
  190.901    0.275    0.465  109.337    5.036
  191.201    0.274    0.464  109.309    4.929
  191.501    0.264    0.456  109.270    4.736
  191.801    0.258    0.466  111.653    4.382
  192.101    0.251    0.463  117.667    4.132
  192.401    0.230    0.459  113.986    3.894
  192.701    0.229    0.464  123.647    3.671
  193.001    0.245    0.484  120.579    3.592
  193.301    0.240    0.489  112.663    3.650
  193.601    0.224    0.478  107.778    3.707
  193.901    0.215    0.453   98.654    3.768
  194.201    0.250    0.397   87.717    3.686
  194.501    0.335    0.402   54.969    3.413
  194.801    0.347    0.381   36.154    2.772
  195.101    0.337    0.336   33.086    2.473
  195.401    0.332    0.335   37.283    2.008
  195.701    0.342    0.338   38.453    1.725
  196.001    0.346    0.341   37.810    1.627
  196.301    0.348    0.335   35.940    1.562
  196.601    0.341    0.323   36.520    1.528
  196.901    0.326    0.329   37.693    1.497
  197.201    0.313    0.309   48.558    1.464
  197.501    0.316    0.335   63.661    1.461
  197.801    0.323    0.366   63.616    1.429
  198.101    0.339    0.364   44.199    1.425
  198.401    0.330    0.341   36.892    1.394
  198.701    0.322    0.334   30.794    1.338
  199.001    0.328    0.357   41.657    1.334
  199.301    0.322    0.345   47.067    1.331
  199.601    0.327    0.336   45.215    1.351
  199.901    0.328    0.342   37.907    1.322
  200.201    0.326    0.342   38.471    1.294
  200.501    0.332    0.337   37.830    1.290
  200.801    0.338    0.336   37.183    1.287
  201.101    0.359    0.343   41.988    1.282
  201.401    0.352    0.347   48.609    1.279
  201.701    0.341    0.354   53.414    1.251
  202.001    0.348    0.386   46.715    1.225
  202.301    0.366    0.353   50.917    1.221
  202.601    0.378    0.352   55.115    1.217
  202.901    0.377    0.374   49.019    1.212
  203.201    0.348    0.377   45.952    1.210
  203.501    0.342    0.357   51.971    1.205
  203.801    0.348    0.345   62.227    1.203
  204.101    0.343    0.326   61.579    1.221
  204.401    0.339    0.326   35.495    1.195
  204.701    0.358    0.350   33.036    1.192
  205.001    0.350    0.344   35.418    1.167
  205.301    0.348    0.312   35.987    1.163
  205.601    0.360    0.326   40.184    1.137
  205.901    0.364    0.356   39.532    1.134
  206.201    0.361    0.359   44.349    1.131
  206.501    0.356    0.353   56.417    1.128
  206.801    0.332    0.351   63.044    1.167
  207.101    0.332    0.361   63.001    1.230
  207.401    0.345    0.382   45.400    1.296
  207.701    0.354    0.361   44.751    1.293
  208.001    0.351    0.339   53.802    1.265
  208.301    0.339    0.334   57.392    1.215
  208.601    0.341    0.337   54.327    1.188
  208.901    0.345    0.345   60.346    1.184
  209.201    0.353    0.350   64.544    1.182
  209.501    0.357    0.357   59.056    1.201
  209.801    0.359    0.370   42.657    1.196
  210.101    0.353    0.359   45.652    1.193
  210.401    0.348    0.337   64.387    1.167
  210.701    0.354    0.329   56.475    1.163
  211.001    0.356    0.338   55.214    1.160
  211.301    0.351    0.342   60.027    1.157
  211.601    0.352    0.356   57.556    1.153
  211.901    0.361    0.372   55.105    1.128
  212.201    0.352    0.373   50.218    1.146
  212.501    0.348    0.366   45.935    1.142
  212.801    0.348    0.354   43.480    1.139
  213.101    0.360    0.354   41.015    1.136
  213.401    0.356    0.375   39.160    1.112
  213.701    0.352    0.387   42.757    1.129
  214.001    0.352    0.376   46.350    1.213
  214.301    0.347    0.363   46.310    1.278
  214.601    0.335    0.369   45.061    1.297
  214.901    0.342    0.378   43.805    1.247
  215.201    0.362    0.380   41.947    1.197
  215.501    0.358    0.374   43.118    1.150
  215.801    0.344    0.357   48.531    1.125
  216.101    0.322    0.335   52.734    1.123
  216.401    0.289    0.338   61.780    1.161
  216.701    0.254    0.349   72.643    1.247
  217.001    0.261    0.353   68.365    1.443
  217.301    0.272    0.376   70.743    1.867
  217.602    0.282    0.400   70.710    2.200
  217.902    0.292    0.381   66.428    2.193
  218.202    0.304    0.374   59.731    2.146
  218.502    0.340    0.369   50.602    1.986
  218.802    0.360    0.358   45.721    1.771
  219.102    0.363    0.354   39.017    1.548
  219.402    0.357    0.353   38.370    1.434
  219.702    0.348    0.352   42.573    1.303
  220.002    0.342    0.351   48.584    1.206
  220.302    0.352    0.353   39.466    1.136
  220.602    0.351    0.354   41.843    1.113
  220.902    0.350    0.352   43.016    1.088
  221.202    0.349    0.348   40.557    1.085
  221.502    0.335    0.335   42.940    1.102
  221.802    0.305    0.306   54.411    1.141
  222.102    0.239    0.327   68.303    1.249
  222.402    0.237    0.383   88.248    1.472
  222.702    0.313    0.421   71.859    1.834
  223.002    0.338    0.393   45.772    2.043
  223.302    0.355    0.369   37.861    1.822
  223.602    0.363    0.362   36.601    1.537
  223.902    0.365    0.359   40.204    1.296
  224.202    0.363    0.363   40.166    1.155
  224.502    0.357    0.361   41.941    1.110
  224.802    0.346    0.355   43.720    1.086
  225.102    0.343    0.346   34.595    1.104
  225.402    0.344    0.345   27.290    1.099
  225.702    0.346    0.350   27.852    1.096
  226.002    0.349    0.350   32.046    1.094
  226.302    0.350    0.353   36.857    1.111
