~VERSION INFORMATION
 VERS.                 2.0:   CWLS LOG ASCII STANDARD -VERSION 2.0
 WRAP.                  NO:   ONE LINE PER DEPTH STEP
~WELL INFORMATION BLOCK
#MNEM.UNIT           DATA                    DESCRIPTION OF MNEMONIC
#---------    -------------------            -------------------------------
# Generated from Intellog Unique Number	CS_77_79/WELL/981
WELL.         CANON SIEBANS COWPAR           : Well_name    - WELL
LOC .         00/10-33-079-04W4/0            : Location     - LOCATION
UWI .         00/10-33-079-04W4/0            : Uwi          - UNIQUE WELL ID
ENTR.         JHS                            : Entered      - ENTERED BY
SRVC.         SCHLUMBERGER                   : Scn          - SERVICE COMPANY
STRT.M        103.632                        : top_depth    - START DEPTH
STOP.M        319.882                        : bot_depth    - STOP DEPTH
STEP.M        0.25                           : increment    - STEP LENGTH
 NULL. -999.2500:NULL Value
~CURVE INFORMATION BLOCK
#MNEM UNIT       ERCB CURVE CODE    CURVE DESCRIPTION
#-----------   ------------------   ----------------------------------
DEPT.M        00 001 00 00         : DEPTH        - DEPTH
RHOB.KG/M3    00 350 00 00         : DENS         - BULK DENSITY
GR  .API      00 310 00 00         : GR           - GAMMA RAY
DPHI.V/V      00 890 00 00         : PHID         - DENSITY POROSITY (SANDSTONE)
NPHI.V/V      00 330 00 00         : PHIN         - NEUTRON POROSITY (SANDSTONE)
ILD .OHMM     00 120 00 00         : RESD         - DEEP RESISTIVITY (DIL)
~PARAMETER INFORMATION
#MNEM.UNIT           DATA             DESCRIPTION OF MNEMONIC
#---------         -----------     ------------------------------
GL  .M        470.916              : gl           - GROUND LEVEL ELEVATION
EREF.M        474.269              : kb           - ELEVATION OF DEPTH REFERENCE
DATM.M        474.269              : datum        - DATUM ELEVATION
TDD .M        329.184              : tdd          - TOTAL DEPTH DRILLER
RUN .         ONE                  : Run          - RUN NUMBER
ENG .         BILL                 : Engineer     - RECORDING ENGINEER
WIT .         JIM                  : Witness      - WITNESSED BY
MUD .         GEL                  : Mud_type     - MUD TYPE
MATR.         SANDSTONE            : Logunit      - NEUTRON MATRIX
TMAX.C        60                   : BHT          - MAXIMUM RECORDED TEMPERATURE
BHTD.M        329.184              : BHTDEP       - MAXIMUM RECORDED TEMPERATURE
MATR.         1                    : LOGUNIT      - NEUTRON MATRIX
RMT .C        25                   : MDTP         - TEMPERATURE OF MUD
NEUT.         1                    : NEUTRON      - NEUTRON TYPE
RESI.         0                    : RESIST       - RESISTIVITY TYPE
RMC .OHMM     0.25                 : RMC          - RESISTIVITY OF MUD CAKE
RMF .OHMM     0.25                 : RMF          - RESISTIVITY OF MUD FILTRATE
SUFT.C        15                   : SUFT         - SURFACE TEMPERATURE
~A  DEPTH     DENS       GR     PHID     PHIN     RESD
  103.632    0.000   32.871    0.305    0.406   26.568
  103.882   -0.000   29.482    0.288    0.417   26.310
  104.132   -0.000   32.378    0.309    0.402   24.825
  104.382    0.000   38.169    0.315    0.402   24.217
  104.632    0.000   41.221    0.312    0.409   24.430
  104.882    0.000   41.571    0.302    0.405   25.201
  105.132   -0.000   37.478    0.314    0.392   26.004
  105.382   -0.000   36.178    0.316    0.404   26.116
  105.632   -0.000   36.532    0.299    0.428   25.015
  105.882    0.000   41.041    0.303    0.433   21.948
  106.132    0.000   50.376    0.359    0.419   18.360
  106.382    0.000   60.808    0.386    0.449   15.233
  106.632   -0.000   66.011    0.403    0.507   13.237
  106.882   -0.000   74.901    0.383    0.525   11.642
  107.132    0.000   83.820    0.272    0.492   10.039
  107.382    0.000   85.162    0.256    0.456    9.821
  107.632    0.000   85.193    0.260    0.456   10.068
  107.882   -0.000   87.275    0.237    0.484   10.373
  108.132   -0.000   92.436    0.252    0.483   10.806
  108.382   -0.000   94.713    0.249    0.468   11.292
  108.632    0.000   85.232    0.235    0.449   12.235
  108.882    0.000   84.043    0.216    0.443   12.743
  109.132    0.000   86.408    0.206    0.452   13.967
  109.382   -0.000   81.208    0.278    0.470   14.846
  109.632   -0.000   74.148    0.263    0.481   15.431
  109.882   -0.000   71.528    0.339    0.475   16.097
  110.132    0.000   74.867    0.337    0.513   16.320
  110.382    0.000   70.453    0.345    0.551   16.009
  110.632   -0.000   67.807    0.328    0.563   15.248
  110.882   -0.000   76.769    0.392    0.498   14.344
  111.132   -0.000   81.803    0.290    0.433   13.219
  111.382    0.000   83.597    0.249    0.434   11.857
  111.632    0.000   91.874    0.245    0.441   10.899
  111.882    0.000   98.036    0.250    0.424   10.490
  112.132   -0.000  103.183    0.225    0.441   10.160
  112.382   -0.000  104.248    0.191    0.475    9.961
  112.632   -0.000  102.753    0.189    0.497    9.774
  112.882    0.000  102.760    0.213    0.486    9.603
  113.132    0.000  106.963    0.229    0.472    9.647
  113.382   -0.000  105.843    0.208    0.473    9.959
  113.632   -0.000  107.701    0.247    0.497   10.493
  113.882   -0.000  107.349    0.263    0.505   11.253
  114.132    0.000  102.097    0.242    0.505   12.324
  114.382    0.000   95.525    0.249    0.526   13.772
  114.632    0.000   89.947    0.294    0.478   14.635
  114.882   -0.000   86.077    0.309    0.469   14.863
  115.132   -0.000   79.763    0.287    0.488   14.566
  115.382   -0.000   75.564    0.292    0.506   14.586
  115.632    0.000   82.974    0.319    0.458   14.316
  115.882    0.000   89.993    0.297    0.468   14.239
  116.132    0.000   92.264    0.280    0.494   14.072
  116.382   -0.000   94.423    0.297    0.486   13.917
  116.632   -0.000   97.568    0.240    0.501   13.551
  116.882    0.000  100.634    0.243    0.509   13.324
  117.132    0.000   99.116    0.244    0.490   12.925
  117.382    0.000   89.520    0.253    0.479   12.540
  117.632   -0.000   81.331    0.238    0.497   12.159
  117.882   -0.000   77.824    0.224    0.472   12.333
  118.132   -0.000   73.707    0.251    0.468   13.138
  118.382    0.000   72.790    0.264    0.452   14.406
  118.632    0.000   72.709    0.287    0.447   15.239
  118.882    0.000   72.688    0.309    0.461   15.683
  119.132   -0.000   70.063    0.317    0.451   15.985
  119.382   -0.000   65.072    0.331    0.460   15.541
  119.632    0.000   65.581    0.322    0.479   15.093
  119.882    0.000   70.815    0.321    0.467   13.611
  120.132    0.000   77.438    0.307    0.455   12.329
  120.382   -0.000   82.744    0.291    0.456   11.078
  120.632   -0.000   84.751    0.246    0.472   10.834
  120.882   -0.000   80.258    0.207    0.494   10.863
  121.132    0.000   75.237    0.180    0.498   11.168
  121.382    0.000   69.797    0.135    0.473   11.992
  121.632    0.000   73.798    0.230    0.480   12.572
  121.882   -0.000   79.393    0.254    0.479   13.106
  122.132   -0.000   84.009    0.252    0.471   13.918
  122.382   -0.000   85.531    0.235    0.465   14.777
  122.632    0.000   84.734    0.224    0.469   14.947
  122.882    0.000   70.175    0.281    0.460   14.982
  123.132   -0.000   74.635    0.279    0.445   14.250
  123.382   -0.000   78.660    0.251    0.425   13.970
  123.632   -0.000   80.865    0.256    0.436   14.070
  123.882    0.000   77.683    0.224    0.459   14.481
  124.132    0.000   70.055    0.245    0.472   15.752
  124.382    0.000   60.855    0.238    0.463   17.538
  124.632   -0.000   53.458    0.247    0.439   18.686
  124.882   -0.000   49.392    0.242    0.409   18.773
  125.132   -0.000   49.414    0.238    0.400   17.619
  125.382    0.000   54.538    0.244    0.424   16.607
  125.632    0.000   59.858    0.272    0.439   15.526
  125.882    0.000   63.030    0.274    0.445   14.719
  126.132   -0.000   62.990    0.245    0.460   14.245
  126.382   -0.000   61.135    0.258    0.458   14.107
  126.632    0.000   61.420    0.242    0.453   14.160
  126.882    0.000   60.150    0.236    0.431   14.172
  127.132    0.000   65.462    0.251    0.410   14.206
  127.382   -0.000   67.521    0.248    0.397   14.654
  127.632   -0.000   63.875    0.253    0.397   15.063
  127.882   -0.000   58.641    0.275    0.413   15.838
  128.132    0.000   56.219    0.280    0.432   15.789
  128.382    0.000   56.361    0.295    0.459   15.703
  128.632    0.000   59.072    0.315    0.473   15.210
  128.882   -0.000   59.027    0.298    0.464   13.984
  129.132   -0.000   61.813    0.308    0.473   12.387
  129.382    0.000   69.105    0.290    0.453   10.773
  129.632    0.000   73.696    0.258    0.444    9.690
  129.882    0.000   73.163    0.216    0.469    9.806
  130.132   -0.000   73.328    0.234    0.458   10.103
  130.382   -0.000   71.011    0.233    0.468   11.082
  130.632   -0.000   68.100    0.244    0.472   11.577
  130.882    0.000   69.124    0.226    0.462   11.780
  131.132    0.000   79.065    0.258    0.434   11.532
  131.382    0.000   80.706    0.232    0.432   11.302
  131.632   -0.000   79.916    0.240    0.448   10.995
  131.882   -0.000   83.430    0.235    0.473   10.497
  132.132   -0.000   84.987    0.230    0.488   10.324
  132.382    0.000   89.017    0.216    0.498   10.353
  132.632    0.000   86.928    0.242    0.510   10.164
  132.882   -0.000   81.466    0.215    0.484   10.319
  133.132   -0.000   82.207    0.212    0.465   10.202
  133.382   -0.000   87.233    0.222    0.466   10.099
  133.632    0.000   91.176    0.230    0.487    9.923
  133.882    0.000   86.717    0.238    0.494   10.214
  134.132    0.000   76.937    0.251    0.463   10.520
  134.382   -0.000   75.842    0.242    0.447   10.839
  134.632   -0.000   74.336    0.229    0.455   11.168
  134.882   -0.000   71.282    0.241    0.480   11.505
  135.132    0.000   70.039    0.238    0.464   11.853
  135.382    0.000   68.451    0.224    0.461   12.211
  135.632   -0.000   69.562    0.236    0.442   12.582
  135.882   -0.000   73.960    0.246    0.412   13.134
  136.132   -0.000   73.256    0.253    0.404   13.280
  136.382    0.000   75.966    0.228    0.415   13.290
  136.632    0.000   80.353    0.271    0.425   13.307
  136.882    0.000   77.603    0.252    0.448   13.000
  137.132   -0.000   77.570    0.245    0.469   12.434
  137.382   -0.000   81.561    0.272    0.451   11.771
  137.632   -0.000   82.281    0.252    0.442   11.425
  137.882    0.000   83.544    0.236    0.441   10.885
  138.132    0.000   83.882    0.241    0.454   10.554
  138.382    0.000   83.587    0.240    0.469   10.449
  138.632   -0.000   84.834    0.223    0.470   10.243
  138.882   -0.000   88.337    0.200    0.476   10.251
  139.132    0.000   89.023    0.234    0.461   10.258
  139.382    0.000   91.684    0.230    0.448    9.975
  139.632    0.000   94.475    0.228    0.442    9.476
  139.882   -0.000   93.900    0.239    0.447    9.050
