~VERSION INFORMATION
 VERS.                 2.0:   CWLS LOG ASCII STANDARD -VERSION 2.0
 WRAP.                  NO:   ONE LINE PER DEPTH STEP
~WELL INFORMATION BLOCK
#MNEM.UNIT           DATA                    DESCRIPTION OF MNEMONIC
#---------    -------------------            -------------------------------
# Generated from Intellog Unique Number	CS_77_79/WELL/947
WELL.         CDN-SUP THORNBURY              : Well_name    - WELL
LOC .         00/10-11-078-14W4/0            : Location     - LOCATION
UWI .         00/10-11-078-14W4/0            : Uwi          - UNIQUE WELL ID
ENTR.         JHS                            : Entered      - ENTERED BY
SRVC.         SCHLUMBERGER                   : Scn          - SERVICE COMPANY
STRT.M        275                            : top_depth    - START DEPTH
STOP.M        514                            : bot_depth    - STOP DEPTH
STEP.M        0.25                           : increment    - STEP LENGTH
 NULL. -999.2500:NULL Value
~CURVE INFORMATION BLOCK
#MNEM UNIT       ERCB CURVE CODE    CURVE DESCRIPTION
#-----------   ------------------   ----------------------------------
DEPT.M        00 001 00 00         : DEPTH        - DEPTH
DPHI.V/V      00 890 00 00         : PHID         - DENSITY POROSITY (LIMESTONE)
NPHI.V/V      00 330 00 00         : PHIN         - NEUTRON POROSITY (LIMESTONE)
GR  .API      00 310 00 00         : GR           - GAMMA RAY
ILD .OHMM     00 120 00 00         : RESD         - DEEP RESISTIVITY (DIL)
~PARAMETER INFORMATION
#MNEM.UNIT           DATA             DESCRIPTION OF MNEMONIC
#---------         -----------     ------------------------------
GL  .M        682.2                : gl           - GROUND LEVEL ELEVATION
EREF.M        686.7                : kb           - ELEVATION OF DEPTH REFERENCE
DATM.M        686.7                : datum        - DATUM ELEVATION
TDD .M        635                  : tdd          - TOTAL DEPTH DRILLER
RUN .         ONE                  : Run          - RUN NUMBER
ENG .         BILL                 : Engineer     - RECORDING ENGINEER
WIT .         JIM                  : Witness      - WITNESSED BY
MUD .         GEL                  : Mud_type     - MUD TYPE
MATR.         LIMESTONE            : Logunit      - NEUTRON MATRIX
TMAX.C        21                   : BHT          - MAXIMUM RECORDED TEMPERATURE
BHTD.M        635                  : BHTDEP       - MAXIMUM RECORDED TEMPERATURE
MATR.         1                    : LOGUNIT      - NEUTRON MATRIX
RMT .C        25                   : MDTP         - TEMPERATURE OF MUD
NEUT.         1                    : NEUTRON      - NEUTRON TYPE
RESI.         0                    : RESIST       - RESISTIVITY TYPE
RMC .OHMM     0.25                 : RMC          - RESISTIVITY OF MUD CAKE
RMF .OHMM     0.25                 : RMF          - RESISTIVITY OF MUD FILTRATE
SUFT.C        15                   : SUFT         - SURFACE TEMPERATURE
~A  DEPTH     PHID     PHIN       GR     RESD
# ...
  492.500    0.292    0.374   61.866   34.418
  492.750    0.227    0.385   71.669   26.445
  493.000    0.192    0.387   79.023   23.180
  493.250    0.188    0.398   83.315   22.748
  493.500    0.225    0.397   72.301   23.180
  493.750    0.248    0.376   62.511   25.468
  494.000    0.264    0.377   57.621   31.922
  494.250    0.281    0.392   55.792   40.011
  494.500    0.256    0.388   57.024   43.959
  494.750    0.219    0.382   60.091   45.646
  495.000    0.207    0.382   65.608   40.011
  495.250    0.229    0.396   71.124   33.146
  495.500    0.222    0.391   74.191   27.459
  495.750    0.189    0.371   73.587   22.748
  496.000    0.170    0.360   71.755   21.499
  496.250    0.193    0.356   67.477   20.705
  496.500    0.188    0.343   72.382   19.940
  496.750    0.172    0.366   77.287   18.845
  497.000    0.162    0.370   81.579   18.494
  497.250    0.164    0.366   83.422   19.203
  497.500    0.192    0.373   73.633   20.705
  497.750    0.219    0.360   68.130   22.748
  498.000    0.223    0.353   71.812   24.527
  498.250    0.228    0.372   69.980   25.952
  498.500    0.219    0.402   65.088   27.459
  498.750    0.245    0.410   59.584   29.055
  499.000    0.262    0.415   57.755   30.742
  499.250    0.251    0.410   57.763   31.922
  499.500    0.235    0.402   56.545   32.528
  499.750    0.243    0.389   55.326   31.922
  500.000    0.246    0.388   55.334   29.055
  500.250    0.229    0.393   57.176   25.468
  500.500    0.223    0.398   66.367   21.908
  500.750    0.208    0.411   75.558   18.845
  501.000    0.182    0.403   80.461   16.833
  501.250    0.189    0.398   87.815   15.612
  501.500    0.173    0.400   94.558   13.685
  501.750    0.153    0.393   98.851   11.995
  502.000    0.131    0.377  101.304   10.515
  502.250    0.119    0.356  104.984    9.570
  502.500    0.139    0.379  108.665    8.389
  502.750    0.174    0.410  109.285    7.928
  503.000    0.248    0.467  110.515    7.635
  503.250    0.268    0.512  113.586    7.493
  503.500    0.187    0.501  114.815    7.216
  503.750    0.163    0.458  114.821    7.216
  504.000    0.148    0.426  111.155    7.493
  504.250    0.130    0.419  106.877    7.928
  504.500    0.130    0.422  103.821    8.876
  504.750    0.155    0.419  102.603    9.392
  505.000    0.136    0.406  101.998   10.126
  505.250    0.153    0.396   97.719   10.319
  505.500    0.150    0.395   97.726   10.515
  505.750    0.140    0.388   98.958   10.515
  506.000    0.165    0.379  100.801   10.714
  506.250    0.187    0.384  100.194   10.918
  506.500    0.168    0.386   98.364   11.552
  506.750    0.174    0.374  100.209   11.995
  507.000    0.155    0.375   98.990   12.456
  507.250    0.147    0.368   63.486   12.456
  507.500    0.160    0.369   23.084   12.692
  507.750    0.169    0.386   15.744   12.223
  508.000    0.126    0.395   14.527   11.772
  508.250    0.139    0.381   14.533   11.337
  508.500    0.122    0.374   14.540   10.918
  508.750    0.111    0.384   14.547   11.126
  509.000    0.091    0.391   15.167   10.918
  509.250    0.054    0.401   15.172   10.126
  509.500    0.054    0.167   15.793    9.045
  509.750    0.115    0.121   15.797    8.711
  510.000    0.139    0.014   16.419    9.045
  510.250    0.158    0.010   16.425   10.319
  510.500    0.149    0.011   17.046   11.995
  510.750    0.209    0.011   17.048   12.934
  511.000    0.185    0.012   17.055   13.685
  511.250    0.176    0.011   17.061   13.430
  511.500    0.137    0.010   17.071   12.934
  511.750    0.144    0.012   17.079   12.692
  512.000    0.170    0.014   17.082   12.456
  512.250    0.144    0.012   16.476   12.223
  512.500    0.124    0.011   16.485   11.995
  512.750    0.127    0.012   16.491   11.772
  513.000    0.161    0.017   16.496   11.772
  513.250    0.176    0.022   16.505   11.772
  513.500    0.235    0.026   16.510   11.772
  513.750    0.213    0.027   16.516   11.995
  514.000    0.237    0.028   17.136   11.995
