~VERSION INFORMATION
 VERS.                 2.0:   CWLS LOG ASCII STANDARD -VERSION 2.0
 WRAP.                  NO:   ONE LINE PER DEPTH STEP
~WELL INFORMATION BLOCK
#MNEM.UNIT           DATA                    DESCRIPTION OF MNEMONIC
#---------    -------------------            -------------------------------
# Generated from Intellog Unique Number	CS_73_76/WELL/3232
WELL.         HOME OIL COMPANY LIMITED       : Well_name    - WELL
LOC .         00/10-08-076-06W4/0            : Location     - LOCATION
UWI .         00/10-08-076-06W4/0            : Uwi          - UNIQUE WELL ID
ENTR.         SP                             : Entered      - ENTERED BY
SRVC.         SCHLUMBERGER                   : Scn          - SERVICE COMPANY
STRT.M        173.736                        : top_depth    - START DEPTH
STOP.M        412.986                        : bot_depth    - STOP DEPTH
STEP.M        0.25                           : increment    - STEP LENGTH
 NULL. -999.2500:NULL Value
~CURVE INFORMATION BLOCK
#MNEM UNIT       ERCB CURVE CODE    CURVE DESCRIPTION
#-----------   ------------------   ----------------------------------
DEPT.M        00 001 00 00         : DEPTH        - DEPTH
GR  .API      00 310 00 00         : GR           - GAMMA RAY
DPHI.V/V      00 890 00 00         : PHID         - DENSITY POROSITY (SANDSTONE)
NPHI.V/V      00 330 00 00         : PHIN         - NEUTRON POROSITY (SANDSTONE)
ILD .OHMM     00 120 00 00         : RESD         - DEEP RESISTIVITY (DIL)
~PARAMETER INFORMATION
#MNEM.UNIT           DATA             DESCRIPTION OF MNEMONIC
#---------         -----------     ------------------------------
GL  .M        580.278              : gl           - GROUND LEVEL ELEVATION
EREF.M        584.119              : kb           - ELEVATION OF DEPTH REFERENCE
DATM.M        580.278              : datum        - DATUM ELEVATION
TDD .M        389.23               : tdd          - TOTAL DEPTH DRILLER
RUN .         ONE                  : Run          - RUN NUMBER
ENG .         BILL                 : Engineer     - RECORDING ENGINEER
WIT .         JIM                  : Witness      - WITNESSED BY
MUD .         GEL                  : Mud_type     - MUD TYPE
MATR.         SANDSTONE            : Logunit      - NEUTRON MATRIX
TMAX.C        16.6667              : BHT          - MAXIMUM RECORDED TEMPERATURE
BHTD.M        389.23               : BHTDEP       - MAXIMUM RECORDED TEMPERATURE
MATR.         1                    : LOGUNIT      - NEUTRON MATRIX
RMT .C        25                   : MDTP         - TEMPERATURE OF MUD
NEUT.         1                    : NEUTRON      - NEUTRON TYPE
RESI.         0                    : RESIST       - RESISTIVITY TYPE
RMC .OHMM     0.25                 : RMC          - RESISTIVITY OF MUD CAKE
RMF .OHMM     0.25                 : RMF          - RESISTIVITY OF MUD FILTRATE
SUFT.C        15                   : SUFT         - SURFACE TEMPERATURE
~A  DEPTH       GR     PHID     PHIN     RESD
# ...
  260.736   92.607    0.230    0.475    7.273
  260.986   98.092    0.218    0.475    7.536
  261.236  100.400    0.212    0.460    7.247
  261.486   98.778    0.220    0.471    6.787
  261.736   97.577    0.216    0.479    6.754
  261.986   98.618    0.210    0.479    6.267
  262.236  102.280    0.223    0.498    5.755
  262.486  108.841    0.234    0.493    5.456
  262.736  112.505    0.229    0.496    5.622
  262.986  112.932    0.197    0.512    5.772
  263.236  109.050    0.200    0.525    5.390
  263.486  103.602    0.232    0.540    5.045
  263.736   96.060    0.255    0.550    5.268
  263.986   88.673    0.286    0.564    5.800
  264.236   82.567    0.304    0.540    6.045
  264.486   78.386    0.309    0.495    6.397
  264.736   75.182    0.309    0.497    6.444
  264.986   75.388    0.299    0.486    4.992
  265.236   74.619    0.289    0.465    5.599
  265.486   74.671    0.279    0.474    5.641
  265.736   74.257    0.299    0.486    5.457
  265.986   72.877    0.299    0.486    5.412
  266.236   72.647    0.296    0.466    5.335
  266.486   72.786    0.293    0.455    5.277
  266.736   68.898    0.298    0.458    5.229
  266.986   67.315    0.301    0.464    5.062
  267.236   68.008    0.303    0.460    4.911
  267.486   67.983    0.294    0.435    4.768
  267.736   71.162    0.289    0.429    4.563
  267.986   74.578    0.275    0.434    5.473
  268.236   78.461    0.258    0.425    5.765
  268.486   91.345    0.235    0.422    5.697
  268.736   97.016    0.222    0.471    5.553
  268.986   98.363    0.220    0.492    5.453
  269.236   98.410    0.221    0.507    5.447
  269.486   97.603    0.214    0.517    5.588
  269.736   96.034    0.215    0.523    5.754
  269.986   93.717    0.219    0.517    6.062
  270.236   91.551    0.223    0.492    6.236
  270.486   92.067    0.231    0.473    6.640
  270.736   93.794    0.245    0.462    7.032
  270.986   94.732    0.236    0.450    7.246
  271.236   95.407    0.224    0.439    7.474
  271.486   93.820    0.221    0.447    7.718
  271.736   91.552    0.225    0.458    7.799
  271.986   89.535    0.228    0.460    7.802
  272.236   88.477    0.226    0.457    7.802
  272.486   89.090    0.216    0.454    7.806
  272.736   91.062    0.206    0.450    7.850
  272.986   92.967    0.206    0.454    7.331
  273.236   93.918    0.214    0.472    7.003
  273.486   94.937    0.220    0.482    6.873
  273.736   96.012    0.223    0.484    6.607
  273.986   99.127    0.223    0.473    6.924
  274.236  100.976    0.207    0.471    7.304
  274.486  101.924    0.194    0.482    7.679
  274.736  101.421    0.197    0.499    7.405
  274.986  101.171    0.200    0.494    7.590
  275.236   99.457    0.215    0.503    7.822
  275.486   97.066    0.199    0.509    7.988
  275.736   95.000    0.200    0.501    8.015
  275.986   93.425    0.201    0.490    8.124
  276.236   92.424    0.177    0.488    8.312
  276.486   91.567    0.161    0.495    8.105
  276.736   94.648    0.146    0.468    7.747
  276.986   99.239    0.206    0.405    7.385
  277.236  100.640    0.206    0.438    7.216
  277.486  100.453    0.198    0.463    6.328
  277.736  103.059    0.189    0.463    5.980
  277.986  104.959    0.180    0.476    5.810
  278.236  109.478    0.173    0.485    5.626
  278.486  111.040    0.171    0.500    5.593
  278.736  111.512    0.176    0.510    5.211
  278.986  112.127    0.187    0.516    4.785
  279.236  112.820    0.188    0.520    4.542
  279.486  112.754    0.190    0.505    4.122
  279.736  112.852    0.192    0.508    3.706
  279.986  111.337    0.191    0.517    3.407
  280.236  111.400    0.236    0.521    3.098
  280.486  111.447    0.232    0.537    3.006
  280.736  112.169    0.218    0.555    2.854
  280.986  113.088    0.209    0.568    2.807
  281.236  114.793    0.206    0.566    2.810
  281.486  115.757    0.199    0.525    2.810
  281.736  114.187    0.191    0.510    2.923
  281.986  111.614    0.198    0.505    3.170
  282.236  107.414    0.200    0.504    3.315
  282.486  102.316    0.207    0.504    3.652
  282.736   98.310    0.200    0.505    3.842
  282.986   96.191    0.192    0.494    4.228
  283.236   96.915    0.188    0.481    4.732
  283.486   96.072    0.193    0.482    5.578
  283.736   88.687    0.212    0.483    6.304
  283.986   79.324    0.195    0.471    7.118
  284.236   72.302    0.134    0.352    7.167
  284.486   68.729    0.052    0.299    6.552
  284.736   74.777    0.086    0.348    5.904
  284.986   81.369    0.117    0.400    6.288
  285.236   88.779    0.255    0.435    7.213
  285.486   93.997    0.258    0.427    7.532
  285.736   91.172    0.236    0.370    7.757
  285.986   84.172    0.228    0.325    7.720
  286.236   86.666    0.237    0.307    7.591
  286.486   89.552    0.243    0.340   11.126
  286.736   89.614    0.239    0.401   10.245
  286.986   86.783    0.237    0.434    9.307
  287.236   84.857    0.229    0.443    8.877
  287.486   85.175    0.226    0.442    8.799
  287.736   83.274    0.235    0.442    8.689
  287.986   79.486    0.234    0.442    8.677
  288.236   76.308    0.242    0.443    8.916
  288.486   74.193    0.249    0.431    9.168
  288.736   76.494    0.244    0.429    9.182
  288.986   78.842    0.241    0.424   10.018
  289.236   78.411    0.234    0.428   10.616
  289.486   71.133    0.228    0.427   10.596
  289.736   67.814    0.210    0.407   10.281
  289.986   66.206    0.195    0.381    9.829
  290.236   67.138    0.231    0.369    9.174
  290.486   66.736    0.261    0.410    8.530
  290.736   67.557    0.268    0.413    8.318
  290.986   69.634    0.266    0.407    8.601
  291.236   71.000    0.265    0.412    8.880
  291.486   71.348    0.259    0.414    8.969
  291.736   70.389    0.256    0.414    9.237
  291.986   69.828    0.259    0.418    9.227
  292.236   69.744    0.263    0.421    9.247
  292.486   70.515    0.264    0.423    9.046
  292.736   71.000    0.260    0.416    9.063
  292.986   70.996    0.259    0.408    9.067
  293.236   71.016    0.257    0.405    9.075
  293.486   71.543    0.256    0.418    9.387
  293.736   73.677    0.263    0.428    9.460
  293.986   77.088    0.265    0.437    9.779
  294.236   79.042    0.257    0.448    9.883
  294.486   78.147    0.254    0.425   10.172
  294.736   75.912    0.250    0.418   10.150
  294.986   73.737    0.244    0.425   10.368
  295.236   75.153    0.241    0.432   10.355
  295.486   77.111    0.239    0.440   10.353
  295.736   76.310    0.236    0.439   10.275
  295.986   77.112    0.236    0.421    9.949
  296.236   77.276    0.243    0.418    9.806
  296.486   74.656    0.249    0.420    9.592
  296.736   72.778    0.255    0.428    9.611
  296.986   75.745    0.253    0.437    9.446
  297.236   76.839    0.250    0.443    9.206
  297.486   77.567    0.243    0.446    8.935
  297.736   79.173    0.232    0.449    8.665
  297.986   78.457    0.231    0.442    8.398
  298.236   73.978    0.239    0.433    8.296
  298.486   72.728    0.256    0.431    8.043
  298.736   70.538    0.269    0.439    7.998
  298.986   68.613    0.278    0.432    7.877
  299.236   66.466    0.282    0.423    7.679
  299.486   66.635    0.281    0.418    7.865
  299.736   67.716    0.275    0.420    8.126
  299.986   67.068    0.270    0.407    8.194
  300.236   67.803    0.262    0.421    8.469
  300.486   71.395    0.254    0.434    8.753
  300.736   74.983    0.256    0.428    8.829
  300.986   76.241    0.257    0.425    9.116
  301.236   76.904    0.257    0.429    9.014
  301.486   76.759    0.262    0.433    8.843
  301.736   76.239    0.254    0.434    8.972
  301.986   76.187    0.266    0.436    9.053
  302.236   76.904    0.265    0.429    9.122
  302.486   76.495    0.253    0.421    8.826
  302.736   72.400    0.246    0.413    8.771
  302.986   68.780    0.248    0.428    8.315
  303.236   66.521    0.252    0.444    7.855
  303.486   67.800    0.257    0.459    7.595
  303.736   71.927    0.254    0.458    7.449
  303.986   75.313    0.258    0.446    7.457
