~VERSION INFORMATION
 VERS.                 2.0:   CWLS LOG ASCII STANDARD -VERSION 2.0
 WRAP.                  NO:   ONE LINE PER DEPTH STEP
~WELL INFORMATION BLOCK
#MNEM.UNIT           DATA                    DESCRIPTION OF MNEMONIC
#---------    -------------------            -------------------------------
# Generated from Intellog Unique Number	CW_76_78/WELL/2586
WELL.         SCURRY ET AL DOUCETTE          : Well_name    - WELL
LOC .         00/12-22-078-02W5/0            : Location     - LOCATION
UWI .         00/12-22-078-02W5/0            : Uwi          - UNIQUE WELL ID
ENTR.         MAX                            : Entered      - ENTERED BY
SRVC.         WESTERN ATLAS                  : Scn          - SERVICE COMPANY
STRT.M        330                            : top_depth    - START DEPTH
STOP.M        585                            : bot_depth    - STOP DEPTH
STEP.M        0.25                           : increment    - STEP LENGTH
 NULL. -999.2500:NULL Value
~CURVE INFORMATION BLOCK
#MNEM UNIT       ERCB CURVE CODE    CURVE DESCRIPTION
#-----------   ------------------   ----------------------------------
DEPT.M        00 001 00 00         : DEPTH        - DEPTH
ILD .OHMM     00 120 00 00         : RESD         - DEEP RESISTIVITY (DIL)
NPHI.V/V      00 330 00 00         : PHIN         - NEUTRON POROSITY (SANDSTONE)
DPHI.V/V      00 890 00 00         : PHID         - DENSITY POROSITY (SANDSTONE)
CALI.MM       00 280 01 00         : CAL          - CALIPER
GR  .API      00 310 00 00         : GR           - GAMMA RAY
~PARAMETER INFORMATION
#MNEM.UNIT           DATA             DESCRIPTION OF MNEMONIC
#---------         -----------     ------------------------------
GL  .M        625.1                : gl           - GROUND LEVEL ELEVATION
EREF.M        629.33               : kb           - ELEVATION OF DEPTH REFERENCE
DATM.M        625.1                : datum        - DATUM ELEVATION
TDD .M        611.3                : tdd          - TOTAL DEPTH DRILLER
RUN .         ONE                  : Run          - RUN NUMBER
ENG .         BILL                 : Engineer     - RECORDING ENGINEER
WIT .         JIM                  : Witness      - WITNESSED BY
MUD .         GEL                  : Mud_type     - MUD TYPE
MATR.         SANDSTONE            : Logunit      - NEUTRON MATRIX
TMAX.C        29                   : BHT          - MAXIMUM RECORDED TEMPERATURE
BHTD.M        611.3                : BHTDEP       - MAXIMUM RECORDED TEMPERATURE
RMT .C        13                   : MDTP         - TEMPERATURE OF MUD
MUDD.KG/M     1170                 : MWT          - MUD DENSITY
NEUT.         1                    : NEUTRON      - NEUTRON TYPE
RESI.         0                    : RESIST       - RESISTIVITY TYPE
RM  .OHMM     5                    : RM           - RESISTIVITY OF MUD
RMC .OHMM     3.5                  : RMC          - RESISTIVITY OF MUD CAKE
RMF .OHMM     6                    : RMF          - RESISTIVITY OF MUD FILTRATE
SUFT.C        -5                   : SUFT         - SURFACE TEMPERATURE
~A  DEPTH     RESD     PHIN     PHID      CAL       GR
# ...
  476.000   10.421    0.384    0.198  206.094   86.045
  476.250   12.356    0.381    0.189  206.597   88.103
  476.500   14.915    0.371    0.182  206.607   86.940
  476.750   16.316    0.364    0.190  206.133   82.266
  477.000   20.231    0.362    0.217  203.709   70.567
  477.250   22.332    0.359    0.241  201.287   73.209
  477.500   22.746    0.364    0.251  201.787   82.291
  477.750   22.152    0.370    0.267  202.776   83.471
  478.000   20.818    0.378    0.270  204.251   79.088
  478.250   18.877    0.386    0.267  205.730   77.633
  478.500   18.223    0.392    0.262  206.231   76.764
  478.750   18.223    0.395    0.261  206.245   76.479
  479.000   18.567    0.393    0.257  206.259   76.196
  479.250   19.951    0.385    0.238  205.300   78.252
  479.500   22.222    0.373    0.209  201.897   80.018
  479.750   21.643    0.369    0.218  199.472   77.391
  480.000   20.339    0.373    0.231  203.388   72.131
  480.250   18.773    0.386    0.244  204.379   72.432
  480.500   14.621    0.394    0.242  203.417   77.123
  480.750   14.369    0.404    0.237  200.507   83.279
  481.000   15.169    0.409    0.236  198.080   81.532
  481.250   15.174    0.414    0.246  196.146   79.785
  481.500   14.133    0.417    0.255  196.158   80.376
  481.750   13.400    0.417    0.254  198.609   82.141
  482.000   13.055    0.417    0.251  203.500   85.077
  482.250   12.265    0.414    0.235  204.003   87.721
  482.500   11.221    0.412    0.231  204.993   88.900
  482.750   10.735    0.408    0.215  205.494   89.784
  483.000   10.549    0.408    0.217  206.483   90.965
  483.250   10.460    0.411    0.221  206.497   93.314
  483.500   10.371    0.410    0.224  206.998   92.152
  483.750   10.564    0.400    0.227  207.991   88.356
  484.000   11.150    0.402    0.225  208.004   87.779
  484.250   12.531    0.401    0.220  207.042   86.616
  484.500   14.207    0.399    0.216  206.567   85.746
  484.750   15.683    0.395    0.211  205.122   83.412
  485.000   16.704    0.390    0.204  204.158   79.323
  485.250   16.564    0.379    0.195  207.099   73.186
  485.500   15.845    0.371    0.183  208.576   72.317
  485.750   13.862    0.376    0.170  206.152   80.227
  486.000   11.701    0.392    0.187  203.727   90.478
  486.250   10.146    0.399    0.205  206.179   97.219
  486.500    9.450    0.401    0.209  210.095   96.643
  486.750    9.454    0.399    0.203  211.083   95.188
  487.000    9.715    0.399    0.195  209.635   94.903
  487.250   10.347    0.398    0.190  206.721   92.279
  487.500   11.021    0.381    0.195  207.714   91.115
  487.750   11.025    0.373    0.196  208.700   90.831
  488.000   11.031    0.362    0.192  211.154   89.960
  488.250   10.743    0.359    0.188  212.143   88.798
  488.500   10.463    0.364    0.184  212.160   88.809
  488.750    9.832    0.369    0.179  213.637   91.159
  489.000    9.158    0.382    0.179  215.114   94.093
  489.250    8.378    0.385    0.182  216.104   98.490
  489.500    7.873    0.392    0.194  218.555  104.060
  489.750    7.668    0.392    0.195  217.594  103.190
  490.000    7.604    0.389    0.188  211.753   96.760
  490.250    7.744    0.387    0.187  209.329   92.964
  490.500    8.397    0.382    0.191  209.329   90.630
  490.750    9.352    0.376    0.188  208.389   90.054
  491.000   10.231    0.374    0.183  208.882   90.647
  491.250   10.995    0.372    0.185  209.873   91.826
  491.500   11.502    0.370    0.192  208.911   90.373
  491.750   12.697    0.370    0.193  206.001   85.405
  492.000   15.326    0.362    0.164  204.062   79.851
  492.250   17.533    0.349    0.145  203.587   71.958
  492.500   21.165    0.351    0.133  203.601   73.430
  492.750   23.997    0.357    0.189  204.590   74.608
  493.000   26.489    0.371    0.221  205.580   72.568
  493.250   28.981    0.379    0.256  205.595   69.649
  493.500   30.050    0.384    0.259  205.122   67.318
  493.750   30.332    0.383    0.258  204.646   68.497
  494.000   29.541    0.378    0.254  205.150   69.381
  494.250   27.515    0.366    0.238  206.627   71.440
  494.500   25.857    0.356    0.226  207.130   73.789
  494.750   23.030    0.352    0.206  207.145   76.724
  495.000   20.512    0.359    0.181  207.157   81.710
  495.250   18.432    0.370    0.192  207.169   81.425
  495.500   14.879    0.385    0.217  207.670   78.505
  495.750   13.735    0.391    0.203  207.201   79.392
  496.000   12.343    0.390    0.184  207.211   81.742
  496.250   11.598    0.387    0.161  206.737   85.264
  496.500   11.096    0.386    0.170  206.751   88.784
  496.750   10.905    0.383    0.186  206.278   89.085
  497.000   10.816    0.377    0.192  205.804   88.800
  497.250   10.721    0.375    0.187  205.818   89.687
  497.500   10.726    0.375    0.170  207.296   90.865
  497.750   10.730    0.377    0.171  209.261   90.874
  498.000   10.831    0.383    0.175  208.787   88.834
  498.250   10.836    0.387    0.179  206.363   87.965
  498.500   10.744    0.388    0.186  204.914   89.728
  498.750   10.749    0.383    0.192  205.413   93.834
  499.000   10.947    0.379    0.192  205.918   93.844
  499.250   11.251    0.382    0.195  203.979   92.096
  499.500   11.256    0.382    0.191  200.579   89.469
  499.750   11.260    0.376    0.186  198.156   86.260
  500.000   11.269    0.374    0.185  199.143   84.217
  500.250   11.169    0.373    0.181  202.087   82.469
  500.500   10.976    0.373    0.183  203.562   81.602
  500.750   10.981    0.373    0.188  204.062   84.535
  501.000   10.888    0.373    0.189  204.076   87.178
  501.250   10.796    0.381    0.189  204.091   84.552
  501.500   10.705    0.381    0.192  204.108   78.999
  501.750   10.521    0.378    0.197  204.118   82.813
  502.000   10.338    0.377    0.190  204.134   90.139
  502.250   10.069    0.379    0.180  204.149   91.026
  502.500    9.894    0.380    0.177  204.649   89.571
  502.750    9.723    0.379    0.179  205.640   87.531
  503.000    9.555    0.379    0.182  205.651   89.002
  503.250    9.559    0.377    0.177  205.668   90.181
  503.500    9.563    0.376    0.179  206.172   91.067
  503.750    9.568    0.373    0.181  206.671   92.540
  504.000    9.921    0.370    0.184  207.173   93.132
  504.250   10.566    0.367    0.190  206.697   91.385
  504.500   11.663    0.361    0.191  204.275   79.393
  504.750   18.246    0.345    0.198  197.945   68.572
  505.000   25.412    0.319    0.177  196.011   62.141
  505.250   32.657    0.271    0.112  198.462   62.445
  505.500   34.166    0.276    0.077  205.308   68.891
  505.750   32.105    0.291    0.146  206.782   70.948
  506.000   26.860    0.314    0.172  207.283   76.224
  506.250   25.469    0.346    0.208  206.809   80.331
  506.500   26.172    0.349    0.217  206.337   80.047
  506.750   27.876    0.333    0.192  206.840   76.542
  507.000   32.176    0.251    0.154  206.367   68.940
  507.250   36.488    0.235    0.081  205.893   60.460
  507.500   36.502    0.228    0.046  205.907   55.202
  507.750   34.608    0.226    0.031  206.411   55.211
  508.000   30.823    0.243    0.086  206.422   58.145
  508.250   23.163    0.290    0.122  205.949   64.885
  508.500   19.035    0.342    0.147  206.449   71.332
  508.750   15.925    0.352    0.167  206.954   79.828
  509.000   13.809    0.361    0.191  207.452   81.886
  509.250   13.569    0.369    0.201  207.955   81.896
  509.500   13.576    0.372    0.196  207.970   83.073
  509.750   13.576    0.374    0.186  207.982   84.838
  510.000   13.469    0.372    0.185  207.996   87.775
  510.250   12.884    0.370    0.184  208.011   89.245
  510.500   12.327    0.369    0.182  209.488   88.669
  510.750   12.113    0.370    0.179  210.965   85.458
  511.000   12.010    0.368    0.176  210.979   84.001
  511.250   12.124    0.366    0.178  210.018   83.717
  511.500   12.020    0.364    0.168  210.032   82.264
  511.750   11.918    0.361    0.171  210.046   82.564
  512.000   11.505    0.360    0.177  210.061   90.183
  512.250   11.007    0.361    0.177  209.585   90.482
