~VERSION INFORMATION
 VERS.                 2.0:   CWLS LOG ASCII STANDARD -VERSION 2.0
 WRAP.                  NO:   ONE LINE PER DEPTH STEP
~WELL INFORMATION BLOCK
#MNEM.UNIT           DATA                    DESCRIPTION OF MNEMONIC
#---------    -------------------            -------------------------------
# Generated from Intellog Unique Number	CW_70_72/WELL/2906
NULL.         -999.25                        : NULL_VALUE
WELL.         MIKAS CALLING LAKE             : Well_name    - WELL              
LOC .         10-36-070-20W4                 : Location     - LOCATION          
UWI .         00/10-36-070-20W4/0            : Uwi          - UNIQUE WELL ID    
ENTR.         MAX                            : Entered      - ENTERED BY        
SRVC.         SCHLUMBERGER                   : Scn          - SERVICE COMPANY   
STRT.M        316.992                        : top_depth    - START DEPTH       
STOP.M        484.742                        : bot_depth    - STOP DEPTH        
STEP.M        0.25                           : increment    - STEP LENGTH       
~CURVE INFORMATION BLOCK
#MNEM UNIT       ERCB CURVE CODE    CURVE DESCRIPTION
#-----------   ------------------   ----------------------------------
DEPT.M        00 001 00 00         : DEPTH        - DEPTH                       
ILD .OHMM     00 120 00 00         : RESD         - DEEP RESISTIVITY (DIL)      
NPHI.V/V      00 330 00 00         : PHIN         - NEUTRON POROSITY (SANDSTONE)
DPHI.V/V      00 890 00 00         : PHID         - DENSITY POROSITY (SANDSTONE)
CALI.MM       00 280 01 00         : CAL          - CALIPER                     
GR  .API      00 310 00 00         : GR           - GAMMA RAY                   
~PARAMETER INFORMATION       
#MNEM.UNIT           DATA             DESCRIPTION OF MNEMONIC
#---------         -----------     ------------------------------
GL  .M        583.265              : gl           - GROUND LEVEL ELEVATION      
EREF.M        586.435              : kb           - ELEVATION OF DEPTH REFERENCE
DATM.M        583.265              : datum        - DATUM ELEVATION             
TDD .M        490.423              : tdd          - TOTAL DEPTH DRILLER         
RUN .         ONE                  : Run          - RUN NUMBER                  
ENG .         BILL                 : Engineer     - RECORDING ENGINEER          
WIT .         JIM                  : Witness      - WITNESSED BY                
MUD .         GEL                  : Mud_type     - MUD TYPE                    
MATR.         SANDSTONE            : Logunit      - NEUTRON MATRIX              
TMAX.C        26.6667              : BHT          - MAXIMUM RECORDED TEMPERATURE
BHTD.M        490.423              : BHTDEP       - MAXIMUM RECORDED TEMPERATURE
RMT .C        4.44444              : MDTP         - TEMPERATURE OF MUD          
MUDD.KG/M     9000                 : MWT          - MUD DENSITY                 
NEUT.         1                    : NEUTRON      - NEUTRON TYPE                
RESI.         0                    : RESIST       - RESISTIVITY TYPE            
RM  .OHMM     4.66                 : RM           - RESISTIVITY OF MUD          
RMC .OHMM     2.9                  : RMC          - RESISTIVITY OF MUD CAKE     
RMF .OHMM     0.25                 : RMF          - RESISTIVITY OF MUD FILTRATE 
SUFT.C        -20.5556             : SUFT         - SURFACE TEMPERATURE         
~A  DEPTH     RESD     PHIN     PHID      CAL       GR
# ...
  389.992    3.127    0.464    0.350  156.151   50.510
  390.242    3.184    0.455    0.356  156.139   51.692
  390.492    3.184    0.456    0.353  156.632   53.768
  390.742    3.128    0.476    0.340  156.621   52.870
  390.992    3.073    0.492    0.340  157.114   52.270
  391.242    3.074    0.463    0.341  157.102   54.641
  391.492    3.186    0.451    0.336  157.095   56.417
  391.742    3.302    0.453    0.332  157.085   58.790
  391.992    3.392    0.442    0.323  156.570   59.677
  392.242    3.454    0.471    0.312  156.559   62.941
  392.492    3.517    0.517    0.299  156.541   67.095
  392.742    3.518    0.529    0.306  157.040   68.576
  392.992    3.518    0.526    0.323  157.535   67.678
  393.242    3.518    0.499    0.332  157.525   65.294
  393.492    3.457    0.489    0.307  157.010   64.098
  393.742    3.366    0.472    0.296  156.999   61.713
  393.992    3.489    0.447    0.294  156.485   60.816
  394.242    3.489    0.482    0.282  156.475   61.998
  394.492    3.490    0.483    0.298  156.464   63.480
  394.742    3.459    0.535    0.320  156.958   60.797
  394.992    3.398    0.564    0.333  157.452   60.791
  395.242    3.368    0.540    0.320  157.944   62.568
  395.492    3.492    0.495    0.310  157.933   64.643
  395.742    3.619    0.481    0.315  158.425   64.935
  395.992    3.685    0.465    0.323  159.924   65.225
  396.242    3.653    0.447    0.316  161.928   69.382
  396.492    3.432    0.528    0.334  164.938   73.835
  396.742    3.111    0.524    0.347  167.949   76.504
  396.992    2.896    0.486    0.357  178.007   77.984
  397.242    2.770    0.463    0.342  194.605   75.600
  397.492    2.820    0.469    0.315  190.569   72.918
  397.742    2.924    0.460    0.281  174.955   72.911
  397.992    3.226    0.467    0.275  163.366   73.501
  398.242    3.624    0.470    0.264  160.334   74.980
  398.492    3.757    0.468    0.281  160.334   76.460
  398.742    3.757    0.448    0.295  159.306   75.563
  398.992    3.826    0.435    0.302  158.791   74.070
  399.242    4.001    0.438    0.300  158.783   69.604
  399.492    4.002    0.494    0.283  158.771   68.409
  399.742    3.931    0.514    0.283  158.257   69.592
  399.992    3.793    0.490    0.282  157.742   67.504
  400.242    3.727    0.480    0.275  157.230   62.742
  400.492    3.829    0.468    0.282  156.717   61.250
  400.742    4.187    0.439    0.297  156.707   60.352
  400.992    4.963    0.429    0.310  156.193   59.750
  401.242    5.727    0.425    0.328  156.179   59.448
  401.492    6.263    0.418    0.317  156.179   57.358
  401.742    6.912    0.438    0.302  156.158   56.164
  401.992    7.228    0.446    0.301  156.147   56.158
  402.242    7.229    0.457    0.295  156.140   57.342
  402.492    6.731    0.455    0.289  156.129   61.497
  402.742    5.994    0.429    0.290  156.117   65.058
  402.992    5.385    0.440    0.263  156.106   66.836
  403.242    4.795    0.480    0.250  156.106   72.180
  403.492    4.545    0.485    0.248  156.589   72.769
  403.742    4.425    0.482    0.243  156.580   73.655
  403.992    4.426    0.490    0.245  156.064   75.136
  404.242    4.547    0.520    0.230  156.055   78.101
  404.492    4.713    0.521    0.223  156.045   78.987
  404.742    4.885    0.496    0.225  156.034   78.088
  404.992    4.885    0.486    0.226  156.034   77.191
  405.242    4.975    0.490    0.226  156.516   76.293
  405.492    4.975    0.474    0.226  158.016   76.286
  405.742    4.845    0.473    0.219  159.012   78.361
  405.992    4.717    0.451    0.235  159.504   81.328
  406.242    4.676    0.456    0.252  159.493   79.538
  406.492    4.676    0.460    0.252  159.484   77.452
  406.742    4.677    0.444    0.254  159.475   76.256
  406.992    4.678    0.428    0.248  160.471   76.845
  407.242    4.720    0.435    0.225  160.460   80.405
  407.492    4.679    0.445    0.209  160.954   82.777
  407.742    4.679    0.452    0.214  161.446   83.069
  407.992    4.679    0.469    0.219  162.943   82.765
  408.242    4.681    0.470    0.229  163.439   81.868
  408.492    4.640    0.484    0.229  163.931   79.780
  408.742    4.558    0.521    0.238  163.920   78.286
  408.992    4.399    0.523    0.265  163.407   77.093
  409.242    4.096    0.532    0.288  162.893   69.654
  409.492    3.882    0.535    0.308  161.875   63.405
  409.742    3.583    0.555    0.311  160.354   57.452
  409.992    3.248    0.558    0.297  158.833   56.255
  410.242    3.078    0.533    0.294  157.315   55.954
  410.492    3.163    0.507    0.301  155.792   57.731
  410.742    3.308    0.470    0.287  155.782   58.914
  410.992    3.650    0.429    0.264  155.772   58.314
  411.242    3.956    0.365    0.215  156.265   55.928
  411.492    4.101    0.382    0.254  156.758   54.732
  411.742    4.101    0.487    0.309  156.748   55.619
  411.992    3.993    0.536    0.309  156.737   57.695
  412.242    3.620    0.534    0.309  156.727   56.795
  412.492    3.340    0.499    0.317  156.717   55.304
  412.742    3.083    0.513    0.327  156.707   57.378
  412.992    3.029    0.516    0.327  156.695   58.859
  413.242    3.056    0.499    0.333  156.685   60.041
  413.492    3.084    0.495    0.319  156.674   61.819
  413.742    3.197    0.503    0.315  156.664   62.407
  413.992    3.255    0.488    0.328  156.651   61.211
  414.242    3.314    0.494    0.315  156.643   60.017
  414.492    3.374    0.495    0.300  156.127   58.227
  414.742    3.529    0.494    0.280  156.116   54.356
  414.992    3.658    0.467    0.264  155.602   51.376
  415.242    3.895    0.442    0.247  155.594   51.073
  415.492    4.147    0.436    0.285  157.092   55.230
  415.742    4.376    0.495    0.299  158.090   60.871
  415.992    4.261    0.485    0.310  158.582   64.730
  416.242    3.967    0.485    0.306  159.074   65.913
  416.492    3.694    0.483    0.306  159.064   64.717
  416.742    3.440    0.481    0.304  159.053   63.818
  416.992    3.319    0.475    0.309  159.036   65.299
  417.242    3.261    0.460    0.309  158.529   66.482
  417.492    3.261    0.477    0.309  158.014   66.178
  417.742    3.262    0.494    0.294  158.004   65.875
  417.992    3.262    0.488    0.289  157.995   66.760
  418.242    3.292    0.481    0.287  157.481   68.538
  418.492    3.352    0.470    0.280  156.967   70.316
  418.742    3.443    0.462    0.286  156.454   71.201
  418.992    3.537    0.466    0.275  156.443   71.195
  419.242    3.602    0.470    0.276  156.432   71.784
  419.492    3.667    0.481    0.277  156.422   71.480
  419.742    3.668    0.484    0.264  156.422   69.393
  419.992    3.668    0.493    0.263  156.900   67.603
  420.242    3.702    0.506    0.257  156.894   66.706
  420.492    3.735    0.491    0.253  157.387   65.807
  420.742    3.769    0.476    0.250  157.376   64.313
  420.992    3.872    0.466    0.257  157.869   64.902
  421.242    3.943    0.490    0.269  158.362   66.681
  421.492    4.014    0.484    0.282  159.356   69.052
  421.742    4.124    0.471    0.284  160.353   71.721
  421.992    4.088    0.487    0.278  161.351   74.094
  422.242    3.945    0.516    0.259  163.352   76.467
  422.492    3.673    0.591    0.247  165.355   80.325
  422.742    3.420    0.596    0.253  167.361   82.697
  422.992    3.185    0.575    0.271  171.879   85.366
  423.242    2.913    0.574    0.278  173.379   86.252
  423.492    2.617    0.583    0.278  175.383   88.624
  423.742    2.415    0.601    0.302  179.902   90.104
  423.992    2.209    0.603    0.289  184.424   88.909
  424.242    2.094    0.589    0.273  185.420   88.902
  424.492    2.057    0.567    0.256  182.892   89.788
  424.742    2.076    0.540    0.268  177.343   90.079
  424.992    2.290    0.497    0.245  175.824   90.073
  425.242    2.550    0.501    0.220  169.773   90.065
  425.492    3.247    0.505    0.210  162.711   89.763
  425.742    3.680    0.490    0.204  162.200   88.568
  425.992    3.883    0.474    0.203  163.196   86.183
  426.242    3.989    0.455    0.194  163.186   83.502
