~VERSION INFORMATION
 VERS.                 2.0:   CWLS LOG ASCII STANDARD -VERSION 2.0
 WRAP.                  NO:   ONE LINE PER DEPTH STEP
~WELL INFORMATION BLOCK
#MNEM.UNIT           DATA                    DESCRIPTION OF MNEMONIC
#---------    -------------------            -------------------------------
# Generated from Intellog Unique Number	CS_73_76/WELL/855
WELL.         MAYNARD ENERGY                 : Well_name    - WELL
LOC .         00/13-22-073-13W4/0            : Location     - LOCATION
UWI .         00/13-22-073-13W4/0            : Uwi          - UNIQUE WELL ID
ENTR.         SP                             : Entered      - ENTERED BY
SRVC.         SCHLUMBERGER                   : Scn          - SERVICE COMPANY
STRT.M        320                            : top_depth    - START DEPTH
STOP.M        531                            : bot_depth    - STOP DEPTH
STEP.M        0.25                           : increment    - STEP LENGTH
 NULL. -999.2500:NULL Value
~CURVE INFORMATION BLOCK
#MNEM UNIT       ERCB CURVE CODE    CURVE DESCRIPTION
#-----------   ------------------   ----------------------------------
DEPT.M        00 001 00 00         : DEPTH        - DEPTH
ILD .OHMM     00 120 00 00         : RESD         - DEEP RESISTIVITY (DIL)
DPHI.V/V      00 890 00 00         : PHID         - DENSITY POROSITY (LIMESTONE)
NPHI.V/V      00 330 00 00         : PHIN         - NEUTRON POROSITY (LIMESTONE)
GR  .API      00 310 00 00         : GR           - GAMMA RAY
~PARAMETER INFORMATION
#MNEM.UNIT           DATA             DESCRIPTION OF MNEMONIC
#---------         -----------     ------------------------------
GL  .M        674.31               : gl           - GROUND LEVEL ELEVATION
EREF.M        677.76               : kb           - ELEVATION OF DEPTH REFERENCE
DATM.M        674.31               : datum        - DATUM ELEVATION
TDD .M        541                  : tdd          - TOTAL DEPTH DRILLER
RUN .         ONE                  : Run          - RUN NUMBER
ENG .         BILL                 : Engineer     - RECORDING ENGINEER
WIT .         JIM                  : Witness      - WITNESSED BY
MUD .         GEL                  : Mud_type     - MUD TYPE
MATR.         LIMESTONE            : Logunit      - NEUTRON MATRIX
TMAX.C        22                   : BHT          - MAXIMUM RECORDED TEMPERATURE
BHTD.M        541                  : BHTDEP       - MAXIMUM RECORDED TEMPERATURE
MATR.         1                    : LOGUNIT      - NEUTRON MATRIX
RMT .C        25                   : MDTP         - TEMPERATURE OF MUD
NEUT.         1                    : NEUTRON      - NEUTRON TYPE
RESI.         0                    : RESIST       - RESISTIVITY TYPE
RMC .OHMM     0.25                 : RMC          - RESISTIVITY OF MUD CAKE
RMF .OHMM     0.25                 : RMF          - RESISTIVITY OF MUD FILTRATE
SUFT.C        15                   : SUFT         - SURFACE TEMPERATURE
~A  DEPTH     RESD     PHID     PHIN       GR
# ...
  450.500    6.086    0.255    0.413   97.220
  450.750    6.253    0.258    0.408   96.009
  451.000    6.337    0.257    0.404   91.155
  451.250    6.260    0.256    0.406   86.301
  451.500    6.183    0.263    0.410   84.482
  451.750    6.188    0.268    0.411   82.663
  452.000    6.192    0.268    0.412   82.060
  452.250    6.194    0.273    0.411   82.064
  452.500    6.196    0.284    0.408   82.066
  452.750    6.037    0.285    0.405   83.892
  453.000    5.960    0.284    0.409   84.504
  453.250    6.045    0.278    0.410   85.115
  453.500    6.048    0.257    0.409   84.511
  453.750    5.970    0.269    0.408   83.300
  454.000    5.894    0.276    0.404   82.698
  454.250    5.896    0.282    0.404   82.094
  454.500    5.818    0.297    0.406   81.490
  454.750    5.742    0.286    0.412   81.493
  455.000    5.745    0.285    0.415   80.889
  455.250    5.748    0.285    0.420   80.891
  455.500    5.671    0.298    0.417   80.288
  455.750    5.675    0.304    0.412   80.291
  456.000    5.759    0.312    0.410   80.903
  456.250    5.764    0.305    0.410   82.122
  456.500    5.766    0.299    0.415   82.731
  456.750    5.769    0.281    0.418   83.343
  457.000    5.692    0.271    0.416   83.346
  457.250    5.614    0.270    0.415   83.350
  457.500    5.536    0.276    0.412   83.961
  457.750    5.459    0.270    0.409   84.572
  458.000    5.461    0.273    0.406   85.183
  458.250    5.384    0.282    0.409   85.187
  458.500    5.388    0.285    0.412   86.406
  458.750    5.391    0.298    0.415   87.016
  459.000    5.476    0.291    0.413   88.233
  459.250    5.562    0.287    0.412   89.452
  459.500    5.565    0.280    0.409   90.670
  459.750    5.650    0.264    0.407   91.280
  460.000    5.653    0.251    0.411   92.500
  460.250    5.656    0.242    0.415   92.502
  460.500    5.497    0.240    0.421   90.685
  460.750    5.176    0.245    0.418   89.474
  461.000    4.854    0.253    0.421   90.084
  461.250    4.696    0.245    0.424   91.303
  461.500    4.699    0.223    0.423   93.128
  461.750    4.784    0.219    0.415   94.953
  462.000    5.356    0.226    0.399   96.172
  462.250    6.254    0.206    0.372   89.494
  462.500    7.639    0.178    0.350   79.782
  462.750   10.651    0.167    0.321   74.320
  463.000   14.232    0.164    0.300   71.894
  463.250   17.406    0.146    0.278   68.862
  463.500   18.791    0.090    0.243   65.829
  463.750   19.283    0.034    0.207   63.402
  464.000   19.936    0.004    0.189   60.369
  464.250   19.127    0.000    0.195   59.765
  464.500   11.733    0.006    0.212   74.952
  464.750    9.379    0.015    0.237   82.850
  465.000    7.594    0.114    0.258   89.534
  465.250    6.866    0.156    0.311   95.611
  465.500    6.300    0.197    0.359   96.829
  465.750    5.735    0.236    0.397   95.618
  466.000    5.495    0.230    0.399   95.014
  466.250    5.336    0.224    0.399   95.017
  466.500    5.179    0.225    0.399   96.236
  466.750    5.100    0.229    0.402   98.061
  467.000    5.184    0.225    0.407   99.279
  467.250    5.189    0.218    0.411   99.283
  467.500    5.272    0.216    0.408   96.857
  467.750    5.358    0.214    0.406   97.468
  468.000    5.441    0.216    0.409   99.902
  468.250    5.608    0.226    0.413  101.119
  468.500    5.856    0.239    0.424  102.338
  468.750    6.023    0.245    0.428  100.520
  469.000    6.271    0.256    0.434   98.094
  469.250    6.354    0.247    0.429   95.668
  469.500    6.520    0.239    0.420   93.242
  469.750    6.606    0.221    0.417   90.817
  470.000    6.528    0.208    0.413   92.035
  470.250    6.449    0.203    0.408   93.254
  470.500    6.210    0.216    0.406   95.079
  470.750    6.050    0.225    0.411   98.119
  471.000    5.893    0.220    0.418  103.589
  471.250    5.895    0.214    0.419  108.450
  471.500    5.898    0.216    0.415  111.490
  471.750    5.984    0.203    0.409  111.494
  472.000    6.070    0.197    0.404  110.282
  472.250    6.074    0.197    0.407  105.427
  472.500    6.077    0.208    0.407  104.824
  472.750    6.080    0.214    0.407  104.829
  473.000    6.083    0.220    0.397  104.832
  473.250    6.166    0.226    0.393  104.227
  473.500    6.171    0.234    0.389  103.017
  473.750    6.093    0.243    0.393  101.198
  474.000    5.854    0.239    0.396   98.165
  474.250    5.694    0.232    0.399   96.348
  474.500    5.372    0.223    0.399   96.350
  474.750    5.051    0.216    0.399   96.962
  475.000    4.972    0.199    0.403   96.359
  475.250    4.651    0.200    0.404   96.362
  475.500    4.249    0.197    0.407   95.758
  475.750    3.845    0.201    0.408   94.547
  476.000    3.198    0.215    0.412   92.729
  476.250    2.795    0.240    0.420   92.124
  476.500    2.555    0.279    0.430   92.736
  476.750    2.395    0.290    0.452   93.347
  477.000    2.156    0.273    0.476   93.350
  477.250    2.078    0.262    0.490   93.354
  477.500    2.000    0.260    0.498   94.572
  477.750    2.085    0.271    0.501   96.397
  478.000    2.090    0.285    0.496   98.830
  478.250    2.173    0.286    0.488  100.657
  478.500    2.258    0.261    0.482  101.873
  478.750    2.505    0.240    0.473  101.877
  479.000    2.915    0.228    0.467  102.488
  479.250    3.325    0.223    0.461  102.492
  479.500    3.899    0.217    0.450  101.281
  479.750    4.390    0.210    0.443   98.856
  480.000    4.718    0.196    0.430   97.644
  480.250    4.966    0.193    0.416   97.649
  480.500    5.132    0.198    0.411   97.651
  480.750    5.137    0.228    0.404   99.478
  481.000    5.221    0.253    0.409  100.088
  481.250    5.224    0.257    0.409  100.093
  481.500    5.228    0.268    0.404   99.487
  481.750    5.232    0.278    0.402   97.670
  482.000    5.316    0.278    0.398   95.852
  482.250    5.400    0.261    0.393   93.425
  482.500    5.566    0.233    0.389   90.392
  482.750    5.490    0.219    0.387   89.788
  483.000    5.168    0.210    0.389   92.222
  483.250    4.764    0.214    0.399   94.656
  483.500    4.361    0.227    0.404   95.873
  483.750    3.959    0.228    0.409   97.090
  484.000    3.637    0.225    0.411   98.916
  484.250    3.317    0.210    0.417   99.528
  484.500    3.156    0.201    0.420  100.138
  484.750    2.999    0.200    0.425  101.965
  485.000    3.001    0.195    0.429  103.182
  485.250    3.006    0.190    0.437  104.400
  485.500    3.008    0.193    0.440  103.796
  485.750    3.174    0.186    0.442  103.192
  486.000    3.259    0.201    0.443  102.589
  486.250    3.264    0.208    0.443  101.378
  486.500    3.348    0.216    0.443  101.988
  486.750    3.271    0.226    0.446  103.208
  487.000    3.273    0.228    0.457  104.427
  487.250    3.195    0.217    0.461  105.037
  487.500    3.118    0.207    0.466  106.254
  487.750    2.959    0.202    0.473  107.473
  488.000    2.881    0.224    0.477  107.476
  488.250    2.804    0.212    0.472  103.228
  488.500    2.808    0.195    0.467  100.804
  488.750    2.810    0.168    0.461  100.199
  489.000    2.815    0.150    0.456  101.417
  489.250    2.899    0.188    0.455  103.851
  489.500    3.066    0.219    0.458  105.068
  489.750    3.231    0.236    0.463  106.286
  490.000    3.642    0.236    0.456  107.505
  490.250    4.214    0.230    0.438  106.902
  490.500    4.867    0.221    0.430  106.297
  490.750    5.522    0.211    0.412  104.480
  491.000    6.258    0.207    0.406  103.268
  491.250    7.156    0.213    0.401  100.842
  491.500    7.808    0.209    0.387   96.594
  491.750    9.032    0.191    0.347   89.311
  492.000    9.848    0.170    0.325   82.027
  492.250   11.315    0.149    0.310   76.565
  492.500   12.863    0.213    0.312   73.532
  492.750   14.574    0.251    0.325   72.928
  493.000   15.309    0.272    0.340   72.932
  493.250   15.882    0.286    0.354   73.543
  493.500   16.373    0.264    0.359   74.154
  493.750   16.865    0.249    0.362   76.587
