~VERSION INFORMATION
 VERS.                 2.0:   CWLS LOG ASCII STANDARD -VERSION 2.0
 WRAP.                  NO:   ONE LINE PER DEPTH STEP
~WELL INFORMATION BLOCK
#MNEM.UNIT           DATA                    DESCRIPTION OF MNEMONIC
#---------    -------------------            -------------------------------
# Generated from Intellog Unique Number	CX_WELLS/WELL/2878
WELL.         PACIFIC STONY RAPIDS           : Well_name    - WELL
LOC .         00/11-12-081-18W4/0            : Location     - LOCATION
UWI .         00/11-12-081-18W4/0            : Uwi          - UNIQUE WELL ID
ENTR.         T                              : Entered      - ENTERED BY
SRVC.         SCHLUMBERGER                   : Scn          - SERVICE COMPANY
STRT.F        400                            : top_depth    - START DEPTH
STOP.F        1049.61                        : bot_depth    - STOP DEPTH
STEP.F        0.82                           : increment    - STEP LENGTH
 NULL. -999.2500:NULL Value
~CURVE INFORMATION BLOCK
#MNEM UNIT       ERCB CURVE CODE    CURVE DESCRIPTION
#-----------   ------------------   ----------------------------------
DEPT.F        00 001 00 00         : DEPTH        - DEPTH
GR  .API      00 310 00 00         : GR           - GAMMA RAY
NPHI.V/V      00 330 00 00         : PHIN         - NEUTRON POROSITY (SANDSTONE)
ILD .OHMM     00 120 00 00         : RESD         - DEEP RESISTIVITY (OTHER)
~PARAMETER INFORMATION
#MNEM.UNIT           DATA             DESCRIPTION OF MNEMONIC
#---------         -----------     ------------------------------
GL  .F        1794                 : gl           - GROUND LEVEL ELEVATION
EREF.F        1804                 : kb           - ELEVATION OF DEPTH REFERENCE
DATM.F        1804                 : datum        - DATUM ELEVATION
TDD .F        1059                 : tdd          - TOTAL DEPTH DRILLER
RUN .         ONE                  : Run          - RUN NUMBER
ENG .         BILL                 : Engineer     - RECORDING ENGINEER
WIT .         JIM                  : Witness      - WITNESSED BY
MUD .         GEL                  : Mud_type     - MUD TYPE
MATR.         SANDSTONE            : Logunit      - NEUTRON MATRIX
TMAX.F        62                   : BHT          - MAXIMUM RECORDED TEMPERATURE
BHTD.F        1059                 : BHTDEP       - MAXIMUM RECORDED TEMPERATURE
MATR.         1                    : LOGUNIT      - NEUTRON MATRIX
RMT .F        64.4                 : MDTP         - TEMPERATURE OF MUD
NEUT.         1                    : NEUTRON      - NEUTRON TYPE
RESI.         8.4                  : RESIST       - RESISTIVITY TYPE
RMC .OHMM     8.4                  : RMC          - RESISTIVITY OF MUD CAKE
RMF .OHMM     5.75                 : RMF          - RESISTIVITY OF MUD FILTRATE
SUFT.F        39.2                 : SUFT         - SURFACE TEMPERATURE
~A  DEPTH       GR     PHIN     RESD
# ...
  577.986   42.752    0.386    6.436
  578.806   42.760    0.392    6.438
  579.626   42.775    0.391    6.440
  580.446   42.789    0.386    6.360
  581.266   42.169    0.382    6.362
  582.087   41.553    0.381    6.282
  582.907   40.936    0.380    6.284
  583.727   40.950    0.382    6.287
  584.547   41.593    0.379    6.288
  585.367   42.227    0.375    6.207
  586.188   42.869    0.371    6.209
  587.008   44.138    0.367    6.212
  587.828   44.774    0.371    6.131
  588.648   45.414    0.376    6.133
  589.469   42.913    0.381    6.135
  590.289   38.529    0.378    6.055
  591.109   40.431    0.380    6.057
  591.929   41.696    0.381    5.895
  592.749   42.336    0.380    5.650
  593.570   42.350    0.372    5.405
  594.390   42.356    0.360    5.078
  595.210   41.739    0.354    4.834
  596.030   39.869    0.345    4.671
  596.850   40.508    0.339    4.509
  597.671   41.774    0.339    4.429
  598.491   43.676    0.345    4.349
  599.311   44.310    0.352    4.268
  600.131   44.955    0.361    4.271
  600.951   44.961    0.361    4.190
  601.772   45.604    0.353    4.191
  602.592   45.618    0.347    4.112
  603.412   46.258    0.342    4.031
  604.232   47.523    0.330    3.951
  605.052   50.679    0.321    3.788
  605.873   52.575    0.320    3.708
  606.693   52.587    0.327    3.628
  607.513   51.344    0.350    3.549
  608.333   50.725    0.378    3.550
  609.154   50.105    0.394    3.717
  609.974   48.863    0.421    3.883
  610.794   46.361    0.431    4.214
  611.614   43.857    0.447    4.380
  612.434   36.957    0.468    4.712
  613.255   31.942    0.431    4.878
  614.075   30.071    0.417    5.044
  614.895   30.089    0.416    5.293
  615.715   30.097    0.416    5.541
  616.535   31.365    0.415    5.708
  617.356   33.262    0.413    5.792
  618.176   34.527    0.411    5.876
  618.996   35.795    0.408    5.961
  619.816   35.806    0.407    6.045
  620.636   37.077    0.411    6.048
  621.457   37.714    0.413    6.131
  622.277   38.985    0.413    6.133
  623.097   37.112    0.411    6.136
  623.917   36.495    0.401    6.137
  624.738   36.504    0.390    6.221
  625.558   37.777    0.376    6.306
  626.378   37.161    0.345    6.307
  627.198   31.515    0.322    6.556
  628.018   30.898    0.211    6.722
  628.839   35.936    0.265    7.136
  629.659   41.602    0.370    7.385
  630.479   49.153    0.376    7.469
  631.299   48.539    0.375    7.471
  632.119   45.406    0.371    7.473
  632.940   40.391    0.366    7.393
  633.760   36.005    0.365    7.312
  634.580   32.874    0.371    7.233
  635.400   30.373    0.374    7.152
  636.220   29.128    0.381    7.153
  637.041   26.632    0.384    7.073
  637.861   26.012    0.388    7.075
  638.681   24.142    0.389    7.077
  639.501   22.899    0.393    7.079
  640.322   22.905    0.398    7.081
  641.142   22.919    0.401    7.083
  641.962   22.934    0.404    7.085
  642.782   22.942    0.406    7.087
  643.602   23.579    0.409    7.090
  644.423   23.594    0.411    7.092
  645.243   24.233    0.411    7.094
  646.063   24.245    0.411    7.095
  646.883   24.885    0.414    7.016
  647.703   24.896    0.415    6.934
  648.524   25.539    0.416    6.937
  649.344   26.178    0.418    6.857
  650.164   26.818    0.418    6.777
  650.984   28.086    0.418    6.779
  651.804   28.095    0.417    6.698
  652.625   28.735    0.417    6.700
  653.445   29.375    0.417    6.620
  654.265   30.017    0.418    6.622
  655.085   30.035    0.419    6.624
  655.906   30.040    0.418    6.544
  656.726   30.680    0.416    6.546
  657.546   30.692    0.416    6.548
  658.366   30.706    0.414    6.467
  659.186   30.712    0.414    6.469
  660.007   30.729    0.416    6.472
  660.827   30.737    0.418    6.474
  661.647   31.377    0.419    6.394
  662.467   32.645    0.418    6.395
  663.287   34.544    0.415    6.397
  664.108   35.813    0.410    6.399
  664.928   35.824    0.406    6.484
  665.748   33.325    0.394    6.486
  666.568   32.074    0.381    6.488
  667.388   30.201    0.393    6.489
  668.209   29.584    0.412    6.491
  669.029   28.970    0.418    6.493
  669.849   28.353    0.419    6.496
  670.669   28.993    0.418    6.497
  671.490   31.518    0.416    6.500
  672.310   30.901    0.414    6.502
  673.130   25.886    0.415    6.503
  673.950   24.013    0.419    6.424
  674.770   25.912    0.422    6.425
  675.591   27.180    0.425    6.427
  676.411   25.307    0.424    6.347
  677.231   22.180    0.422    6.348
  678.051   21.557    0.420    6.268
  678.871   22.197    0.417    6.271
  679.692   24.099    0.414    6.273
  680.512   24.736    0.414    6.193
  681.332   26.007    0.412    6.194
  682.152   26.015    0.412    6.115
  682.972   26.024    0.412    6.116
  683.793   27.295    0.411    6.118
  684.613   27.935    0.411    6.120
  685.433   27.946    0.412    6.123
  686.253   27.960    0.416    6.124
  687.073   27.969    0.416    6.044
  687.894   28.612    0.415    6.045
  688.714   27.992    0.413    5.966
  689.534   28.004    0.413    5.968
  690.354   28.015    0.415    5.970
  691.175   28.032    0.414    5.972
  691.995   28.038    0.414    5.974
  692.815   28.049    0.414    5.976
  693.635   28.061    0.413    5.978
  694.455   28.075    0.413    5.980
  695.276   28.087    0.412    5.982
  696.096   28.727    0.412    5.984
  696.916   29.369    0.412    5.986
  697.736   29.381    0.412    5.988
  698.556   30.023    0.413    6.072
  699.377   30.029    0.413    6.074
  700.197   30.675    0.414    6.076
  701.017   30.683    0.414    6.161
  701.837   31.320    0.414    6.162
  702.657   31.960    0.413    6.247
  703.478   33.228    0.412    6.248
  704.298   34.502    0.408    6.332
  705.118   34.508    0.403    6.416
  705.938   30.755    0.397    6.501
  706.759   29.507    0.386    6.585
  707.579   29.518    0.366    6.669
  708.399   30.790    0.266    7.166
  709.219   32.058    0.155    7.331
  710.039   30.812    0.117    8.155
  710.860   27.051    0.090   10.460
  711.680   23.293    0.089   14.408
  712.500   22.048    0.092   16.960
  713.320   22.691    0.099   17.784
  714.140   24.587    0.126   17.868
  714.961   26.483    0.159   17.459
  715.781   27.123    0.191   16.639
  716.601   27.132    0.271   15.901
  717.421   29.034    0.305   14.094
  718.241   30.305    0.356   11.793
  719.062   30.942    0.372    9.082
  719.882   31.584    0.385    8.755
  720.702   32.218    0.385    8.346
  721.522   32.861    0.385    7.608
  722.343   34.129    0.386    7.035
  723.163   34.769    0.388    6.625
  723.983   34.777    0.391    6.134
  724.803   34.792    0.395    5.971
  725.623   34.803    0.396    5.891
  726.444   35.440    0.397    5.893
  727.264   36.080    0.399    5.895
  728.084   37.351    0.399    5.898
  728.904   38.622    0.398    5.981
  729.724   39.262    0.397    6.066
  730.545   39.899    0.396    6.068
  731.365   41.167    0.392    6.070
  732.185   41.806    0.386    6.071
  733.005   43.703    0.381    6.074
  733.825   44.974    0.384    5.993
  734.646   46.242    0.386    5.995
  735.466   45.625    0.387    5.916
  736.286   46.268    0.387    5.917
  737.106   46.905    0.385    5.919
  737.927   48.170    0.385    5.839
  738.747   49.444    0.382    5.841
  739.567   47.573    0.382    5.761
  740.387   46.322    0.383    5.762
  741.207   45.705    0.378    5.682
  742.028   46.979    0.373    5.603
  742.848   48.242    0.362    5.440
  743.668   52.023    0.348    5.359
  744.488   55.807    0.340    5.115
  745.308   56.447    0.340    4.870
  746.129   56.455    0.339    4.544
  746.949   57.098    0.339    4.462
  747.769   58.363    0.342    4.218
  748.589   60.888    0.342    4.056
  749.409   62.159    0.340    3.976
  750.230   62.799    0.335    3.978
  751.050   62.810    0.332    3.980
  751.870   61.565    0.329    3.982
  752.690   59.697    0.328    3.984
  753.510   59.078    0.324    4.067
  754.331   57.830    0.319    4.070
  755.151   56.585    0.320    4.072
