~VERSION INFORMATION
 VERS.                 2.0:   CWLS LOG ASCII STANDARD -VERSION 2.0
 WRAP.                  NO:   ONE LINE PER DEPTH STEP
~WELL INFORMATION BLOCK
#MNEM.UNIT           DATA                    DESCRIPTION OF MNEMONIC
#---------    -------------------            -------------------------------
# Generated from Intellog Unique Number	CW_70_72/WELL/3309
NULL.         -999.25                        : NULL_VALUE
WELL.         CHEVRON MGSU 1 MITSUE          : Well_name    - WELL              
LOC .         10-17-070-03W5                 : Location     - LOCATION          
UWI .         00/10-17-070-03W5/0            : Uwi          - UNIQUE WELL ID    
ENTR.         CAMPBELL                       : Entered      - ENTERED BY        
SRVC.         SCHLUMBERGER                   : Scn          - SERVICE COMPANY   
DATE.         16 MAR 86                      : Date         - LOG DATE
STRT.M        650                            : top_depth    - START DEPTH       
STOP.M        740                            : bot_depth    - STOP DEPTH        
STEP.M        0.25                           : increment    - STEP LENGTH       
~CURVE INFORMATION BLOCK
#MNEM UNIT       ERCB CURVE CODE    CURVE DESCRIPTION
#-----------   ------------------   ----------------------------------
DEPT.M        00 001 00 00         : DEPTH        - DEPTH                       
CALI.MM       00 280 01 00         : CAL          - CALIPER                     
DELT.US/F     00 520 00 00         : DELT         - SONIC TRAVEL TIME           
ILD .OHMM     00 120 00 00         : RESD         - DEEP RESISTIVITY (DIL)      
LITH.                              : LITH         - LITHOLOGY CODE              
~PARAMETER INFORMATION       
#MNEM.UNIT           DATA             DESCRIPTION OF MNEMONIC
#---------         -----------     ------------------------------
GL  .M        644.5                : gl           - GROUND LEVEL ELEVATION      
EREF.M        650.5                : kb           - ELEVATION OF DEPTH REFERENCE
DATM.M        650.5                : datum        - DATUM ELEVATION             
TDD .M        1761                 : tdd          - TOTAL DEPTH DRILLER         
RUN .         ONE                  : Run          - RUN NUMBER                  
ENG .         ODEGARD              : Engineer     - RECORDING ENGINEER          
WIT .         PACKNOSKI            : Witness      - WITNESSED BY                
MUD .         GEL                  : Mud_type     - MUD TYPE                    
MATR.         SANDSTONE            : Logunit      - NEUTRON MATRIX              
TMAX.C        48                   : BHT          - MAXIMUM RECORDED TEMPERATURE
BHTD.M        1761                 : BHTDEP       - MAXIMUM RECORDED TEMPERATURE
RMT .C        25                   : MDTP         - TEMPERATURE OF MUD          
MUDD.KG/M     1130                 : MWT          - MUD DENSITY                 
NEUT.         1                    : NEUTRON      - NEUTRON TYPE                
RESI.         0                    : RESIST       - RESISTIVITY TYPE            
RM  .OHMM     1.086                : RM           - RESISTIVITY OF MUD          
RMC .OHMM     1.34                 : RMC          - RESISTIVITY OF MUD CAKE     
RMF .OHMM     24.4                 : RMF          - RESISTIVITY OF MUD FILTRATE 
SUFT.C        10                   : SUFT         - SURFACE TEMPERATURE         
~A  DEPTH      CAL     DELT     RESD       GR
# ...
  693.500  368.065  655.734    1.422   45.961
  693.750  370.181  667.669    1.465   42.954
  694.000  373.285  680.005    1.537   43.012
  694.250  373.395  668.686    1.868   41.239
  694.500  346.343  656.566    2.336   44.969
  694.750  320.772  648.851    2.866   54.541
  695.000  300.169  651.162    3.359   64.112
  695.250  301.776  578.914    3.690   64.484
  695.500  302.889  296.204    3.907   65.769
  695.750  303.525  342.610    4.175   67.055
  696.000  303.667  344.921    4.301   68.033
  696.250  303.761  322.375    4.388   68.092
  696.500  303.887  334.311    4.277   69.085
  696.750  303.520  333.016    3.979   71.903
  697.000  302.659  321.297    3.951   71.349
  697.250  302.785  341.632    4.106   71.415
  697.500  302.927  343.153    4.348   72.079
  697.750  303.038  335.050    4.520   68.758
  698.000  301.683  322.129    4.698   65.138
  698.250  299.342  306.804    4.708   69.190
  698.500  297.494  346.789    4.630   69.869
  698.750  296.633  345.495    4.554   70.526
  699.000  297.746  317.742    4.478   72.439
  699.250  297.888  336.487    4.528   70.352
  699.500  295.053  333.190    4.454   67.023
  699.750  294.192  333.899    4.340   68.009
  700.000  296.786  348.238    4.308   70.827
  700.250  301.370  344.140    4.437   72.419
  700.500  302.484  339.229    4.698   74.938
  700.750  296.703  326.708    4.974   71.624
  701.000  291.878  339.044    5.170   71.989
  701.250  288.517  334.146    5.475   73.888
  701.500  283.724  324.028    5.851   74.253
  701.750  281.860  319.918    6.195   71.859
  702.000  278.547  309.412    6.037   70.691
  702.250  274.709  316.129    5.218   69.830
  702.500  269.899  245.482    4.594   69.589
  702.750  269.532  311.538    4.083   69.947
  703.000  303.746  396.030    3.979   71.233
  703.250  332.038  386.714    4.494   74.679
  703.500  300.050  333.703    5.171   69.518
  703.750  278.937  329.204    4.946   65.890
  704.000  270.672  302.252    3.935   62.276
  704.250  268.331  250.844    3.309   68.467
  704.500  265.496  248.749    2.996   69.446
  704.750  282.403  332.028    2.865   63.986
  705.000  295.872  390.473    3.034   68.030
  705.250  318.734  426.052    3.183   70.243
  705.500  298.098  410.728    3.562   69.381
  705.750  280.934  399.809    4.291   73.426
  706.000  269.724  375.260    5.365   78.697
  706.250  265.408  330.272    6.229   79.063
  706.500  265.518  300.104    6.780   69.310
  706.750  264.164  299.622    6.982   68.142
  707.000  262.316  259.040    7.060   74.026
  707.250  262.489  280.188    6.817   75.633
  707.500  263.078  298.933    6.171   75.078
  707.750  263.697  292.031    6.071   75.743
  708.000  264.811  276.306    5.753   75.495
  708.250  265.415  270.594    5.305   74.948
  708.500  266.050  302.569    4.802   74.700
  708.750  268.644  320.512    4.470   76.905
  709.000  271.239  316.415    4.478   81.563
  709.250  272.352  296.283    4.245   78.249
  709.500  273.465  312.613    3.987   79.534
  709.750  277.047  313.334    4.068   83.579
  710.000  279.163  336.473    4.387   86.105
  710.250  280.770  348.821    4.775   83.397
  710.500  279.415  363.159    5.393   78.236
  710.750  265.212  361.465    5.658   74.615
  711.000  251.503  322.874    5.936   72.834
  711.250  249.670  308.762    6.343   74.426
  711.500  249.781  281.409    6.357   76.945
  711.750  244.478  288.527    6.194   71.171
  712.000  235.720  293.653    5.925   62.951
  712.250  231.388  270.306    5.565   58.111
  712.500  226.578  267.810    5.374   52.943
  712.750  226.211  296.981    5.191   47.176
  713.000  228.805  316.927    5.104   40.496
  713.250  229.966  320.440    5.020   43.001
  713.500  229.583  313.538    4.982   42.753
  713.750  229.693  294.597    4.948   39.140
  714.000  230.329  286.883    4.954   37.351
  714.250  230.933  293.211    4.964   38.636
  714.500  229.578  294.720    4.973   39.922
  714.750  227.237  281.787    5.030   40.907
  715.000  225.389  288.115    5.037   41.886
  715.250  226.502  299.650    5.001   43.478
  715.500  229.112  307.981    4.963   47.216
  715.750  231.690  311.093    4.927   50.348
  716.000  234.794  311.801    4.936   55.006
  716.250  238.869  310.507    5.132   57.824
  716.500  241.956  307.199    5.285   51.758
  716.750  244.566  306.306    5.494   51.510
  717.000  247.176  306.202    5.712   51.576
  717.250  248.767  308.112    5.936   49.474
  717.500  250.390  306.830    6.113   48.000
  717.750  251.981  296.311    6.416   48.372
  718.000  254.591  287.395    6.608   52.110
  718.250  258.666  271.670    6.617   51.563
  718.500  263.234  245.519    6.389   50.395
  718.750  267.818  261.861    5.839   51.374
  719.000  268.947  292.233    5.744   53.878
  719.250  271.526  303.745    5.699   59.157
  719.500  274.136  305.678    5.606   59.223
  719.750  276.252  303.572    5.615   60.508
  720.000  278.352  297.482    5.730   61.180
  720.250  278.972  293.362    5.850   60.932
  720.500  278.605  295.684    5.969   61.006
  720.750  278.747  297.995    5.871   61.670
  721.000  278.842  293.096    5.465   62.035
  721.250  279.461  284.580    4.946   63.620
  721.500  281.100  290.107    4.559   66.752
  721.750  281.720  360.168    4.483   68.658
  722.000  279.362  417.000    5.206   65.643
  722.250  267.134  345.129    6.214   61.716
  722.500  264.314  323.807    8.134   55.942
  722.750  262.450  311.664   10.747   55.081
  723.000  259.137  306.776   13.942   44.714
  723.250  256.764  276.219   14.227   37.714
  723.500  253.945  256.889   14.382   33.786
  723.750  259.007  250.376   14.145   29.859
  724.000  263.081  231.447   11.049   31.144
  724.250  264.720  221.329    9.206   39.796
  724.500  265.308  284.569    8.411   45.987
  724.750  264.463  298.508    8.987   54.025
  725.000  264.112  286.788   11.762   45.184
  725.250  262.741  211.735   14.840   33.898
  725.500  257.932  185.985   13.434   25.058
  725.750  254.094  214.743    9.656   38.002
  726.000  254.236  257.144    6.690   48.186
  726.250  266.208  336.028    5.945   43.952
  726.500  286.586  364.798    5.636   44.938
  726.750  307.474  380.350    5.544   46.829
  727.000  307.107  372.636    5.352   49.355
  727.250  298.349  341.678    5.167   49.713
  727.500  298.984  352.401    5.129   44.874
  727.750  302.056  375.563    4.907   43.399
  728.000  303.169  385.896    4.442   41.618
  728.250  301.815  322.059    3.840   39.217
  728.500  301.957  296.709    3.381   42.648
  728.750  314.916  282.987    2.843   54.059
  729.000  331.840  441.238    2.526   63.017
  729.250  339.385  484.439    2.960   55.709
  729.500  306.904  469.515    4.021   47.490
  729.750  288.275  350.768    5.073   42.949
  730.000  284.468  296.956    6.055   39.942
  730.250  281.585  253.146    6.778   40.307
  730.500  277.285  245.455    7.111   41.286
  730.750  279.879  268.606    7.190   42.571
  731.000  300.751  267.712    7.137   42.936
  731.250  331.511  233.550    7.017   43.615
  731.500  302.978  288.379    7.030   43.674
  731.750  297.675  291.091    7.043   45.580
  732.000  293.853  317.446    7.187   48.084
  732.250  287.563  307.340    7.205   51.216
  732.500  293.612  316.059    7.216   54.648
  732.750  307.589  307.556    7.364   58.386
  733.000  309.674  231.290    7.515   61.511
  733.250  314.736  225.578    7.883   64.344
  733.500  322.282  301.659    8.268   66.549
  733.750  287.826  380.944    8.923   60.775
  734.000  258.800  249.758    9.982   49.788
  734.250  253.513  190.338   12.025   42.174
  734.500  255.614  203.475   16.483   41.634
  734.750  248.814  198.553   20.039   38.305
  735.000  238.559  197.671   25.051   34.692
  735.250  235.724  195.965   27.023   32.604
  735.500  232.905  194.671   27.576   28.363
  735.750  229.576  196.993   27.632   25.049
  736.000  229.702  199.693   27.428   22.655
  736.250  229.829  202.794   26.983   21.495
  736.500  229.939  203.926   26.532   20.013
  736.750  231.052  202.231   26.580   17.312
