~VERSION INFORMATION
 VERS.                 2.0:   CWLS LOG ASCII STANDARD -VERSION 2.0
 WRAP.                  NO:   ONE LINE PER DEPTH STEP
~WELL INFORMATION BLOCK
#MNEM.UNIT           DATA                    DESCRIPTION OF MNEMONIC
#---------    -------------------            -------------------------------
# Generated from Intellog Unique Number	CW_79_81/WELL/2474
WELL.         GULF AMOCO HOOLE               : Well_name    - WELL
LOC .         00/10-24-081-25W4/0            : Location     - LOCATION
UWI .         00/10-24-081-25W4/0            : Uwi          - UNIQUE WELL ID
ENTR.         MAX                            : Entered      - ENTERED BY
SRVC.         SCHLUMBERGER                   : Scn          - SERVICE COMPANY
STRT.M        198.12                         : top_depth    - START DEPTH
STOP.M        456.87                         : bot_depth    - STOP DEPTH
STEP.M        0.25                           : increment    - STEP LENGTH
 NULL. -999.2500:NULL Value
~CURVE INFORMATION BLOCK
#MNEM UNIT       ERCB CURVE CODE    CURVE DESCRIPTION
#-----------   ------------------   ----------------------------------
DEPT.M        00 001 00 00         : DEPTH        - DEPTH
ILD .OHMM     00 120 00 00         : RESD         - DEEP RESISTIVITY (DIL)
NPHI.V/V      00 330 00 00         : PHIN         - NEUTRON POROSITY (SANDSTONE)
DPHI.V/V      00 890 00 00         : PHID         - DENSITY POROSITY (SANDSTONE)
GR  .API      00 310 00 00         : GR           - GAMMA RAY
CALI.MM       00 280 01 00         : CAL          - CALIPER
~PARAMETER INFORMATION
#MNEM.UNIT           DATA             DESCRIPTION OF MNEMONIC
#---------         -----------     ------------------------------
GL  .M        586.435              : gl           - GROUND LEVEL ELEVATION
EREF.M        589.788              : kb           - ELEVATION OF DEPTH REFERENCE
DATM.M        586.435              : datum        - DATUM ELEVATION
TDD .M        464.515              : tdd          - TOTAL DEPTH DRILLER
RUN .         ONE                  : Run          - RUN NUMBER
ENG .         BILL                 : Engineer     - RECORDING ENGINEER
WIT .         JIM                  : Witness      - WITNESSED BY
MUD .         GEL                  : Mud_type     - MUD TYPE
MATR.         SANDSTONE            : Logunit      - NEUTRON MATRIX
TMAX.C        80                   : BHT          - MAXIMUM RECORDED TEMPERATURE
BHTD.M        1524                 : BHTDEP       - MAXIMUM RECORDED TEMPERATURE
MATR.         1                    : LOGUNIT      - NEUTRON MATRIX
RMT .C        59                   : MDTP         - TEMPERATURE OF MUD
NEUT.         1                    : NEUTRON      - NEUTRON TYPE
RESI.         0                    : RESIST       - RESISTIVITY TYPE
RMC .OHMM     3.71                 : RMC          - RESISTIVITY OF MUD CAKE
RMF .OHMM     3.71                 : RMF          - RESISTIVITY OF MUD FILTRATE
SUFT.C        20                   : SUFT         - SURFACE TEMPERATURE
~A  DEPTH     RESD     PHIN     PHID       GR      CAL
# ...
  307.620    9.840    0.424    0.360   41.690  154.540
  307.870    9.775    0.417    0.361   42.730  154.571
  308.120    9.763    0.405    0.358   42.813  154.601
  308.370    9.804    0.409    0.351   42.959  154.633
  308.620    9.915    0.432    0.343   43.616  154.668
  308.870   10.153    0.455    0.339   44.290  154.713
  309.120   10.235    0.466    0.348   42.458  154.748
  309.370   10.240    0.449    0.355   41.465  154.779
  309.620   10.246    0.455    0.356   41.806  154.814
  309.870   10.252    0.465    0.356   42.335  154.649
  310.120   10.331    0.469    0.355   42.289  154.281
  310.370   10.732    0.463    0.356   41.193  153.921
  310.620   11.231    0.471    0.359   40.689  153.949
  310.870   11.726    0.463    0.357   41.976  153.990
  311.120   12.438    0.467    0.356   42.697  153.723
  311.370   13.046    0.477    0.353   42.592  153.554
  311.620   13.290    0.486    0.350   41.979  153.585
  311.870   13.032    0.484    0.353   41.963  153.539
  312.120   12.657    0.443    0.363   43.042  153.154
  312.370   12.218    0.433    0.362   44.837  155.205
  312.620   11.989    0.444    0.362   45.304  155.137
  312.870   11.782    0.471    0.365   44.310  154.565
  313.120   11.497    0.495    0.371   43.506  154.399
  313.370   11.003    0.486    0.370   46.483  154.761
  313.620   10.530    0.485    0.365   47.299  154.373
  313.870   10.019    0.485    0.363   48.079  154.407
  314.120    9.639    0.483    0.358   49.245  154.441
  314.370    9.306    0.478    0.355   50.027  154.475
  314.620    9.002    0.471    0.354   50.300  154.509
  314.870    8.729    0.462    0.354   50.581  154.551
  315.120    8.605    0.455    0.350   50.601  154.590
  315.370    8.548    0.446    0.349   51.641  154.620
  315.620    8.493    0.460    0.347   52.677  154.651
  315.870    8.407    0.465    0.346   53.711  154.683
  316.120    8.277    0.451    0.347   54.492  154.717
  316.370    8.071    0.426    0.346   54.467  154.759
  316.620    7.898    0.417    0.340   54.223  154.798
  316.870    7.624    0.460    0.345   53.485  154.832
  317.120    7.400    0.502    0.346   55.031  154.866
  317.370    7.248    0.513    0.344   56.828  155.101
  317.620    7.137    0.496    0.340   57.927  155.538
  317.870    6.980    0.488    0.333   58.568  156.065
  318.120    6.932    0.487    0.334   59.119  156.520
  318.370    6.936    0.488    0.330   59.899  157.762
  318.620    6.865    0.470    0.317   61.060  158.101
  318.870    6.796    0.435    0.304   62.729  158.336
  319.120    6.727    0.400    0.298   64.463  159.173
  319.370    6.560    0.398    0.297   65.198  161.395
  319.620    6.420    0.396    0.296   64.960  162.266
  319.870    6.242    0.397    0.290   65.487  162.303
  320.120    6.003    0.419    0.287   66.776  162.038
  320.370    5.818    0.442    0.284   68.826  161.670
  320.620    5.729    0.458    0.280   70.876  161.499
  320.870    5.758    0.475    0.270   71.729  161.939
  321.120    5.892    0.486    0.265   73.337  161.975
  321.370    6.108    0.439    0.259   75.132  162.015
  321.620    6.401    0.418    0.259   76.169  162.046
  321.870    6.640    0.413    0.260   76.571  162.078
  322.120    6.787    0.417    0.259   76.591  162.114
  322.370    6.929    0.420    0.249   76.672  162.151
  322.620    6.882    0.428    0.248   76.956  162.187
  322.870    6.595    0.447    0.246   76.977  162.627
  323.120    6.530    0.443    0.250   75.478  163.364
  323.370    6.604    0.433    0.251   73.343  164.002
  323.620    6.820    0.422    0.247   70.382  164.239
  323.870    7.356    0.404    0.249   64.383  163.455
  324.120    7.757    0.382    0.260   59.648  161.397
  324.370    7.542    0.360    0.287   55.103  159.413
  324.620    7.293    0.378    0.265   57.978  159.849
  324.870    7.041    0.410    0.256   61.552  161.091
  325.120    6.811    0.427    0.266   62.590  162.333
  325.370    6.644    0.388    0.233   60.975  163.079
  325.620    6.747    0.327    0.214   59.150  160.598
  325.870    7.145    0.313    0.207   59.173  160.229
  326.120    7.648    0.374    0.252   61.095  160.766
  326.370    8.247    0.408    0.279   63.270  161.404
  326.620    8.944    0.398    0.271   64.117  161.842
  326.870    9.833    0.414    0.261   61.849  162.628
  327.120   10.213    0.421    0.252   60.550  164.338
  327.370   10.219    0.449    0.259   62.349  165.174
  327.620   10.224    0.446    0.256   64.337  165.411
  327.870   10.266    0.439    0.250   65.755  165.247
  328.120   10.364    0.439    0.244   66.094  164.678
  328.370   10.536    0.431    0.242   65.048  163.339
  328.620   10.623    0.420    0.237   64.808  162.528
  328.870   10.253    0.409    0.236   65.337  162.565
  329.120    9.952    0.412    0.252   67.006  162.600
  329.370    9.782    0.414    0.262   67.535  163.036
  329.620    9.718    0.413    0.261   66.606  163.774
  329.870    9.670    0.413    0.267   66.238  164.215
  330.120    9.749    0.414    0.272   68.108  164.250
  330.370    9.754    0.409    0.257   70.417  163.888
  330.620    9.760    0.396    0.250   69.487  163.217
  330.870    9.835    0.385    0.254   68.365  162.844
  331.120    9.965    0.379    0.264   67.753  162.877
  331.370   10.073    0.372    0.266   65.743  162.924
  331.620   10.229    0.367    0.264   64.442  162.952
  331.870   10.531    0.371    0.259   64.461  161.778
  332.120   10.842    0.368    0.255   65.242  160.606
  332.370   11.202    0.364    0.254   66.913  160.036
  332.620   11.578    0.364    0.254   69.028  159.968
  332.870   11.802    0.373    0.254   70.633  159.613
  333.120   11.633    0.376    0.255   70.917  159.644
  333.370   11.069    0.409    0.249   69.668  160.081
  333.620   10.649    0.409    0.245   68.042  161.424
  333.870   10.544    0.390    0.248   66.286  162.466
  334.120   10.758    0.366    0.257   63.704  162.603
  334.370   11.319    0.348    0.272   57.176  161.415
  334.620   12.208    0.340    0.276   49.799  159.353
  334.870   13.296    0.337    0.294   46.017  158.179
  335.120   14.266    0.333    0.311   44.325  157.913
  335.370   15.178    0.326    0.322   43.645  156.745
  335.620   15.756    0.318    0.323   42.936  154.968
  335.870   15.146    0.319    0.304   40.927  154.990
  336.120   14.373    0.321    0.273   39.629  155.006
  336.370   13.363    0.330    0.266   39.892  155.425
  336.620   12.497    0.334    0.259   41.096  155.841
  336.870   11.710    0.336    0.253   43.748  156.059
  337.120   11.018    0.346    0.253   47.030  156.178
  337.370   10.415    0.383    0.264   48.961  156.348
  337.620   10.108    0.399    0.280   49.759  155.117
  337.870   10.111    0.391    0.292   50.275  154.334
  338.120   10.779    0.383    0.290   51.356  153.254
  338.370   11.882    0.383    0.286   53.253  152.473
  338.620   13.039    0.387    0.287   56.092  152.789
  338.870   13.505    0.387    0.283   61.033  155.871
  339.120   13.408    0.377    0.266   66.811  159.220
  339.370   12.837    0.387    0.257   66.571  160.837
  339.620   12.156    0.397    0.262   65.576  161.553
  339.870   11.386    0.400    0.274   64.203  161.768
  340.120   10.470    0.404    0.284   63.648  161.984
  340.370    9.166    0.427    0.282   66.136  162.887
  340.620    8.381    0.456    0.278   67.194  163.321
  340.870    8.083    0.473    0.292   65.444  163.742
  341.120    8.057    0.439    0.282   64.638  163.859
  341.370    8.321    0.404    0.272   65.530  162.277
  341.620    8.776    0.389    0.273   67.113  159.398
  341.870    9.034    0.389    0.286   65.786  157.421
  342.120    8.703    0.412    0.266   61.602  157.441
  342.370    7.913    0.394    0.256   53.560  159.056
  342.620    7.613    0.390    0.246   52.126  160.671
  342.870    7.588    0.387    0.240   53.396  161.488
  343.120    7.782    0.374    0.235   54.476  161.504
  343.370    8.408    0.332    0.213   52.695  161.524
  343.620    9.287    0.270    0.181   48.776  161.544
  343.870   10.195    0.229    0.146   50.044  161.560
