~VERSION INFORMATION
 VERS.                 2.0:   CWLS LOG ASCII STANDARD -VERSION 2.0
 WRAP.                  NO:   ONE LINE PER DEPTH STEP
~WELL INFORMATION BLOCK
#MNEM.UNIT           DATA                    DESCRIPTION OF MNEMONIC
#---------    -------------------            -------------------------------
# Generated from Intellog Unique Number	CS_71_72/WELL/865
WELL.         ALLIED ET AL WANDER            : Well_name    - WELL
LOC .         00/10-20-072-14W4/0            : Location     - LOCATION
UWI .         00/10-20-072-14W4/0            : Uwi          - UNIQUE WELL ID
ENTR.         SP                             : Entered      - ENTERED BY
SRVC.         SCHLUMBERGER                   : Scn          - SERVICE COMPANY
STRT.M        265.176                        : top_depth    - START DEPTH
STOP.M        487.426                        : bot_depth    - STOP DEPTH
STEP.M        0.25                           : increment    - STEP LENGTH
 NULL. -999.2500:NULL Value
~CURVE INFORMATION BLOCK
#MNEM UNIT       ERCB CURVE CODE    CURVE DESCRIPTION
#-----------   ------------------   ----------------------------------
DEPT.M        00 001 00 00         : DEPTH        - DEPTH
GR  .API      00 310 00 00         : GR           - GAMMA RAY
DPHI.V/V      00 890 00 00         : PHID         - DENSITY POROSITY (SANDSTONE)
NPHI.V/V      00 330 00 00         : PHIN         - NEUTRON POROSITY (SANDSTONE)
ILD .OHMM     00 120 00 00         : RESD         - DEEP RESISTIVITY (DIL)
~PARAMETER INFORMATION
#MNEM.UNIT           DATA             DESCRIPTION OF MNEMONIC
#---------         -----------     ------------------------------
GL  .M        606.095              : gl           - GROUND LEVEL ELEVATION
EREF.M        609.143              : kb           - ELEVATION OF DEPTH REFERENCE
DATM.M        606.095              : datum        - DATUM ELEVATION
TDD .M        534.924              : tdd          - TOTAL DEPTH DRILLER
RUN .         ONE                  : Run          - RUN NUMBER
ENG .         BILL                 : Engineer     - RECORDING ENGINEER
WIT .         JIM                  : Witness      - WITNESSED BY
MUD .         GEL                  : Mud_type     - MUD TYPE
MATR.         SANDSTONE            : Logunit      - NEUTRON MATRIX
TMAX.C        30.5556              : BHT          - MAXIMUM RECORDED TEMPERATURE
BHTD.M        534.924              : BHTDEP       - MAXIMUM RECORDED TEMPERATURE
MATR.         1                    : LOGUNIT      - NEUTRON MATRIX
RMT .C        25                   : MDTP         - TEMPERATURE OF MUD
NEUT.         1                    : NEUTRON      - NEUTRON TYPE
RESI.         0                    : RESIST       - RESISTIVITY TYPE
RMC .OHMM     0.25                 : RMC          - RESISTIVITY OF MUD CAKE
RMF .OHMM     0.25                 : RMF          - RESISTIVITY OF MUD FILTRATE
SUFT.C        15                   : SUFT         - SURFACE TEMPERATURE
~A  DEPTH       GR     PHID     PHIN     RESD
# ...
  395.676   70.220    0.233    0.449    5.318
  395.926   67.859    0.275    0.445    5.185
  396.176   66.575    0.301    0.439    5.107
  396.426   64.500    0.298    0.432    4.918
  396.676   61.992    0.314    0.425    4.717
  396.926   59.716    0.313    0.420    4.671
  397.176   58.921    0.302    0.413    4.531
  397.426   59.897    0.304    0.411    4.393
  397.676   59.142    0.319    0.413    4.381
  397.926   57.682    0.327    0.418    4.378
  398.176   56.694    0.329    0.408    4.374
  398.426   56.028    0.323    0.394    4.509
  398.676   56.500    0.315    0.370    4.687
  398.926   57.762    0.308    0.337    5.053
  399.176   60.617    0.305    0.325    5.726
  399.426   62.296    0.311    0.315    6.451
  399.676   66.140    0.315    0.306    7.867
  399.926   70.070    0.303    0.286   10.998
  400.176   72.928    0.286    0.283   13.892
  400.426   74.820    0.275    0.317   14.515
  400.676   75.078    0.286    0.385   13.049
  400.926   74.991    0.300    0.441   11.935
  401.176   76.749    0.301    0.449   10.438
  401.426   78.684    0.302    0.452    8.815
  401.676   80.531    0.307    0.448    7.187
  401.926   84.042    0.292    0.440    5.998
  402.176   86.972    0.279    0.428    5.575
  402.426   88.262    0.270    0.420    5.315
  402.676   90.230    0.263    0.430    5.063
  402.926   91.163    0.251    0.438    4.868
  403.176   91.925    0.237    0.448    4.767
  403.426   91.891    0.231    0.445    4.678
  403.676   91.507    0.232    0.440    4.684
  403.926   89.747    0.238    0.434    4.682
  404.176   88.814    0.265    0.431    4.682
  404.426   84.513    0.285    0.438    4.673
  404.676   78.062    0.305    0.447    4.770
  404.926   75.832    0.303    0.457    4.757
  405.176   75.010    0.291    0.459    4.836
  405.426   77.327    0.282    0.461    4.922
  405.676   79.840    0.295    0.467    4.985
  405.926   81.445    0.313    0.471    5.121
  406.176   83.695    0.301    0.461    5.149
  406.426   84.746    0.290    0.453    5.221
  406.676   83.895    0.282    0.447    5.264
  406.926   82.940    0.294    0.443    5.309
  407.176   82.614    0.273    0.438    5.302
  407.426   85.785    0.267    0.436    5.397
  407.676   87.227    0.257    0.435    5.388
  407.926   90.138    0.251    0.433    5.396
  408.176   93.987    0.261    0.451    5.303
  408.426   96.652    0.264    0.468    5.234
  408.676  100.612    0.259    0.475    5.152
  408.926  102.315    0.254    0.467    5.065
  409.176  101.170    0.253    0.468    4.992
  409.426  100.589    0.255    0.482    5.069
  409.676  101.584    0.249    0.475    5.149
  409.926  100.173    0.244    0.465    5.199
  410.176   97.820    0.256    0.460    5.303
  410.426   98.658    0.259    0.452    5.386
  410.676   99.692    0.248    0.447    5.515
  410.926   99.779    0.242    0.461    5.646
  411.176  100.430    0.245    0.473    5.774
  411.426  100.437    0.240    0.473    5.853
  411.676  100.476    0.234    0.469    5.947
  411.926   99.933    0.226    0.462    5.859
  412.176   98.965    0.223    0.458    5.819
  412.426   98.032    0.229    0.465    5.678
  412.676   98.509    0.244    0.472    5.617
  412.926  100.172    0.253    0.473    5.490
  413.176  101.804    0.255    0.475    5.457
  413.426  104.148    0.253    0.474    5.401
  413.676  106.741    0.256    0.473    5.300
  413.926  108.289    0.262    0.480    5.133
  414.176  108.638    0.263    0.485    5.004
  414.426  109.829    0.253    0.486    4.857
  414.676  111.236    0.248    0.490    4.585
  414.926  112.944    0.238    0.493    4.408
  415.176  113.104    0.231    0.504    4.255
  415.426  112.595    0.237    0.492    4.263
  415.676  111.549    0.210    0.457    4.370
  415.926  105.691    0.192    0.443    4.577
  416.176   99.732    0.165    0.438    4.905
  416.426   93.917    0.126    0.427    5.388
  416.676   87.681    0.103    0.418    6.290
  416.926   79.551    0.145    0.318    7.643
  417.176   71.601    0.121    0.268    9.266
  417.426   74.256    0.086    0.254    9.965
  417.676   78.915    0.066    0.275   10.318
  417.926   84.398    0.098    0.376   10.579
  418.176   91.424    0.146    0.395    9.488
  418.426   94.783    0.155    0.413    8.166
  418.676   97.244    0.182    0.421    7.091
  418.926   98.826    0.233    0.437    6.289
  419.176   97.872    0.248    0.452    5.914
  419.426   97.569    0.234    0.457    5.755
  419.676   96.403    0.224    0.449    5.762
  419.926   96.469    0.232    0.442    5.813
  420.176   96.483    0.250    0.438    5.998
  420.426   93.604    0.257    0.437    6.374
  420.676   88.579    0.253    0.439    7.263
  420.926   86.556    0.209    0.422    8.427
  421.176   75.567    0.174    0.358   10.167
  421.426   63.190    0.079    0.289   11.653
  421.676   67.957    0.024    0.240   12.004
  421.926   76.709    0.056    0.219   11.647
  422.176   84.879    0.137    0.271    9.042
  422.426   95.053    0.167    0.401    7.976
  422.676   98.737    0.189    0.430    7.095
  422.926   98.948    0.185    0.435    6.689
  423.176  100.761    0.181    0.419    6.347
  423.426  105.060    0.183    0.426    6.116
  423.676  108.511    0.186    0.439    5.908
  423.926  111.241    0.197    0.447    5.826
  424.176  111.525    0.196    0.453    5.842
  424.426  110.995    0.191    0.454    5.975
  424.676  110.451    0.185    0.445    6.235
  424.926  112.924    0.179    0.416    6.507
  425.176  114.357    0.183    0.405    6.762
  425.426  115.672    0.189    0.420    6.973
  425.676  116.956    0.189    0.436    6.678
  425.926  116.921    0.193    0.441    6.498
  426.176  116.681    0.209    0.444    6.380
  426.426  116.987    0.222    0.439    6.295
  426.676  117.627    0.214    0.432    6.292
  426.926  116.663    0.191    0.418    6.403
  427.176  111.114    0.177    0.414    6.531
  427.426  106.588    0.183    0.408    6.669
  427.676  104.167    0.168    0.404    6.705
  427.926  101.531    0.138    0.403    6.777
  428.176  100.176    0.192    0.413    6.699
  428.426   99.604    0.189    0.421    6.517
  428.676   99.524    0.177    0.430    6.200
  428.926  100.739    0.186    0.435    5.796
  429.176  102.742    0.194    0.432    5.307
  429.426  104.055    0.209    0.419    4.497
  429.676  106.786    0.220    0.463    3.887
  429.926  108.674    0.231    0.524    3.115
  430.176  110.928    0.238    0.525    2.827
  430.426  111.734    0.257    0.519    2.608
  430.676  111.677    0.262    0.520    2.325
  430.926  111.474    0.241    0.527    2.310
  431.176  109.851    0.224    0.530    2.521
  431.426  106.236    0.208    0.526    2.567
  431.676  102.489    0.220    0.514    2.739
  431.926   99.621    0.225    0.496    3.129
  432.176   98.471    0.217    0.460    3.857
  432.426   99.427    0.202    0.435    4.264
  432.676  100.406    0.206    0.418    5.034
  432.926  101.291    0.209    0.414    5.579
  433.176  101.310    0.200    0.421    5.951
  433.426   95.715    0.182    0.428    6.047
  433.676   92.030    0.173    0.414    5.870
  433.926   93.026    0.151    0.390    5.872
  434.176   95.534    0.095    0.382    6.090
  434.426   94.278    0.150    0.396    6.481
  434.676   87.314    0.168    0.410    6.991
  434.926   73.530    0.150    0.403    7.947
  435.176   67.896    0.079    0.327    8.946
  435.426   66.588    0.047    0.253   10.635
  435.676   83.037    0.032    0.214   11.463
  435.926   91.397    0.062    0.314   11.323
  436.176   94.501    0.115    0.367    9.194
  436.426   98.208    0.127    0.362    7.414
  436.676  102.156    0.095    0.363    6.098
  436.926  106.277    0.133    0.405    5.286
  437.176  108.820    0.169    0.432    4.444
  437.426  112.195    0.178    0.447    4.092
  437.676  114.567    0.186    0.460    3.759
  437.926  115.885    0.186    0.477    3.588
  438.176  113.954    0.187    0.500    3.328
  438.426  111.307    0.195    0.503    3.271
  438.676  111.608    0.188    0.492    3.257
  438.926  114.337    0.192    0.484    3.256
