~VERSION INFORMATION
 VERS.                 2.0:   CWLS LOG ASCII STANDARD -VERSION 2.0
 WRAP.                  NO:   ONE LINE PER DEPTH STEP
~WELL INFORMATION BLOCK
#MNEM.UNIT           DATA                    DESCRIPTION OF MNEMONIC
#---------    -------------------            -------------------------------
# Generated from Intellog Unique Number	CW_79_81/WELL/2484
WELL.         11-12-081-25W4                 : Well_name    - WELL
LOC .         00/11-12-081-25W4/0            : Location     - LOCATION
UWI .         00/11-12-081-25W4/0            : Uwi          - UNIQUE WELL ID
ENTR.         MAX                            : Entered      - ENTERED BY
SRVC.         SCHLUMBERGER                   : Scn          - SERVICE COMPANY
STRT.M        250                            : top_depth    - START DEPTH
STOP.M        464.75                         : bot_depth    - STOP DEPTH
STEP.M        0.25                           : increment    - STEP LENGTH
 NULL. -999.2500:NULL Value
~CURVE INFORMATION BLOCK
#MNEM UNIT       ERCB CURVE CODE    CURVE DESCRIPTION
#-----------   ------------------   ----------------------------------
DEPT.M        00 001 00 00         : DEPTH        - DEPTH
ILD .OHMM     00 120 00 00         : RESD         - DEEP RESISTIVITY (DIL)
NPHI.V/V      00 330 00 00         : PHIN         - NEUTRON POROSITY (SANDSTONE)
DPHI.V/V      00 890 00 00         : PHID         - DENSITY POROSITY (SANDSTONE)
GR  .API      00 310 00 00         : GR           - GAMMA RAY
CALI.MM       00 280 01 00         : CAL          - CALIPER
~PARAMETER INFORMATION
#MNEM.UNIT           DATA             DESCRIPTION OF MNEMONIC
#---------         -----------     ------------------------------
GL  .M        605.55               : gl           - GROUND LEVEL ELEVATION
EREF.M        609.55               : kb           - ELEVATION OF DEPTH REFERENCE
DATM.M        605.55               : datum        - DATUM ELEVATION
TDD .M        511                  : tdd          - TOTAL DEPTH DRILLER
RUN .         ONE                  : Run          - RUN NUMBER
ENG .         BILL                 : Engineer     - RECORDING ENGINEER
WIT .         JIM                  : Witness      - WITNESSED BY
MUD .         GEL                  : Mud_type     - MUD TYPE
MATR.         SANDSTONE            : Logunit      - NEUTRON MATRIX
TMAX.C        34.2                 : BHT          - MAXIMUM RECORDED TEMPERATURE
BHTD.M        511                  : BHTDEP       - MAXIMUM RECORDED TEMPERATURE
MATR.         1                    : LOGUNIT      - NEUTRON MATRIX
RMT .C        13.3                 : MDTP         - TEMPERATURE OF MUD
NEUT.         1                    : NEUTRON      - NEUTRON TYPE
RESI.         0                    : RESIST       - RESISTIVITY TYPE
RMC .OHMM     7                    : RMC          - RESISTIVITY OF MUD CAKE
RMF .OHMM     6.8                  : RMF          - RESISTIVITY OF MUD FILTRATE
SUFT.C        -20                  : SUFT         - SURFACE TEMPERATURE
~A  DEPTH     RESD     PHIN     PHID       GR      CAL
# ...
  359.500   14.710    0.431    0.252   59.521  212.487
  359.750   16.409    0.440    0.232   59.261  212.842
  360.000   17.088    0.461    0.238   60.410  213.192
  360.250   16.320    0.475    0.255   62.732  213.739
  360.500   14.851    0.476    0.268   64.995  214.581
  360.750   13.635    0.473    0.252   65.013  215.701
  361.000   12.830    0.473    0.251   65.236  215.657
  361.250   11.559    0.470    0.250   67.790  215.626
  361.500   10.481    0.471    0.254   70.693  216.758
  361.750    9.525    0.472    0.252   73.249  217.307
  362.000    8.696    0.471    0.248   74.927  216.590
  362.250    8.100    0.463    0.250   74.879  214.814
  362.500    8.487    0.449    0.246   72.409  213.960
  362.750    8.302    0.462    0.239   70.751  213.531
  363.000    8.580    0.474    0.234   69.085  213.105
  363.250    8.972    0.480    0.229   66.953  212.873
  363.500    9.378    0.477    0.219   63.654  213.127
  363.750   10.135    0.452    0.178   58.432  214.333
  364.000   10.701    0.383    0.116   59.384  214.700
  364.250   10.011    0.391    0.144   61.704  213.490
  364.500    8.943    0.460    0.176   62.794  212.865
  364.750    8.270    0.490    0.205   62.185  212.633
  365.000    8.164    0.457    0.218   59.877  212.695
  365.250    8.833    0.412    0.194   56.528  213.039
  365.500    9.773    0.370    0.170   57.485  212.998
  365.750   10.215    0.374    0.170   60.039  211.394
  366.000    9.545    0.396    0.194   65.754  210.375
  366.250    8.473    0.437    0.219   70.418  210.532
  366.500    7.654    0.479    0.236   72.448  211.473
  366.750    7.546    0.482    0.244   72.741  211.821
  367.000    7.845    0.468    0.241   71.977  211.781
  367.250    8.320    0.458    0.245   70.787  211.738
  367.500    8.684    0.454    0.250   69.418  211.698
  367.750    8.784    0.459    0.253   68.456  211.662
  368.000    8.575    0.468    0.256   68.140  211.627
  368.250    8.211    0.471    0.261   68.692  211.664
  368.500    8.537    0.474    0.238   70.374  212.022
  368.750    8.792    0.475    0.238   70.821  211.987
  369.000    8.762    0.473    0.236   70.039  212.245
  369.250    8.539    0.469    0.235   68.726  212.402
  369.500    8.264    0.465    0.234   67.646  211.871
  369.750    8.048    0.464    0.236   67.671  209.706
  370.000    7.867    0.468    0.239   67.891  208.856
  370.250    7.697    0.471    0.222   67.163  211.551
  370.500    7.572    0.473    0.213   66.614  212.782
  370.750    7.463    0.472    0.214   66.708  211.962
  371.000    7.369    0.470    0.221   67.621  210.558
  371.250    7.306    0.469    0.224   69.625  212.569
  371.500    7.252    0.465    0.225   71.554  214.965
  371.750    7.147    0.469    0.234   72.934  215.711
  372.000    7.124    0.474    0.239   72.738  216.451
  372.250    7.125    0.484    0.240   72.013  216.998
  372.500    7.099    0.499    0.238   71.812  217.256
  372.750    6.987    0.515    0.233   73.581  217.209
  373.000    6.935    0.524    0.230   75.511  217.168
  373.250    6.886    0.515    0.240   75.486  217.126
  373.500    6.799    0.498    0.239   75.460  218.258
  373.750    6.726    0.486    0.232   75.439  219.002
  374.000    6.690    0.482    0.228   75.421  218.870
  374.250    6.713    0.473    0.242   75.293  218.111
  374.500    6.819    0.463    0.240   74.778  216.443
  374.750    7.024    0.457    0.229   73.822  214.452
  375.000    7.382    0.450    0.207   72.234  212.701
  375.250    7.988    0.442    0.210   70.069  209.565
  375.500    8.894    0.434    0.236   67.247  205.836
  375.750   10.311    0.423    0.246   63.463  204.654
  376.000   12.046    0.412    0.242   63.021  204.309
  376.250   12.605    0.411    0.261   64.216  204.748
  376.500   12.487    0.416    0.266   64.188  205.778
  376.750   11.921    0.414    0.236   63.056  206.611
  377.000   11.460    0.396    0.185   60.762  207.148
  377.250   12.126    0.351    0.154   57.028  208.156
  377.500   13.947    0.301    0.132   56.817  209.029
  377.750   15.448    0.306    0.107   57.782  210.250
  378.000   16.328    0.344    0.125   61.542  210.889
  378.250   16.292    0.388    0.176   66.468  211.140
  378.500   15.064    0.425    0.227   70.405  211.194
  378.750   12.338    0.453    0.229   70.048  211.251
  379.000   10.727    0.448    0.228   66.930  211.310
  379.250   10.898    0.437    0.223   66.495  210.591
  379.500   11.195    0.433    0.215   66.587  209.293
  379.750   10.710    0.433    0.216   66.739  208.768
  380.000    9.633    0.438    0.224   66.833  209.209
  380.250    8.814    0.455    0.224   66.909  209.503
  380.500    8.634    0.462    0.233   65.970  208.754
  380.750    8.644    0.461    0.241   65.080  207.652
  381.000    8.658    0.466    0.240   65.925  207.710
  381.250    8.673    0.471    0.236   67.706  208.540
  381.500    8.672    0.473    0.230   69.491  209.853
  381.750    8.611    0.468    0.220   70.279  211.550
  382.000    8.562    0.462    0.229   70.553  212.019
  382.250    8.452    0.455    0.224   70.587  210.524
  382.500    8.343    0.460    0.226   70.621  211.352
  382.750    8.235    0.470    0.230   71.001  212.568
  383.000    8.129    0.477    0.230   71.671  212.817
  383.250    8.016    0.478    0.229   72.082  211.180
  383.500    7.969    0.478    0.234   71.639  210.419
  383.750    7.981    0.479    0.229   71.673  210.088
  384.000    8.037    0.481    0.219   72.052  210.630
  384.250    8.051    0.482    0.210   72.086  210.686
  384.500    8.006    0.481    0.209   71.717  209.868
  384.750    7.952    0.473    0.217   71.620  208.930
  385.000    7.906    0.463    0.224   72.130  209.803
  385.250    7.690    0.453    0.230   73.106  212.970
  385.500    7.481    0.462    0.238   73.545  214.378
  385.750    7.251    0.469    0.241   73.574  214.041
  386.000    7.029    0.466    0.241   73.024  212.741
  386.250    6.912    0.458    0.245   70.807  211.878
  386.500    7.032    0.447    0.248   67.686  211.128
  386.750    7.622    0.434    0.243   64.224  210.403
  387.000    8.657    0.426    0.250   63.034  207.058
  387.250    9.900    0.441    0.260   62.952  204.783
  387.500   10.832    0.472    0.263   62.811  204.646
  387.750   10.709    0.490    0.248   61.212  205.022
  388.000   10.404    0.485    0.240   60.031  204.677
  388.250   11.120    0.465    0.233   59.370  206.291
  388.500   12.331    0.446    0.222   58.357  208.484
  388.750   13.552    0.429    0.214   57.574  208.923
  389.000   14.294    0.417    0.216   57.316  207.324
  389.250   14.401    0.417    0.231   57.883  205.456
  389.500   14.320    0.427    0.230   59.371  205.509
  389.750   14.237    0.415    0.218   61.274  205.184
  390.000   14.626    0.403    0.206   62.300  205.145
  390.250   15.030    0.393    0.195   61.397  205.592
  390.500   15.273    0.384    0.181   58.047  207.107
  390.750   15.623    0.361    0.151   52.025  210.744
  391.000   16.134    0.320    0.100   50.851  211.207
  391.250   16.041    0.305    0.118   51.813  211.641
  391.500   15.688    0.355    0.140   53.127  213.251
  391.750   15.769    0.368    0.138   54.560  214.475
  392.000   16.384    0.325    0.108   56.341  215.115
  392.250   16.978    0.293    0.078   60.092  216.595
  392.500   16.750    0.304    0.087   64.740  217.861
  392.750   14.575    0.318    0.114   67.106  218.300
  393.000   12.550    0.349    0.142   68.416  218.744
  393.250   10.832    0.388    0.170   69.147  219.189
  393.500    9.431    0.421    0.195   69.591  219.633
  393.750    8.205    0.439    0.213   69.813  220.089
  394.000    7.738    0.438    0.210   69.606  220.142
  394.250    7.529    0.434    0.201   69.177  219.822
  394.500    7.486    0.426    0.192   68.569  219.780
  394.750    7.633    0.426    0.186   68.256  219.831
  395.000    7.917    0.431    0.182   68.234  219.788
  395.250    8.191    0.428    0.181   68.178  219.395
  395.500    8.331    0.424    0.181   68.945  219.055
  395.750    8.343    0.417    0.182   69.910  219.106
