~VERSION INFORMATION
 VERS.                 2.0:   CWLS LOG ASCII STANDARD -VERSION 2.0
 WRAP.                  NO:   ONE LINE PER DEPTH STEP
~WELL INFORMATION BLOCK
#MNEM.UNIT           DATA                    DESCRIPTION OF MNEMONIC
#---------    -------------------            -------------------------------
# Generated from Intellog Unique Number	CW_73_75/WELL/928
WELL.         GULF POC DROWNED 10-22         : Well_name    - WELL
LOC .         00/10-22-075-21W4/0            : Location     - LOCATION
UWI .         00/10-22-075-21W4/0            : Uwi          - UNIQUE WELL ID
ENTR.         JAYE                           : Entered      - ENTERED BY
SRVC.         SCHLUMBERGER                   : Scn          - SERVICE COMPANY
DATE.         19 FEB 77                      : Date         - LOG DATE
STRT.M        368.808                        : top_depth    - START DEPTH
STOP.M        562.058                        : bot_depth    - STOP DEPTH
STEP.M        0.25                           : increment    - STEP LENGTH
 NULL. -999.2500:NULL Value
~CURVE INFORMATION BLOCK
#MNEM UNIT       ERCB CURVE CODE    CURVE DESCRIPTION
#-----------   ------------------   ----------------------------------
DEPT.M        00 001 00 00         : DEPTH        - DEPTH
ILD .OHMM     00 120 00 00         : RESD         - DEEP RESISTIVITY (DIL)
NPHI.V/V      00 330 00 00         : PHIN         - NEUTRON POROSITY (SANDSTONE)
DPHI.V/V      00 890 00 00         : PHID         - DENSITY POROSITY (SANDSTONE)
GR  .API      00 310 00 00         : GR           - GAMMA RAY
CALI.MM       00 280 01 00         : CAL          - CALIPER
~PARAMETER INFORMATION
#MNEM.UNIT           DATA             DESCRIPTION OF MNEMONIC
#---------         -----------     ------------------------------
GL  .M        677.875              : gl           - GROUND LEVEL ELEVATION
EREF.M        681.228              : kb           - ELEVATION OF DEPTH REFERENCE
DATM.M        677.875              : datum        - DATUM ELEVATION
TDD .M        571.5                : tdd          - TOTAL DEPTH DRILLER
RUN .         ONE                  : Run          - RUN NUMBER
ENG .         CROCKFORD            : Engineer     - RECORDING ENGINEER
WIT .         FULTON               : Witness      - WITNESSED BY
BASE.         EDM                  : Branch       - HOME BASE OF LOGGING UNIT
MUD .         GEL BENDEX           : Mud_type     - MUD TYPE
MATR.         SANDSTONE            : Logunit      - NEUTRON MATRIX
TMAX.C        15.5556              : BHT          - MAXIMUM RECORDED TEMPERATURE
BHTD.M        570.586              : BHTDEP       - MAXIMUM RECORDED TEMPERATURE
RMT .C        13.3333              : MDTP         - TEMPERATURE OF MUD
MUDD.KG/M     1140                 : MWT          - MUD DENSITY
NEUT.         1                    : NEUTRON      - NEUTRON TYPE
RESI.         0                    : RESIST       - RESISTIVITY TYPE
RM  .OHMM     2.88                 : RM           - RESISTIVITY OF MUD
RMC .OHMM     0                    : RMC          - RESISTIVITY OF MUD CAKE
RMF .OHMM     2.84                 : RMF          - RESISTIVITY OF MUD FILTRATE
SUFT.C        -17.7778             : SUFT         - SURFACE TEMPERATURE
~A  DEPTH     RESD     PHIN     PHID       GR      CAL
# ...
  441.808   15.109    0.220    0.068   73.681  167.868
  442.058   12.635    0.217    0.071   76.547  167.593
  442.308   10.275    0.235    0.054   77.560  166.283
  442.558    8.770    0.271    0.099   75.115  164.650
  442.808    7.570    0.327    0.154   68.778  164.686
  443.058    6.522    0.392    0.156   68.247  165.367
  443.308    5.768    0.463    0.249   70.063  165.194
  443.558    5.101    0.476    0.274   70.643  164.397
  443.808    4.718    0.463    0.295   65.787  163.600
  444.058    4.478    0.448    0.291   63.898  163.441
  444.308    4.413    0.448    0.265   62.624  164.004
  444.558    4.464    0.456    0.279   61.045  163.839
  444.808    4.608    0.473    0.306   61.009  163.770
  445.058    4.731    0.467    0.298   61.220  164.125
  445.308    4.866    0.459    0.296   60.872  163.968
  445.558    4.940    0.454    0.280   61.453  164.013
  445.808    4.859    0.450    0.302   62.281  163.850
  446.058    4.639    0.483    0.283   64.160  163.887
  446.308    4.486    0.487    0.283   65.235  163.929
  446.558    4.339    0.466    0.298   62.481  164.074
  446.808    4.300    0.450    0.307   61.456  163.918
  447.058    4.285    0.440    0.289   61.974  163.631
  447.308    4.262    0.433    0.296   65.274  163.259
  447.558    4.246    0.427    0.302   68.329  162.786
  447.808    4.216    0.432    0.293   69.588  162.835
  448.058    4.193    0.448    0.298   69.491  162.863
  448.308    4.147    0.452    0.278   68.587  162.901
  448.558    4.148    0.451    0.289   64.041  163.371
  448.808    4.134    0.456    0.304   60.730  163.507
  449.058    4.134    0.474    0.293   60.322  163.658
  449.308    4.128    0.475    0.273   60.532  163.388
  449.558    4.105    0.479    0.263   61.052  163.222
  449.808    4.075    0.467    0.291   61.327  163.368
  450.058    4.031    0.446    0.290   61.352  163.525
  450.308    4.017    0.439    0.295   61.374  163.773
  450.558    4.003    0.447    0.272   61.089  164.015
  450.808    3.981    0.466    0.291   60.436  164.059
  451.058    3.967    0.454    0.294   62.068  164.100
  451.308    3.946    0.436    0.283   62.648  163.946
  451.558    3.961    0.434    0.265   63.476  163.768
  451.808    3.969    0.436    0.281   67.887  163.601
  452.058    3.993    0.438    0.281   67.542  163.959
  452.308    4.001    0.442    0.291   70.472  164.437
  452.558    4.031    0.447    0.307   74.575  164.688
  452.808    4.108    0.443    0.288   77.814  164.823
  453.058    4.194    0.451    0.287   78.949  164.861
  453.308    4.250    0.440    0.290   72.240  164.809
  453.558    4.283    0.440    0.262   72.392  164.953
  453.808    4.276    0.456    0.290   72.845  164.984
  454.058    4.276    0.444    0.304   70.956  165.039
  454.308    4.253    0.458    0.283   69.499  165.181
  454.558    4.207    0.472    0.298   69.775  165.437
  454.808    4.169    0.458    0.294   70.783  165.785
  455.058    4.131    0.463    0.287   72.416  165.939
  455.308    4.109    0.455    0.295   71.946  166.080
  455.558    4.140    0.453    0.308   72.588  166.224
  455.808    4.156    0.445    0.282   76.692  166.270
  456.058    4.088    0.442    0.260   79.375  166.316
  456.308    3.983    0.453    0.255   81.128  166.458
  456.558    3.817    0.455    0.262   82.697  166.825
  456.808    3.624    0.442    0.262   86.247  166.969
  457.058    3.511    0.456    0.255   85.219  167.007
  457.308    3.499    0.434    0.266   86.170  167.470
  457.558    3.592    0.431    0.263   92.374  167.401
  457.808    3.702    0.454    0.253  103.150  167.551
  458.058    3.765    0.474    0.214  111.514  170.206
  458.308    3.710    0.493    0.206  110.243  172.136
  458.558    3.561    0.514    0.197  108.352  173.115
  458.808    3.400    0.517    0.193  105.351  173.683
  459.058    3.276    0.488    0.186  105.253  174.039
  459.308    3.228    0.472    0.189  107.811  174.084
  459.558    3.247    0.479    0.207  107.712  174.440
  459.808    3.384    0.493    0.205  105.018  174.583
  460.058    3.640    0.487    0.187  105.046  174.521
  460.308    3.893    0.485    0.192  105.625  173.518
  460.558    4.172    0.481    0.229  104.414  170.737
  460.808    4.530    0.472    0.230  104.439  165.969
  461.058    4.756    0.470    0.210  106.997  164.023
  461.308    4.801    0.472    0.198  106.470  163.645
  461.558    4.740    0.458    0.204  105.753  164.004
  461.808    4.671    0.452    0.214  105.774  164.885
  462.058    4.611    0.454    0.198  107.900  165.131
  462.308    4.394    0.462    0.224  107.805  165.287
  462.558    3.944    0.500    0.206  107.458  165.015
  462.808    3.527    0.532    0.219  105.567  165.060
  463.058    3.125    0.491    0.207  106.272  165.307
  463.308    2.928    0.455    0.194  106.296  165.135
  463.558    2.967    0.445    0.184  106.263  165.181
  463.808    3.240    0.447    0.202  106.470  165.012
  464.058    3.557    0.448    0.208  106.618  164.947
  464.308    3.935    0.459    0.196  106.584  164.887
  464.558    4.296    0.454    0.166  106.177  165.036
  464.808    4.708    0.459    0.199  105.149  165.287
  465.058    5.064    0.471    0.218  103.629  165.536
  465.308    5.337    0.480    0.222  100.937  165.581
  465.558    5.551    0.457    0.205   99.109  165.517
  465.808    5.667    0.430    0.205   97.652  164.833
  466.058    5.721    0.423    0.211   95.699  164.464
  466.308    5.765    0.438    0.226   91.275  164.501
  466.558    5.832    0.439    0.211   93.587  164.544
  466.808    5.833    0.439    0.211   93.119  164.589
  467.058    5.834    0.441    0.222   93.764  164.322
  467.308    5.868    0.433    0.218   95.701  164.251
  467.558    5.946    0.442    0.195   97.457  164.293
  467.808    6.070    0.437    0.219   97.789  164.122
  468.058    6.326    0.416    0.209   97.136  164.062
  468.308    6.691    0.416    0.194   93.206  164.110
  468.558    7.025    0.413    0.159   89.216  164.877
  468.808    6.845    0.387    0.145   88.005  165.650
  469.058    6.331    0.392    0.104   91.305  166.321
  469.308    5.779    0.418    0.129   97.568  167.099
  469.558    5.325    0.432    0.196   97.472  167.351
  469.808    5.102    0.447    0.173   95.459  166.553
  470.058    4.862    0.460    0.178   94.988  164.401
  470.308    4.711    0.457    0.196   91.800  164.127
  470.558    4.599    0.467    0.213   85.586  163.756
  470.808    4.481    0.457    0.253   79.063  162.957
  471.058    4.367    0.446    0.264   76.369  162.481
  471.308    4.263    0.455    0.277   75.039  162.313
  471.558    4.201    0.466    0.291   73.144  161.935
  471.808    4.321    0.473    0.311   69.709  161.769
  472.058    4.613    0.462    0.277   66.400  161.711
  472.308    5.407    0.447    0.193   65.312  161.859
  472.558    6.348    0.408    0.162   65.954  162.319
  472.808    8.122    0.218    0.121   67.771  162.469
  473.058   12.063    0.202    0.072   68.725  162.506
  473.308   18.322    0.185    0.044   68.008  162.755
  473.558   20.381    0.169    0.013   64.695  162.901
  473.808   20.233    0.156    0.026   61.756  163.049
  474.058   19.975    0.152    0.002   62.213  163.197
  474.308   19.609    0.156    0.009   63.782  163.559
  474.558   18.685    0.166   -0.012   61.769  164.029
  474.808   16.189    0.189    0.011   61.611  164.580
  475.058   13.462    0.212    0.039   63.181  165.250
  475.308   10.967    0.236    0.068   66.107  166.031
  475.558    8.672    0.254    0.072   65.762  166.171
  475.808    7.065    0.279    0.108   63.994  166.317
  476.058    5.587    0.369    0.190   66.429  165.525
  476.308    4.831    0.438    0.256   72.325  163.267
  476.558    4.419    0.445    0.293   76.118  161.426
  476.808    4.242    0.440    0.293   76.884  160.108
  477.058    4.211    0.441    0.305   77.217  159.110
  477.308    4.212    0.452    0.303   75.946  158.835
  477.558    4.284    0.472    0.295   76.218  158.874
  477.808    4.398    0.482    0.290   79.087  158.920
  478.058    4.507    0.469    0.276   82.882  158.961
