~VERSION INFORMATION
 VERS.                 2.0:   CWLS LOG ASCII STANDARD -VERSION 2.0
 WRAP.                  NO:   ONE LINE PER DEPTH STEP
~WELL INFORMATION BLOCK
#MNEM.UNIT           DATA                    DESCRIPTION OF MNEMONIC
#---------    -------------------            -------------------------------
# Generated from Intellog Unique Number	CS_71_72/WELL/2059
WELL.         GEPC WANDER                    : Well_name    - WELL
LOC .         00/11-29-071-13W4/0            : Location     - LOCATION
UWI .         00/11-29-071-13W4/0            : Uwi          - UNIQUE WELL ID
ENTR.         T                              : Entered      - ENTERED BY
SRVC.         SCHLUMBERGER                   : Scn          - SERVICE COMPANY
DATE.         01/15/92                       : Date         - LOG DATE
STRT.M        335.28                         : top_depth    - START DEPTH
STOP.M        563.78                         : bot_depth    - STOP DEPTH
STEP.M        0.25                           : increment    - STEP LENGTH
 NULL. -999.2500:NULL Value
~CURVE INFORMATION BLOCK
#MNEM UNIT       ERCB CURVE CODE    CURVE DESCRIPTION
#-----------   ------------------   ----------------------------------
DEPT.M        00 001 00 00         : DEPTH        - DEPTH
GR  .API      00 310 00 00         : GR           - GAMMA RAY
NPHI.V/V      00 330 00 00         : PHIN         - NEUTRON POROSITY (SANDSTONE)
ILD .OHMM     00 120 00 00         : RESD         - DEEP RESISTIVITY (DIL)
~PARAMETER INFORMATION
#MNEM.UNIT           DATA             DESCRIPTION OF MNEMONIC
#---------         -----------     ------------------------------
GL  .M        657.758              : gl           - GROUND LEVEL ELEVATION
EREF.M        661.721              : kb           - ELEVATION OF DEPTH REFERENCE
DATM.M        661.721              : datum        - DATUM ELEVATION
TDD .M        566.928              : tdd          - TOTAL DEPTH DRILLER
RUN .         ONE                  : Run          - RUN NUMBER
ENG .         BILL                 : Engineer     - RECORDING ENGINEER
WIT .         JIM                  : Witness      - WITNESSED BY
MUD .         GEL                  : Mud_type     - MUD TYPE
MATR.         SANDSTONE            : Logunit      - NEUTRON MATRIX
TMAX.C        10.5556              : BHT          - MAXIMUM RECORDED TEMPERATURE
BHTD.M        566.928              : BHTDEP       - MAXIMUM RECORDED TEMPERATURE
RMT .C        8.33333              : MDTP         - TEMPERATURE OF MUD
MUDD.KG/M     9800                 : MWT          - MUD DENSITY
NEUT.         1                    : NEUTRON      - NEUTRON TYPE
RESI.         0                    : RESIST       - RESISTIVITY TYPE
RM  .OHMM     4.4                  : RM           - RESISTIVITY OF MUD
RMC .OHMM     5.08                 : RMC          - RESISTIVITY OF MUD CAKE
RMF .OHMM     4.4                  : RMF          - RESISTIVITY OF MUD FILTRATE
SUFT.C        4                    : SUFT         - SURFACE TEMPERATURE
~A  DEPTH       GR     PHIN     RESD
# ...
  443.780  104.448    0.432    6.814
  444.030  105.660    0.439    6.814
  444.280  106.872    0.442    6.949
  444.530  107.483    0.439    7.086
  444.780  106.893    0.461    7.225
  445.030  106.297    0.494    7.367
  445.280  106.309    0.486    7.368
  445.530  106.316    0.466    7.368
  445.780  107.528    0.456    7.088
  446.030  109.341    0.447    6.952
  446.280  111.755    0.455    6.953
  446.530  112.368    0.455    6.953
  446.780  109.973    0.453    7.229
  447.030  108.780    0.458    7.230
  447.280  109.390    0.460    6.690
  447.530  109.400    0.458    6.435
  447.780  107.603    0.452    6.312
  448.030  104.607    0.447    6.312
  448.280  101.613    0.440    6.436
  448.530   99.816    0.430    6.823
  448.780   97.421    0.432    7.375
  449.030   98.031    0.435    7.520
  449.280  100.450    0.443    7.669
  449.530  101.056    0.455    7.669
  449.780  104.675    0.460    7.670
  450.030  108.292    0.460    7.236
  450.280  112.512    0.461    6.961
  450.530  116.126    0.481    6.317
  450.780  124.553    0.502    4.540
  451.030  129.973    0.532    3.597
  451.280  128.179    0.545    2.849
  451.530  123.379    0.552    2.346
  451.780  119.182    0.568    2.257
  452.030  118.590    0.571    2.301
  452.280  118.001    0.547    2.346
  452.530  117.404    0.526    2.393
  452.780  116.214    0.500    3.080
  453.030  115.622    0.476    4.633
  453.280  113.224    0.456    6.446
  453.530  110.831    0.453    6.573
  453.780  110.839    0.450    6.573
  454.030  110.848    0.446    6.574
  454.280  110.259    0.445    6.574
  454.530  109.665    0.440    6.575
  454.780  109.073    0.437    6.575
  455.030  109.683    0.435    6.576
  455.280  110.294    0.433    6.576
  455.530  106.699    0.430    6.577
  455.780  103.099    0.420    7.248
  456.030   98.301    0.396    7.834
  456.280   94.703    0.343    9.702
  456.530   90.502    0.302    9.893
  456.780   88.708    0.263    9.893
  457.030   89.318    0.312    9.517
  457.280   91.134    0.409    8.979
  457.530   91.146    0.488    8.471
  457.780   91.150    0.498    7.992
  458.030   91.761    0.488    7.540
  458.280   92.973    0.475    7.114
  458.530   88.776    0.464    6.711
  458.780   75.559    0.462    6.978
  459.030   72.563    0.459    8.152
  459.280   68.362    0.464    9.523
  459.530   64.163    0.477    8.985
  459.780   64.177    0.483    8.477
  460.030   64.785    0.472    8.477
  460.280   65.398    0.457    8.478
  460.530   66.610    0.454    7.546
  460.780   68.423    0.459    7.259
  461.030   69.633    0.472    6.587
  461.280   71.446    0.478    6.337
  461.530   70.854    0.475    6.461
  461.780   72.068    0.477    6.850
  462.030   74.480    0.482    6.985
  462.280   75.692    0.457    6.851
  462.530   75.701    0.480    6.590
  462.780   77.514    0.499    6.986
  463.030   81.732    0.501    7.551
  463.280   87.152    0.485    7.851
  463.530   90.771    0.451    7.407
  463.780   92.584    0.434    7.125
  464.030   95.001    0.430    6.466
  464.280   98.615    0.444    5.868
  464.530  104.036    0.451    5.325
  464.780  105.846    0.459    5.024
  465.030  106.457    0.477    4.559
  465.280  106.471    0.467    4.301
  465.530  106.481    0.455    4.302
  465.780  106.488    0.441    4.386
  466.030  105.297    0.444    4.561
  466.280  104.102    0.447    4.561
  466.530   99.903    0.454    4.742
  466.780   93.299    0.457    5.226
  467.030   90.906    0.465    5.649
  467.280   88.511    0.472    6.226
  467.530   86.115    0.478    6.599
  467.780   85.521    0.484    6.996
  468.030   84.333    0.473    7.417
  468.280   84.941    0.462    7.135
  468.530   87.957    0.473    6.998
  468.780   91.571    0.486    6.863
  469.030   97.593    0.481    6.864
  469.280  101.214    0.468    6.999
  469.530  101.822    0.468    7.000
  469.780  103.034    0.463    6.477
  470.030  104.847    0.470    5.993
  470.280  107.261    0.476    5.334
  470.530  107.872    0.463    5.655
  470.780  105.474    0.473    5.879
  471.030  106.686    0.488    5.995
  471.280  111.508    0.504    5.995
  471.530  112.121    0.496    5.767
  471.780  112.128    0.471    5.657
  472.030  112.738    0.458    5.657
  472.280  110.343    0.439    5.549
  472.530  109.751    0.439    5.337
  472.780  112.769    0.439    5.135
  473.030  113.377    0.440    4.939
  473.280  115.190    0.449    4.844
  473.530  113.997    0.453    4.752
  473.780  111.001    0.455    4.483
  474.030  110.412    0.460    4.229
  474.280  114.028    0.466    4.068
  474.530  116.440    0.461    3.621
  474.780  117.652    0.447    3.552
  475.030  115.858    0.478    3.417
  475.280  114.064    0.476    3.693
  475.530  109.865    0.466    4.070
  475.780  105.666    0.460    5.139
  476.030  101.467    0.466    6.489
  476.280   97.268    0.469    7.151
  476.530   98.480    0.479    7.435
  476.780  103.299    0.469    6.243
  477.030  108.120    0.463    4.665
  477.280  110.532    0.468    4.945
  477.530  109.940    0.461    5.666
  477.780  106.345    0.429    6.881
  478.030  101.543    0.414    8.859
  478.280   87.126    0.396   12.327
  478.530   87.135    0.354   12.816
  478.780   90.749    0.382   11.188
  479.030   97.372    0.411    9.394
  479.280  102.792    0.443    8.361
  479.530  104.004    0.448    7.441
  479.780  101.008    0.442    6.753
  480.030   99.213    0.429    6.496
  480.280   98.624    0.416    6.372
  480.530   99.237    0.409    6.497
  480.780   99.845    0.421    6.625
  481.030  100.456    0.434    6.625
  481.280  100.465    0.451    6.498
  481.530   99.874    0.451    6.499
  481.780  100.484    0.443    6.374
  482.030  104.702    0.427    6.375
  482.280  108.922    0.409    6.375
  482.530  108.930    0.401    6.891
  482.780  110.144    0.424    6.376
  483.030  112.558    0.437    5.900
  483.280  114.371    0.419    5.459
  483.530  115.581    0.408    5.252
  483.780  109.578    0.422    5.567
  484.030  104.778    0.435    5.788
  484.280  101.781    0.453    5.677
  484.530   96.984    0.456    5.461
  484.780   94.588    0.448    5.903
  485.030   90.990    0.438    6.380
  485.280   87.996    0.428    6.896
  485.530   86.200    0.401    8.540
  485.780   84.406    0.375   10.783
  486.030   83.210    0.338   14.715
  486.280   82.619    0.304   14.155
  486.530   83.232    0.271   11.657
  486.780   85.045    0.229    7.314
  487.030   88.058    0.279    6.900
  487.280   93.478    0.320    6.384
  487.530  106.716    0.389    5.156
  487.780  108.529    0.436    4.330
  488.030  105.535    0.469    4.501
  488.280  103.140    0.477    4.502
  488.530  101.944    0.469    4.085
  488.780  101.353    0.487    3.113
  489.030  103.166    0.530    2.717
  489.280  106.782    0.551    2.717
  489.530  111.000    0.551    2.825
  489.780  114.619    0.540    3.054
  490.030  112.224    0.525    3.499
  490.280  109.225    0.508    3.932
  490.530  105.028    0.478    4.869
  490.780  103.234    0.467    5.263
  491.030  103.843    0.465    4.869
  491.280  106.257    0.465    4.506
  491.530  105.066    0.465    4.419
  491.780  103.270    0.464    5.915
  492.030  100.877    0.462    6.393
  492.280   99.681    0.457    5.802
  492.530   97.887    0.454    5.802
  492.780  103.308    0.454    6.520
  493.030  106.927    0.454    7.186
  493.280  104.531    0.443    8.395
  493.530  102.735    0.418    9.999
  493.780   99.137    0.352   10.196
  494.030   94.337    0.318    9.253
  494.280   91.942    0.329    8.235
  494.530   97.965    0.383    7.051
  494.780  101.580    0.410    6.275
  495.030  105.201    0.447    5.695
  495.280  106.413    0.446    5.168
  495.530  108.825    0.425    4.876
  495.780  107.634    0.426    4.512
  496.030  106.441    0.452    3.938
  496.280  108.254    0.454    3.644
  496.530  111.267    0.446    3.372
  496.780  116.688    0.460    3.181
  497.030  119.102    0.475    3.120
  497.280  116.105    0.485    3.060
  497.530  113.710    0.501    3.121
  497.780  111.317    0.491    3.244
