~VERSION INFORMATION
 VERS.                 2.0:   CWLS LOG ASCII STANDARD -VERSION 2.0
 WRAP.                  NO:   ONE LINE PER DEPTH STEP
~WELL INFORMATION BLOCK
#MNEM.UNIT           DATA                    DESCRIPTION OF MNEMONIC
#---------    -------------------            -------------------------------
# Generated from Intellog Unique Number	CW_76_78/WELL/829
WELL.         GULF POC DROWNED 10-07         : Well_name    - WELL
LOC .         00/10-07-077-21W4/0            : Location     - LOCATION
UWI .         00/10-07-077-21W4/0            : Uwi          - UNIQUE WELL ID
ENTR.         os                             : Entered      - ENTERED BY
SRVC.         SCHLUMBERGER                   : Scn          - SERVICE COMPANY
DATE.         12 MAR 1978                    : Date         - LOG DATE
STRT.M        429.768                        : top_depth    - START DEPTH
STOP.M        637.018                        : bot_depth    - STOP DEPTH
STEP.M        0.25                           : increment    - STEP LENGTH
 NULL. -999.2500:NULL Value
~CURVE INFORMATION BLOCK
#MNEM UNIT       ERCB CURVE CODE    CURVE DESCRIPTION
#-----------   ------------------   ----------------------------------
DEPT.M        00 001 00 00         : DEPTH        - DEPTH
ILD .OHMM     00 120 00 00         : RESD         - DEEP RESISTIVITY (DIL)
NPHI.V/V      00 330 00 00         : PHIN         - NEUTRON POROSITY (SANDSTONE)
DPHI.V/V      00 890 00 00         : PHID         - DENSITY POROSITY (SANDSTONE)
GR  .API      00 310 00 00         : GR           - GAMMA RAY
CALI.MM       00 280 01 00         : CAL          - CALIPER
~PARAMETER INFORMATION
#MNEM.UNIT           DATA             DESCRIPTION OF MNEMONIC
#---------         -----------     ------------------------------
GL  .M        752.856              : gl           - GROUND LEVEL ELEVATION
EREF.M        758.342              : kb           - ELEVATION OF DEPTH REFERENCE
DATM.M        752.856              : datum        - DATUM ELEVATION
TDD .M        641.299              : tdd          - TOTAL DEPTH DRILLER
RUN .         ONE                  : Run          - RUN NUMBER
ENG .         DEROCHIER            : Engineer     - RECORDING ENGINEER
WIT .         ROZENHART            : Witness      - WITNESSED BY
BASE.         EDMONTON             : Branch       - HOME BASE OF LOGGING UNIT
MUD .         GEL CHEM             : Mud_type     - MUD TYPE
MATR.         SANDSTONE            : Logunit      - NEUTRON MATRIX
TMAX.C        22.7778              : BHT          - MAXIMUM RECORDED TEMPERATURE
BHTD.M        640.69               : BHTDEP       - MAXIMUM RECORDED TEMPERATURE
RMT .C        18.3333              : MDTP         - TEMPERATURE OF MUD
MUDD.KG/M     1092                 : MWT          - MUD DENSITY
NEUT.         1                    : NEUTRON      - NEUTRON TYPE
RESI.         0                    : RESIST       - RESISTIVITY TYPE
RM  .OHMM     5.72                 : RM           - RESISTIVITY OF MUD
RMC .OHMM     0.25                 : RMC          - RESISTIVITY OF MUD CAKE
RMF .OHMM     6.77                 : RMF          - RESISTIVITY OF MUD FILTRATE
SUFT.C        4.5                  : SUFT         - SURFACE TEMPERATURE
~A  DEPTH     RESD     PHIN     PHID       GR      CAL
# ...
  502.768    6.030    0.481    0.338   73.153  160.573
  503.018    5.998    0.463    0.344   75.897  158.882
  503.268    5.989    0.461    0.354   75.647  157.403
  503.518    6.081    0.476    0.353   71.655  156.452
  503.768    6.479    0.468    0.319   73.026  156.873
  504.018    7.164    0.467    0.306   73.962  158.985
  504.268    8.161    0.459    0.290   70.718  159.618
  504.518    9.313    0.380    0.256   68.347  160.251
  504.768    9.979    0.300    0.157   63.919  159.299
  505.018   10.112    0.269    0.073   61.673  158.242
  505.268    9.694    0.320    0.103   64.791  159.192
  505.518    8.579    0.458    0.126   77.077  159.614
  505.768    7.635    0.482    0.324   79.946  160.458
  506.018    6.695    0.465    0.318   77.263  161.196
  506.268    6.502    0.458    0.309   77.700  162.146
  506.518    6.737    0.451    0.279   75.329  162.040
  506.768    7.047    0.452    0.251   71.524  160.772
  507.018    7.289    0.443    0.228   68.281  159.821
  507.268    7.428    0.359    0.167   73.207  158.341
  507.518    7.612    0.432    0.226   83.747  157.918
  507.768    7.728    0.468    0.249   91.543  158.868
  508.018    7.746    0.495    0.275   93.102  158.550
  508.268    7.649    0.478    0.293   92.041  157.705
  508.518    7.400    0.492    0.302   88.673  156.753
  508.768    7.053    0.488    0.286   86.988  157.069
  509.018    6.774    0.477    0.280   89.732  157.596
  509.268    6.929    0.450    0.255   92.476  157.490
  509.518    7.140    0.446    0.265   92.288  156.328
  509.768    7.142    0.452    0.258   94.097  154.426
  510.018    6.194    0.462    0.256   97.277  153.369
  510.268    4.363    0.471    0.261   94.782  153.263
  510.518    3.286    0.467    0.247   99.272  154.001
  510.768    2.554    0.457    0.230  105.322  154.106
  511.018    2.223    0.464    0.219  109.063  153.788
  511.268    2.386    0.471    0.193  110.560  153.893
  511.518    2.869    0.459    0.158  110.622  154.421
  511.768    3.926    0.468    0.180  110.434  155.265
  512.018    5.037    0.461    0.181  110.621  155.581
  512.268    5.376    0.469    0.181  108.375  154.841
  512.518    5.279    0.473    0.193  106.192  154.629
  512.768    5.127    0.477    0.211  102.199  155.050
  513.018    5.109    0.455    0.177  104.881  154.733
  513.268    4.844    0.474    0.170  110.182  153.676
  513.518    4.634    0.474    0.182  114.298  153.886
  513.768    4.296    0.462    0.191  114.048  154.097
  514.018    4.058    0.441    0.196  108.684  153.779
  514.268    3.977    0.453    0.207  108.496  154.306
  514.518    3.986    0.457    0.200  110.367  155.256
  514.768    4.032    0.463    0.190  111.863  157.473
  515.018    4.217    0.453    0.175  109.742  161.063
  515.268    4.443    0.470    0.207  108.432  165.710
  515.518    4.726    0.488    0.206  106.997  166.871
  515.768    5.216    0.496    0.200  103.940  167.715
  516.018    5.682    0.481    0.235   98.389  166.869
  516.268    6.249    0.486    0.248   91.715  165.390
  516.518    6.745    0.490    0.274   85.290  164.227
  516.768    6.989    0.462    0.294   85.914  163.170
  517.018    7.057    0.458    0.288   84.167  162.853
  517.268    6.917    0.461    0.293   82.545  163.802
  517.518    6.792    0.454    0.297   80.174  164.224
  517.768    6.584    0.446    0.303   79.425  164.435
  518.018    6.441    0.452    0.297   76.805  164.328
  518.268    6.266    0.441    0.286   76.742  162.320
  518.518    5.996    0.435    0.287   75.682  160.630
  518.768    5.779    0.450    0.274   73.436  158.623
  519.018    5.664    0.461    0.260   71.876  154.820
  519.268    5.615    0.479    0.248   72.125  154.397
  519.518    5.627    0.474    0.258   70.566  155.558
  519.768    5.691    0.464    0.296   68.382  156.824
  520.018    5.844    0.472    0.284   70.378  158.513
  520.268    5.867    0.477    0.270   74.681  160.519
  520.518    5.891    0.456    0.295   77.487  161.786
  520.768    5.796    0.449    0.303   76.426  162.736
  521.018    5.702    0.467    0.293   73.681  161.995
  521.268    5.619    0.466    0.287   75.427  158.826
  521.518    5.447    0.481    0.285   74.367  157.136
  521.768    5.349    0.478    0.297   75.800  155.762
  522.018    5.340    0.458    0.300   80.540  155.550
  522.268    5.432    0.446    0.284   85.155  155.127
  522.518    5.577    0.468    0.265   86.589  155.760
  522.768    5.684    0.480    0.278   83.096  157.766
  523.018    5.749    0.455    0.297   83.470  159.138
  523.268    5.752    0.452    0.297   82.097  159.349
  523.518    5.700    0.442    0.298   84.841  159.136
  523.768    5.649    0.440    0.292   87.897  158.185
  524.018    5.496    0.445    0.279   94.632  158.607
  524.268    5.468    0.445    0.242   98.935  160.190
  524.518    5.310    0.444    0.248   97.688  160.717
  524.768    4.904    0.452    0.257   97.063  161.034
  525.018    4.589    0.451    0.266   99.308  161.033
  525.268    4.481    0.455    0.244  101.241  161.982
  525.518    4.592    0.466    0.217   99.557  162.616
  525.768    5.270    0.480    0.240   92.696  163.143
  526.018    6.127    0.480    0.232   80.720  163.036
  526.268    8.512    0.359    0.205   73.984  162.402
  526.518   11.163    0.234    0.091   66.187  162.718
  526.768   17.725    0.195    0.047   61.571  163.457
  527.018   23.033    0.163    0.012   58.078  164.512
  527.268   22.493    0.160    0.004   54.023  165.356
  527.518   19.724    0.172   -0.005   54.709  165.355
  527.768   15.763    0.193    0.020   59.324  165.355
  528.018   12.071    0.221    0.068   65.373  165.143
  528.268    9.074    0.256    0.123   68.803  165.353
  528.518    6.548    0.299    0.199   76.100  165.352
  528.768    5.554    0.397    0.280   80.715  164.612
  529.018    4.980    0.462    0.293   84.394  163.133
  529.268    4.854    0.474    0.288   85.641  162.393
  529.518    4.635    0.482    0.287   85.641  162.709
  529.768    4.468    0.482    0.283   87.325  162.814
  530.018    4.420    0.483    0.272   92.439  161.968
  530.268    4.045    0.489    0.251   96.118  162.601
  530.518    3.943    0.492    0.232   96.242  163.762
  530.768    4.026    0.496    0.225   97.053  164.184
  531.018    4.148    0.492    0.258  100.171  164.289
  531.268    4.291    0.472    0.251  102.353  163.865
  531.518    4.389    0.471    0.233  102.914  163.231
  531.768    4.472    0.464    0.229  100.543  163.230
  532.018    4.449    0.460    0.239   99.420  163.018
  532.268    4.410    0.449    0.219  100.542  163.228
  532.518    4.420    0.438    0.225  101.727  163.228
  532.768    4.462    0.439    0.220  100.043  163.333
  533.018    4.616    0.456    0.228   99.107  163.332
  533.268    4.703    0.475    0.246  101.227  164.070
  533.518    4.820    0.449    0.242  104.969  164.492
  533.768    4.848    0.435    0.215  105.280  165.336
  534.018    4.859    0.441    0.207  107.088  166.180
  534.268    4.798    0.443    0.199  109.520  167.236
  534.518    4.617    0.447    0.211  109.520  168.291
  534.768    4.500    0.473    0.229  111.952  168.924
  535.018    4.468    0.517    0.244  112.824  167.445
  535.268    4.553    0.514    0.251  110.579  165.649
  535.518    4.632    0.487    0.236  106.587  164.169
  535.768    4.573    0.470    0.226   99.227  164.591
  536.018    4.458    0.453    0.235  105.650  165.646
  536.268    4.435    0.461    0.208  110.639  166.807
  536.518    4.453    0.480    0.207  112.822  167.440
  536.768    4.324    0.498    0.203  111.823  166.066
  537.018    4.293    0.502    0.239  109.515  164.904
  537.268    4.327    0.485    0.259  107.020  163.424
  537.518    4.560    0.480    0.236  103.215  163.424
  537.768    4.876    0.468    0.208  105.460  163.845
  538.018    5.503    0.434    0.163  101.156  163.739
  538.268    6.040    0.389    0.137   93.671  164.477
  538.518    6.483    0.329    0.112   87.683  164.793
  538.768    6.819    0.417    0.099   99.595  164.793
  539.018    7.000    0.450    0.172  108.327  163.736
