~VERSION INFORMATION
 VERS.                 2.0:   CWLS LOG ASCII STANDARD -VERSION 2.0
 WRAP.                  NO:   ONE LINE PER DEPTH STEP
~WELL INFORMATION BLOCK
#MNEM.UNIT           DATA                    DESCRIPTION OF MNEMONIC
#---------    -------------------            -------------------------------
# Generated from Intellog Unique Number	CS_77_79/WELL/977
WELL.         UNEX ET AL CHARD               : Well_name    - WELL
LOC .         00/10-31-079-05W4/0            : Location     - LOCATION
UWI .         00/10-31-079-05W4/0            : Uwi          - UNIQUE WELL ID
ENTR.         JHS                            : Entered      - ENTERED BY
SRVC.         SCHLUMBERGER                   : Scn          - SERVICE COMPANY
STRT.M        105                            : top_depth    - START DEPTH
STOP.M        280                            : bot_depth    - STOP DEPTH
STEP.M        0.25                           : increment    - STEP LENGTH
 NULL. -999.2500:NULL Value
~CURVE INFORMATION BLOCK
#MNEM UNIT       ERCB CURVE CODE    CURVE DESCRIPTION
#-----------   ------------------   ----------------------------------
DEPT.M        00 001 00 00         : DEPTH        - DEPTH
DPHI.V/V      00 890 00 00         : PHID         - DENSITY POROSITY (LIMESTONE)
NPHI.V/V      00 330 00 00         : PHIN         - NEUTRON POROSITY (LIMESTONE)
GR  .API      00 310 00 00         : GR           - GAMMA RAY
ILD .OHMM     00 120 00 00         : RESD         - DEEP RESISTIVITY (DIL)
RHOB.KG/M3    00 350 00 00         : DENS         - BULK DENSITY
~PARAMETER INFORMATION
#MNEM.UNIT           DATA             DESCRIPTION OF MNEMONIC
#---------         -----------     ------------------------------
GL  .M        457.3                : gl           - GROUND LEVEL ELEVATION
EREF.M        460.8                : kb           - ELEVATION OF DEPTH REFERENCE
DATM.M        460.8                : datum        - DATUM ELEVATION
TDD .M        329                  : tdd          - TOTAL DEPTH DRILLER
RUN .         ONE                  : Run          - RUN NUMBER
ENG .         BILL                 : Engineer     - RECORDING ENGINEER
WIT .         JIM                  : Witness      - WITNESSED BY
MUD .         GEL                  : Mud_type     - MUD TYPE
MATR.         LIMESTONE            : Logunit      - NEUTRON MATRIX
TMAX.C        19                   : BHT          - MAXIMUM RECORDED TEMPERATURE
BHTD.M        329                  : BHTDEP       - MAXIMUM RECORDED TEMPERATURE
MATR.         1                    : LOGUNIT      - NEUTRON MATRIX
RMT .C        25                   : MDTP         - TEMPERATURE OF MUD
NEUT.         1                    : NEUTRON      - NEUTRON TYPE
RESI.         0                    : RESIST       - RESISTIVITY TYPE
RMC .OHMM     0.25                 : RMC          - RESISTIVITY OF MUD CAKE
RMF .OHMM     0.25                 : RMF          - RESISTIVITY OF MUD FILTRATE
SUFT.C        15                   : SUFT         - SURFACE TEMPERATURE
~A  DEPTH     PHID     PHIN       GR     RESD     DENS
  105.000    0.337    0.474   60.868   10.380    0.000
  105.250    0.349    0.440   59.038   11.199    0.000
  105.500    0.355    0.441   63.357   12.081    0.000
  105.750    0.363    0.462   67.058   12.555    0.000
  106.000    0.366    0.469   63.386   13.045    0.000
  106.250    0.358    0.467   63.402   13.058    0.000
  106.500    0.355    0.442   68.949   13.069    0.000
  106.750    0.363    0.441   72.041   13.080    0.000
  107.000    0.356    0.462   70.822   12.855    0.000
  107.250    0.334    0.464   65.926   12.865    0.000
  107.500    0.337    0.451   62.864   12.875    0.000
  107.750    0.344    0.440   59.800   12.893    0.000
  108.000    0.339    0.448   56.127   12.900    0.000
  108.250    0.340    0.457   55.529   12.919    0.000
  108.500    0.324    0.458   61.077   12.925    0.000
  108.750    0.312    0.458   66.624   12.701    0.000
  109.000    0.312    0.463   69.097   12.477    0.000
  109.250    0.329    0.479   68.498   12.492    0.000
  109.500    0.353    0.482   63.594   12.498    0.000
  109.750    0.362    0.464   59.309   12.515    0.000
  110.000    0.348    0.464   59.937   12.761    0.000
  110.250    0.347    0.471   64.254   12.777    0.000
  110.500    0.351    0.479   71.033   12.784    0.000
  110.750    0.358    0.459   71.050   12.800    0.000
  111.000    0.352    0.444   68.604   12.808    0.000
  111.250    0.336    0.447   66.159   12.825    0.000
  111.500    0.330    0.459   65.558   12.833    0.000
  111.750    0.336    0.456   62.502   12.850    0.000
  112.000    0.339    0.458   58.213   12.857    0.000
  112.250    0.328    0.470   55.764   12.872    0.000
  112.500    0.322    0.484   52.709   13.129    0.000
  112.750    0.330    0.487   55.180   13.145    0.000
  113.000    0.336    0.482   58.269   13.152    0.000
  113.250    0.345    0.473   55.211   13.166    0.000
  113.500    0.355    0.451   54.611   13.178    0.000
  113.750    0.353    0.426   54.010   13.194    0.000
  114.000    0.349    0.455   52.797   12.957    0.000
  114.250    0.351    0.456   52.812   12.974    0.000
  114.500    0.352    0.431   60.204   12.981    0.000
  114.750    0.354    0.426   64.521   12.755    0.000
  115.000    0.356    0.422   63.307   12.768    0.000
  115.250    0.358    0.428   56.558   12.546    0.000
  115.500    0.356    0.424   53.501   12.557    0.000
  115.750    0.349    0.419   54.745   12.332    0.000
  116.000    0.346    0.436   60.910   12.119    0.000
  116.250    0.352    0.447   60.921   12.131    0.000
  116.500    0.362    0.425   52.946   12.373    0.000
  116.750    0.353    0.411   53.578   12.383    0.000
  117.000    0.345    0.418   54.205   12.393    0.000
  117.250    0.346    0.452   53.605   12.404    0.000
  117.500    0.362    0.458   61.613   12.186    0.000
  117.750    0.373    0.472   66.547   12.199    0.000
  118.000    0.333    0.500   61.640   12.210    0.000
  118.250    0.326    0.481   50.592   11.996    0.000
  118.500    0.347    0.442   45.074   12.008    0.000
  118.750    0.359    0.419   44.471   11.796    0.000
  119.000    0.357    0.430   57.397   11.375    0.000
  119.250    0.332    0.462   61.104   10.764    0.000
  119.500    0.341    0.459   61.115    9.995    0.000
  119.750    0.354    0.446   68.512    8.453    0.000
  120.000    0.323    0.464   75.900    7.017    0.000
  120.250    0.283    0.496   93.745    6.277    0.000
  120.500    0.271    0.516  100.523    5.830    0.000
  120.750    0.282    0.499  106.071    6.059    0.000
  121.000    0.288    0.500   93.177    6.659    0.000
  121.250    0.286    0.489   84.583    8.503    0.000
  121.500    0.308    0.477   74.760   10.456    0.000
  121.750    0.325    0.467   64.326   13.350    0.000
  122.000    0.305    0.458   58.190   15.815    0.000
  122.250    0.289    0.436   52.674   16.747    0.000
  122.500    0.297    0.404   59.451   14.980    0.000
  122.750    0.339    0.412   69.300   11.755    0.000
  123.000    0.325    0.418   88.989    8.402    0.000
  123.250    0.284    0.427  104.378    6.845    0.000
  123.500    0.264    0.462  108.696    6.123    0.000
  123.750    0.253    0.479  111.171    5.377    0.000
  124.000    0.243    0.494  113.645    4.993    0.000
  124.250    0.237    0.509  114.885    4.468    0.000
  124.500    0.239    0.512  113.057    4.228    0.000
  124.750    0.252    0.521  110.001    4.000    0.000
  125.000    0.262    0.516  110.628    3.858    0.000
  125.250    0.268    0.511  115.561    3.720    0.000
  125.500    0.272    0.541  114.960    3.654    0.000
  125.750    0.280    0.571  110.057    3.589    0.000
  126.000    0.288    0.574  110.073    3.528    0.000
  126.250    0.274    0.556  110.090    3.530    0.000
  126.500    0.255    0.538  108.873    3.534    0.000
  126.750    0.257    0.539  106.430    3.603    0.000
  127.000    0.256    0.525  107.672    3.744    0.000
  127.250    0.261    0.526  112.605    4.117    0.000
  127.500    0.275    0.520  108.317    4.357    0.000
  127.750    0.287    0.520   95.422    4.700    0.000
  128.000    0.291    0.498   93.594    5.072    0.000
  128.250    0.290    0.470  101.602    4.981    0.000
  128.500    0.279    0.457  107.764    4.542    0.000
  128.750    0.269    0.507  110.854    4.298    0.000
  129.000    0.262    0.549  110.868    4.066    0.000
  129.250    0.253    0.558  107.195    3.849    0.000
  129.500    0.248    0.584  106.592    3.710    0.000
  129.750    0.251    0.609  107.838    3.646    0.000
  130.000    0.258    0.560  102.935    3.581    0.000
  130.250    0.261    0.520   99.876    3.653    0.000
  130.500    0.264    0.530  101.117    3.656    0.000
  130.750    0.274    0.566  106.668    3.660    0.000
  131.000    0.261    0.580  107.300    3.595    0.000
  131.250    0.263    0.597  106.695    3.531    0.000
  131.500    0.276    0.582  106.098    3.469    0.000
  131.750    0.277    0.586  110.418    3.408    0.000
  132.000    0.276    0.589  113.502    3.411    0.000
  132.250    0.282    0.584  114.749    3.479    0.000
  132.500    0.290    0.551  111.073    3.970    0.000
  132.750    0.293    0.537   88.341    4.703    0.000
  133.000    0.271    0.518   84.052    5.784    0.000
  133.250    0.259    0.478   83.453    6.726    0.000
  133.500    0.238    0.450   83.467    6.987    0.000
  133.750    0.199    0.435   92.704    6.996    0.000
  134.000    0.201    0.465  104.400    6.746    0.000
  134.250    0.224    0.470  100.116    6.381    0.000
  134.500    0.255    0.479   93.365    5.818    0.000
  134.750    0.260    0.506   92.763    5.404    0.000
  135.000    0.241    0.516   98.929    5.308    0.000
  135.250    0.240    0.473  100.785    5.312    0.000
  135.500    0.258    0.462  100.186    5.221    0.000
  135.750    0.288    0.453   94.054    5.127    0.000
  136.000    0.281    0.449   96.533    4.674    0.000
  136.250    0.270    0.496  102.691    4.423    0.000
  136.500    0.268    0.520  107.011    4.108    0.000
  136.750    0.278    0.552  107.641    3.815    0.000
  137.000    0.280    0.587  105.811    3.819    0.000
  137.250    0.268    0.561  103.981    3.968    0.000
  137.500    0.269    0.536  102.154    4.124    0.000
  137.750    0.286    0.539  104.014    4.368    0.000
  138.000    0.286    0.545  103.412    4.625    0.000
  138.250    0.269    0.543   99.123    4.804    0.000
  138.500    0.271    0.532   97.292    5.280    0.000
  138.750    0.286    0.520   93.001    5.914    0.000
  139.000    0.304    0.501   81.952    6.380    0.000
  139.250    0.302    0.480   86.275    6.754    0.000
  139.500    0.281    0.462   90.590    7.020    0.000
  139.750    0.270    0.443   91.834    7.159    0.000
  140.000    0.266    0.450   96.153    7.033    0.000
  140.250    0.275    0.466   96.784    7.041    0.000
  140.500    0.268    0.469   91.881    7.182    0.000
  140.750    0.265    0.464   88.817    7.321    0.000
  141.000    0.265    0.452   86.375    7.753    0.000
  141.250    0.259    0.455   84.547    7.908    0.000
