~VERSION INFORMATION
 VERS.                 2.0:   CWLS LOG ASCII STANDARD -VERSION 2.0
 WRAP.                  NO:   ONE LINE PER DEPTH STEP
~WELL INFORMATION BLOCK
#MNEM.UNIT           DATA                    DESCRIPTION OF MNEMONIC
#---------    -------------------            -------------------------------
# Generated from Intellog Unique Number	CS_71_72/WELL/929
WELL.         AEC ET AL FOSTER CREEK         : Well_name    - WELL
LOC .         00/16-36-072-01W4/0            : Location     - LOCATION
UWI .         00/16-36-072-01W4/0            : Uwi          - UNIQUE WELL ID
ENTR.         SP                             : Entered      - ENTERED BY
SRVC.         SCHLUMBERGER                   : Scn          - SERVICE COMPANY
STRT.M        315                            : top_depth    - START DEPTH
STOP.M        585                            : bot_depth    - STOP DEPTH
STEP.M        0.25                           : increment    - STEP LENGTH
 NULL. -999.2500:NULL Value
~CURVE INFORMATION BLOCK
#MNEM UNIT       ERCB CURVE CODE    CURVE DESCRIPTION
#-----------   ------------------   ----------------------------------
DEPT.M        00 001 00 00         : DEPTH        - DEPTH
ILD .OHMM     00 120 00 00         : RESD         - DEEP RESISTIVITY (DIL)
DPHI.V/V      00 890 00 00         : PHID         - DENSITY POROSITY (LIMESTONE)
NPHI.V/V      00 330 00 00         : PHIN         - NEUTRON POROSITY (LIMESTONE)
GR  .API      00 310 00 00         : GR           - GAMMA RAY
~PARAMETER INFORMATION
#MNEM.UNIT           DATA             DESCRIPTION OF MNEMONIC
#---------         -----------     ------------------------------
GL  .M        676                  : gl           - GROUND LEVEL ELEVATION
EREF.M        680.3                : kb           - ELEVATION OF DEPTH REFERENCE
DATM.M        676                  : datum        - DATUM ELEVATION
TDD .M        775                  : tdd          - TOTAL DEPTH DRILLER
RUN .         ONE                  : Run          - RUN NUMBER
ENG .         BILL                 : Engineer     - RECORDING ENGINEER
WIT .         JIM                  : Witness      - WITNESSED BY
MUD .         GEL                  : Mud_type     - MUD TYPE
MATR.         LIMESTONE            : Logunit      - NEUTRON MATRIX
TMAX.C        19                   : BHT          - MAXIMUM RECORDED TEMPERATURE
BHTD.M        775                  : BHTDEP       - MAXIMUM RECORDED TEMPERATURE
MATR.         1                    : LOGUNIT      - NEUTRON MATRIX
RMT .C        25                   : MDTP         - TEMPERATURE OF MUD
NEUT.         1                    : NEUTRON      - NEUTRON TYPE
RESI.         0                    : RESIST       - RESISTIVITY TYPE
RMC .OHMM     0.25                 : RMC          - RESISTIVITY OF MUD CAKE
RMF .OHMM     0.25                 : RMF          - RESISTIVITY OF MUD FILTRATE
SUFT.C        15                   : SUFT         - SURFACE TEMPERATURE
~A  DEPTH     RESD     PHID     PHIN       GR
# ...
  532.500    3.429    0.295    0.313   23.470
  532.750    3.429    0.289    0.305   23.459
  533.000    3.429    0.286    0.300   22.826
  533.250    3.429    0.294    0.295   22.814
  533.500    3.365    0.310    0.303   22.805
  533.750    3.365    0.316    0.330   23.408
  534.000    3.365    0.307    0.354   23.395
  534.250    3.303    0.301    0.370   23.986
  534.500    3.242    0.295    0.340   23.976
  534.750    3.182    0.291    0.325   23.968
  535.000    3.065    0.299    0.328   24.569
  535.250    3.009    0.313    0.346   25.781
  535.500    2.953    0.323    0.333   23.320
  535.750    2.898    0.329    0.334   18.404
  536.000    2.845    0.329    0.352   17.784
  536.250    2.845    0.323    0.364   18.384
  536.500    2.792    0.321    0.367   19.598
  536.750    2.792    0.322    0.370   22.635
  537.000    2.792    0.313    0.383   20.796
  537.250    2.792    0.311    0.395   22.008
  537.500    2.792    0.312    0.377   23.214
  537.750    2.792    0.324    0.364   23.817
  538.000    2.792    0.327    0.351   23.803
  538.250    2.741    0.327    0.352   23.788
  538.500    2.741    0.329    0.343   23.167
  538.750    2.741    0.333    0.338   22.546
  539.000    2.741    0.332    0.337   23.753
  539.250    2.741    0.328    0.349   24.352
  539.500    2.690    0.327    0.372   24.954
  539.750    2.690    0.327    0.367   24.942
  540.000    2.640    0.329    0.361   24.927
  540.250    2.640    0.333    0.355   24.302
  540.500    2.640    0.337    0.355   23.678
  540.750    2.690    0.338    0.363   23.054
  541.000    2.741    0.331    0.372   23.037
  541.250    2.792    0.326    0.338   23.029
  541.500    2.845    0.325    0.324   23.631
  541.750    2.898    0.325    0.327   24.839
  542.000    2.898    0.319    0.337   25.438
  542.250    3.065    0.308    0.338   25.428
  542.500    3.365    0.304    0.327   26.028
  542.750    3.695    0.312    0.321   36.422
  543.000    4.056    0.303    0.314   52.329
  543.250    4.537    0.264    0.364   71.294
  543.500    5.367    0.221    0.407   84.136
  543.750    6.232    0.210    0.428   90.857
  544.000    6.841    0.226    0.450   92.684
  544.250    6.715    0.232    0.375   83.484
  544.500    5.468    0.232    0.313   77.351
  544.750    4.709    0.240    0.294   65.091
  545.000    4.210    0.271    0.344   60.188
  545.250    3.695    0.298    0.372   49.769
  545.500    3.303    0.318    0.395   38.736
  545.750    3.123    0.328    0.416   32.602
  546.000    3.065    0.314    0.397   28.303
  546.250    3.065    0.298    0.386   34.408
  546.500    3.182    0.286    0.368   38.681
  546.750    3.365    0.266    0.345   41.735
  547.000    3.493    0.257    0.348   48.456
  547.250    3.626    0.263    0.383   52.729
  547.500    3.626    0.257    0.371   57.607
  547.750    3.559    0.247    0.364   58.825
  548.000    3.429    0.251    0.396   49.625
  548.250    3.303    0.285    0.384   45.332
  548.500    3.123    0.293    0.370   37.971
  548.750    2.953    0.299    0.368   33.676
  549.000    2.845    0.322    0.402   25.703
  549.250    2.845    0.356    0.427   19.569
  549.500    2.792    0.301    0.404   31.186
  549.750    2.845    0.267    0.375   42.193
  550.000    2.898    0.255    0.369   48.916
  550.250    2.845    0.295    0.397   37.269
  550.500    2.741    0.342    0.385   31.751
  550.750    2.591    0.355    0.378   25.003
  551.000    2.543    0.327    0.366   26.829
  551.250    2.640    0.324    0.367   23.137
  551.500    2.792    0.316    0.362   26.190
  551.750    2.953    0.309    0.358   35.355
  552.000    3.009    0.293    0.380   39.019
  552.250    2.953    0.288    0.392   42.069
  552.500    2.898    0.286    0.395   45.118
  552.750    2.792    0.282    0.386   42.046
  553.000    2.690    0.294    0.398   31.012
  553.250    2.543    0.311    0.413   23.650
  553.500    2.450    0.320    0.390   22.417
  553.750    2.450    0.327    0.372   18.728
  554.000    2.405    0.338    0.368   16.270
  554.250    2.591    0.350    0.365   13.198
  554.500    2.953    0.343    0.368   10.735
  554.750    3.429    0.302    0.380   13.781
  555.000    3.907    0.274    0.356   16.220
  555.250    4.371    0.236    0.344   21.103
  555.500    4.981    0.223    0.412   22.931
  555.750    5.170    0.227    0.431   49.854
  556.000    5.170    0.228    0.445   62.086
  556.250    5.170    0.223    0.407   65.129
  556.500    4.981    0.219    0.396   68.794
  556.750    4.622    0.224    0.385   77.953
  557.000    4.622    0.221    0.417   81.007
  557.250    4.709    0.219    0.433   83.448
  557.500    4.889    0.227    0.458   85.273
  557.750    5.170    0.230    0.485   84.030
  558.000    5.468    0.233    0.468   82.184
  558.250    5.783    0.239    0.480   78.502
  558.500    6.003    0.237    0.498   74.816
  558.750    6.232    0.232    0.486   68.675
  559.000    6.349    0.233    0.463   66.219
  559.250    6.469    0.227    0.439   63.759
  559.500    6.591    0.222    0.428   63.742
  559.750    6.591    0.217    0.411   67.400
  560.000    6.715    0.215    0.428   69.227
  560.250    6.715    0.225    0.462   72.277
  560.500    6.469    0.238    0.479   74.715
  560.750    6.349    0.244    0.490   76.537
  561.000    6.232    0.245    0.486   77.133
  561.250    6.116    0.236    0.480   75.898
  561.500    6.003    0.232    0.472   74.663
  561.750    6.003    0.230    0.467   75.265
  562.000    5.783    0.227    0.494   77.087
  562.250    5.571    0.234    0.508   78.302
  562.500    5.468    0.225    0.506   73.387
  562.750    5.676    0.205    0.455   69.705
  563.000    6.116    0.186    0.399   64.179
  563.250    6.591    0.171    0.390   66.008
  563.500    7.102    0.176    0.397   67.832
  563.750    7.652    0.180    0.385   64.757
  564.000    7.943    0.170    0.367   65.357
  564.250    8.093    0.155    0.374   65.346
  564.500    8.093    0.128    0.390   70.223
  564.750    7.943    0.115    0.398   73.275
  565.000    7.796    0.151    0.401   75.103
  565.250    7.652    0.176    0.402   74.475
  565.500    7.372    0.185    0.392   68.339
  565.750    7.102    0.175    0.385   64.657
  566.000    6.970    0.167    0.383   62.195
  566.250    6.970    0.161    0.390   60.954
  566.500    7.102    0.171    0.385   60.946
  566.750    7.511    0.185    0.379   60.323
  567.000    7.652    0.195    0.385   60.309
  567.250    7.652    0.201    0.372   60.288
  567.500    7.372    0.192    0.365   60.889
  567.750    7.102    0.183    0.375   61.494
  568.000    6.591    0.175    0.394   66.378
  568.250    6.116    0.213    0.413   70.042
  568.500    5.783    0.230    0.429   77.375
  568.750    5.367    0.249    0.487   81.035
  569.000    5.075    0.274    0.526   81.635
  569.250    4.889    0.260    0.537   83.459
  569.500    4.889    0.251    0.547   85.282
  569.750    4.798    0.252    0.568   84.654
  570.000    4.798    0.248    0.595   81.580
  570.250    4.798    0.245    0.568   79.732
  570.500    4.889    0.259    0.543   79.721
  570.750    4.981    0.262    0.551   83.381
  571.000    4.981    0.259    0.532   85.207
  571.250    4.981    0.258    0.514   79.685
  571.500    4.981    0.253    0.514   74.161
  571.750    4.889    0.252    0.524   72.928
  572.000    4.798    0.259    0.533   79.032
  572.250    4.622    0.264    0.510   80.860
  572.500    4.453    0.256    0.524   81.457
  572.750    4.371    0.251    0.533   84.504
  573.000    4.133    0.249    0.531   85.722
  573.250    3.981    0.246    0.527   83.868
  573.500    3.907    0.246    0.531   81.404
  573.750    3.981    0.250    0.538   80.785
  574.000    3.981    0.250    0.551   81.995
  574.250    4.133    0.249    0.520   83.209
  574.500    4.210    0.246    0.511   86.862
  574.750    4.371    0.239    0.549   88.691
  575.000    4.453    0.233    0.576   89.902
  575.250    4.453    0.229    0.562   89.282
  575.500    4.453    0.232    0.551   85.595
  575.750    4.453    0.232    0.534   82.517
