~VERSION INFORMATION
 VERS.                 2.0:   CWLS LOG ASCII STANDARD -VERSION 2.0
 WRAP.                  NO:   ONE LINE PER DEPTH STEP
~WELL INFORMATION BLOCK
#MNEM.UNIT           DATA                    DESCRIPTION OF MNEMONIC
#---------    -------------------            -------------------------------
# Generated from Intellog Unique Number	CS_73_76/WELL/3228
WELL.         10-01-076-05W4                 : Well_name    - WELL
LOC .         00/10-01-076-05W4/0            : Location     - LOCATION
UWI .         00/10-01-076-05W4/0            : Uwi          - UNIQUE WELL ID
ENTR.         SP                             : Entered      - ENTERED BY
SRVC.         SCHLUMBERGER                   : Scn          - SERVICE COMPANY
STRT.M        228.6                          : top_depth    - START DEPTH
STOP.M        481.35                         : bot_depth    - STOP DEPTH
STEP.M        0.25                           : increment    - STEP LENGTH
 NULL. -999.2500:NULL Value
~CURVE INFORMATION BLOCK
#MNEM UNIT       ERCB CURVE CODE    CURVE DESCRIPTION
#-----------   ------------------   ----------------------------------
DEPT.M        00 001 00 00         : DEPTH        - DEPTH
GR  .API      00 310 00 00         : GR           - GAMMA RAY
DPHI.V/V      00 890 00 00         : PHID         - DENSITY POROSITY (SANDSTONE)
NPHI.V/V      00 330 00 00         : PHIN         - NEUTRON POROSITY (SANDSTONE)
ILD .OHMM     00 120 00 00         : RESD         - DEEP RESISTIVITY (DIL)
~PARAMETER INFORMATION
#MNEM.UNIT           DATA             DESCRIPTION OF MNEMONIC
#---------         -----------     ------------------------------
GL  .M        620.878              : gl           - GROUND LEVEL ELEVATION
EREF.M        624.23               : kb           - ELEVATION OF DEPTH REFERENCE
DATM.M        620.878              : datum        - DATUM ELEVATION
TDD .M        489.204              : tdd          - TOTAL DEPTH DRILLER
RUN .         ONE                  : Run          - RUN NUMBER
ENG .         BILL                 : Engineer     - RECORDING ENGINEER
WIT .         JIM                  : Witness      - WITNESSED BY
MUD .         GEL                  : Mud_type     - MUD TYPE
MATR.         SANDSTONE            : Logunit      - NEUTRON MATRIX
TMAX.C        33.3333              : BHT          - MAXIMUM RECORDED TEMPERATURE
BHTD.M        489.204              : BHTDEP       - MAXIMUM RECORDED TEMPERATURE
MATR.         1                    : LOGUNIT      - NEUTRON MATRIX
RMT .C        25                   : MDTP         - TEMPERATURE OF MUD
NEUT.         1                    : NEUTRON      - NEUTRON TYPE
RESI.         0                    : RESIST       - RESISTIVITY TYPE
RMC .OHMM     0.25                 : RMC          - RESISTIVITY OF MUD CAKE
RMF .OHMM     0.25                 : RMF          - RESISTIVITY OF MUD FILTRATE
SUFT.C        15                   : SUFT         - SURFACE TEMPERATURE
~A  DEPTH       GR     PHID     PHIN     RESD
# ...
  446.100   34.869    0.306    0.373    4.729
  446.350   36.290    0.314    0.371    5.094
  446.600   37.996    0.320    0.364    5.438
  446.850   36.886    0.315    0.372    6.035
  447.100   34.152    0.311    0.373    6.573
  447.350   32.721    0.314    0.369    6.257
  447.600   31.447    0.321    0.364    5.598
  447.850   30.387    0.319    0.362    4.833
  448.100   30.192    0.314    0.360    4.336
  448.350   30.157    0.310    0.357    4.075
  448.600   29.822    0.307    0.367    4.013
  448.850   29.477    0.305    0.361    4.149
  449.100   28.921    0.304    0.356    4.568
  449.350   27.618    0.314    0.355    4.919
  449.600   28.407    0.309    0.349    5.290
  449.850   29.320    0.304    0.345    5.497
  450.100   30.166    0.307    0.352    5.171
  450.350   30.107    0.306    0.348    4.709
  450.600   29.750    0.306    0.342    4.374
  450.850   28.782    0.309    0.338    4.080
  451.100   29.964    0.306    0.341    3.982
  451.350   32.701    0.303    0.351    3.783
  451.600   33.894    0.305    0.359    3.677
  451.850   33.346    0.302    0.362    3.560
  452.100   31.833    0.301    0.359    3.524
  452.350   31.155    0.306    0.350    3.491
  452.600   30.625    0.300    0.349    3.435
  452.850   30.636    0.302    0.357    3.422
  453.100   30.633    0.307    0.353    3.419
  453.350   30.563    0.315    0.354    3.446
  453.600   31.302    0.318    0.353    3.477
  453.850   31.204    0.316    0.340    3.551
  454.100   29.527    0.304    0.335    3.592
  454.350   30.068    0.296    0.327    3.617
  454.600   28.788    0.296    0.320    3.614
  454.850   28.763    0.304    0.316    3.689
  455.100   28.739    0.294    0.314    3.673
  455.350   28.834    0.297    0.324    3.677
  455.600   27.226    0.298    0.322    3.606
  455.850   25.609    0.297    0.321    3.614
  456.100   26.974    0.290    0.330    3.668
  456.350   30.134    0.299    0.332    3.681
  456.600   30.509    0.294    0.334    3.682
  456.850   28.537    0.285    0.330    3.682
  457.100   26.812    0.278    0.328    3.681
  457.350   26.264    0.280    0.328    3.681
  457.600   27.304    0.279    0.329    3.681
  457.850   27.594    0.282    0.331    3.682
  458.100   30.227    0.288    0.334    3.625
  458.350   31.772    0.288    0.337    3.552
  458.600   31.694    0.285    0.340    3.403
  458.850   31.235    0.285    0.338    3.467
  459.100   30.454    0.288    0.336    3.469
  459.350   29.810    0.288    0.326    3.544
  459.600   29.902    0.274    0.308    3.585
  459.850   29.150    0.268    0.299    3.705
  460.100   29.200    0.270    0.291    3.745
  460.350   28.805    0.274    0.290    3.823
  460.600   28.596    0.277    0.292    3.821
  460.850   28.583    0.279    0.297    3.748
  461.100   28.918    0.286    0.302    3.708
  461.350   29.246    0.282    0.298    3.676
  461.600   29.764    0.273    0.296    3.674
  461.850   30.928    0.266    0.296    3.673
  462.100   33.008    0.260    0.291    3.673
  462.350   36.158    0.256    0.291    3.673
  462.600   40.868    0.248    0.288    3.680
  462.850   48.049    0.245    0.290    3.960
  463.100   60.880    0.239    0.322    4.186
  463.350   78.529    0.219    0.355    4.357
  463.600   97.926    0.186    0.398    4.590
  463.850  109.928    0.200    0.428    4.643
  464.100  112.936    0.225    0.462    4.678
  464.350  112.318    0.210    0.495    4.678
  464.600  111.896    0.193    0.506    4.626
  464.850  108.409    0.189    0.483    4.683
  465.100  103.952    0.218    0.470    4.803
  465.350   92.123    0.234    0.465    5.228
  465.600   86.502    0.250    0.470    5.552
  465.850   82.116    0.267    0.473    5.830
  466.100   74.607    0.271    0.461    6.019
  466.350   67.299    0.284    0.444    5.964
  466.600   66.763    0.318    0.435    5.975
  466.850   76.448    0.311    0.422    5.815
  467.100   89.098    0.227    0.388    5.742
  467.350  103.132    0.168    0.382    5.789
  467.600  106.877    0.168    0.390    5.956
  467.850  101.915    0.168    0.398    6.237
  468.100   97.296    0.149    0.405    6.559
  468.350   91.204    0.113    0.403    6.543
  468.600   91.899    0.150    0.397    6.551
  468.850  104.935    0.184    0.414    6.370
  469.100  113.479    0.230    0.427    6.179
  469.350  116.905    0.250    0.452    5.590
  469.600  110.123    0.286    0.478    5.009
  469.850   89.438    0.331    0.503    4.593
  470.100   71.703    0.369    0.538    4.171
  470.350   58.670    0.386    0.575    4.289
  470.600   44.818    0.394    0.647    5.318
  470.850   32.966    0.287    0.526    6.792
  471.100   26.645    0.164    0.374    8.818
  471.350   24.637    0.146    0.348    9.988
  471.600   25.726    0.135    0.333   12.526
  471.850   27.752    0.118    0.330   13.894
  472.100   30.852    0.111    0.333   14.843
  472.350   31.954    0.111    0.309   14.803
  472.600   34.289    0.114    0.291   14.334
  472.850   36.815    0.125    0.294   13.927
  473.100   39.428    0.132    0.304   12.703
  473.350   41.911    0.133    0.313   11.489
  473.600   47.728    0.125    0.325   10.374
  473.850   50.889    0.127    0.340    9.574
  474.100   57.550    0.135    0.353    9.041
  474.350   61.441    0.115    0.367    8.387
  474.600   62.235    0.106    0.384    7.977
  474.850   64.543    0.127    0.373    7.419
  475.100   73.735    0.148    0.381    6.664
  475.350   83.793    0.166    0.397    6.031
  475.600  101.717    0.170    0.420    5.513
  475.850  108.841    0.164    0.442    5.082
  476.100  110.652    0.163    0.456    4.666
  476.350  114.211    0.170    0.469    4.248
  476.600  118.802    0.187    0.478    4.101
  476.850  118.124    0.208    0.495    4.457
  477.100  108.626    0.193    0.499    5.016
  477.350   83.627    0.189    0.478    6.072
  477.600   68.058    0.066    0.443    7.739
  477.850   52.833    0.029    0.362   10.598
  478.100   39.062    0.015    0.278   14.537
  478.350   32.430    0.005    0.187   18.591
  478.600   28.709   -0.000    0.140   22.425
  478.850   26.807   -0.000    0.119   24.149
  479.100   24.730    0.000    0.111   25.386
  479.350   23.420    0.000    0.104   26.176
  479.600   22.510   -0.000    0.106   26.510
  479.850   23.751    0.005    0.112   25.148
  480.100   27.662    0.009    0.141   23.914
  480.350   43.996    0.019    0.177   22.078
  480.600   52.325    0.025    0.199   20.895
  480.850   54.489    0.026    0.190   20.759
  481.100   49.045    0.025    0.157   21.048
  481.350   40.142    0.017    0.134   21.732
