~VERSION INFORMATION
 VERS.                 2.0:   CWLS LOG ASCII STANDARD -VERSION 2.0
 WRAP.                  NO:   ONE LINE PER DEPTH STEP
~WELL INFORMATION BLOCK
#MNEM.UNIT           DATA                    DESCRIPTION OF MNEMONIC
#---------    -------------------            -------------------------------
# Generated from Intellog Unique Number	CW_79_81/WELL/2493
WELL.         GULF WABASCA                   : Well_name    - WELL
LOC .         00/15-36-080-19W4/0            : Location     - LOCATION
UWI .         00/15-36-080-19W4/0            : Uwi          - UNIQUE WELL ID
ENTR.         MAX                            : Entered      - ENTERED BY
SRVC.         SCHLUMBERGER                   : Scn          - SERVICE COMPANY
STRT.M        137.16                         : top_depth    - START DEPTH
STOP.M        365.41                         : bot_depth    - STOP DEPTH
STEP.M        0.25                           : increment    - STEP LENGTH
 NULL. -999.2500:NULL Value
~CURVE INFORMATION BLOCK
#MNEM UNIT       ERCB CURVE CODE    CURVE DESCRIPTION
#-----------   ------------------   ----------------------------------
DEPT.M        00 001 00 00         : DEPTH        - DEPTH
ILD .OHMM     00 120 00 00         : RESD         - DEEP RESISTIVITY (DIL)
NPHI.V/V      00 330 00 00         : PHIN         - NEUTRON POROSITY (SANDSTONE)
DPHI.V/V      00 890 00 00         : PHID         - DENSITY POROSITY (SANDSTONE)
GR  .API      00 310 00 00         : GR           - GAMMA RAY
CALI.MM       00 280 01 00         : CAL          - CALIPER
~PARAMETER INFORMATION
#MNEM.UNIT           DATA             DESCRIPTION OF MNEMONIC
#---------         -----------     ------------------------------
GL  .M        569.976              : gl           - GROUND LEVEL ELEVATION
EREF.M        573.329              : kb           - ELEVATION OF DEPTH REFERENCE
DATM.M        569.976              : datum        - DATUM ELEVATION
TDD .M        376.733              : tdd          - TOTAL DEPTH DRILLER
RUN .         ONE                  : Run          - RUN NUMBER
ENG .         BILL                 : Engineer     - RECORDING ENGINEER
WIT .         JIM                  : Witness      - WITNESSED BY
MUD .         GEL                  : Mud_type     - MUD TYPE
MATR.         SANDSTONE            : Logunit      - NEUTRON MATRIX
TMAX.C        23.3333              : BHT          - MAXIMUM RECORDED TEMPERATURE
BHTD.M        376.733              : BHTDEP       - MAXIMUM RECORDED TEMPERATURE
MATR.         1                    : LOGUNIT      - NEUTRON MATRIX
RMT .C        20                   : MDTP         - TEMPERATURE OF MUD
NEUT.         1                    : NEUTRON      - NEUTRON TYPE
RESI.         0                    : RESIST       - RESISTIVITY TYPE
RMC .OHMM     7.3                  : RMC          - RESISTIVITY OF MUD CAKE
RMF .OHMM     7.49                 : RMF          - RESISTIVITY OF MUD FILTRATE
SUFT.C        -23.3333             : SUFT         - SURFACE TEMPERATURE
~A  DEPTH     RESD     PHIN     PHID       GR      CAL
  137.160    3.638    0.526    0.266  115.569  181.499
  137.410    3.831    0.522    0.268  114.813  179.802
  137.660    3.955    0.520    0.258  114.467  179.726
  137.910    4.024    0.521    0.249  113.856  180.671
  138.160    4.043    0.527    0.244  112.777  181.615
  138.410    4.033    0.541    0.244  111.828  180.109
  138.660    4.001    0.558    0.240  114.233  176.766
  138.910    3.998    0.561    0.248  116.787  175.132
  139.160    4.147    0.540    0.258  114.773  175.285
  139.410    4.598    0.511    0.256  103.980  176.631
  139.660    5.500    0.478    0.244   86.401  178.671
  139.910    7.434    0.434    0.230   68.316  180.748
  140.160   11.881    0.403    0.212   58.782  179.463
  140.410   15.676    0.383    0.214   47.987  181.797
  140.660   21.297    0.369    0.229   39.652  180.271
  140.910   27.003    0.356    0.239   34.009  174.676
  141.160   29.607    0.343    0.240   31.115  168.384
  141.410   29.686    0.335    0.248   31.530  168.662
  141.660   28.149    0.353    0.259   34.916  170.272
  141.910   23.038    0.370    0.271   42.616  173.002
  142.160   18.116    0.397    0.266   50.492  173.057
  142.410   14.030    0.430    0.268   56.551  172.815
  142.660   11.578    0.453    0.286   58.395  172.970
  142.910   11.091    0.430    0.304   53.703  173.511
  143.160   10.755    0.419    0.282   56.117  178.419
  143.410    9.992    0.433    0.274   60.307  179.569
  143.660    9.026    0.443    0.281   62.914  178.634
  143.910    8.156    0.444    0.280   67.335  177.005
  144.160    7.408    0.439    0.265   74.096  175.673
  144.410    6.518    0.438    0.245   82.072  175.472
  144.660    5.741    0.452    0.219   88.142  176.669
  144.910    5.452    0.477    0.213   88.348  181.382
  145.160    6.275    0.486    0.208   82.413  183.114
  145.410    8.426    0.469    0.210   66.706  182.079
  145.660   13.366    0.430    0.219   45.029  178.376
  145.910   27.846    0.376    0.241   28.026  171.486
  146.160   39.138    0.343    0.267   25.068  168.959
  146.410   37.988    0.364    0.275   26.446  168.122
  146.660   36.070    0.378    0.285   28.000  167.583
  146.910   34.658    0.383    0.293   29.614  167.145
  147.160   33.952    0.379    0.298   31.230  166.807
  147.410   33.386    0.371    0.296   33.232  166.670
  147.660   33.116    0.376    0.297   35.155  166.207
  147.910   32.853    0.383    0.308   34.661  166.560
  148.160   33.122    0.387    0.319   34.692  167.507
  148.410   33.699    0.392    0.316   35.250  167.863
  148.660   34.598    0.397    0.305   35.750  167.525
  148.910   36.104    0.402    0.301   35.310  167.625
  149.160   36.076    0.408    0.291   36.748  168.410
  149.410   30.890    0.402    0.292   36.720  168.375
  149.660   20.545    0.401    0.294   36.695  168.333
  149.910   14.294    0.405    0.302   37.490  168.289
  150.160   10.922    0.409    0.311   40.156  168.245
  150.410    8.781    0.415    0.309   47.636  168.274
  150.660    7.733    0.429    0.313   55.898  168.636
  150.910    5.821    0.464    0.292   69.215  168.597
  151.160    4.561    0.472    0.276   78.138  169.743
  151.410    3.845    0.482    0.268   83.028  172.077
  151.660    3.520    0.506    0.267   86.285  174.807
  151.910    3.671    0.544    0.261   93.216  176.588
  152.160    4.477    0.574    0.256   97.578  177.785
  152.410    5.485    0.583    0.262   85.616  179.326
  152.660    6.612    0.556    0.267   57.850  179.382
  152.910    8.112    0.522    0.278   39.568  178.149
  153.160    9.667    0.481    0.294   39.133  176.616
  153.410    8.666    0.403    0.300   50.094  177.217
  153.660    6.753    0.417    0.290   60.547  180.483
  153.910    5.402    0.470    0.284   71.293  181.219
  154.160    4.437    0.483    0.280   79.577  181.677
  154.410    4.063    0.484    0.275   85.637  182.229
  154.660    4.145    0.487    0.265   89.943  182.876
  154.910    4.533    0.500    0.244   92.115  183.231
  155.160    4.599    0.500    0.249   86.725  183.181
  155.410    4.464    0.489    0.246   82.252  183.533
  155.660    4.286    0.482    0.236   80.410  184.183
  155.910    4.055    0.476    0.226   81.204  185.130
  156.160    3.791    0.474    0.222   84.398  186.177
  156.410    3.477    0.494    0.225   90.198  187.168
  156.660    3.248    0.515    0.234   93.584  188.361
  156.910    3.085    0.526    0.246   96.837  189.105
  157.160    2.930    0.537    0.239  100.440  192.231
  157.410    2.856    0.538    0.231  104.157  192.784
  157.660    2.817    0.536    0.227  107.933  191.751
  157.910    2.665    0.563    0.226  111.977  196.220
  158.160    2.603    0.602    0.251  112.438  197.009
  158.410    2.582    0.584    0.245  108.436  194.191
  158.660    2.590    0.589    0.251  103.203  196.125
  158.910    2.597    0.595    0.253   99.784  196.077
  159.160    2.596    0.592    0.252   99.113  193.059
  159.410    2.593    0.589    0.260  100.015  191.820
  159.660    2.592    0.593    0.261   99.982  191.770
  159.910    2.608    0.609    0.251   99.493  192.523
  160.160    2.583    0.604    0.243   99.004  192.381
  160.410    2.544    0.588    0.237   98.630  193.330
  160.660    2.524    0.572    0.233   98.486  195.172
  160.910    2.570    0.564    0.233   98.879  195.516
  161.160    2.626    0.559    0.228   99.833  195.475
  161.410    2.663    0.563    0.239  100.270  192.657
  161.660    2.699    0.571    0.234   99.660  192.217
  161.910    2.717    0.580    0.230   98.579  192.567
  162.160    2.710    0.589    0.234   97.849  193.014
  162.410    2.684    0.598    0.241   98.964  193.916
  162.660    2.663    0.592    0.236  101.134  194.705
  162.910    2.718    0.592    0.244  103.448  199.021
  163.160    2.776    0.589    0.252  105.589  197.088
  163.410    2.825    0.570    0.256  107.086  194.069
  163.660    2.854    0.547    0.257  107.059  192.839
  163.910    2.855    0.557    0.258  103.777  194.385
  164.160    2.874    0.578    0.230  101.553  196.412
  164.410    2.978    0.568    0.224  100.597  196.368
  164.660    3.167    0.561    0.225   98.758  196.324
  164.910    3.355    0.552    0.230   97.328  196.283
  165.160    3.490    0.542    0.234   96.716  196.143
  165.410    3.626    0.532    0.227   96.107  195.528
  165.660    3.820    0.533    0.238   94.373  194.657
  165.910    4.043    0.519    0.249   92.244  195.005
  166.160    4.167    0.508    0.236   89.761  195.059
  166.410    4.195    0.499    0.226   87.041  195.411
  166.660    4.162    0.497    0.227   84.789  196.061
  166.910    4.122    0.508    0.225   84.636  196.321
  167.160    4.088    0.510    0.234   86.316  195.858
  167.410    4.056    0.519    0.238   87.223  195.026
  167.660    4.002    0.528    0.231   87.782  194.190
  167.910    3.970    0.533    0.225   87.990  193.356
  168.160    3.960    0.530    0.225   87.730  192.521
  168.410    3.928    0.515    0.232   86.771  191.681
  168.660    3.925    0.517    0.236   85.565  192.127
  168.910    3.893    0.517    0.248   86.754  192.494
  169.160    3.842    0.512    0.243   87.856  191.348
  169.410    3.729    0.502    0.230   89.002  190.316
  169.660    3.534    0.493    0.218   89.675  190.470
  169.910    3.264    0.505    0.219   88.953  192.408
  170.160    3.034    0.508    0.237   90.090  192.353
  170.410    2.853    0.561    0.241   92.011  191.890
  170.660    2.727    0.595    0.248   92.023  192.362
  170.910    2.629    0.603    0.247   91.179  193.311
  171.160    2.566    0.594    0.245   90.278  194.257
  171.410    2.538    0.598    0.266   90.440  194.597
  171.660    2.498    0.610    0.266   91.391  194.555
  171.910    2.460    0.611    0.267   93.240  194.512
  172.160    2.410    0.602    0.268   94.385  194.765
  172.410    2.391    0.601    0.270   94.592  194.919
  172.660    2.416    0.610    0.270   93.803  194.874
  172.910    2.485    0.611    0.264   92.475  194.818
  173.160    2.578    0.583    0.260   94.158  194.782
  173.410    2.671    0.568    0.248   94.361  194.738
