~VERSION INFORMATION
 VERS.                 2.0:   CWLS LOG ASCII STANDARD -VERSION 2.0
 WRAP.                  NO:   ONE LINE PER DEPTH STEP
~WELL INFORMATION BLOCK
#MNEM.UNIT           DATA                    DESCRIPTION OF MNEMONIC
#---------    -------------------            -------------------------------
# Generated from Intellog Unique Number	CS_73_76/WELL/2187
WELL.         PEX MARGIE                     : Well_name    - WELL
LOC .         00/10-11-074-09W4/0            : Location     - LOCATION
UWI .         00/10-11-074-09W4/0            : Uwi          - UNIQUE WELL ID
ENTR.         SP                             : Entered      - ENTERED BY
SRVC.         SCHLUMBERGER                   : Scn          - SERVICE COMPANY
STRT.M        285                            : top_depth    - START DEPTH
STOP.M        500                            : bot_depth    - STOP DEPTH
STEP.M        0.25                           : increment    - STEP LENGTH
 NULL. -999.2500:NULL Value
~CURVE INFORMATION BLOCK
#MNEM UNIT       ERCB CURVE CODE    CURVE DESCRIPTION
#-----------   ------------------   ----------------------------------
DEPT.M        00 001 00 00         : DEPTH        - DEPTH
ILD .OHMM     00 120 00 00         : RESD         - DEEP RESISTIVITY (DIL)
DPHI.V/V      00 890 00 00         : PHID         - DENSITY POROSITY (LIMESTONE)
NPHI.V/V      00 330 00 00         : PHIN         - NEUTRON POROSITY (LIMESTONE)
GR  .API      00 310 00 00         : GR           - GAMMA RAY
~PARAMETER INFORMATION
#MNEM.UNIT           DATA             DESCRIPTION OF MNEMONIC
#---------         -----------     ------------------------------
GL  .M        659.5                : gl           - GROUND LEVEL ELEVATION
EREF.M        663.3                : kb           - ELEVATION OF DEPTH REFERENCE
DATM.M        659.5                : datum        - DATUM ELEVATION
TDD .M        609                  : tdd          - TOTAL DEPTH DRILLER
RUN .         ONE                  : Run          - RUN NUMBER
ENG .         BILL                 : Engineer     - RECORDING ENGINEER
WIT .         JIM                  : Witness      - WITNESSED BY
MUD .         GEL                  : Mud_type     - MUD TYPE
MATR.         LIMESTONE            : Logunit      - NEUTRON MATRIX
TMAX.C        22.5                 : BHT          - MAXIMUM RECORDED TEMPERATURE
BHTD.M        609                  : BHTDEP       - MAXIMUM RECORDED TEMPERATURE
MATR.         1                    : LOGUNIT      - NEUTRON MATRIX
RMT .C        25                   : MDTP         - TEMPERATURE OF MUD
NEUT.         1                    : NEUTRON      - NEUTRON TYPE
RESI.         0                    : RESIST       - RESISTIVITY TYPE
RMC .OHMM     0.25                 : RMC          - RESISTIVITY OF MUD CAKE
RMF .OHMM     0.25                 : RMF          - RESISTIVITY OF MUD FILTRATE
SUFT.C        15                   : SUFT         - SURFACE TEMPERATURE
~A  DEPTH     RESD     PHID     PHIN       GR
# ...
  328.500   10.683    0.213    0.390   89.518
  328.750   10.476    0.199    0.401   90.126
  329.000   10.672    0.215    0.409   89.520
  329.250   10.669    0.237    0.404   85.878
  329.500   10.867    0.236    0.389   82.843
  329.750   10.660    0.225    0.394   81.629
  330.000   10.260    0.210    0.411   88.311
  330.250    9.330    0.201    0.447   94.385
  330.500    8.324    0.198    0.472   98.031
  330.750    7.862    0.193    0.469   97.425
  331.000    7.148    0.201    0.483   97.426
  331.250    7.012    0.222    0.475   94.999
  331.500    7.009    0.218    0.480   88.927
  331.750    7.416    0.229    0.467   84.070
  332.000    8.302    0.233    0.459   81.642
  332.250    8.785    0.228    0.461   82.251
  332.500    9.294    0.229    0.467   82.860
  332.750    9.650    0.228    0.455   83.468
  333.000   10.015    0.227    0.463   85.899
  333.250    9.823    0.238    0.453   88.329
  333.500    9.820    0.237    0.417   88.939
  333.750   10.005    0.211    0.363   86.511
  334.000   10.191    0.175    0.387   85.297
  334.250   10.580    0.097    0.371   78.618
  334.500   11.846    0.054    0.211   68.296
  334.750   12.535    0.016    0.184   58.581
  335.000   14.036    0.000    0.182   49.473
  335.250   17.274    0.000    0.184   45.223
  335.500   20.091    0.000    0.191   45.225
  335.750   22.930    0.000    0.205   47.048
  336.000   22.918    0.000    0.213   52.515
  336.250   21.241    0.000    0.237   59.804
  336.500   17.907    0.033    0.348   66.485
  336.750   15.978    0.207    0.413   72.560
  337.000   13.468    0.226    0.466   73.776
  337.250   12.720    0.234    0.479   73.170
  337.500   12.242    0.238    0.483   72.564
  337.750   12.009    0.238    0.487   75.602
  338.000   11.778    0.242    0.487   77.425
  338.250   11.552    0.226    0.470   80.463
  338.500   11.118    0.218    0.452   81.072
  338.750   10.906    0.216    0.437   80.466
  339.000   10.497    0.249    0.443   77.431
  339.250   10.296    0.270    0.431   76.218
  339.500   10.096    0.282    0.411   76.219
  339.750   10.091    0.280    0.396   78.650
  340.000   10.280    0.269    0.406   79.866
  340.250   10.275    0.264    0.427   77.438
  340.500   10.875    0.258    0.436   71.974
  340.750   10.869    0.250    0.420   71.975
  341.000   10.661    0.243    0.404   76.228
  341.250   10.457    0.237    0.398   78.658
  341.500   10.453    0.232    0.400   75.623
  341.750   10.647    0.232    0.401   75.624
  342.000   10.848    0.239    0.398   73.804
  342.250   11.048    0.242    0.404   70.162
  342.500   11.255    0.237    0.418   75.022
  342.750   11.252    0.232    0.425   75.630
  343.000   11.461    0.234    0.412   73.810
  343.250   11.031    0.238    0.412   72.597
  343.500   10.617    0.240    0.420   72.598
  343.750   10.414    0.239    0.417   72.600
  344.000   10.607    0.238    0.431   73.816
  344.250   10.604    0.234    0.445   73.817
  344.500   11.216    0.238    0.443   73.211
  344.750   11.002    0.247    0.432   71.998
  345.000   10.998    0.242    0.433   71.392
  345.250   11.204    0.237    0.439   71.393
  345.500   11.201    0.239    0.437   71.395
  345.750   11.196    0.245    0.433   70.789
  346.000   11.191    0.253    0.436   70.790
  346.250   10.976    0.249    0.428   70.792
  346.500   10.972    0.252    0.434   71.400
  346.750   10.968    0.255    0.447   72.009
  347.000   10.757    0.249    0.434   73.225
  347.250   10.159    0.244    0.425   73.833
  347.500    9.065    0.247    0.426   75.657
  347.750    8.089    0.252    0.420   76.873
  348.000    7.082    0.249    0.413   81.125
  348.250    6.201    0.249    0.453   83.556
  348.500    5.227    0.252    0.504   85.379
  348.750    4.844    0.253    0.523   84.166
  349.000    4.322    0.252    0.513   85.382
  349.250    4.160    0.243    0.509   88.420
  349.500    4.237    0.242    0.521   89.028
  349.750    4.483    0.248    0.526   84.172
  350.000    5.415    0.264    0.520   76.885
  350.250    7.326    0.288    0.507   70.814
  350.500    8.684    0.313    0.482   69.601
  350.750   11.530    0.313    0.453   72.639
  351.000   12.912    0.303    0.407   74.462
  351.250   13.659    0.292    0.391   73.249
  351.500   13.915    0.263    0.400   65.356
  351.750   13.910    0.256    0.420   61.713
  352.000   13.904    0.271    0.400   57.463
  352.250   13.379    0.276    0.387   55.643
  352.500   13.126    0.274    0.382   55.037
  352.750   11.710    0.279    0.384   56.253
  353.000   10.853    0.263    0.377   61.113
  353.250    9.501    0.254    0.373   64.150
  353.500    9.146    0.243    0.385   66.581
  353.750    8.476    0.242    0.426   68.405
  354.000    8.157    0.258    0.466   72.658
  354.250    8.154    0.272    0.491   74.480
  354.500    8.149    0.279    0.499   77.518
  354.750    8.302    0.265    0.496   76.912
  355.000    8.458    0.261    0.479   74.484
  355.250    8.947    0.270    0.453   69.021
  355.500    9.115    0.277    0.432   67.200
  355.750    9.462    0.275    0.455   65.987
  356.000    9.460    0.270    0.463   66.595
  356.250    9.636    0.275    0.475   66.597
  356.500    9.631    0.281    0.475   67.205
  356.750    9.447    0.275    0.459   66.599
  357.000    9.444    0.270    0.452   65.386
  357.250    9.619    0.272    0.458   64.173
  357.500    9.985    0.280    0.452   61.138
  357.750   10.174    0.287    0.436   61.140
  358.000   10.362    0.293    0.428   61.748
  358.250   10.557    0.294    0.423   63.572
  358.500   10.551    0.288    0.436   64.787
  358.750   10.548    0.293    0.453   62.360
  359.000   10.345    0.296    0.477   58.718
  359.250   10.342    0.288    0.472   58.719
  359.500   10.141    0.279    0.444   60.542
  359.750    9.947    0.271    0.454   61.758
  360.000    9.944    0.271    0.464   63.581
  360.250    9.940    0.276    0.469   62.975
  360.500    9.751    0.277    0.465   60.548
  360.750    9.563    0.275    0.458   61.157
  361.000    9.380    0.280    0.445   61.765
  361.250    9.026    0.277    0.443   59.945
  361.500    8.854    0.271    0.448   59.339
  361.750    8.686    0.269    0.439   60.555
  362.000    8.358    0.261    0.431   62.379
  362.250    8.198    0.256    0.423   63.594
  362.500    8.041    0.258    0.438   66.025
  362.750    7.739    0.263    0.461   66.633
  363.000    7.591    0.270    0.472   67.242
  363.250    7.589    0.267    0.485   64.207
  363.500    7.444    0.265    0.475   65.424
  363.750    7.301    0.276    0.483   66.031
  364.000    7.724    0.294    0.491   64.818
  364.250    8.019    0.306    0.474   60.569
  364.500    8.169    0.318    0.467   59.963
  364.750    7.861    0.303    0.455   62.394
  365.000    7.567    0.263    0.448   64.217
  365.250    6.752    0.271    0.454   65.433
  365.500    5.692    0.283    0.464   68.471
  365.750    4.984    0.283    0.469   73.331
  366.000    4.045    0.256    0.488   79.405
  366.250    3.678    0.250    0.508   82.443
  366.500    3.540    0.247    0.519   84.873
  366.750    3.407    0.255    0.525   85.482
  367.000    3.342    0.267    0.513   83.662
  367.250    3.536    0.266    0.533   80.626
  367.500    3.960    0.267    0.551   76.984
  367.750    4.782    0.276    0.526   72.127
  368.000    5.156    0.302    0.528   68.485
  368.250    5.996    0.324    0.535   65.450
  368.500    6.465    0.319    0.501   67.273
  368.750    6.587    0.304    0.479   69.097
  369.000    6.967    0.264    0.472   70.312
  369.250    6.965    0.248    0.469   72.743
  369.500    6.963    0.250    0.460   74.566
  369.750    6.574    0.247    0.449   75.175
  370.000    6.327    0.247    0.459   75.176
  370.250    6.325    0.258    0.470   73.964
  370.500    6.205    0.261    0.471   73.357
  370.750    6.202    0.255    0.456   72.752
  371.000    6.317    0.247    0.452   73.360
  371.250    6.435    0.244    0.470   73.969
  371.500    6.556    0.252    0.480   66.683
  371.750    6.553    0.270    0.490   62.433
