~VERSION INFORMATION
 VERS.                 2.0:   CWLS LOG ASCII STANDARD -VERSION 2.0
 WRAP.                  NO:   ONE LINE PER DEPTH STEP
~WELL INFORMATION BLOCK
#MNEM.UNIT           DATA                    DESCRIPTION OF MNEMONIC
#---------    -------------------            -------------------------------
# Generated from Intellog Unique Number	CW_76_78/WELL/1030
WELL.         PCP MARTIN HILLS 11-33         : Well_name    - WELL
LOC .         00/11-33-076-04W5/0            : Location     - LOCATION
UWI .         00/11-33-076-04W5/0            : Uwi          - UNIQUE WELL ID
ENTR.         JAYE                           : Entered      - ENTERED BY
SRVC.         SCHLUMBERGER                   : Scn          - SERVICE COMPANY
DATE.         11 FEB 74                      : Date         - LOG DATE
STRT.M        426.72                         : top_depth    - START DEPTH
STOP.M        670.47                         : bot_depth    - STOP DEPTH
STEP.M        0.25                           : increment    - STEP LENGTH
 NULL. -999.2500:NULL Value
~CURVE INFORMATION BLOCK
#MNEM UNIT       ERCB CURVE CODE    CURVE DESCRIPTION
#-----------   ------------------   ----------------------------------
DEPT.M        00 001 00 00         : DEPTH        - DEPTH
ILD .OHMM     00 120 00 00         : RESD         - DEEP RESISTIVITY (DIL)
NPHI.V/V      00 330 00 00         : PHIN         - NEUTRON POROSITY (SANDSTONE)
DPHI.V/V      00 890 00 00         : PHID         - DENSITY POROSITY (SANDSTONE)
GR  .API      00 310 00 00         : GR           - GAMMA RAY
CALI.MM       00 280 01 00         : CAL          - CALIPER
~PARAMETER INFORMATION
#MNEM.UNIT           DATA             DESCRIPTION OF MNEMONIC
#---------         -----------     ------------------------------
GL  .M        741.578              : gl           - GROUND LEVEL ELEVATION
EREF.M        745.541              : kb           - ELEVATION OF DEPTH REFERENCE
DATM.M        741.578              : datum        - DATUM ELEVATION
TDD .M        684.276              : tdd          - TOTAL DEPTH DRILLER
RUN .         ONE                  : Run          - RUN NUMBER
MATR.         SANDSTONE            : Logunit      - NEUTRON MATRIX
TMAX.C        26.6667              : BHT          - MAXIMUM RECORDED TEMPERATURE
BHTD.M        684.276              : BHTDEP       - MAXIMUM RECORDED TEMPERATURE
RMT .C        16.6667              : MDTP         - TEMPERATURE OF MUD
MUDD.KG/M     0                    : MWT          - MUD DENSITY
NEUT.         1                    : NEUTRON      - NEUTRON TYPE
RESI.         0                    : RESIST       - RESISTIVITY TYPE
RM  .OHMM     5.95                 : RM           - RESISTIVITY OF MUD
RMC .OHMM     0                    : RMC          - RESISTIVITY OF MUD CAKE
RMF .OHMM     4.61                 : RMF          - RESISTIVITY OF MUD FILTRATE
SUFT.C        -17.7778             : SUFT         - SURFACE TEMPERATURE
~A  DEPTH     RESD     PHIN     PHID       GR      CAL
  426.720    3.133    0.502    0.219   99.062  231.009
  426.970    3.125    0.491    0.213   98.881  230.598
  427.220    3.151    0.478    0.205   98.264  229.130
  427.470    3.183    0.468    0.209   95.587  226.182
  427.720    3.209    0.442    0.214   92.474  221.227
  427.970    3.224    0.443    0.199   92.669  213.628
  428.220    3.203    0.457    0.193   93.362  210.999
  428.470    3.164    0.463    0.186   94.368  215.451
  428.720    3.155    0.461    0.181   95.186  222.438
  428.970    3.188    0.464    0.202   95.444  219.491
  429.220    3.249    0.473    0.197   96.513  212.315
  429.470    3.375    0.465    0.208   97.830  207.678
  429.720    3.491    0.433    0.201   97.088  206.740
  429.970    3.639    0.391    0.187   91.664  206.435
  430.220    3.863    0.379    0.184   89.050  206.127
  430.470    4.131    0.387    0.202   86.747  205.085
  430.720    4.346    0.386    0.196   82.572  203.721
  430.970    4.131    0.376    0.185   76.525  201.725
  431.220    3.675    0.362    0.167   65.234  200.153
  431.470    3.215    0.391    0.189   60.060  199.849
  431.720    2.919    0.421    0.186   60.192  200.176
  431.970    2.724    0.415    0.207   62.197  200.402
  432.220    2.666    0.412    0.227   60.831  200.941
  432.470    2.713    0.402    0.234   52.536  201.481
  432.720    2.823    0.378    0.254   44.428  201.915
  432.970    2.937    0.352    0.226   48.868  202.562
  433.220    2.989    0.347    0.220   53.993  202.997
  433.470    2.969    0.369    0.217   60.868  203.644
  433.720    2.886    0.376    0.200   66.616  204.185
  433.970    2.809    0.380    0.209   75.050  204.936
  434.220    2.745    0.423    0.172   81.425  205.372
  434.470    2.708    0.444    0.216   78.935  205.702
  434.720    2.715    0.422    0.217   70.016  205.501
  434.970    2.763    0.419    0.233   63.656  204.351
  435.220    2.796    0.422    0.240   56.423  202.567
  435.470    2.830    0.397    0.216   54.495  201.309
  435.720    2.832    0.386    0.264   52.879  199.314
  435.970    2.798    0.381    0.245   48.891  198.163
  436.220    2.759    0.367    0.249   44.779  197.117
  436.470    2.726    0.373    0.244   42.538  196.075
  436.720    2.714    0.383    0.242   41.734  195.241
  436.970    2.697    0.380    0.244   44.114  194.302
  437.220    2.679    0.378    0.247   45.431  193.678
  437.470    2.647    0.382    0.257   45.501  193.161
  437.720    2.634    0.381    0.250   45.696  193.173
  437.970    2.637    0.375    0.250   45.828  194.033
  438.220    2.639    0.371    0.271   46.709  194.678
  438.470    2.661    0.379    0.274   49.087  195.748
  438.720    2.723    0.388    0.263   53.902  196.923
  438.970    2.786    0.398    0.241   57.467  198.202
  439.220    2.893    0.399    0.262   61.781  199.483
  439.470    3.021    0.400    0.247   65.845  200.658
  439.720    3.085    0.425    0.225   68.911  202.151
  439.970    3.049    0.430    0.244   71.603  204.171
  440.220    2.952    0.428    0.208   74.418  208.410
  440.470    2.785    0.462    0.217   76.797  215.294
  440.720    2.712    0.491    0.222   77.616  221.118
  440.970    2.749    0.475    0.229   76.812  225.886
  441.220    2.824    0.467    0.249   74.760  228.012
  441.470    2.847    0.454    0.263   73.330  228.765
  441.720    2.829    0.453    0.269   72.714  226.663
  441.970    2.769    0.447    0.239   76.591  222.765
  442.220    2.656    0.470    0.208   81.342  220.134
  442.470    2.479    0.525    0.236   85.282  217.293
  442.720    2.305    0.547    0.218   87.973  208.637
  442.970    2.116    0.539    0.227   90.414  203.367
  443.220    1.960    0.531    0.262   92.482  202.639
  443.470    1.853    0.549    0.258   94.423  202.439
  443.720    1.784    0.582    0.250   94.992  202.768
  443.970    1.756    0.575    0.260   94.439  203.097
  444.220    1.751    0.548    0.261   93.946  203.425
  444.470    1.753    0.556    0.260   94.141  204.179
  444.720    1.758    0.538    0.251   94.647  204.929
  444.970    1.769    0.518    0.236   94.717  206.210
  445.220    1.787    0.504    0.264   93.475  207.596
  445.470    1.828    0.512    0.272   91.672  208.771
  445.720    1.885    0.519    0.268   86.436  210.158
  445.970    1.925    0.522    0.249   84.758  209.429
  446.220    1.951    0.539    0.229   86.201  202.254
  446.470    1.990    0.549    0.238   88.956  202.583
  446.720    2.017    0.542    0.253   90.397  206.298
  446.970    2.037    0.532    0.267   91.715  208.950
  447.220    2.062    0.521    0.264   91.722  211.603
  447.470    2.087    0.520    0.237   89.982  213.624
  447.720    2.108    0.541    0.232   88.429  215.328
  447.970    2.129    0.510    0.209   87.187  217.138
  448.220    2.155    0.503    0.212   86.570  218.735
  448.470    2.181    0.503    0.223   86.702  220.862
  448.720    2.203    0.498    0.227   87.959  223.092
  448.970    2.229    0.510    0.220   89.588  225.325
  449.220    2.252    0.515    0.210   91.593  226.077
  449.470    2.266    0.517    0.215   93.285  226.406
  449.720    2.268    0.527    0.232   93.667  226.206
  449.970    2.278    0.527    0.205   93.050  222.413
  450.220    2.289    0.493    0.203   93.994  217.141
  450.470    2.312    0.484    0.210   95.623  213.031
  450.720    2.340    0.494    0.199   95.631  211.351
  450.970    2.399    0.519    0.204   89.708  210.308
  451.220    2.468    0.494    0.211   83.160  209.368
  451.470    2.596    0.459    0.206   78.174  208.747
  451.720    2.839    0.443    0.196   74.436  208.230
  451.970    3.144    0.424    0.204   73.070  207.501
  452.220    3.437    0.439    0.227   75.824  206.774
  452.470    3.829    0.434    0.254   69.339  206.151
  452.720    4.240    0.421    0.241   60.795  205.108
  452.970    4.679    0.413    0.240   59.366  204.802
  453.220    5.069    0.403    0.248   60.248  204.496
  453.470    5.264    0.386    0.247   62.439  204.298
  453.720    5.164    0.382    0.235   62.259  203.889
  453.970    5.000    0.387    0.225   60.456  203.478
  454.220    4.796    0.398    0.237   57.779  202.961
  454.470    4.493    0.416    0.247   55.477  202.549
  454.720    4.309    0.406    0.273   54.859  202.246
  454.970    4.044    0.397    0.279   63.918  202.996
  455.220    3.816    0.418    0.273   70.479  203.960
  455.470    3.647    0.473    0.252   74.481  205.239
  455.720    3.532    0.488    0.281   74.239  206.416
  455.970    3.476    0.468    0.256   71.687  206.429
  456.220    3.677    0.440    0.267   73.067  206.229
  456.470    4.035    0.443    0.272   75.821  205.713
  456.720    4.519    0.452    0.267   77.826  204.984
  456.970    4.932    0.447    0.268   78.831  204.152
  457.220    5.198    0.439    0.272   77.403  203.528
  457.470    5.437    0.432    0.271   74.226  202.697
  457.720    5.859    0.423    0.277   68.554  201.969
  457.970    6.324    0.411    0.263   62.069  201.346
  458.220    6.676    0.423    0.268   54.336  200.829
  458.470    7.153    0.401    0.296   51.034  200.418
  458.720    7.623    0.389    0.299   50.542  199.797
  458.970    7.857    0.392    0.293   50.613  199.070
  459.220    8.025    0.415    0.288   50.557  198.765
  459.470    8.106    0.420    0.291   49.691  198.672
  459.720    8.204    0.419    0.282   48.761  198.577
  459.970    8.257    0.417    0.255   47.270  198.272
  460.220    8.295    0.413    0.258   46.278  198.177
  460.470    8.287    0.406    0.267   46.785  198.192
  460.720    8.249    0.391    0.291   47.854  198.308
  460.970    8.179    0.391    0.296   48.672  198.427
  461.220    8.023    0.394    0.285   49.678  198.650
  461.470    7.927    0.395    0.283   52.120  198.767
  461.720    7.832    0.403    0.298   54.436  198.779
  461.970    7.795    0.412    0.319   55.255  199.002
  462.220    7.831    0.404    0.331   55.575  199.226
  462.470    7.867    0.389    0.318   55.207  199.345
  462.720    7.917    0.396    0.299   53.341  199.673
  462.970    7.895    0.407    0.287   52.974  200.005
