~VERSION INFORMATION
 VERS.                 2.0:   CWLS LOG ASCII STANDARD -VERSION 2.0
 WRAP.                  NO:   ONE LINE PER DEPTH STEP
~WELL INFORMATION BLOCK
#MNEM.UNIT           DATA                    DESCRIPTION OF MNEMONIC
#---------    -------------------            -------------------------------
# Generated from Intellog Unique Number	CS_71_72/WELL/866
WELL.         PEX PHILLIPS AEC GRIST         : Well_name    - WELL
LOC .         00/10-23-071-07W4/0            : Location     - LOCATION
UWI .         00/10-23-071-07W4/0            : Uwi          - UNIQUE WELL ID
ENTR.         SP                             : Entered      - ENTERED BY
SRVC.         SCHLUMBERGER                   : Scn          - SERVICE COMPANY
STRT.M        300                            : top_depth    - START DEPTH
STOP.M        520                            : bot_depth    - STOP DEPTH
STEP.M        0.25                           : increment    - STEP LENGTH
 NULL. -999.2500:NULL Value
~CURVE INFORMATION BLOCK
#MNEM UNIT       ERCB CURVE CODE    CURVE DESCRIPTION
#-----------   ------------------   ----------------------------------
DEPT.M        00 001 00 00         : DEPTH        - DEPTH
ILD .OHMM     00 120 00 00         : RESD         - DEEP RESISTIVITY (DIL)
DPHI.V/V      00 890 00 00         : PHID         - DENSITY POROSITY (LIMESTONE)
NPHI.V/V      00 330 00 00         : PHIN         - NEUTRON POROSITY (LIMESTONE)
GR  .API      00 310 00 00         : GR           - GAMMA RAY
~PARAMETER INFORMATION
#MNEM.UNIT           DATA             DESCRIPTION OF MNEMONIC
#---------         -----------     ------------------------------
GL  .M        662.4                : gl           - GROUND LEVEL ELEVATION
EREF.M        666.2                : kb           - ELEVATION OF DEPTH REFERENCE
DATM.M        662.4                : datum        - DATUM ELEVATION
TDD .M        529                  : tdd          - TOTAL DEPTH DRILLER
RUN .         ONE                  : Run          - RUN NUMBER
ENG .         BILL                 : Engineer     - RECORDING ENGINEER
WIT .         JIM                  : Witness      - WITNESSED BY
MUD .         GEL                  : Mud_type     - MUD TYPE
MATR.         LIMESTONE            : Logunit      - NEUTRON MATRIX
TMAX.C        24                   : BHT          - MAXIMUM RECORDED TEMPERATURE
BHTD.M        529                  : BHTDEP       - MAXIMUM RECORDED TEMPERATURE
MATR.         1                    : LOGUNIT      - NEUTRON MATRIX
RMT .C        25                   : MDTP         - TEMPERATURE OF MUD
NEUT.         1                    : NEUTRON      - NEUTRON TYPE
RESI.         0                    : RESIST       - RESISTIVITY TYPE
RMC .OHMM     0.25                 : RMC          - RESISTIVITY OF MUD CAKE
RMF .OHMM     0.25                 : RMF          - RESISTIVITY OF MUD FILTRATE
SUFT.C        15                   : SUFT         - SURFACE TEMPERATURE
~A  DEPTH     RESD     PHID     PHIN       GR
# ...
  343.500    5.605    0.256    0.488   91.017
  343.750    5.628    0.273    0.503   90.350
  344.000    5.673    0.266    0.517   87.789
  344.250    5.761    0.259    0.487   86.083
  344.500    5.905    0.279    0.478   86.881
  344.750    6.111    0.307    0.490   88.473
  345.000    6.616    0.332    0.500   89.761
  345.250    7.096    0.343    0.497   88.849
  345.500    7.697    0.281    0.466   88.853
  345.750    8.224    0.259    0.458   90.628
  346.000    8.527    0.249    0.470   90.205
  346.250    8.691    0.251    0.440   88.499
  346.500    8.910    0.261    0.422   88.504
  346.750    8.928    0.264    0.419   89.302
  347.000    8.982    0.251    0.442   90.345
  347.250    8.934    0.246    0.452   91.082
  347.500    8.819    0.235    0.432   92.003
  347.750    8.707    0.224    0.413   92.801
  348.000    8.710    0.218    0.401   89.995
  348.250    8.713    0.217    0.404   85.968
  348.500    8.747    0.231    0.410   87.561
  348.750    8.717    0.246    0.430   85.000
  349.000    8.590    0.248    0.449   84.149
  349.250    8.369    0.240    0.462   85.375
  349.500    8.138    0.247    0.472   84.341
  349.750    7.943    0.239    0.453   81.658
  350.000    7.797    0.228    0.434   84.594
  350.250    7.385    0.253    0.466   90.644
  350.500    6.723    0.245    0.486   89.855
  350.750    6.006    0.230    0.473   98.104
  351.000    5.407    0.250    0.470  105.377
  351.250    5.169    0.265    0.479  108.740
  351.500    5.747    0.280    0.493  100.072
  351.750    6.734    0.276    0.502   92.625
  352.000    7.513    0.270    0.496   85.911
  352.250    8.352    0.276    0.482   81.334
  352.500    9.093    0.286    0.466   77.614
  352.750    9.826    0.283    0.461   77.923
  353.000   10.149    0.273    0.454   77.378
  353.250   10.019    0.265    0.442   74.328
  353.500    9.947    0.262    0.432   70.302
  353.750   10.025    0.278    0.434   65.969
  354.000   10.028    0.292    0.438   61.332
  354.250   10.069    0.289    0.431   56.939
  354.500    9.923    0.313    0.428   53.095
  354.750    9.869    0.326    0.428   51.817
  355.000    9.633    0.317    0.428   53.715
  355.250    9.245    0.320    0.434   57.750
  355.500    8.577    0.327    0.449   59.770
  355.750    8.277    0.307    0.456   66.797
  356.000    7.989    0.280    0.437   72.543
  356.250    8.006    0.260    0.426   74.379
  356.500    8.254    0.260    0.423   71.880
  356.750    8.687    0.273    0.426   68.342
  357.000    9.161    0.285    0.427   65.964
  357.250    9.355    0.295    0.416   67.190
  357.500    9.554    0.303    0.390   68.477
  357.750    9.738    0.307    0.379   68.848
  358.000    9.833    0.296    0.400   68.058
  358.250    9.948    0.292    0.417   69.711
  358.500    9.970    0.295    0.411   71.976
  358.750    9.992    0.291    0.402   73.812
  359.000    9.957    0.279    0.396   75.771
  359.250    9.980    0.271    0.401   77.057
  359.500   10.039    0.276    0.412   77.550
  359.750   10.234    0.252    0.426   75.356
  360.000   10.332    0.235    0.433   77.437
  360.250   10.454    0.236    0.420   78.418
  360.500   10.437    0.257    0.411   78.361
  360.750   10.285    0.271    0.407   75.373
  361.000   10.115    0.284    0.403   72.812
  361.250   10.060    0.293    0.403   76.481
  361.500   10.008    0.277    0.414   78.745
  361.750   10.009    0.263    0.421   76.612
  362.000   10.012    0.259    0.418   73.745
  362.250    9.959    0.262    0.429   77.353
  362.500    9.906    0.260    0.450   79.923
  362.750    9.798    0.255    0.441   79.377
  363.000    9.673    0.261    0.429   74.129
  363.250    9.548    0.273    0.448   69.003
  363.500    9.356    0.285    0.463   63.694
  363.750    9.149    0.295    0.450   62.843
  364.000    8.914    0.291    0.445   65.657
  364.250    8.816    0.292    0.460   67.128
  364.500    8.819    0.303    0.470   67.681
  364.750    9.126    0.307    0.475   70.678
  365.000    9.497    0.299    0.475   67.751
  365.250    9.809    0.293    0.453   62.319
  365.500   10.037    0.301    0.437   57.438
  365.750   10.172    0.311    0.442   53.655
  366.000   10.311    0.320    0.427   50.423
  366.250   10.237    0.322    0.423   48.594
  366.500   10.011    0.322    0.447   47.683
  366.750    9.535    0.336    0.463   47.626
  367.000    9.014    0.335    0.446   56.730
  367.250    8.331    0.322    0.420   70.416
  367.500    7.743    0.291    0.403   77.810
  367.750    7.403    0.199    0.404   88.442
  368.000    7.199    0.223    0.425   94.919
  368.250    7.147    0.235    0.437   90.954
  368.500    7.190    0.230    0.413   93.890
  368.750    7.274    0.214    0.406   98.658
  369.000    7.456    0.205    0.419   97.624
  369.250    7.833    0.205    0.430   93.415
  369.500    8.136    0.203    0.431   91.647
  369.750    8.825    0.189    0.408   93.484
  370.000    9.977    0.181    0.393   94.771
  370.250   11.539    0.187    0.398   95.019
  370.500   13.394    0.284    0.441   89.893
  370.750   16.175    0.386    0.503   76.400
  371.000   18.919    0.346    0.533   58.937
  371.250   20.521    0.203    0.212   49.169
  371.500   20.373    0.014    0.191   45.203
  371.750   17.201    0.005    0.182   55.407
  372.000   12.052    0.064    0.197   64.878
  372.250   10.389    0.221    0.276   73.433
  372.500    9.602    0.239    0.393   78.018
  372.750    9.320    0.229    0.414   70.571
  373.000    9.166    0.223    0.375   63.796
  373.250    9.032    0.214    0.354   57.326
  373.500    9.035    0.186    0.339   55.254
  373.750    9.175    0.156    0.344   64.909
  374.000    9.422    0.199    0.377   70.104
  374.250   10.202    0.229    0.400   73.590
  374.500   10.437    0.245    0.413   62.112
  374.750   10.760    0.265    0.409   53.810
  375.000   10.783    0.298    0.402   49.661
  375.250   10.486    0.323    0.398   48.993
  375.500    9.765    0.346    0.399   47.471
  375.750    9.025    0.324    0.406   55.354
  376.000    8.403    0.301    0.410   62.748
  376.250    7.579    0.287    0.412   68.494
  376.500    6.874    0.276    0.414   73.751
  376.750    6.130    0.270    0.425   79.435
  377.000    5.697    0.258    0.447   83.287
  377.250    5.376    0.268    0.472   85.368
  377.500    5.297    0.287    0.480   85.678
  377.750    5.278    0.268    0.488   85.865
  378.000    5.260    0.255    0.479   85.687
  378.250    5.292    0.270    0.445   86.118
  378.500    5.455    0.272    0.433   86.611
  378.750    6.203    0.259    0.445   85.943
  379.000    7.012    0.274    0.460   82.222
  379.250    8.249    0.292    0.471   75.875
  379.500    9.117    0.294    0.463   68.733
  379.750   10.211    0.221    0.457   59.759
  380.000   11.921    0.030    0.458   52.434
  380.250   13.102   -0.018    0.213   48.102
  380.500   13.355   -0.020    0.149   42.793
  380.750   12.720   -0.014    0.138   38.156
  381.000   11.258    0.006    0.155   37.366
  381.250    9.577    0.124    0.251   47.081
  381.500    8.476    0.233    0.334   52.582
  381.750    7.746    0.267    0.400   57.656
  382.000    7.322    0.293    0.433   59.797
  382.250    7.147    0.303    0.425   60.291
  382.500    7.003    0.309    0.423   59.501
  382.750    6.835    0.318    0.436   58.283
  383.000    6.685    0.324    0.465   59.998
  383.250    6.636    0.316    0.485   63.545
  383.500    6.726    0.303    0.482   65.992
  383.750    6.934    0.290    0.468   66.485
  384.000    7.312    0.287    0.469   61.664
  384.250    7.725    0.292    0.475   57.944
  384.500    8.101    0.297    0.471   56.359
  384.750    8.179    0.312    0.475   56.242
  385.000    7.984    0.324    0.465   58.017
  385.250    7.749    0.330    0.451   59.487
  385.500    7.767    0.324    0.448   60.346
  385.750    7.901    0.322    0.457   60.045
  386.000    8.024    0.322    0.446   58.156
  386.250    7.996    0.321    0.438   57.733
  386.500    7.924    0.319    0.444   59.142
  386.750    7.822    0.316    0.449   60.918
