~VERSION INFORMATION
 VERS.                 2.0:   CWLS LOG ASCII STANDARD -VERSION 2.0
 WRAP.                  NO:   ONE LINE PER DEPTH STEP
~WELL INFORMATION BLOCK
#MNEM.UNIT           DATA                    DESCRIPTION OF MNEMONIC
#---------    -------------------            -------------------------------
# Generated from Intellog Unique Number	CW_82_90/WELL/3078
WELL.         11-24-087-23W4                 : Well_name    - WELL
LOC .         00/11-24-087-23W4/0            : Location     - LOCATION
UWI .         00/11-24-087-23W4/0            : Uwi          - UNIQUE WELL ID
ENTR.         MAX                            : Entered      - ENTERED BY
SRVC.         WESTERN ATLAS                  : Scn          - SERVICE COMPANY
STRT.M        121.92                         : top_depth    - START DEPTH
STOP.M        345.67                         : bot_depth    - STOP DEPTH
STEP.M        0.25                           : increment    - STEP LENGTH
 NULL. -999.2500:NULL Value
~CURVE INFORMATION BLOCK
#MNEM UNIT       ERCB CURVE CODE    CURVE DESCRIPTION
#-----------   ------------------   ----------------------------------
DEPT.M        00 001 00 00         : DEPTH        - DEPTH
ILD .OHMM     00 120 00 00         : RESD         - DEEP RESISTIVITY (DIL)
NPHI.V/V      00 330 00 00         : PHIN         - NEUTRON POROSITY (SANDSTONE)
DPHI.V/V      00 890 00 00         : PHID         - DENSITY POROSITY (SANDSTONE)
CALI.MM       00 280 01 00         : CAL          - CALIPER
GR  .API      00 310 00 00         : GR           - GAMMA RAY
~PARAMETER INFORMATION
#MNEM.UNIT           DATA             DESCRIPTION OF MNEMONIC
#---------         -----------     ------------------------------
GL  .M        539.496              : gl           - GROUND LEVEL ELEVATION
EREF.M        542.239              : kb           - ELEVATION OF DEPTH REFERENCE
DATM.M        539.496              : datum        - DATUM ELEVATION
TDD .M        319.126              : tdd          - TOTAL DEPTH DRILLER
RUN .         ONE                  : Run          - RUN NUMBER
ENG .         BILL                 : Engineer     - RECORDING ENGINEER
WIT .         JIM                  : Witness      - WITNESSED BY
MUD .         GEL                  : Mud_type     - MUD TYPE
MATR.         SANDSTONE            : Logunit      - NEUTRON MATRIX
TMAX.C        21.6667              : BHT          - MAXIMUM RECORDED TEMPERATURE
BHTD.M        319.126              : BHTDEP       - MAXIMUM RECORDED TEMPERATURE
MATR.         1                    : LOGUNIT      - NEUTRON MATRIX
RMT .C        20                   : MDTP         - TEMPERATURE OF MUD
NEUT.         1                    : NEUTRON      - NEUTRON TYPE
RESI.         0                    : RESIST       - RESISTIVITY TYPE
RMC .OHMM     5.2                  : RMC          - RESISTIVITY OF MUD CAKE
RMF .OHMM     5                    : RMF          - RESISTIVITY OF MUD FILTRATE
SUFT.C        -18.3333             : SUFT         - SURFACE TEMPERATURE
~A  DEPTH     RESD     PHIN     PHID      CAL       GR
# ...
  267.920   18.917    0.293    0.185  196.467   93.332
  268.170   21.082    0.272    0.102  196.425   95.093
  268.420   19.763    0.288    0.124  196.886   99.229
  268.670   17.221    0.333    0.130  196.833  102.764
  268.920   14.335    0.351    0.156  196.796  104.528
  269.170   12.265    0.371    0.205  197.263  105.098
  269.420   11.922    0.381    0.218  197.215  102.689
  269.670   13.535    0.350    0.202  198.185  100.590
  269.920   16.376    0.320    0.192  199.149   93.727
  270.170   20.547    0.277    0.176  199.102   83.301
  270.420   24.414    0.234    0.073  198.546   69.001
  270.670   29.535    0.210   -0.003  198.514   70.469
  270.920   26.695    0.232    0.008  197.969   78.468
  271.170   20.104    0.254    0.043  197.424   85.579
  271.420   14.329    0.276    0.082  196.878   91.795
  271.670   13.191    0.327    0.183  196.820  100.388
  271.920   12.140    0.367    0.203  197.287  112.548
  272.170   12.807    0.383    0.211  197.758  113.415
  272.420   13.891    0.378    0.214  197.716  109.527
  272.670   14.927    0.358    0.206  197.658  107.712
  272.920   15.330    0.328    0.151  197.622  104.722
  273.170   15.314    0.305    0.101  198.083   99.047
  273.420   14.752    0.310    0.153  198.046  100.211
  273.670   13.577    0.339    0.172  198.004  100.477
  273.920   12.496    0.345    0.189  198.968  101.941
  274.170   12.259    0.361    0.195  198.921  107.863
  274.420   12.935    0.358    0.184  198.884  109.024
  274.670   13.405    0.362    0.187  198.837  109.597
  274.920   13.764    0.379    0.202  198.800  111.352
  275.170   13.751    0.379    0.197  199.256  109.247
  275.420   13.366    0.357    0.162  199.213  104.767
  275.670   12.995    0.340    0.098  198.165  100.876
  275.920   12.633    0.341    0.177  198.118  105.012
  276.170   12.276    0.364    0.198  198.579  107.955
  276.420   12.045    0.378    0.198  198.537  107.336
  276.670   12.254    0.386    0.183  198.500  108.503
  276.920   12.815    0.375    0.173  198.956  109.367
  277.170   13.158    0.376    0.162  198.919  107.262
  277.420   13.266    0.363    0.147  198.871  106.345
  277.670   13.254    0.367    0.146  198.326  107.506
  277.920   13.609    0.376    0.173  198.782  108.379
  278.170   14.361    0.385    0.182  199.243  107.462
  278.420   14.744    0.359    0.166  199.201  108.620
  278.670   15.419    0.344    0.152  196.643  108.595
  278.920   17.344    0.337    0.126  196.606  102.927
  279.170   21.179    0.320    0.100  196.564   99.630
  279.420   26.336    0.300    0.092  196.516   98.716
  279.670   27.035    0.287    0.178  195.971   93.930
  279.920   26.528    0.275    0.136  196.427   87.668
  280.170   23.325    0.258    0.028  195.881   76.053
  280.420   18.553    0.250    0.087  195.834   82.863
  280.670   15.441    0.286    0.163  195.802   96.806
  280.920   14.876    0.326    0.175  196.258  105.400
  281.170   14.202    0.348    0.196  196.216  104.183
  281.420   13.430    0.358    0.209  196.174  104.755
  281.670   13.419    0.365    0.194  196.132  105.622
  281.920   13.405    0.359    0.165  196.593  104.706
  282.170   13.395    0.345    0.150  198.066  106.464
  282.420   13.021    0.345    0.139  199.020  103.167
  282.670   13.127    0.354    0.148  199.486  105.225
  282.920   13.480    0.368    0.209  199.439  110.253
  283.170   13.714    0.373    0.195  199.895  114.385
  283.420   13.827    0.383    0.170  199.863  113.766
  283.670   14.199    0.382    0.125  199.318  111.067
  283.920   14.184    0.356    0.110  199.276  108.961
  284.170   13.663    0.347    0.200  199.233  108.039
  284.420   13.651    0.339    0.231  198.185  105.940
  284.670   13.269    0.332    0.232  197.640  106.506
  284.920   12.324    0.335    0.211  198.593  110.051
  285.170   11.553    0.340    0.189  199.563  110.917
  285.420   11.026    0.351    0.073  199.521  117.728
  285.670   10.620    0.365    0.161  199.479  121.857
  285.920   10.515    0.363    0.203  199.437  118.867
  286.170   10.409    0.357    0.201  199.389  117.950
  286.420   10.401    0.366    0.201  199.856  120.003
  286.670   10.678    0.381    0.194  199.310  119.978
  286.920   10.964    0.376    0.197  199.258  120.547
  287.170   11.782    0.364    0.198  199.221  119.334
  287.420   12.434    0.359    0.196  199.173  119.009
  287.670   13.241    0.352    0.194  199.640  120.770
  287.920   13.722    0.346    0.187  200.096  117.179
  288.170   13.962    0.342    0.161  201.060  112.399
  288.420   13.947    0.330    0.141  201.526  114.154
  288.670   14.583    0.332    0.171  202.491  115.912
  288.920   15.672    0.361    0.190  202.443  118.565
  289.170   17.628    0.372    0.189  201.395  119.429
  289.420   19.295    0.343    0.175  200.352  117.615
  289.670   19.993    0.334    0.156  199.796  116.407
  289.920   19.083    0.316    0.084  198.747  111.330
  290.170   17.091    0.279   -0.052  198.700  106.848
  290.420   13.593    0.255   -0.023  198.663   98.789
  290.670   13.331    0.263    0.043  198.621  105.903
  290.920   12.729    0.289    0.168  197.064  116.580
  291.170   11.608    0.340    0.184  196.524  123.982
  291.420   12.589    0.354    0.181  196.487  120.097
  291.670   13.406    0.378    0.179  196.445  118.583
  291.920   13.764    0.354    0.182  196.403  117.963
  292.170   13.754    0.350    0.180  196.345  117.641
  292.420   13.007    0.361    0.164  196.816  115.239
  292.670   11.232    0.333    0.120  198.782  114.917
  292.920    9.788    0.329    0.123  200.249  123.213
  293.170    8.222    0.338    0.146  201.712  124.972
  293.420    7.035    0.370    0.182  202.687  129.702
  293.670    6.593    0.380    0.187  203.143  131.163
  293.920    6.958    0.387    0.192  203.598  132.026
  294.170    7.756    0.385    0.192  203.562  133.785
  294.420    8.884    0.382    0.177  203.514  132.574
  294.670   10.459    0.384    0.174  203.472  128.686
  294.920   12.091    0.390    0.186  203.440  123.308
  295.170   12.876    0.394    0.176  201.375  118.826
  295.420   13.586    0.355    0.138  199.320  109.885
  295.670   14.078    0.334    0.154  198.780  105.102
  295.920   14.195    0.348    0.194  198.738  116.374
  296.170   14.180    0.373    0.195  199.193  116.045
  296.420   14.167    0.382    0.173  200.163  116.021
  296.670   14.282    0.389    0.156  201.127  115.993
  296.920   14.801    0.383    0.134  202.087  114.191
  297.170   15.475    0.353    0.111  202.044  110.005
  297.420   16.182    0.336    0.091  201.997  114.735
  297.670   16.923    0.325    0.161  201.960  119.168
  297.920   17.373    0.327    0.140  201.918  119.438
  298.170   17.361    0.318    0.113  201.876  106.931
  298.420   16.875    0.300    0.014  202.840  104.528
  298.670   16.255    0.311    0.091  203.296  119.366
  298.920   15.376    0.345    0.163  203.254  133.012
  299.170   14.281    0.349    0.158  203.715  143.983
  299.420   13.632    0.347    0.128  203.673  135.637
  299.670   12.774    0.378    0.138  203.631  132.343
  299.920   12.194    0.382    0.160  203.086  129.340
  300.170   11.854    0.388    0.154  202.540  126.049
  300.420   11.736    0.397    0.157  201.990  121.860
  300.670   11.942    0.400    0.169  200.946  123.622
  300.920   12.262    0.400    0.167  200.899  124.485
  301.170   12.705    0.387    0.159  200.862  126.247
  301.420   12.694    0.379    0.140  200.312  126.813
  301.670   12.117    0.374    0.115  200.275  126.791
  301.920   11.356    0.371    0.088  201.229  126.166
  302.170   10.644    0.370    0.053  201.695  130.902
  302.420    9.707    0.367    0.167  202.151  137.118
  302.670    9.016    0.369    0.172  202.617  140.359
  302.920    8.604    0.378    0.175  203.078  144.795
  303.170    8.676    0.354    0.179  204.037  145.956
  303.420    8.909    0.346    0.181  204.504  140.579
  303.670    9.662    0.360    0.168  204.462  141.449
  303.920   11.479    0.375    0.170  203.413  139.938
  304.170   12.560    0.364    0.167  203.371  139.021
