~VERSION INFORMATION
 VERS.                 2.0:   CWLS LOG ASCII STANDARD -VERSION 2.0
 WRAP.                  NO:   ONE LINE PER DEPTH STEP
~WELL INFORMATION BLOCK
#MNEM.UNIT           DATA                    DESCRIPTION OF MNEMONIC
#---------    -------------------            -------------------------------
# Generated from Intellog Unique Number	CS_71_72/WELL/849
WELL.         PEX PHILLIPS AEC WIAU          : Well_name    - WELL
LOC .         00/10-01-072-07W4/0            : Location     - LOCATION
UWI .         00/10-01-072-07W4/0            : Uwi          - UNIQUE WELL ID
ENTR.         SP                             : Entered      - ENTERED BY
SRVC.         SCHLUMBERGER                   : Scn          - SERVICE COMPANY
STRT.M        300                            : top_depth    - START DEPTH
STOP.M        525                            : bot_depth    - STOP DEPTH
STEP.M        0.25                           : increment    - STEP LENGTH
 NULL. -999.2500:NULL Value
~CURVE INFORMATION BLOCK
#MNEM UNIT       ERCB CURVE CODE    CURVE DESCRIPTION
#-----------   ------------------   ----------------------------------
DEPT.M        00 001 00 00         : DEPTH        - DEPTH
ILD .OHMM     00 120 00 00         : RESD         - DEEP RESISTIVITY (DIL)
DPHI.V/V      00 890 00 00         : PHID         - DENSITY POROSITY (LIMESTONE)
NPHI.V/V      00 330 00 00         : PHIN         - NEUTRON POROSITY (LIMESTONE)
GR  .API      00 310 00 00         : GR           - GAMMA RAY
~PARAMETER INFORMATION
#MNEM.UNIT           DATA             DESCRIPTION OF MNEMONIC
#---------         -----------     ------------------------------
GL  .M        664.2                : gl           - GROUND LEVEL ELEVATION
EREF.M        667.1                : kb           - ELEVATION OF DEPTH REFERENCE
DATM.M        664.2                : datum        - DATUM ELEVATION
TDD .M        536                  : tdd          - TOTAL DEPTH DRILLER
RUN .         ONE                  : Run          - RUN NUMBER
ENG .         BILL                 : Engineer     - RECORDING ENGINEER
WIT .         JIM                  : Witness      - WITNESSED BY
MUD .         GEL                  : Mud_type     - MUD TYPE
MATR.         LIMESTONE            : Logunit      - NEUTRON MATRIX
TMAX.C        19                   : BHT          - MAXIMUM RECORDED TEMPERATURE
BHTD.M        536                  : BHTDEP       - MAXIMUM RECORDED TEMPERATURE
MATR.         1                    : LOGUNIT      - NEUTRON MATRIX
RMT .C        25                   : MDTP         - TEMPERATURE OF MUD
NEUT.         1                    : NEUTRON      - NEUTRON TYPE
RESI.         0                    : RESIST       - RESISTIVITY TYPE
RMC .OHMM     0.25                 : RMC          - RESISTIVITY OF MUD CAKE
RMF .OHMM     0.25                 : RMF          - RESISTIVITY OF MUD FILTRATE
SUFT.C        15                   : SUFT         - SURFACE TEMPERATURE
~A  DEPTH     RESD     PHID     PHIN       GR
  300.000    3.418    0.230    0.525  100.607
  300.250    3.617    0.230    0.525   99.990
  300.500    3.687    0.240    0.519   99.374
  300.750    3.689    0.226    0.512   99.368
  301.000    3.760    0.224    0.527   98.140
  301.250    3.832    0.192    0.536   98.132
  301.500    4.055    0.166    0.544   99.347
  301.750    4.371    0.148    0.550   99.343
  302.000    4.540    0.163    0.512   98.729
  302.250    4.541    0.213    0.496   97.503
  302.500    4.461    0.228    0.490   95.057
  302.750    4.463    0.234    0.508   93.832
  303.000    4.301    0.237    0.523   92.605
  303.250    4.070    0.244    0.532   93.820
  303.500    3.924    0.251    0.530   96.863
  303.750    3.853    0.259    0.525   99.906
  304.000    4.002    0.266    0.534  101.729
  304.250    4.234    0.260    0.542  101.111
  304.500    4.480    0.255    0.536   98.056
  304.750    4.566    0.245    0.520   95.002
  305.000    4.655    0.240    0.508   91.948
  305.250    4.656    0.237    0.494   91.333
  305.500    4.573    0.236    0.482   92.543
  305.750    4.092    0.239    0.480   93.149
  306.000    4.094    0.239    0.489   93.140
  306.250    4.331    0.241    0.500   91.916
  306.500    4.847    0.269    0.511   90.083
  306.750    5.128    0.314    0.523   85.198
  307.000    5.425    0.350    0.536   79.703
  307.250    5.959    0.373    0.478   76.649
  307.500    6.303    0.366    0.498   79.693
  307.750    7.597    0.327    0.575   84.564
  308.000    9.865    0.298    0.597   87.606
  308.250   13.296    0.302    0.456   81.504
  308.500   21.588    0.362    0.392   71.130
  308.750   31.937    0.366    0.323   65.638
  309.000   37.087    0.361    0.223   57.096
  309.250   40.726    0.375    0.187   51.601
  309.500   43.098    0.395    0.173   48.546
  309.750   43.118    0.380    0.186   46.102
  310.000   40.793    0.378    0.194   44.265
  310.250   37.888    0.384    0.195   43.651
  310.500   35.184    0.382    0.211   44.254
  310.750   30.904    0.389    0.227   48.516
  311.000   27.140    0.396    0.236   49.121
  311.250   22.969    0.383    0.252   46.675
  311.500   19.800    0.353    0.290   42.399
  311.750   17.713    0.322    0.315   41.176
  312.000   14.989    0.303    0.337   38.121
  312.250   13.166    0.261    0.351   44.822
  312.500   12.003    0.234    0.368   52.742
  312.750   11.568    0.241    0.390   64.321
  313.000   10.744    0.223    0.403   80.169
  313.250   10.748    0.207    0.397   87.478
  313.500   12.721    0.213    0.391   91.131
  313.750   13.209    0.243    0.390   92.955
  314.000   13.716    0.274    0.400   94.777
  314.250   14.242    0.296    0.405   94.162
  314.500   14.791    0.301    0.409   88.667
  314.750   15.077    0.287    0.413   85.003
  315.000   15.372    0.280    0.419   85.607
  315.250   15.377    0.274    0.407   87.429
  315.500   15.386    0.269    0.401   88.032
  315.750   14.831    0.292    0.397   87.418
  316.000   14.566    0.273    0.395   86.193
  316.250   14.573    0.284    0.395   83.746
  316.500   14.855    0.302    0.396   81.912
  316.750   15.145    0.264    0.408   82.517
  317.000   15.728    0.279    0.425   86.169
  317.250   16.334    0.303    0.431   89.211
  317.500   16.959    0.309    0.417   86.156
  317.750   18.630    0.323    0.398   87.979
  318.000   19.344    0.308    0.390   89.802
  318.250   19.718    0.301    0.382   86.138
  318.500   19.727    0.319    0.348   78.205
  318.750   17.652    0.301    0.333   69.661
  319.000   15.505    0.289    0.320   63.558
  319.250   14.667    0.297    0.307   58.066
  319.500   12.883    0.297    0.332   54.400
  319.750   11.527    0.288    0.353   58.661
  320.000   10.124    0.271    0.369   61.705
  320.250    8.892    0.233    0.381   68.404
  320.500    8.106    0.191    0.393   72.667
  320.750    7.119    0.164    0.413   76.321
  321.000    6.370    0.117    0.439   83.023
  321.250    6.139    0.098    0.457   92.771
  321.500    5.494    0.119    0.465   98.254
  321.750    5.198    0.172    0.476  104.955
  322.000    4.739    0.205    0.481  114.705
  322.250    4.567    0.210    0.490  121.402
  322.500    4.242    0.204    0.504  122.007
  322.750    3.940    0.202    0.518  122.003
  323.000    3.727    0.222    0.537  121.387
  323.250    3.593    0.232    0.541  118.939
  323.500    3.946    0.244    0.541  118.324
  323.750    4.669    0.248    0.541  117.710
  324.000    5.222    0.249    0.541  117.095
  324.250    6.534    0.247    0.519  114.040
  324.500    9.487    0.291    0.499  109.156
  324.750   14.035    0.372    0.462  103.662
  325.000   17.889    0.408    0.381   92.680
  325.250   18.926    0.423    0.372   78.040
  325.500   15.721    0.365    0.233   67.059
  325.750   14.065    0.320    0.318   65.224
  326.000   11.468    0.288    0.358   70.704
  326.250   10.648    0.277    0.376   73.748
  326.500    9.012    0.270    0.398   76.792
  326.750    7.915    0.262    0.420   84.099
  327.000    7.215    0.250    0.432   86.533
  327.250    6.827    0.241    0.433   89.575
  327.500    6.580    0.227    0.435   90.790
  327.750    6.461    0.221    0.448   91.393
  328.000    7.365    0.230    0.451   92.608
  328.250    9.047    0.249    0.448   92.602
  328.500    9.933    0.265    0.461   90.156
  328.750   11.753    0.282    0.463   88.318
  329.000   12.905    0.295    0.459   87.705
  329.250   13.653    0.304    0.455   85.260
  329.500   13.410    0.313    0.452   81.595
  329.750   13.168    0.323    0.465   80.370
  330.000   12.932    0.329    0.482   80.975
  330.250   12.704    0.316    0.492   82.795
  330.500   12.950    0.311    0.477   82.792
  330.750   13.198    0.307    0.455   82.783
  331.000   13.203    0.316    0.446   83.389
  331.250   12.968    0.316    0.438   85.211
  331.500   12.269    0.311    0.431   85.205
  331.750   11.396    0.304    0.417   82.148
  332.000   12.284    0.301    0.440   79.095
  332.250   13.745    0.315    0.453   77.871
  332.500   14.817    0.324    0.472   74.814
  332.750   15.674    0.329    0.460   72.370
  333.000   15.973    0.332    0.451   66.877
  333.250   16.592    0.332    0.445   60.774
  333.500   16.598    0.330    0.441   60.767
  333.750   16.300    0.335    0.439   65.636
  334.000   16.012    0.340    0.438   68.681
  334.250   16.018    0.337    0.437   72.944
  334.500   16.028    0.332    0.444   79.643
  334.750   16.335    0.326    0.445   83.906
  335.000   16.653    0.318    0.460   90.606
  335.250   16.974    0.311    0.460   97.308
  335.500   17.628    0.306    0.456   99.742
  335.750   18.654    0.300    0.456   88.150
  336.000   19.736    0.314    0.461   83.877
  336.250   20.115    0.322    0.471   82.649
  336.500   21.286    0.320    0.475   82.645
  336.750   21.692    0.312    0.455   81.416
  337.000   23.387    0.314    0.442   80.192
  337.250   23.395    0.317    0.436   78.968
  337.500   22.975    0.315    0.443   77.132
  337.750   20.944    0.287    0.435   75.295
  338.000   18.741    0.271    0.418   73.462
  338.250   16.461    0.248    0.402   71.016
  338.500   14.729    0.252    0.421   73.448
  338.750   12.937    0.280    0.442   77.100
  339.000   12.238    0.302    0.446   78.925
  339.250   11.158    0.296    0.450   80.138
  339.500   10.555    0.281    0.455   81.352
  339.750   10.175    0.275    0.457   84.395
  340.000    9.629    0.268    0.457   86.218
  340.250    9.633    0.262    0.446   84.383
  340.500    9.820    0.258    0.441   86.205
  340.750   10.197    0.267    0.436   88.029
  341.000   10.590    0.262    0.437   90.460
  341.250   10.795    0.261    0.448   89.234
  341.500   11.002    0.285    0.436   88.010
  341.750   11.216    0.299    0.424   86.786
  342.000   10.811    0.297    0.418   88.606
  342.250    9.497    0.276    0.414   91.651
  342.500    8.985    0.268    0.418   99.570
  342.750    7.893    0.244    0.417  103.222
  343.000    7.468    0.216    0.435  105.047
  343.250    7.065    0.222    0.454  108.698
