~VERSION INFORMATION
 VERS.                 2.0:   CWLS LOG ASCII STANDARD -VERSION 2.0
 WRAP.                  NO:   ONE LINE PER DEPTH STEP
~WELL INFORMATION BLOCK
#MNEM.UNIT           DATA                    DESCRIPTION OF MNEMONIC
#---------    -------------------            -------------------------------
# Generated from Intellog Unique Number	CW_76_78/WELL/2580
WELL.         10-33-078-21W4                 : Well_name    - WELL
LOC .         00/10-33-078-21W4/0            : Location     - LOCATION
UWI .         00/10-33-078-21W4/0            : Uwi          - UNIQUE WELL ID
ENTR.         MAX                            : Entered      - ENTERED BY
SRVC.         SCHLUMBERGER                   : Scn          - SERVICE COMPANY
STRT.M        220                            : top_depth    - START DEPTH
STOP.M        435                            : bot_depth    - STOP DEPTH
STEP.M        0.25                           : increment    - STEP LENGTH
 NULL. -999.2500:NULL Value
~CURVE INFORMATION BLOCK
#MNEM UNIT       ERCB CURVE CODE    CURVE DESCRIPTION
#-----------   ------------------   ----------------------------------
DEPT.M        00 001 00 00         : DEPTH        - DEPTH
ILD .OHMM     00 120 00 00         : RESD         - DEEP RESISTIVITY (DIL)
NPHI.V/V      00 330 00 00         : PHIN         - NEUTRON POROSITY (SANDSTONE)
DPHI.V/V      00 890 00 00         : PHID         - DENSITY POROSITY (SANDSTONE)
CALI.MM       00 280 01 00         : CAL          - CALIPER
GR  .API      00 310 00 00         : GR           - GAMMA RAY
~PARAMETER INFORMATION
#MNEM.UNIT           DATA             DESCRIPTION OF MNEMONIC
#---------         -----------     ------------------------------
GL  .M        566.16               : gl           - GROUND LEVEL ELEVATION
EREF.M        570.12               : kb           - ELEVATION OF DEPTH REFERENCE
DATM.M        566.16               : datum        - DATUM ELEVATION
TDD .M        435.5                : tdd          - TOTAL DEPTH DRILLER
RUN .         ONE                  : Run          - RUN NUMBER
ENG .         BILL                 : Engineer     - RECORDING ENGINEER
WIT .         JIM                  : Witness      - WITNESSED BY
MUD .         GEL                  : Mud_type     - MUD TYPE
MATR.         SANDSTONE            : Logunit      - NEUTRON MATRIX
TMAX.C        22                   : BHT          - MAXIMUM RECORDED TEMPERATURE
BHTD.M        435.5                : BHTDEP       - MAXIMUM RECORDED TEMPERATURE
RMT .C        13                   : MDTP         - TEMPERATURE OF MUD
MUDD.KG/M     1128                 : MWT          - MUD DENSITY
NEUT.         1                    : NEUTRON      - NEUTRON TYPE
RESI.         0                    : RESIST       - RESISTIVITY TYPE
RM  .OHMM     3.18                 : RM           - RESISTIVITY OF MUD
RMC .OHMM     0                    : RMC          - RESISTIVITY OF MUD CAKE
RMF .OHMM     1.6                  : RMF          - RESISTIVITY OF MUD FILTRATE
SUFT.C        -20                  : SUFT         - SURFACE TEMPERATURE
~A  DEPTH     RESD     PHIN     PHID      CAL       GR
# ...
  402.500    6.914    0.402    0.117  160.292   88.546
  402.750    7.729    0.359    0.102  158.357   95.725
  403.000    8.883    0.334    0.089  157.405  108.271
  403.250    9.308    0.366    0.115  157.452  116.940
  403.500    9.059    0.427    0.140  157.980  126.509
  403.750    8.342    0.435    0.151  159.518  130.704
  404.000    7.473    0.421    0.156  161.044  129.835
  404.250    7.904    0.416    0.155  162.587  120.918
  404.500    8.056    0.420    0.169  162.132  117.966
  404.750    7.488    0.418    0.153  160.678  118.888
  405.000    7.089    0.421    0.157  156.751  117.718
  405.250    7.292    0.430    0.157  154.805  109.102
  405.500    8.002    0.465    0.151  154.345  102.266
  405.750    9.901    0.450    0.153  153.906   93.051
  406.000   14.068    0.407    0.167  153.947   76.388
  406.250   17.894    0.342    0.178  153.984   75.220
  406.500   21.337    0.330    0.186  154.522   75.838
  406.750   24.526    0.331    0.172  154.559   82.728
  407.000   24.767    0.329    0.146  154.611   86.324
  407.250   24.767    0.322    0.120  154.653   89.925
  407.500   24.343    0.298    0.080  154.695   91.447
  407.750   22.007    0.293    0.096  154.731   94.751
  408.000   19.174    0.315    0.129  154.778  104.609
  408.250   15.517    0.353    0.154  155.311  112.389
  408.500   13.520    0.375    0.152  156.357  114.501
  408.750   12.450    0.385    0.152  156.895  110.055
  409.000   11.789    0.376    0.146  156.932  108.295
  409.250   11.789    0.378    0.145  157.476  110.105
  409.500   11.589    0.386    0.136  159.013  111.922
  409.750   11.277    0.389    0.123  159.546  108.069
  410.000   11.180    0.383    0.149  159.588  104.815
  410.250   11.187    0.372    0.169  158.636  101.565
  410.500   11.195    0.366    0.179  156.691   99.503
  410.750   11.202    0.367    0.185  155.242   97.141
  411.000   11.004    0.383    0.157  154.295   90.611
  411.250   10.323    0.391    0.142  153.840   89.441
  411.500    9.955    0.403    0.131  153.385   86.486
  411.750   10.054    0.384    0.140  153.924   79.658
  412.000   10.439    0.391    0.155  154.467   74.911
  412.250   11.041    0.416    0.174  155.001   71.359
  412.500   11.568    0.401    0.172  155.048   69.301
  412.750   12.234    0.405    0.192  155.089   65.153
  413.000   11.061    0.442    0.208  155.131   79.783
  413.250    8.547    0.468    0.226  155.670   91.138
  413.500    6.728    0.530    0.250  157.202   97.720
  413.750    5.916    0.568    0.270  160.229  102.517
  414.000    6.086    0.594    0.287  160.276   92.107
  414.250    6.617    0.564    0.294  156.840   83.190
  414.500    8.187    0.581    0.344  156.385   78.450
  414.750    8.822    0.596    0.415  156.924   93.974
  415.000    9.243    0.597    0.382  157.964  107.709
  415.250    9.335    0.573    0.345  157.018  105.952
  415.500    9.428    0.508    0.218  156.055  108.663
  415.750    9.879    0.470    0.233  155.600  107.788
  416.000   10.448    0.465    0.248  154.649  105.428
  416.250   10.552    0.460    0.263  154.690  106.347
  416.500   10.559    0.438    0.262  155.239  114.125
  416.750   11.066    0.439    0.240  156.269  114.448
  417.000   11.701    0.441    0.214  156.813   95.994
  417.250   12.841    0.443    0.224  156.849   86.478
  417.500   14.222    0.456    0.269  155.903   75.772
  417.750   15.898    0.484    0.303  155.443   68.048
  418.000   17.285    0.517    0.343  154.506   63.900
  418.250   18.969    0.511    0.385  154.051   63.630
  418.500   20.248    0.539    0.432  153.591   65.742
  418.750   22.633    0.593    0.438  153.141   72.026
  419.000   25.299    0.576    0.310  153.173   73.846
  419.250   28.022    0.547    0.285  153.219   73.864
  419.500   31.036    0.405    0.288  153.261   75.386
  419.750   34.376    0.414    0.297  152.811   78.388
  420.000   37.377    0.439    0.301  152.356   81.099
  420.250   37.747    0.453    0.304  152.398   83.509
  420.500   35.733    0.450    0.310  152.434   87.114
  420.750   32.304    0.435    0.308  152.481   91.308
  421.000   26.877    0.429    0.281  152.528   97.294
  421.250   23.202    0.435    0.267  152.570   95.239
  421.500   21.366    0.437    0.255  152.607   92.284
  421.750   20.043    0.433    0.252  152.654   96.777
  422.000   18.629    0.418    0.248  152.695  101.571
  422.250   17.475    0.408    0.237  153.244  102.794
  422.500   16.544    0.424    0.229  153.275   98.941
  422.750   16.101    0.447    0.222  153.317   85.550
  423.000   15.966    0.425    0.240  153.359   77.230
  423.250   15.973    0.383    0.244  153.401   79.344
  423.500   16.134    0.377    0.238  153.442   83.244
  423.750   16.293    0.374    0.247  153.986   88.336
  424.000   16.761    0.374    0.261  154.028   91.938
  424.250   17.566    0.406    0.277  154.080   98.523
  424.500   18.576    0.468    0.313  154.111  102.423
  424.750   19.828    0.602    0.413  154.163  102.746
  425.000   20.776    0.605    0.428  154.702   98.300
  425.250   21.375    0.589    0.410  154.743   85.211
  425.500   20.425    0.546    0.388  154.780   69.141
  425.750   18.981    0.504    0.373  154.330   59.628
  426.000   16.692    0.451    0.337  154.367   50.410
  426.250   13.761    0.412    0.306  153.922   50.438
  426.500   12.671    0.394    0.268  153.462   54.341
  426.750   11.885    0.429    0.269  153.503   45.421
  427.000   11.463    0.428    0.309  153.545   38.889
  427.250   11.471    0.419    0.299  153.587   43.087
  427.500   11.692    0.418    0.280  154.131   62.489
  427.750   11.692    0.449    0.255  154.669   76.827
  428.000   12.037    0.482    0.239  154.711   64.330
  428.250   14.087    0.479    0.212  155.249   56.304
  428.500   18.592    0.482    0.208  154.794   44.109
  428.750   23.218    0.488    0.230  154.339   29.234
  429.000   24.783    0.488    0.196  154.381   19.420
  429.250   23.465    0.455    0.194  154.925   12.888
  429.500   19.164    0.443    0.189  154.971   12.022
  429.750   16.392    0.440    0.174  155.008   13.838
  430.000   12.436    0.400    0.152  155.050   16.543
  430.250   10.735    0.380    0.138  155.091   23.721
  430.500    9.887    0.382    0.176  154.150   30.307
  430.750    9.622    0.364    0.181  153.690   33.011
  431.000    9.808    0.327    0.174  153.235   32.145
  431.250   10.279    0.270    0.191  152.785   34.856
  431.500   10.475    0.295    0.206  153.329   36.070
  431.750   10.010    0.286    0.206  153.370   35.800
  432.000    9.133    0.265    0.183  153.407   36.424
  432.250    7.811    0.250    0.158  153.448   36.452
  432.500    7.063    0.256    0.133  153.490   34.686
  432.750    6.811    0.276    0.192  154.034   32.624
  433.000    6.815    0.296    0.164  154.070   30.858
  433.250    7.341    0.237    0.125  154.630   31.187
  433.500    8.836    0.202    0.071  154.656   32.700
  433.750    9.607    0.192    0.031  155.194   34.215
  434.000    9.974    0.215    0.009  154.750   36.028
  434.250    9.981    0.241    0.026  154.289   36.948
  434.500    9.987    0.237    0.124  153.338   37.572
  434.750   10.275    0.238    0.133  151.899   37.594
  435.000   10.569    0.243    0.140  151.434   38.224
