~VERSION INFORMATION
 VERS.                 2.0:   CWLS LOG ASCII STANDARD -VERSION 2.0
 WRAP.                  NO:   ONE LINE PER DEPTH STEP
~WELL INFORMATION BLOCK
#MNEM.UNIT           DATA                    DESCRIPTION OF MNEMONIC
#---------    -------------------            -------------------------------
# Generated from Intellog Unique Number	CS_73_76/WELL/818
WELL.         BOW VALLEY INDUSTRIES LTD      : Well_name    - WELL
LOC .         00/10-11-073-17W4/0            : Location     - LOCATION
UWI .         00/10-11-073-17W4/0            : Uwi          - UNIQUE WELL ID
ENTR.         SP                             : Entered      - ENTERED BY
SRVC.         SCHLUMBERGER                   : Scn          - SERVICE COMPANY
STRT.M        234.696                        : top_depth    - START DEPTH
STOP.M        423.446                        : bot_depth    - STOP DEPTH
STEP.M        0.25                           : increment    - STEP LENGTH
 NULL. -999.2500:NULL Value
~CURVE INFORMATION BLOCK
#MNEM UNIT       ERCB CURVE CODE    CURVE DESCRIPTION
#-----------   ------------------   ----------------------------------
DEPT.M        00 001 00 00         : DEPTH        - DEPTH
GR  .API      00 310 00 00         : GR           - GAMMA RAY
DPHI.V/V      00 890 00 00         : PHID         - DENSITY POROSITY (SANDSTONE)
NPHI.V/V      00 330 00 00         : PHIN         - NEUTRON POROSITY (SANDSTONE)
ILD .OHMM     00 120 00 00         : RESD         - DEEP RESISTIVITY (DIL)
~PARAMETER INFORMATION
#MNEM.UNIT           DATA             DESCRIPTION OF MNEMONIC
#---------         -----------     ------------------------------
GL  .M        567.385              : gl           - GROUND LEVEL ELEVATION
EREF.M        570.433              : kb           - ELEVATION OF DEPTH REFERENCE
DATM.M        567.385              : datum        - DATUM ELEVATION
TDD .M        568.147              : tdd          - TOTAL DEPTH DRILLER
RUN .         ONE                  : Run          - RUN NUMBER
ENG .         BILL                 : Engineer     - RECORDING ENGINEER
WIT .         JIM                  : Witness      - WITNESSED BY
MUD .         GEL                  : Mud_type     - MUD TYPE
MATR.         SANDSTONE            : Logunit      - NEUTRON MATRIX
TMAX.C        11.6667              : BHT          - MAXIMUM RECORDED TEMPERATURE
BHTD.M        568.147              : BHTDEP       - MAXIMUM RECORDED TEMPERATURE
MATR.         1                    : LOGUNIT      - NEUTRON MATRIX
RMT .C        25                   : MDTP         - TEMPERATURE OF MUD
NEUT.         1                    : NEUTRON      - NEUTRON TYPE
RESI.         0                    : RESIST       - RESISTIVITY TYPE
RMC .OHMM     0.25                 : RMC          - RESISTIVITY OF MUD CAKE
RMF .OHMM     0.25                 : RMF          - RESISTIVITY OF MUD FILTRATE
SUFT.C        15                   : SUFT         - SURFACE TEMPERATURE
~A  DEPTH       GR     PHID     PHIN     RESD
# ...
  278.196   97.141    0.297    0.450    7.793
  278.446  103.855    0.278    0.456    6.886
  278.696  109.747    0.249    0.464    6.262
  278.946  114.937    0.216    0.477    5.931
  279.196  116.063    0.201    0.484    5.881
  279.446  115.465    0.200    0.487    5.875
  279.696  112.709    0.211    0.484    6.035
  279.946  111.438    0.219    0.478    6.099
  280.196  108.361    0.231    0.455    6.407
  280.446  102.734    0.258    0.438    6.748
  280.696   93.748    0.283    0.427    7.180
  280.946   88.267    0.298    0.422    7.486
  281.196   92.101    0.305    0.422    7.631
  281.446   95.256    0.286    0.428    7.882
  281.696  100.128    0.261    0.420    7.797
  281.946  104.377    0.250    0.418    6.957
  282.196  107.344    0.259    0.421    6.280
  282.446  109.363    0.254    0.445    5.888
  282.696  109.698    0.247    0.469    5.707
  282.946  108.216    0.251    0.501    5.979
  283.196  102.379    0.279    0.492    6.434
  283.446   96.111    0.301    0.470    7.058
  283.696   88.167    0.308    0.462    7.438
  283.946   81.732    0.306    0.464    8.015
  284.196   75.450    0.323    0.496    8.378
  284.446   68.830    0.349    0.533    8.635
  284.696   64.449    0.368    0.536    8.903
  284.946   66.043    0.332    0.483    9.062
  285.196   69.148    0.312    0.449    9.022
  285.446   71.759    0.319    0.450    8.742
  285.696   72.813    0.323    0.447    8.662
  285.946   72.063    0.320    0.442    8.434
  286.196   70.151    0.315    0.437    8.298
  286.446   67.826    0.314    0.432    8.311
  286.696   67.003    0.316    0.431    8.133
  286.946   67.557    0.322    0.438    8.151
  287.196   68.276    0.328    0.439    8.151
  287.446   68.943    0.331    0.434    8.145
  287.696   68.515    0.334    0.435    8.007
  287.946   66.613    0.332    0.439    8.017
  288.196   65.346    0.328    0.434    8.023
  288.446   64.046    0.343    0.437    8.028
  288.696   61.159    0.345    0.431    8.033
  288.946   59.484    0.342    0.427    8.031
  289.196   58.309    0.338    0.442    8.201
  289.446   61.639    0.336    0.450    8.191
  289.696   64.051    0.334    0.441    8.204
  289.946   66.046    0.332    0.427    8.038
  290.196   67.988    0.340    0.419    8.055
  290.446   68.915    0.337    0.418    8.059
  290.696   69.553    0.342    0.423    8.065
  290.946   67.816    0.350    0.427    8.070
  291.196   66.884    0.341    0.428    7.961
  291.446   65.891    0.337    0.429    7.933
  291.696   65.552    0.345    0.429    7.934
  291.946   66.555    0.353    0.431    7.937
  292.196   67.567    0.350    0.434    7.942
  292.446   67.961    0.354    0.440    7.945
  292.696   68.965    0.355    0.451    7.949
  292.946   69.077    0.355    0.440    7.954
  293.196   68.593    0.352    0.425    7.958
  293.446   68.626    0.349    0.415    7.961
  293.696   68.663    0.348    0.421    7.966
  293.946   70.185    0.346    0.416    7.971
  294.196   71.255    0.358    0.413    7.974
  294.446   72.259    0.356    0.422    7.978
  294.696   72.660    0.351    0.421    7.981
  294.946   72.606    0.346    0.425    7.987
  295.196   69.948    0.346    0.436    7.990
  295.446   69.280    0.348    0.429    7.994
  295.696   70.270    0.349    0.426    7.999
  295.946   70.636    0.348    0.432    8.002
  296.196   69.600    0.354    0.439    8.007
  296.446   69.370    0.354    0.457    8.013
  296.696   69.856    0.353    0.451    8.002
  296.946   70.861    0.350    0.445    8.182
  297.196   68.104    0.346    0.433    8.168
  297.446   66.296    0.340    0.430    8.294
  297.696   66.128    0.335    0.422    8.366
  297.946   67.095    0.330    0.419    8.645
  298.196   70.686    0.325    0.415    8.754
  298.446   73.450    0.322    0.414    8.807
  298.696   74.903    0.331    0.441    8.817
  298.946   70.993    0.343    0.463    8.836
  299.196   67.839    0.347    0.471    8.630
  299.446   67.549    0.346    0.471    8.378
  299.696   68.733    0.345    0.470    8.052
  299.946   68.316    0.350    0.470    7.914
  300.196   65.951    0.352    0.478    7.669
  300.446   64.193    0.356    0.485    7.440
  300.696   64.283    0.359    0.479    7.376
  300.946   66.361    0.358    0.476    7.377
  301.196   67.581    0.353    0.473    7.371
  301.446   69.629    0.344    0.467    7.521
  301.696   70.524    0.346    0.468    7.611
  301.946   67.558    0.341    0.472    7.655
  302.196   69.535    0.338    0.473    7.806
  302.446   70.112    0.342    0.475    7.893
  302.696   68.481    0.352    0.470    7.961
  302.946   67.555    0.352    0.457    7.983
  303.196   66.366    0.349    0.451    7.824
  303.446   67.482    0.346    0.460    7.673
  303.696   68.023    0.348    0.466    7.561
  303.946   66.937    0.353    0.470    7.359
  304.196   65.611    0.350    0.472    7.293
  304.446   65.358    0.350    0.472    7.310
  304.696   66.343    0.354    0.475    7.154
  304.946   68.559    0.356    0.481    7.172
  305.196   69.554    0.354    0.495    7.180
  305.446   70.464    0.352    0.487    7.203
  305.696   68.269    0.355    0.482    7.319
  305.946   66.818    0.359    0.464    7.324
  306.196   66.974    0.357    0.461    7.338
  306.446   67.368    0.354    0.475    7.455
  306.696   68.378    0.353    0.469    7.619
  306.946   69.358    0.352    0.464    7.606
  307.196   69.443    0.355    0.465    7.610
  307.446   67.704    0.358    0.464    7.615
  307.696   66.413    0.358    0.461    7.617
  307.946   65.414    0.356    0.466    7.514
  308.196   65.381    0.354    0.484    7.611
  308.446   66.355    0.353    0.480    7.488
  308.696   69.582    0.353    0.480    7.494
  308.946   72.747    0.349    0.482    7.499
  309.196   75.751    0.352    0.478    7.503
  309.446   76.208    0.358    0.471    7.507
  309.696   73.394    0.353    0.467    7.510
  309.946   70.624    0.349    0.465    7.518
  310.196   72.389    0.349    0.464    7.570
  310.446   74.328    0.348    0.459    7.660
  310.696   76.733    0.345    0.457    7.651
  310.946   79.047    0.334    0.459    7.829
  311.196   80.857    0.327    0.457    7.810
  311.446   83.336    0.333    0.458    7.973
  311.696   82.111    0.340    0.466    7.960
  311.946   82.416    0.340    0.477    8.105
  312.196   85.395    0.335    0.481    8.131
  312.446   88.353    0.331    0.476    7.957
  312.696   89.220    0.322    0.458    7.606
  312.946   90.639    0.315    0.450    7.310
  313.196   94.278    0.303    0.444    7.016
  313.446   97.361    0.271    0.457    6.685
  313.696   95.879    0.235    0.463    6.499
  313.946   96.502    0.220    0.449    6.312
  314.196   99.582    0.233    0.476    6.202
  314.446  102.670    0.235    0.483    6.058
  314.696  100.184    0.239    0.488    5.878
  314.946  101.377    0.248    0.495    5.817
  315.196  103.252    0.256    0.494    5.763
  315.446  104.737    0.259    0.488    5.587
  315.696  105.780    0.250    0.480    5.473
  315.946  106.753    0.246    0.479    5.369
  316.196  106.767    0.240    0.490    5.380
  316.446  105.711    0.246    0.469    5.387
  316.696  103.740    0.248    0.468    5.281
  316.946  102.558    0.243    0.475    5.202
  317.196  102.694    0.246    0.495    4.925
  317.446  104.954    0.243    0.513    4.499
  317.696  102.218    0.251    0.501    4.246
  317.946   97.123    0.248    0.487    3.905
  318.196   92.329    0.266    0.501    3.876
  318.446   86.601    0.303    0.514    4.057
  318.696   83.726    0.313    0.490    4.561
  318.946   78.799    0.327    0.477    5.059
  319.196   74.489    0.337    0.458    5.665
  319.446   71.004    0.343    0.445    6.059
  319.696   68.916    0.345    0.440    6.444
  319.946   69.014    0.336    0.434    6.634
  320.196   70.053    0.334    0.429    6.629
  320.446   69.999    0.334    0.436    6.548
  320.696   70.809    0.334    0.442    6.489
  320.946   72.433    0.342    0.437    6.399
  321.196   73.098    0.349    0.442    6.403
  321.446   74.358    0.357    0.452    6.406
