~VERSION INFORMATION
 VERS.                 2.0:   CWLS LOG ASCII STANDARD -VERSION 2.0
 WRAP.                  NO:   ONE LINE PER DEPTH STEP
~WELL INFORMATION BLOCK
#MNEM.UNIT           DATA                    DESCRIPTION OF MNEMONIC
#---------    -------------------            -------------------------------
# Generated from Intellog Unique Number	CS_73_76/WELL/845
WELL.         BOW VALLEY INDUSTRIES LTD.     : Well_name    - WELL
LOC .         00/11-19-073-16W4/0            : Location     - LOCATION
UWI .         00/11-19-073-16W4/0            : Uwi          - UNIQUE WELL ID
ENTR.         SP                             : Entered      - ENTERED BY
SRVC.         SCHLUMBERGER                   : Scn          - SERVICE COMPANY
STRT.M        237.744                        : top_depth    - START DEPTH
STOP.M        445.994                        : bot_depth    - STOP DEPTH
STEP.M        0.25                           : increment    - STEP LENGTH
 NULL. -999.2500:NULL Value
~CURVE INFORMATION BLOCK
#MNEM UNIT       ERCB CURVE CODE    CURVE DESCRIPTION
#-----------   ------------------   ----------------------------------
DEPT.M        00 001 00 00         : DEPTH        - DEPTH
GR  .API      00 310 00 00         : GR           - GAMMA RAY
DPHI.V/V      00 890 00 00         : PHID         - DENSITY POROSITY (SANDSTONE)
NPHI.V/V      00 330 00 00         : PHIN         - NEUTRON POROSITY (SANDSTONE)
ILD .OHMM     00 120 00 00         : RESD         - DEEP RESISTIVITY (DIL)
~PARAMETER INFORMATION
#MNEM.UNIT           DATA             DESCRIPTION OF MNEMONIC
#---------         -----------     ------------------------------
GL  .M        574.639              : gl           - GROUND LEVEL ELEVATION
EREF.M        577.596              : kb           - ELEVATION OF DEPTH REFERENCE
DATM.M        574.639              : datum        - DATUM ELEVATION
TDD .M        445.922              : tdd          - TOTAL DEPTH DRILLER
RUN .         ONE                  : Run          - RUN NUMBER
ENG .         BILL                 : Engineer     - RECORDING ENGINEER
WIT .         JIM                  : Witness      - WITNESSED BY
MUD .         GEL                  : Mud_type     - MUD TYPE
MATR.         SANDSTONE            : Logunit      - NEUTRON MATRIX
TMAX.C        23                   : BHT          - MAXIMUM RECORDED TEMPERATURE
BHTD.M        538                  : BHTDEP       - MAXIMUM RECORDED TEMPERATURE
MATR.         1                    : LOGUNIT      - NEUTRON MATRIX
RMT .C        25                   : MDTP         - TEMPERATURE OF MUD
NEUT.         1                    : NEUTRON      - NEUTRON TYPE
RESI.         0                    : RESIST       - RESISTIVITY TYPE
RMC .OHMM     0.25                 : RMC          - RESISTIVITY OF MUD CAKE
RMF .OHMM     0.25                 : RMF          - RESISTIVITY OF MUD FILTRATE
SUFT.C        15                   : SUFT         - SURFACE TEMPERATURE
~A  DEPTH       GR     PHID     PHIN     RESD
# ...
  281.244  104.173    0.256    0.490    7.171
  281.494   99.296    0.260    0.468    8.270
  281.744   94.126    0.244    0.459    8.991
  281.994   90.538    0.217    0.465    9.767
  282.244   88.692    0.199    0.472    9.928
  282.494   87.343    0.161    0.417    9.528
  282.744   90.534    0.205    0.404    8.968
  282.994   97.010    0.211    0.440    8.282
  283.244  100.897    0.196    0.467    7.710
  283.494  100.848    0.215    0.467    7.190
  283.744   98.765    0.234    0.458    6.849
  283.994   97.684    0.253    0.459    7.044
  284.244   93.531    0.262    0.463    7.263
  284.494   90.380    0.256    0.462    7.848
  284.744   85.287    0.255    0.448    8.379
  284.994   83.532    0.276    0.435    8.732
  285.244   80.892    0.289    0.446    9.025
  285.494   81.140    0.287    0.451    9.106
  285.744   83.035    0.276    0.446    9.234
  285.994   85.594    0.274    0.461    9.144
  286.244   88.958    0.270    0.474    8.845
  286.494   92.009    0.260    0.467    8.154
  286.744   94.085    0.252    0.478    7.869
  286.994   95.045    0.282    0.486    7.994
  287.244   89.154    0.325    0.498    8.759
  287.494   78.167    0.367    0.521    9.488
  287.744   67.819    0.396    0.566   10.185
  287.994   59.157    0.337    0.560   10.651
  288.244   53.063    0.313    0.434   11.173
  288.494   52.485    0.294    0.399   11.140
  288.744   53.196    0.295    0.403   10.940
  288.994   53.296    0.314    0.421   10.710
  289.244   54.357    0.309    0.427   10.747
  289.494   55.118    0.300    0.439   10.522
  289.744   55.126    0.308    0.435   10.540
  289.994   54.578    0.312    0.435   10.543
  290.244   54.200    0.315    0.442   10.544
  290.494   54.554    0.330    0.445   10.545
  290.744   54.842    0.330    0.442   10.547
  290.994   56.953    0.322    0.434   10.549
  291.244   58.982    0.317    0.425   10.550
  291.494   61.149    0.319    0.419   10.550
  291.744   61.758    0.325    0.424   10.538
  291.994   62.702    0.329    0.440   10.747
  292.244   61.386    0.335    0.451   10.776
  292.494   60.327    0.334    0.440   10.579
  292.744   59.826    0.335    0.448   10.762
  292.994   58.586    0.335    0.457   10.759
  293.244   56.500    0.332    0.469   10.760
  293.494   54.385    0.324    0.453   10.761
  293.744   55.437    0.315    0.458   10.762
  293.994   56.958    0.310    0.459   10.764
  294.244   57.495    0.322    0.456   10.765
  294.494   58.253    0.325    0.452   10.767
  294.744   58.207    0.326    0.450   10.768
  294.994   58.500    0.323    0.450   10.769
  295.244   57.184    0.319    0.443   10.771
  295.494   55.325    0.318    0.437   10.772
  295.744   53.959    0.326    0.433   10.773
  295.994   54.993    0.322    0.426   10.776
  296.244   55.958    0.317    0.419   10.777
  296.494   56.382    0.311    0.417   10.778
  296.744   56.013    0.316    0.423   10.779
  296.994   55.017    0.336    0.427   10.781
  297.244   54.249    0.326    0.431   10.782
  297.494   54.338    0.320    0.437   10.784
  297.744   55.796    0.318    0.439   10.793
  297.994   57.900    0.322    0.431   10.866
  298.244   58.694    0.325    0.422   10.790
  298.494   58.986    0.332    0.421   11.015
  298.744   60.750    0.337    0.423   10.996
  298.994   62.323    0.330    0.430   10.995
  299.244   62.062    0.325    0.437   10.997
  299.494   62.645    0.318    0.449   10.999
  299.744   63.141    0.315    0.451   10.995
  299.994   62.911    0.321    0.441   10.912
  300.244   62.612    0.327    0.434   10.803
  300.494   62.589    0.334    0.429   10.800
  300.744   63.593    0.329    0.420   10.802
  300.994   63.931    0.326    0.424   10.804
  301.244   65.575    0.320    0.432   10.827
  301.494   67.436    0.318    0.429   10.587
  301.744   68.825    0.319    0.429   10.609
  301.994   68.934    0.325    0.427   10.611
  302.244   66.735    0.332    0.430   10.613
  302.494   64.828    0.339    0.438   10.610
  302.744   63.145    0.342    0.447   10.518
  302.994   63.044    0.337    0.452   10.424
  303.244   63.713    0.337    0.444   10.421
  303.494   63.139    0.326    0.434   10.423
  303.744   64.966    0.329    0.423   10.425
  303.994   67.489    0.337    0.434   10.426
  304.244   68.790    0.344    0.439   10.427
  304.494   69.850    0.346    0.423   10.429
  304.744   70.957    0.336    0.414   10.436
  304.994   71.272    0.328    0.428   10.476
  305.244   71.795    0.320    0.447   10.633
  305.494   71.858    0.312    0.474   10.637
  305.744   71.037    0.302    0.488   10.660
  305.994   69.598    0.318    0.477   10.841
  306.244   67.976    0.325    0.468   10.851
  306.494   66.353    0.319    0.467   10.615
  306.744   64.890    0.322    0.483   10.279
  306.994   63.175    0.325    0.494   10.185
  307.244   62.939    0.331    0.486   10.062
  307.494   62.737    0.330    0.474   10.192
  307.744   64.092    0.329    0.458   10.236
  307.994   66.653    0.329    0.449   10.440
  308.244   67.914    0.326    0.446   10.425
  308.494   65.891    0.330    0.445   10.666
  308.744   65.073    0.336    0.464   10.644
  308.994   64.112    0.327    0.478   10.544
  309.244   63.217    0.326    0.471   10.435
  309.494   62.770    0.342    0.483   10.273
  309.744   62.768    0.331    0.489   10.070
  309.994   62.112    0.323    0.480    9.884
  310.244   63.147    0.317    0.481    9.897
  310.494   63.568    0.314    0.485    9.908
  310.744   61.000    0.324    0.492    9.714
  310.994   61.739    0.334    0.486    9.718
  311.244   60.757    0.344    0.480    9.715
  311.494   59.340    0.347    0.486    9.717
  311.744   58.676    0.343    0.481    9.723
  311.994   58.820    0.339    0.485    9.748
  312.244   59.887    0.338    0.483    9.908
  312.494   60.882    0.338    0.486    9.888
  312.744   62.635    0.338    0.480   10.103
  312.994   64.337    0.339    0.474   10.091
  313.244   63.879    0.341    0.476   10.094
  313.494   65.044    0.342    0.468   10.096
  313.744   66.498    0.340    0.458   10.097
  313.994   67.698    0.333    0.453   10.095
  314.244   68.738    0.327    0.465   10.105
  314.494   69.536    0.322    0.477    9.899
  314.744   67.807    0.319    0.480    9.915
  314.994   65.330    0.322    0.482    9.917
  315.244   64.310    0.322    0.479    9.900
  315.494   64.103    0.321    0.474   10.121
  315.744   64.053    0.327    0.467   10.106
  315.994   66.376    0.332    0.457   10.109
  316.244   69.758    0.340    0.465   10.111
  316.494   71.463    0.337    0.480   10.107
  316.744   70.817    0.335    0.493   10.049
  316.994   71.576    0.338    0.484    9.928
  317.244   74.735    0.338    0.459    9.623
  317.494   79.168    0.320    0.444    9.310
  317.744   83.001    0.304    0.454    8.741
  317.994   88.702    0.285    0.464    8.051
  318.244   91.688    0.266    0.482    7.428
  318.494   90.201    0.249    0.493    6.641
  318.744   87.194    0.255    0.496    6.189
  318.994   86.615    0.246    0.482    5.915
  319.244   91.000    0.207    0.498    6.298
  319.494   94.454    0.213    0.502    6.611
  319.744  100.590    0.209    0.512    6.728
  319.994  103.643    0.217    0.525    6.724
  320.244  104.792    0.219    0.545    6.733
  320.494  102.432    0.213    0.549    6.609
  320.744  104.498    0.206    0.527    6.411
  320.994  105.573    0.218    0.499    6.218
  321.244  102.218    0.225    0.495    6.034
  321.494  100.322    0.226    0.493    5.911
  321.744  100.945    0.229    0.477    5.788
  321.994  100.026    0.227    0.467    5.897
  322.244   97.179    0.219    0.465    5.959
  322.494   95.979    0.215    0.476    6.029
  322.744   96.507    0.219    0.483    6.144
  322.994   96.684    0.221    0.487    6.137
  323.244   96.100    0.222    0.476    6.138
  323.494   94.960    0.228    0.469    5.953
  323.744   93.419    0.236    0.464    5.782
  323.994   90.836    0.258    0.469    5.505
  324.244   88.875    0.270    0.495    5.344
  324.494   85.380    0.298    0.523    5.051
