~VERSION INFORMATION
 VERS.                 2.0:   CWLS LOG ASCII STANDARD -VERSION 2.0
 WRAP.                  NO:   ONE LINE PER DEPTH STEP
~WELL INFORMATION BLOCK
#MNEM.UNIT           DATA                    DESCRIPTION OF MNEMONIC
#---------    -------------------            -------------------------------
# Generated from Intellog Unique Number	CN_94_101/WELL/3782
WELL.         10-25-095-18W4                 : Well_name    - WELL
LOC .         00/10-25-095-18W4/0            : Location     - LOCATION
UWI .         00/10-25-095-18W400            : Uwi          - UNIQUE WELL ID
ENTR.         T                              : Entered      - ENTERED BY
SRVC.         SCHLUMBERGER                   : Scn          - SERVICE COMPANY
DATE.         04/12/92                       : Date         - LOG DATE
STRT.M        200                            : top_depth    - START DEPTH
STOP.M        394.75                         : bot_depth    - STOP DEPTH
STEP.M        0.25                           : increment    - STEP LENGTH
 NULL. -999.2500:NULL Value
~CURVE INFORMATION BLOCK
#MNEM UNIT       ERCB CURVE CODE    CURVE DESCRIPTION
#-----------   ------------------   ----------------------------------
DEPT.M        00 001 00 00         : DEPTH        - DEPTH
GR  .API      00 310 00 00         : GR           - GAMMA RAY
CALI.MM       00 280 01 00         : CAL          - CALIPER
NPHI.V/V      00 330 00 00         : PHIN         - NEUTRON POROSITY (SANDSTONE)
DPHI.V/V      00 890 00 00         : PHID         - DENSITY POROSITY (SANDSTONE)
ILD .OHMM     00 120 00 00         : RESD         - DEEP RESISTIVITY (DIL)
~PARAMETER INFORMATION
#MNEM.UNIT           DATA             DESCRIPTION OF MNEMONIC
#---------         -----------     ------------------------------
GL  .M        665                  : gl           - GROUND LEVEL ELEVATION
EREF.M        668                  : kb           - ELEVATION OF DEPTH REFERENCE
DATM.M        668                  : datum        - DATUM ELEVATION
TDD .M        399                  : tdd          - TOTAL DEPTH DRILLER
RUN .         0.000000             : Run          - RUN NUMBER
MUD .         GEL                  : Mud_type     - MUD TYPE
MATR.         SANDSTONE            : Logunit      - NEUTRON MATRIX
TMAX.C        15                   : BHT          - MAXIMUM RECORDED TEMPERATURE
BHTD.M        253.4                : BHTDEP       - MAXIMUM RECORDED TEMPERATURE
RMT .C        17.3                 : MDTP         - TEMPERATURE OF MUD
MUDD.KG/M     1130                 : MWT          - MUD DENSITY
NEUT.         1                    : NEUTRON      - NEUTRON TYPE
RESI.         0                    : RESIST       - RESISTIVITY TYPE
RM  .OHMM     8.25                 : RM           - RESISTIVITY OF MUD
RMC .OHMM     7.89                 : RMC          - RESISTIVITY OF MUD CAKE
RMF .OHMM     3.5                  : RMF          - RESISTIVITY OF MUD FILTRATE
SUFT.C        4                    : SUFT         - SURFACE TEMPERATURE
BTZC.MM       0                    : BITZC        - BIT SIZE CONSTANT
MDW .KG/M     0                    : MDW          - MUD WEIGHT
~A  DEPTH       GR      CAL     PHIN     PHID     RESD
# ...
  346.000   94.215  165.456    0.362    0.148   12.264
  346.250   95.455  167.531    0.391    0.179   11.145
  346.500   96.694  160.270    0.398    0.188   10.934
  346.750   96.074  167.531    0.396    0.183   10.524
  347.000   97.934  167.531    0.392    0.180   10.324
  347.250   97.934  167.531    0.385    0.188   10.128
  347.500   94.215  167.531    0.371    0.193   10.324
  347.750   94.835  166.494    0.375    0.189   10.324
  348.000   96.694  166.494    0.376    0.183   10.324
  348.250   99.174  163.382    0.377    0.178   10.324
  348.500   96.074  161.307    0.382    0.178    9.563
  348.750   97.314  162.344    0.395    0.183   10.128
  349.000   99.793  171.680    0.391    0.190   10.524
  349.250   98.554  169.606    0.381    0.183   10.727
  349.500   96.694  169.606    0.388    0.173   10.727
  349.750   98.554  167.531    0.391    0.164   11.145
  350.000   99.174  168.568    0.393    0.172   11.804
  350.250   92.975  163.382    0.392    0.193   12.501
  350.500   90.496  160.270    0.391    0.209   12.743
  350.750   89.256  159.232    0.388    0.213   12.501
  351.000   91.116  158.195    0.382    0.205   12.032
  351.250   92.355  160.270    0.381    0.194   11.804
  351.500   96.694  167.531    0.380    0.184   12.032
  351.750   97.934  165.456    0.362    0.177   12.743
  352.000   93.595  167.531    0.333    0.167   13.756
  352.250   88.636  162.344    0.289    0.152   14.851
  352.500   77.479  161.307    0.307    0.143   14.569
  352.750   75.620  161.307    0.341    0.179   13.496
  353.000   79.339  161.307    0.393    0.197   12.743
  353.250   86.777  161.307    0.397    0.194   12.032
  353.500   90.496  160.270    0.341    0.142   12.743
  353.750   87.397  163.382    0.276    0.086   16.657
  354.000   78.719  161.307    0.220    0.001   21.362
  354.250   67.562  159.232    0.210   -0.006   29.574
  354.500   60.124  161.307    0.190   -0.011   33.172
  354.750   58.884  161.307    0.193   -0.010   38.660
  355.000   59.877  161.307    0.193   -0.006   37.927
  355.250   58.642  161.307    0.185   -0.004   32.544
  355.500   59.877  160.270    0.193    0.001   19.788
  355.750   67.901  163.382    0.222    0.009   17.642
  356.000   74.691  161.307    0.269    0.051   13.756
  356.250   80.247  161.307    0.326    0.155   12.989
  356.500   86.066  161.307    0.401    0.179   12.032
  356.750   88.525  164.419    0.391    0.169   11.361
  357.000   86.680  165.456    0.304    0.129   10.524
  357.250   81.762  162.344    0.258    0.048   10.524
  357.500   67.623  163.382    0.273    0.016   10.324
  357.750   65.164  164.419    0.314    0.078   10.128
  358.000   75.000  173.755    0.395    0.153    9.748
  358.250   85.102  191.390    0.435    0.169    7.748
  358.500   93.061  191.390    0.426    0.164    7.177
  358.750   96.122  188.278    0.433    0.148    6.648
  359.000   96.735  179.979    0.437    0.134    6.399
  359.250   97.959  174.793    0.440    0.143    6.277
  359.500   97.959  176.867    0.442    0.177    6.158
  359.750   98.571  182.054    0.460    0.185    6.158
  360.000  101.633  184.129    0.453    0.175    6.158
  360.250  102.857  182.054    0.432    0.157    6.277
  360.500   99.184  179.979    0.426    0.154    6.522
  360.750   97.347  177.905    0.416    0.162    6.777
  361.000   96.735  166.494    0.408    0.169    7.041
  361.250   94.898  174.793    0.420    0.177    6.399
  361.500   96.735  174.793    0.410    0.174    6.908
  361.750   97.347  184.129    0.407    0.133    6.648
  362.000   93.673  177.905    0.420    0.095    5.927
  362.250   95.510  175.830    0.451    0.116    5.927
  362.500  102.245  176.867    0.456    0.160    5.815
  362.750  105.918  176.867    0.448    0.163    5.815
  363.000  109.592  176.867    0.448    0.140    6.399
  363.250  108.980  174.793    0.448    0.116    5.927
  363.500  110.204  191.390    0.452    0.133    5.184
  363.750  110.204  178.942    0.451    0.154    5.086
  364.000  105.306  176.867    0.427    0.143    4.895
  364.250  103.469  175.830    0.425    0.128    4.895
  364.500  103.469  188.278    0.428    0.140    4.802
  364.750  102.857  183.091    0.436    0.162    4.895
  365.000  103.893  181.017    0.442    0.158    4.990
  365.250  101.434  181.017    0.451    0.149    5.086
  365.500  101.434  182.054    0.472    0.143    4.990
  365.750  103.893  183.091    0.467    0.145    4.895
  366.000  103.279  183.091    0.453    0.148    4.895
  366.250  100.820  182.054    0.446    0.143    6.399
  366.500  100.205  174.793    0.423    0.135    6.042
  366.750  103.893  175.830    0.420    0.132    6.042
  367.000  104.508  176.867    0.428    0.143    5.597
  367.250  106.967  177.905    0.432    0.147    5.284
  367.500  112.500  177.905    0.412    0.138    4.990
  367.750  110.656  179.979    0.393    0.105    4.802
  368.000   98.361  159.232    0.393    0.093    4.802
  368.250   98.361  159.232    0.417    0.118    5.386
  368.500   98.361  175.830    0.420    0.145    6.042
  368.750   98.975  174.793    0.408    0.154    6.158
  369.000  100.205  172.718    0.422    0.152    6.277
  369.250  100.205  174.793    0.443    0.145    6.042
  369.500   99.590  176.867    0.452    0.140    6.042
  369.750  102.664  175.830    0.445    0.137    6.042
  370.000  100.617  174.587    0.435    0.138    6.158
  370.250   98.148  178.719    0.425    0.144    6.158
  370.500   96.296  178.719    0.447    0.145    6.158
  370.750   94.444  177.686    0.445    0.144    6.158
  371.000   92.593  177.686    0.441    0.135    6.158
  371.250   96.914  178.719    0.438    0.130    7.041
  371.500   95.679  178.719    0.440    0.127    7.898
  371.750   94.444  181.818    0.436    0.122    9.030
  372.000   87.654  181.818    0.403    0.139   10.727
  372.250   79.012  173.554    0.358    0.138   11.804
  372.500   68.182  161.157    0.331    0.143   14.293
  372.750   58.884  160.124    0.328    0.170   20.170
  373.000   58.884  163.223    0.301    0.239   21.362
  373.250   59.504  165.289    0.292    0.282   20.560
  373.500   57.025  164.256    0.299    0.262   19.045
  373.750   56.405  164.256    0.354    0.274   20.560
  374.000   58.264  162.190    0.349    0.297   22.624
  374.250   51.446  161.157    0.291    0.339   27.924
  374.500   46.488  160.124    0.288    0.329   28.464
  374.750   46.488  160.124    0.301    0.307   29.574
  375.000   48.967  161.157    0.301    0.302   30.728
  375.250   49.587  160.124    0.299    0.298   32.544
  375.500   50.207  159.091    0.297    0.297   32.544
  375.750   53.306  159.091    0.284    0.298   31.927
  376.000   53.926  160.124    0.278    0.297   31.927
  376.250   51.446  161.157    0.243    0.302   40.944
  376.500   48.347  161.157    0.180    0.356   44.201
  376.750   41.529  160.124    0.116    0.386   51.512
  377.000   32.851  160.124    0.123    0.378   64.809
  377.250   21.074  160.124    0.178    0.361   93.224
  377.500   32.231  160.124    0.209    0.349   86.355
  377.750   36.570  161.157    0.241    0.338   81.537
  378.000   42.769  159.091    0.263    0.328   72.694
  378.250   45.248  160.124    0.266    0.319   62.375
  378.500   52.686  158.058    0.253    0.319   66.061
  378.750   58.264  159.091    0.182    0.338   81.537
  379.000   45.248  160.124    0.164    0.361   98.732
  379.250   30.372  160.124    0.127    0.408  150.413
  379.500   25.413  163.223    0.086    0.415  196.621
  379.750   22.314  162.190    0.099    0.398  238.085
  380.000   21.784  159.091    0.119    0.392  238.085
  380.250   24.896  159.091    0.145    0.386  216.362
  380.500   24.274  159.091    0.173    0.380  208.238
  380.750   24.274  159.091    0.182    0.377  204.291
  381.000   26.141  159.091    0.188    0.377  196.621
  381.250   30.498  159.091    0.209    0.367  178.681
  381.500   29.876  159.091    0.230    0.362  165.515
  381.750   29.876  159.091    0.259    0.352  150.413
  382.000   31.120  158.058    0.252    0.347  150.413
  382.250   32.988  158.058    0.179    0.362  159.300
