~VERSION INFORMATION
 VERS.                 2.0:   CWLS LOG ASCII STANDARD -VERSION 2.0
 WRAP.                  NO:   ONE LINE PER DEPTH STEP
~WELL INFORMATION BLOCK
#MNEM.UNIT           DATA                    DESCRIPTION OF MNEMONIC
#---------    -------------------            -------------------------------
# Generated from Intellog Unique Number	CX_WELLS/WELL/3924
WELL.         14-05-097-21W4                 : Well_name    - WELL
LOC .         00/14-05-097-21W4/0            : Location     - LOCATION
UWI .         00/14-05-097-21W4/0            : Uwi          - UNIQUE WELL ID
ENTR.         TIM                            : Entered      - ENTERED BY
SRVC.         SCHLUMBERGER                   : Scn          - SERVICE COMPANY
DATE.         08/11/92                       : Date         - LOG DATE
STRT.M        320.04                         : top_depth    - START DEPTH
STOP.M        503.04                         : bot_depth    - STOP DEPTH
STEP.M        0.25                           : increment    - STEP LENGTH
 NULL. -999.2500:NULL Value
~CURVE INFORMATION BLOCK
#MNEM UNIT       ERCB CURVE CODE    CURVE DESCRIPTION
#-----------   ------------------   ----------------------------------
DEPT.M        00 001 00 00         : DEPTH        - DEPTH
DPHI.V/V      00 890 00 00         : PHID         - DENSITY POROSITY (SANDSTONE)
GR  .API      00 310 00 00         : GR           - GAMMA RAY
ILD .OHMM     00 120 00 00         : RESD         - DEEP RESISTIVITY (DIL)
RHOB.KG/M3    00 350 00 00         : DENS         - BULK DENSITY
NPHI.V/V      00 330 00 00         : PHIN         - NEUTRON POROSITY (SANDSTONE)
~PARAMETER INFORMATION
#MNEM.UNIT           DATA             DESCRIPTION OF MNEMONIC
#---------         -----------     ------------------------------
GL  .M        330.5                : gl           - GROUND LEVEL ELEVATION
EREF.M        330.5                : kb           - ELEVATION OF DEPTH REFERENCE
DATM.M        330.5                : datum        - DATUM ELEVATION
TDD .M        518.16               : tdd          - TOTAL DEPTH DRILLER
RUN .         ONE                  : Run          - RUN NUMBER
ENG .         BILL                 : Engineer     - RECORDING ENGINEER
WIT .         JIM                  : Witness      - WITNESSED BY
MUD .         GEL                  : Mud_type     - MUD TYPE
MATR.         SANDSTONE            : Logunit      - NEUTRON MATRIX
TMAX.C        0                    : BHT          - MAXIMUM RECORDED TEMPERATURE
BHTD.M        518.16               : BHTDEP       - MAXIMUM RECORDED TEMPERATURE
RMT .C        0                    : MDTP         - TEMPERATURE OF MUD
MUDD.KG/M     0                    : MWT          - MUD DENSITY
NEUT.         1                    : NEUTRON      - NEUTRON TYPE
RESI.         0                    : RESIST       - RESISTIVITY TYPE
RM  .OHMM     0                    : RM           - RESISTIVITY OF MUD
RMC .OHMM     0                    : RMC          - RESISTIVITY OF MUD CAKE
RMF .OHMM     0                    : RMF          - RESISTIVITY OF MUD FILTRATE
SUFT.C        4                    : SUFT         - SURFACE TEMPERATURE
~A  DEPTH     PHID       GR     RESD     DENS     PHIN
# ...
  356.540    0.317   54.521    2.904 2126.500    0.539
  356.790    0.331   53.300    3.460 2104.560    0.565
  357.040    0.346   50.864    3.300 2078.620    0.619
  357.290    0.285   48.428    2.824 2179.900    0.580
  357.540    0.167   48.824    2.426 2374.560    0.556
  357.790    0.173   51.242    2.426 2364.540    0.517
  358.040    0.191   54.467    2.823 2334.630    0.464
  358.290    0.210   60.521    2.743 2302.750    0.438
  358.540    0.226   65.365    2.664 2276.830    0.470
  358.790    0.236   66.969    2.584 2260.850    0.458
  359.040    0.244   67.365    2.584 2246.860    0.456
  359.290    0.248   66.141    2.504 2240.810    0.451
  359.540    0.244   64.518    2.901 2246.690    0.437
  359.790    0.237   62.491    3.377 2258.530    0.426
  360.040    0.225   59.245    3.933 2278.310    0.447
  360.290    0.212   59.645    4.092 2300.080    0.463
  360.540    0.192   62.465    4.092 2333.780    0.469
  360.790    0.193   64.882    4.488 2331.710    0.471
  361.040    0.222   62.852    5.203 2283.910    0.472
  361.290    0.238   58.802    5.044 2258.000    0.472
  361.540    0.238   55.560    4.408 2257.910    0.470
  361.790    0.221   53.529    4.249 2285.640    0.476
  362.040    0.208   55.947    4.408 2307.420    0.480
  362.290    0.233   61.999    4.566 2265.600    0.458
  362.540    0.256   63.203    4.884 2227.720    0.447
  362.790    0.254   63.194    4.725 2231.660    0.436
  363.040    0.249   63.992    4.407 2239.520    0.429
  363.290    0.246   65.600    4.486 2243.390    0.432
  363.540    0.243   65.594    4.962 2249.280    0.441
  363.790    0.236   63.971    4.724 2261.080    0.453
  364.040    0.232   64.366    4.406 2266.980    0.441
  364.290    0.239   63.954    4.167 2254.970    0.422
  364.540    0.253   59.095    4.485 2233.010    0.444
  364.790    0.261   59.895    4.485 2219.030    0.456
  365.040    0.274   64.332    4.484 2197.090    0.466
  365.290    0.266   67.961    4.325 2210.920    0.473
  365.540    0.254   69.971    4.007 2230.700    0.470
  365.790    0.240   69.965    3.927 2254.460    0.477
  366.040    0.241   70.361    4.245 2252.350    0.467
  366.290    0.243   70.352    4.324 2248.330    0.456
  366.540    0.248   71.152    4.403 2240.280    0.451
  366.790    0.250   72.356    4.324 2238.200    0.448
  367.040    0.258   71.943    4.165 2224.230    0.452
  367.290    0.271   68.699    3.847 2202.270    0.461
  367.540    0.275   67.480    3.370 2196.220    0.474
  367.790    0.268   67.472    3.131 2208.040    0.480
  368.040    0.270   67.059    2.893 2203.960    0.481
  368.290    0.273   67.050    3.131 2199.940    0.487
  368.540    0.273   67.042    3.448 2199.860    0.498
  368.790    0.266   67.027    4.163 2211.690    0.506
  369.040    0.266   67.427    4.322 2211.610    0.508
  369.290    0.266   69.841    4.321 2211.520    0.504
  369.540    0.268   71.047    3.924 2207.460    0.493
  369.790    0.275   71.038    3.606 2195.460    0.497
  370.040    0.284   70.222    3.050 2181.460    0.504
  370.290    0.282   70.213    3.208 2185.310    0.510
  370.540    0.277   71.417    3.526 2193.170    0.506
  370.790    0.277   71.004    3.526 2193.110    0.493
  371.040    0.278   68.571    3.366 2191.040    0.490
  371.290    0.273   68.966    3.446 2198.900    0.502
  371.540    0.269   72.999    4.001 2206.720    0.501
  371.790    0.268   75.416    3.763 2208.620    0.495
  372.040    0.265   75.809    3.207 2212.560    0.487
  372.290    0.263   75.397    3.047 2216.420    0.485
  372.540    0.268   74.580    3.365 2208.410    0.495
  372.790    0.274   73.765    3.285 2198.390    0.503
  373.040    0.275   71.329    3.047 2196.300    0.496
  373.290    0.274   68.898    2.888 2198.200    0.465
  373.540    0.263   64.847    3.284 2216.020    0.449
  373.790    0.258   62.010    3.999 2223.860    0.464
  374.040    0.304   59.978    4.634 2148.270    0.474
  374.290    0.321   60.776    5.190 2120.370    0.480
  374.540    0.299   61.176    5.269 2156.050    0.554
  374.790    0.278   61.571    4.872 2191.730    0.572
  375.040    0.271   60.350    3.998 2203.550    0.547
  375.290    0.269   58.321    3.045 2205.450    0.526
  375.540    0.267   55.885    2.726 2209.320    0.519
  375.790    0.261   56.283    3.759 2219.210    0.510
  376.040    0.248   60.720    4.394 2240.980    0.470
  376.290    0.236   67.583    4.871 2260.770    0.488
  376.540    0.225   69.999    4.712 2278.560    0.493
  376.790    0.216   65.141    4.235 2294.370    0.483
  377.040    0.205   59.069    4.393 2312.150    0.464
  377.290    0.192   54.613    5.187 2333.940    0.527
  377.540    0.237   57.838    6.379 2258.350    0.573
  377.790    0.321   58.633    5.187 2121.120    0.568
  378.040    0.315   58.225    3.916 2131.000    0.553
  378.290    0.316   57.812    3.280 2128.900    0.553
  378.540    0.324   57.803    3.518 2114.930    0.518
  378.790    0.329   59.816    3.597 2106.900    0.491
  379.040    0.300   62.636    3.597 2154.480    0.486
  379.290    0.290   64.649    3.597 2172.300    0.521
  379.540    0.272   65.042    3.914 2202.020    0.487
  379.790    0.269   64.225    3.993 2205.890    0.485
  380.040    0.264   63.815    4.073 2213.730    0.493
  380.290    0.261   62.594    4.231 2219.650    0.490
  380.540    0.256   60.968    4.628 2227.510    0.463
  380.790    0.260   59.747    5.105 2221.460    0.444
  381.040    0.312   59.332    5.422 2135.900    0.463
  381.290    0.319   59.326    5.422 2123.890    0.483
  381.540    0.295   59.315    5.342 2163.560    0.515
  381.790    0.282   58.903    4.945 2185.340    0.528
  382.040    0.266   58.086    4.468 2211.100    0.504
  382.290    0.258   57.267    3.753 2224.930    0.469
  382.540    0.256   56.858    2.879 2226.830    0.450
  382.790    0.257   56.850    2.640 2226.700    0.433
  383.040    0.254   56.839    2.640 2230.570    0.424
  383.290    0.252   56.426    3.354 2234.500    0.441
  383.540    0.243   55.609    3.910 2248.300    0.443
  383.790    0.239   54.388    4.148 2256.190    0.422
  384.040    0.231   53.573    4.307 2268.030    0.400
  384.290    0.220   53.161    4.704 2287.810    0.388
  384.540    0.209   52.746    5.101 2305.610    0.397
  384.790    0.217   52.335    4.465 2291.620    0.399
  385.040    0.237   51.518    4.783 2259.740    0.398
  385.290    0.261   51.508    8.437 2219.910    0.436
  385.540    0.285   51.903   10.025 2180.090    0.465
  385.790    0.290   53.107    8.754 2172.010    0.460
  386.040    0.305   54.718    8.277 2146.120    0.465
  386.290    0.330   58.346    7.880 2106.290    0.485
  386.540    0.348   61.571    6.847 2076.400    0.511
  386.790    0.362   65.200    6.052 2052.480    0.572
  387.040    0.374   66.000    6.846 2032.500    0.592
  387.290    0.372   64.779    6.449 2036.370    0.593
  387.540    0.365   62.343    4.780 2048.230    0.592
  387.790    0.352   61.526    3.032 2070.000    0.583
  388.040    0.317   61.924    2.317 2127.540    0.553
  388.290    0.309   63.532    2.079 2139.390    0.559
  388.540    0.300   67.161    2.078 2155.210    0.556
  388.790    0.285   69.982    2.237 2178.960    0.539
  389.040    0.270   70.780    2.316 2204.690    0.505
  389.290    0.272   70.771    2.554 2200.650    0.493
  389.540    0.280   69.952    2.792 2188.620    0.498
  389.790    0.287   67.117    2.951 2176.620    0.506
  390.040    0.293   67.108    3.110 2166.600    0.516
  390.290    0.303   67.099    3.348 2150.590    0.518
  390.540    0.312   64.666    3.665 2134.630    0.520
  390.790    0.321   63.041    3.983 2120.640    0.532
  391.040    0.318   63.030    4.062 2124.530    0.546
  391.290    0.304   64.636    3.664 2148.290    0.523
  391.540    0.279   65.842    3.505 2189.910    0.492
  391.790    0.276   65.833    3.505 2193.820    0.513
  392.040    0.283   64.612    3.505 2183.780    0.526
  392.290    0.287   62.989    3.505 2175.770    0.536
  392.540    0.297   62.577    3.504 2159.790    0.552
  392.790    0.316   64.185    3.425 2127.890    0.565
