~VERSION INFORMATION
 VERS.                 2.0:   CWLS LOG ASCII STANDARD -VERSION 2.0
 WRAP.                  NO:   ONE LINE PER DEPTH STEP
~WELL INFORMATION BLOCK
#MNEM.UNIT           DATA                    DESCRIPTION OF MNEMONIC
#---------    -------------------            -------------------------------
# Generated from Intellog Unique Number	CS_73_76/WELL/4783
WELL.         LANDBANK MINERALS LTD.         : Well_name    - WELL
LOC .         00/11-09-076-02W4/0            : Location     - LOCATION
UWI .         00/11-09-076-02W4/0            : Uwi          - UNIQUE WELL ID
ENTR.         JO                             : Entered      - ENTERED BY
SRVC.         SCHLUMBERGER                   : Scn          - SERVICE COMPANY
DATE.         05/25/92                       : Date         - LOG DATE
STRT.M        285                            : top_depth    - START DEPTH
STOP.M        560                            : bot_depth    - STOP DEPTH
STEP.M        0.25                           : increment    - STEP LENGTH
 NULL. -999.2500:NULL Value
~CURVE INFORMATION BLOCK
#MNEM UNIT       ERCB CURVE CODE    CURVE DESCRIPTION
#-----------   ------------------   ----------------------------------
DEPT.M        00 001 00 00         : DEPTH        - DEPTH
GR  .API      00 310 00 00         : GR           - GAMMA RAY
DELT.US/F     00 520 00 00         : DELT         - SONIC TRAVEL TIME
ILD .OHMM     00 120 00 00         : RESD         - DEEP RESISTIVITY (DIL)
~PARAMETER INFORMATION
#MNEM.UNIT           DATA             DESCRIPTION OF MNEMONIC
#---------         -----------     ------------------------------
GL  .M        654.8                : gl           - GROUND LEVEL ELEVATION
EREF.M        658.5                : kb           - ELEVATION OF DEPTH REFERENCE
DATM.M        658.5                : datum        - DATUM ELEVATION
TDD .M        568                  : tdd          - TOTAL DEPTH DRILLER
RUN .         ONE                  : Run          - RUN NUMBER
ENG .         BILL                 : Engineer     - RECORDING ENGINEER
WIT .         JIM                  : Witness      - WITNESSED BY
MUD .         GEL                  : Mud_type     - MUD TYPE
MATR.         SANDSTONE            : Logunit      - NEUTRON MATRIX
TMAX.C        20                   : BHT          - MAXIMUM RECORDED TEMPERATURE
BHTD.M        568                  : BHTDEP       - MAXIMUM RECORDED TEMPERATURE
MATR.         1                    : LOGUNIT      - NEUTRON MATRIX
RMT .C        12                   : MDTP         - TEMPERATURE OF MUD
NEUT.         1                    : NEUTRON      - NEUTRON TYPE
RESI.         0                    : RESIST       - RESISTIVITY TYPE
RMC .OHMM     3.95                 : RMC          - RESISTIVITY OF MUD CAKE
RMF .OHMM     3.95                 : RMF          - RESISTIVITY OF MUD FILTRATE
SUFT.C        5                    : SUFT         - SURFACE TEMPERATURE
~A  DEPTH       GR     DELT     RESD
# ...
  339.250   86.534  396.000   11.567
  339.500   93.446  397.663   10.913
  339.750  102.257  401.773   10.100
  340.000  110.435  409.939    9.533
  340.250  109.103  410.007    8.991
  340.500  105.264  404.397    8.974
  340.750   98.247  406.871    9.306
  341.000   89.950  415.037    9.296
  341.250   85.452  425.637    9.278
  341.500   84.766  431.369    9.094
  341.750   86.626  436.291    8.420
  342.000   84.674  443.659    7.944
  342.250   71.945  429.910    8.395
  342.500   62.395  411.308    9.388
  342.750   55.365  399.196   10.900
  343.000   48.980  405.739   11.966
  343.250   44.483  425.289   13.638
  343.500   45.076  430.210   14.966
  343.750   46.923  427.020   15.816
  344.000   50.022  420.571   14.916
  344.250   50.590  402.767   14.604
  344.500   50.563  406.080   14.599
  344.750   48.598  412.623   14.299
  345.000   46.012  407.811   14.283
  345.250   44.693  403.810   14.528
  345.500   45.274  410.353   14.502
  345.750   48.373  415.288   14.761
  346.000   48.980  409.651   14.745
  346.250   45.102  405.650   15.284
  346.500   44.416  408.151   15.547
  346.750   43.743  398.458   15.535
  347.000   42.424  388.779   15.808
  347.250   44.878  375.855   16.085
  347.500   46.117  375.098   16.368
  347.750   47.964  382.453   16.643
  348.000   49.178  395.486   16.948
  348.250   48.492  405.288   16.910
  348.500   45.273  396.406   16.891
  348.750   42.055  404.586   16.550
  349.000   42.635  413.563   16.525
  349.250   45.735  410.372   16.501
  349.500   46.948  403.127   16.168
  349.750   46.882  391.825   15.842
  350.000   46.843  390.257   15.522
  350.250   45.510  401.668   15.499
  350.500   44.191  404.967   15.186
  350.750   44.152  398.532   14.880
  351.000   44.719  404.264   14.858
  351.250   45.312  410.808   14.280
  351.500   47.133  414.932   13.997
  351.750   48.979  414.986   13.443
  352.000   50.839  413.432   13.433
  352.250   52.066  416.731   12.916
  352.500   54.545  420.828   12.655
  352.750   57.025  424.127   12.400
  353.000   56.339  424.181   12.150
  353.250   53.754  420.991   12.136
  353.500   51.802  422.682   12.114
  353.750   49.216  425.169   12.086
  354.000   47.251  421.966   12.078
  354.250   45.919  417.167   12.059
  354.500   45.233  417.221   12.042
  354.750   45.826  421.332   12.253
  355.000   50.205  427.064   12.463
  355.250   51.406  426.307   12.687
  355.500   49.453  414.195   13.141
  355.750   47.488  410.991   13.377
  356.000   46.195  402.123   13.367
  356.250   45.496  400.555   13.342
  356.500   46.063  414.412   13.068
  356.750   46.670  419.347   12.809
  357.000   47.857  413.724   12.320
  357.250   48.464  407.275   11.189
  357.500   50.931  404.924   10.762
  357.750   54.057  404.951    9.770
  358.000   65.400  406.628    9.397
  358.250   81.822  409.116    9.039
  358.500   91.253  410.806    8.684
  358.750   92.480  411.672    8.506
  359.000   89.882  411.740    8.496
  359.250   87.942  410.956    8.484
  359.500   84.698  410.199    8.474
  359.750   87.824  410.253    8.623
  360.000   87.771  414.391    8.607
  360.250   83.919  417.676    8.594
  360.500   87.652  416.920    8.578
  360.750   90.145  412.918    8.411
  361.000   88.193  412.973    8.399
  361.250   84.341  413.852    8.226
  361.500   84.275  415.542    8.060
  361.750   83.589  416.381    8.051
  362.000   81.637  415.624    7.886
  362.250   80.305  414.867    7.877
  362.500   79.619  416.544    7.863
  362.750   78.933  419.032    7.854
  363.000   76.994  422.358    8.144
  363.250   74.409  423.210    8.287
  363.500   71.823  424.090    8.590
  363.750   67.325  424.130    8.590
  364.000   65.386  423.387    8.247
  364.250   62.141  422.617    8.232
  364.500   60.836  421.063    8.382
  364.750   59.516  419.481    8.523
  365.000   61.983  417.913    8.676
  365.250   64.476  417.184    8.657
  365.500   62.524  418.022    8.650
  365.750   62.471  421.335    8.472
  366.000   63.051  422.201    8.463
  366.250   66.784  420.633    8.447
  366.500   71.810  418.254    8.438
  366.750   70.477  416.700    8.750
  367.000   66.626  415.916    9.073
  367.250   62.774  415.173    9.763
  367.500   59.556  414.416    9.942
  367.750   55.691  412.037   10.306
  368.000   56.271  408.847   10.290
  368.250   57.485  405.657   10.083
  368.500   58.052  406.536    9.876
  368.750   57.392  404.157    9.865
  369.000   57.339  400.967    9.669
  369.250   59.173  400.210    9.655
  369.500   62.286  403.509    9.633
  369.750   64.765  408.417    9.446
  370.000   64.726  414.960    9.421
  370.250   62.141  419.071    9.418
  370.500   60.175  415.069    9.404
  370.750   60.136  410.257    9.390
  371.000   60.703  407.067    9.369
  371.250   61.283  406.324    9.362
  371.500   61.230  408.812    9.889
  371.750   61.177  411.300   10.063
  372.000   61.731  413.787    9.313
  372.250   62.312  413.855    8.147
  372.500   66.071  412.288    7.405
  372.750   70.463  415.587    7.535
  373.000   76.122  422.117    8.111
  373.250   82.400  434.338    6.835
  373.500   87.413  412.492    5.544
  373.750   91.792  415.791    4.849
  374.000   93.005  436.138    4.840
  374.250   91.053  454.037    5.623
  374.500   90.367  458.959    6.173
  374.750   90.314  452.524    7.169
  375.000   88.362  440.411    8.324
  375.250   78.799  428.299    9.138
  375.500   69.249  416.186   10.609
  375.750   57.154  408.926   11.425
  376.000   53.289  405.750   12.299
  376.250   54.502  405.804   12.524
  376.500   55.096  410.726   12.505
  376.750   55.663  432.695   12.720
  377.000   54.331  440.036   12.706
  377.250   52.392  444.160   12.682
  377.500   52.972  423.922   12.663
  377.750   54.832  445.080   12.639
  378.000   57.312  445.945   12.630
  378.250   57.259  421.652   12.366
  378.500   56.573  423.328   12.357
  378.750   55.861  435.564   12.329
  379.000   56.441  440.485   12.089
  379.250   56.388  451.896   12.063
  379.500   54.436  433.294   11.824
  379.750   50.597  410.636   11.806
  380.000   48.012  414.746   11.784
  380.250   53.011  421.303   11.767
  380.500   57.404  418.100   11.753
  380.750   57.971  416.545   11.736
  381.000   55.399  414.978   11.714
  381.250   55.346  410.963   11.701
  381.500   55.900  411.017   11.684
  381.750   55.860  414.316   11.666
  382.000   55.821  414.371   11.644
  382.250   55.755  414.439   11.631
  382.500   55.689  414.493   11.614
  382.750   56.256  414.548   11.818
  383.000   57.496  410.533   11.791
  383.250   59.316  401.678   11.783
  383.500   59.289  400.110   11.985
  383.750   59.237  402.585   11.963
  384.000   55.385  409.953   12.177
  384.250   57.232  407.588   12.391
  384.500   59.711  402.775   12.604
  384.750   58.392  397.138   12.835
  385.000   56.427  393.150   13.304
  385.250   57.640  395.625   13.538
  385.500   60.740  397.301   14.306
  385.750   61.334  397.356   15.117
  386.000   61.914  392.557   16.286
  386.250   56.809  376.361   19.636
  386.500   51.045  276.617   22.814
  386.750   47.180  201.235   23.657
  387.000   45.861  206.142   21.492
  387.250   48.354  219.986   18.450
  387.500   53.366  250.067   15.240
  387.750   57.732  305.293   13.846
  388.000   59.592  385.679   12.819
  388.250   62.692  405.214   12.095
  388.500   63.285  406.918   11.851
  388.750   61.320  404.539   11.611
  389.000   61.280  402.944   11.594
  389.250   63.747  400.565   11.365
  389.500   63.061  399.011   11.348
  389.750   61.122  399.079   11.114
  390.000   64.222  399.106   11.102
  390.250   62.916  399.174   11.086
  390.500   56.532  395.160   11.495
  390.750   59.011  378.180   12.851
  391.000   63.391  377.423   12.832
  391.250   67.770  398.567   11.876
  391.500   71.502  362.918   10.785
  391.750   68.930  392.998   10.576
  392.000   61.254  406.856   10.362
  392.250   61.821  419.889   10.149
  392.500   63.060  425.621   10.130
  392.750   65.540  431.354   10.123
  393.000   65.487  424.108   10.693
  393.250   63.535  410.373   10.885
