~VERSION INFORMATION
 VERS.                 2.0:   CWLS LOG ASCII STANDARD -VERSION 2.0
 WRAP.                  NO:   ONE LINE PER DEPTH STEP
~WELL INFORMATION BLOCK
#MNEM.UNIT           DATA                    DESCRIPTION OF MNEMONIC
#---------    -------------------            -------------------------------
# Generated from Intellog Unique Number	CW_73_75/WELL/2750
WELL.         QUINTANA CEGO BLANCHE 14-15    : Well_name    - WELL
LOC .         00/14-15-073-03W5/0            : Location     - LOCATION
UWI .         00/14-15-073-03W5/0            : Uwi          - UNIQUE WELL ID
ENTR.         JAYE                           : Entered      - ENTERED BY
SRVC.         SCHLUMBERGER                   : Scn          - SERVICE COMPANY
DATE.         31 JAN 81                      : Date         - LOG DATE
STRT.M        400                            : top_depth    - START DEPTH
STOP.M        640                            : bot_depth    - STOP DEPTH
STEP.M        0.25                           : increment    - STEP LENGTH
 NULL. -999.2500:NULL Value
~CURVE INFORMATION BLOCK
#MNEM UNIT       ERCB CURVE CODE    CURVE DESCRIPTION
#-----------   ------------------   ----------------------------------
DEPT.M        00 001 00 00         : DEPTH        - DEPTH
DPHI.V/V      00 890 00 00         : PHID         - DENSITY POROSITY (SANDSTONE)
NPHI.V/V      00 330 00 00         : PHIN         - NEUTRON POROSITY (SANDSTONE)
GR  .API      00 310 00 00         : GR           - GAMMA RAY
CALI.MM       00 280 01 00         : CAL          - CALIPER
ILD .OHMM     00 120 00 00         : RESD         - DEEP RESISTIVITY (DIL)
~PARAMETER INFORMATION
#MNEM.UNIT           DATA             DESCRIPTION OF MNEMONIC
#---------         -----------     ------------------------------
GL  .M        608.48               : gl           - GROUND LEVEL ELEVATION
EREF.M        612.88               : kb           - ELEVATION OF DEPTH REFERENCE
DATM.M        608.48               : datum        - DATUM ELEVATION
TDD .M        1585                 : tdd          - TOTAL DEPTH DRILLER
RUN .         ONE                  : Run          - RUN NUMBER
ENG .         VERKAIK              : Engineer     - RECORDING ENGINEER
WIT .         WALSH                : Witness      - WITNESSED BY
BASE.         EDM                  : Branch       - HOME BASE OF LOGGING UNIT
MUD .         GEL CHEM             : Mud_type     - MUD TYPE
MATR.         SANDSTONE            : Logunit      - NEUTRON MATRIX
TMAX.C        47.8                 : BHT          - MAXIMUM RECORDED TEMPERATURE
BHTD.M        1585                 : BHTDEP       - MAXIMUM RECORDED TEMPERATURE
RMT .C        16.7                 : MDTP         - TEMPERATURE OF MUD
MUDD.KG/M     1070                 : MWT          - MUD DENSITY
NEUT.         1                    : NEUTRON      - NEUTRON TYPE
RESI.         0                    : RESIST       - RESISTIVITY TYPE
RM  .OHMM     0.52                 : RM           - RESISTIVITY OF MUD
RMC .OHMM     0                    : RMC          - RESISTIVITY OF MUD CAKE
RMF .OHMM     0.5                  : RMF          - RESISTIVITY OF MUD FILTRATE
SUFT.C        0                    : SUFT         - SURFACE TEMPERATURE
~A  DEPTH     PHID     PHIN       GR      CAL     RESD
# ...
  436.500    0.255    0.475   84.329  244.017    3.283
  436.750    0.237    0.485   87.812  246.509    3.694
  437.000    0.237    0.468   85.767  249.519    4.204
  437.250    0.264    0.483   87.822  252.426    4.045
  437.500    0.295    0.522   92.050  252.331    3.826
  437.750    0.323    0.553   87.894  249.958    3.688
  438.000    0.300    0.554   74.420  246.758    3.542
  438.250    0.259    0.435   68.525  244.798    3.401
  438.500    0.224    0.418   70.828  246.256    3.304
  438.750    0.255    0.494   77.727  253.304    3.209
  439.000    0.306    0.561   84.192  259.420    3.128
  439.250    0.356    0.597   87.303  245.349    3.108
  439.500    0.291    0.556   81.159  234.592    3.165
  439.750    0.258    0.466   75.635  232.634    3.346
  440.000    0.255    0.477   72.162  232.746    3.592
  440.250    0.256    0.434   72.229  233.169    3.616
  440.500    0.208    0.430   78.570  233.695    3.539
  440.750    0.205    0.468   79.196  234.014    3.523
  441.000    0.254    0.493   77.027  234.227    3.533
  441.250    0.295    0.529   74.671  234.340    3.590
  441.500    0.314    0.454   69.459  234.348    3.670
  441.750    0.295    0.422   67.041  234.771    3.744
  442.000    0.292    0.407   68.724  235.400    3.840
  442.250    0.294    0.421   68.977  235.823    3.925
  442.500    0.295    0.441   65.442  236.243    4.088
  442.750    0.305    0.454   62.279  237.599    4.194
  443.000    0.315    0.464   63.153  238.951    4.286
  443.250    0.296    0.432   69.183  242.376    4.356
  443.500    0.231    0.417   75.835  246.835    4.411
  443.750    0.190    0.429   76.709  251.814    4.432
  444.000    0.179    0.426   77.583  255.859    4.395
  444.250    0.205    0.445   79.389  259.076    4.366
  444.500    0.207    0.453   83.929  261.361    4.248
  444.750    0.215    0.443   83.996  262.303    4.103
  445.000    0.243    0.430   79.218  262.724    3.963
  445.250    0.275    0.421   72.515  263.354    3.749
  445.500    0.318    0.470   70.470  266.467    3.526
  445.750    0.318    0.496   78.488  269.581    3.386
  446.000    0.289    0.481   84.952  261.516    3.320
  446.250    0.267    0.472   82.783  256.659    3.311
  446.500    0.268    0.463   76.453  252.629    3.371
  446.750    0.275    0.450   72.545  251.084    3.505
  447.000    0.271    0.436   77.456  249.332    3.650
  447.250    0.271    0.434   76.965  245.925    3.809
  447.500    0.286    0.439   74.112  242.620    3.990
  447.750    0.291    0.444   70.080  239.731    4.132
  448.000    0.277    0.449   69.215  238.703    4.295
  448.250    0.268    0.453   76.301  238.297    4.448
  448.500    0.286    0.463   74.629  238.307    4.419
  448.750    0.297    0.468   66.932  238.624    4.341
  449.000    0.297    0.462   65.943  238.530    4.273
  449.250    0.291    0.448   67.377  238.643    4.245
  449.500    0.290    0.435   65.953  238.754    4.241
  449.750    0.303    0.423   66.828  239.071    4.254
  450.000    0.311    0.460   69.566  239.598    4.258
  450.250    0.307    0.468   67.086  240.123    4.254
  450.500    0.298    0.456   63.365  240.753    4.267
  450.750    0.286    0.449   63.307  241.175    4.247
  451.000    0.285    0.460   64.865  241.391    4.236
  451.250    0.289    0.469   63.007  241.398    4.232
  451.500    0.283    0.476   61.832  241.407    4.229
  451.750    0.275    0.475   62.768  241.829    4.225
  452.000    0.271    0.449   64.388  242.252    4.245
  452.250    0.283    0.425   66.070  242.778    4.250
  452.500    0.291    0.440   68.000  242.993    4.287
  452.750    0.300    0.448   70.490  243.520    4.348
  453.000    0.308    0.429   71.551  244.251    4.452
  453.250    0.311    0.420   67.519  245.399    4.620
  453.500    0.314    0.431   60.877  248.927    5.044
  453.750    0.298    0.445   55.789  254.111    5.806
  454.000    0.217    0.473   52.316  253.187    6.722
  454.250    0.098    0.459   49.712  243.465    7.928
  454.500    0.006    0.183   50.090  236.640    8.889
  454.750    0.037    0.197   53.324  232.715    9.136
  455.000    0.105    0.263   55.441  234.172    8.339
  455.250    0.170    0.367   55.881  235.528    7.043
  455.500    0.303    0.418   57.315  236.777    5.675
  455.750    0.310    0.441   60.798  237.820    4.876
  456.000    0.305    0.452   63.412  238.760    4.293
  456.250    0.302    0.455   63.851  238.873    4.053
  456.500    0.302    0.463   62.800  239.193    3.936
  456.750    0.306    0.456   61.501  239.512    3.889
  457.000    0.310    0.435   62.376  239.519    3.886
  457.250    0.310    0.439   64.865  239.323    3.934
  457.500    0.311    0.430   64.373  239.226    3.991
  457.750    0.312    0.411   62.453  239.233    3.979
  458.000    0.311    0.415   60.657  239.346    3.954
  458.250    0.308    0.440   60.351  239.353    3.943
  458.500    0.304    0.448   60.667  239.051    3.939
  458.750    0.304    0.410   61.416  239.059    3.937
  459.000    0.320    0.435   62.167  240.414    3.933
  459.250    0.334    0.455   64.532  241.974    3.929
  459.500    0.352    0.478   69.009  248.918    3.949
  459.750    0.316    0.525   70.567  255.345    3.983
  460.000    0.291    0.463   64.547  251.212    4.117
  460.250    0.274    0.446   59.210  247.287    4.255
  460.500    0.262    0.439   56.979  245.639    4.382
  460.750    0.244    0.434   58.599  246.371    4.479
  461.000    0.226    0.461   59.351  248.243    4.535
  461.250    0.225    0.477   59.479  249.804    4.531
  461.500    0.243    0.498   60.664  250.331    4.519
  461.750    0.257    0.521   63.153  250.132    4.575
  462.000    0.271    0.508   68.810  249.726    4.703
  462.250    0.288    0.419   75.523  249.838    4.833
  462.500    0.229    0.433   81.305  251.812    4.829
  462.750    0.202    0.456   84.415  257.100    4.534
  463.000    0.185    0.465   84.855  262.802    4.241
  463.250    0.172    0.442   86.289  267.054    4.157
  463.500    0.281    0.463   80.828  262.922    4.347
  463.750    0.351    0.537   54.559  259.514    4.579
  464.000    0.634    0.579   41.831  257.452    4.869
  464.250    0.686    0.634   63.020  277.957    5.071
  464.500    0.609    0.814   64.823  304.053    5.057
  464.750    0.542    0.486   74.952  281.701    4.757
  465.000    0.365    0.452   77.503  266.802    4.474
  465.250    0.254    0.427   77.384  253.353    4.362
  465.500    0.252    0.418   75.402  247.150    4.391
  465.750    0.262    0.433   71.928  239.919    4.591
  466.000    0.281    0.445   71.250  238.988    4.864
  466.250    0.295    0.431   73.864  235.167    4.832
  466.500    0.304    0.406   73.248  233.622    4.720
  466.750    0.305    0.394   69.898  234.044    4.541
  467.000    0.298    0.411   66.549  235.400    4.435
  467.250    0.291    0.425   69.908  236.028    4.365
  467.500    0.289    0.416   67.243  236.554    4.312
  467.750    0.289    0.447   63.397  236.873    4.268
  468.000    0.285    0.466   61.103  237.400    4.257
  468.250    0.286    0.457   59.494  237.615    4.245
  468.500    0.295    0.433   59.126  238.140    4.226
  468.750    0.303    0.436   59.814  238.251    4.198
  469.000    0.304    0.437   60.626  238.572    4.163
  469.250    0.298    0.433   59.327  238.787    4.097
  469.500    0.297    0.457   57.158  238.898    4.071
  469.750    0.309    0.454   58.716  238.907    4.083
  470.000    0.321    0.454   61.143  237.776    4.142
  470.250    0.320    0.445   63.073  236.541    4.354
  470.500    0.312    0.430   59.973  236.031    4.718
  470.750    0.307    0.407   59.916  236.352    5.330
  471.000    0.310    0.440   62.343  237.188    6.124
  471.250    0.316    0.460   60.422  238.438    7.251
  471.500    0.329    0.310   57.322  240.828    8.635
  471.750    0.196    0.190   53.228  243.527   10.539
  472.000    0.133    0.206   48.760  245.915   12.790
  472.250    0.113    0.238   45.597  247.373   15.087
  472.500    0.155    0.279   42.000  247.899   14.461
  472.750    0.071    0.154   40.141  248.425   10.210
