~VERSION INFORMATION
 VERS.                 2.0:   CWLS LOG ASCII STANDARD -VERSION 2.0
 WRAP.                  NO:   ONE LINE PER DEPTH STEP
~WELL INFORMATION BLOCK
#MNEM.UNIT           DATA                    DESCRIPTION OF MNEMONIC
#---------    -------------------            -------------------------------
# Generated from Intellog Unique Number	CC_80_83/WELL/2398
NULL.         -999.25                        : NULL_VALUE
WELL.         PEX HOUSE                      : Well_name    - WELL
LOC .         11-12-080-16W4                 : Location     - LOCATION          
UWI .         00/11-12-080-16W4/0            : Uwi          - UNIQUE WELL ID    
ENTR.         DW                             : Entered      - ENTERED BY        
SRVC.         SCHLUMBERGER                   : Scn          - SERVICE COMPANY   
DATE.         16 FEB 82                      : Date         - LOG DATE
STRT.M        150                            : top_depth    - START DEPTH       
STOP.M        389.996                        : bot_depth    - STOP DEPTH        
STEP.M        0.3                            : increment    - STEP LENGTH       
~CURVE INFORMATION BLOCK
#MNEM UNIT       ERCB CURVE CODE    CURVE DESCRIPTION
#-----------   ------------------   ----------------------------------
DEPT.M        00 001 00 00         : DEPTH        - DEPTH                       
ILD .OHMM     00 120 00 00         : RESD         - DEEP RESISTIVITY (DIL)      
GR  .API      00 310 00 00         : GR           - GAMMA RAY                   
NPHI.V/V      00 330 00 00         : PHIN         - NEUTRON POROSITY (LIMESTONE)
DPHI.V/V      00 890 00 00         : PHID         - DENSITY POROSITY (LIMESTONE)
~PARAMETER INFORMATION       
#MNEM.UNIT           DATA             DESCRIPTION OF MNEMONIC
#---------         -----------     ------------------------------
GL  .M        561.3                : gl           - GROUND LEVEL ELEVATION      
EREF.M        565                  : kb           - ELEVATION OF DEPTH REFERENCE
DATM.M        565                  : datum        - DATUM ELEVATION             
TDD .M        388                  : tdd          - TOTAL DEPTH DRILLER         
RUN .         ONE                  : Run          - RUN NUMBER                  
ENG .         BILL                 : Engineer     - RECORDING ENGINEER          
WIT .         JIM                  : Witness      - WITNESSED BY                
MUD .         GEL                  : Mud_type     - MUD TYPE                    
MATR.         LIMESTONE            : Logunit      - NEUTRON MATRIX              
TMAX.C        25.5                 : BHT          - MAXIMUM RECORDED TEMPERATURE
BHTD.M        388                  : BHTDEP       - MAXIMUM RECORDED TEMPERATURE
MATR.         1                    : LOGUNIT      - NEUTRON MATRIX              
RMT .C        25                   : MDTP         - TEMPERATURE OF MUD          
NEUT.         1                    : NEUTRON      - NEUTRON TYPE                
RESI.         0                    : RESIST       - RESISTIVITY TYPE            
RMC .OHMM     0.25                 : RMC          - RESISTIVITY OF MUD CAKE     
RMF .OHMM     0.25                 : RMF          - RESISTIVITY OF MUD FILTRATE 
SUFT.C        15                   : SUFT         - SURFACE TEMPERATURE         
~A  DEPTH     RESD       GR     PHIN     PHID
  150.000    3.933  103.317    0.506    0.237
  150.300    4.084   98.957    0.495    0.241
  150.600    3.931   92.729    0.485    0.234
  150.900    3.930   87.746    0.482    0.281
  151.200    3.711   88.987    0.533    0.289
  151.500    3.640   90.850    0.568    0.264
  151.800    3.570   91.469    0.552    0.331
  152.100    3.638   88.976    0.558    0.329
  152.400    3.925   87.727    0.541    0.242
  152.700    4.154   89.591    0.480    0.236
  153.000    4.233   92.700    0.487    0.227
  153.300    4.152   88.961    0.512    0.239
  153.600    4.073   92.692    0.497    0.270
  153.900    3.846   96.423    0.508    0.283
  154.200    3.701   90.195    0.528    0.257
  154.500    3.562   89.569    0.544    0.282
  154.800    3.562   92.677    0.515    0.255
  155.100    3.769   90.183    0.500    0.275
  155.400    3.915   87.068    0.534    0.313
  155.700    3.989   93.288    0.553    0.311
  156.000    4.386   95.774    0.515    0.141
  156.300    4.915   83.322    0.461    0.122
  156.600    6.413   74.605    0.373    0.221
  156.900   11.344   80.203    0.398    0.279
  157.200   13.980   79.577    0.389    0.308
  157.500   14.797   74.594    0.389    0.326
  157.800   14.791   72.723    0.409    0.352
  158.100   14.789   76.454    0.434    0.325
  158.400   14.505   73.338    0.450    0.299
  158.700   14.230   70.845    0.464    0.294
  159.000   13.694   70.841    0.465    0.289
  159.300   13.693   74.572    0.472    0.282
  159.600   12.930   78.303    0.453    0.269
  159.900   10.688   85.145    0.412    0.239
  160.200    8.344   91.987    0.392    0.218
  160.500    7.303   93.851    0.393    0.208
  160.800    6.895   86.379    0.428    0.223
  161.100    7.581   72.682    0.474    0.252
  161.400    7.580   58.363    0.468    0.266
  161.700    6.508   63.339    0.393    0.232
  162.000    5.279   83.874    0.427    0.231
  162.300    4.363   99.430    0.454    0.244
  162.600    3.676  100.672    0.513    0.257
  162.900    3.965   98.800    0.554    0.262
  163.200    4.616   86.349    0.516    0.251
  163.500    5.582   80.744    0.480    0.241
  163.800    6.749   77.628    0.456    0.244
  164.100    8.007   69.533    0.421    0.293
  164.400    8.803   60.816    0.390    0.337
  164.700    9.318   75.750    0.447    0.207
  165.000    9.863   85.704    0.430    0.221
  165.300   10.243   80.721    0.417    0.257
  165.600   10.240   81.340    0.413    0.272
  165.900   10.044   83.203    0.417    0.232
  166.200    8.959   85.067    0.430    0.211
  166.500    8.301   90.042    0.434    0.212
  166.800    7.264   95.018    0.439    0.236
  167.100    6.603   99.371    0.453    0.222
  167.400    6.478  104.346    0.458    0.214
  167.700    6.856  105.588    0.476    0.230
  168.000    9.838   86.289    0.486    0.253
  168.300   14.946   69.481    0.454    0.142
  168.600   17.070   55.162    0.335    0.158
  168.900   15.815   60.138    0.334    0.212
  169.200   11.887   83.785    0.361    0.236
  169.500    9.106   92.495    0.464    0.257
  169.800    8.122   85.022    0.452    0.286
  170.100    9.276   86.263    0.422    0.256
  170.400   12.335   80.036    0.393    0.271
  170.700   14.088   75.053    0.377    0.307
  171.000   14.912   74.427    0.391    0.324
  171.300   16.086   78.157    0.411    0.324
  171.600   16.081   84.378    0.445    0.302
  171.900   16.079   89.975    0.443    0.263
  172.200   15.770   91.216    0.429    0.250
  172.500   15.470   92.458    0.426    0.263
  172.800   15.174   89.964    0.407    0.276
  173.100   15.172   91.828    0.407    0.284
  173.400   15.167   88.712    0.432    0.274
  173.700   15.456   81.862    0.421    0.246
  174.000   15.160   79.369    0.387    0.235
  174.300   15.744   73.763    0.369    0.235
  174.600   17.310   62.557    0.390    0.255
  174.900   18.322   48.860    0.415    0.293
  175.200   18.669   43.255    0.421    0.317
  175.500   17.628   45.118    0.424    0.329
  175.800   16.967   65.653    0.427    0.353
  176.100   15.423   70.629    0.419    0.350
  176.400   14.845   74.359    0.401    0.314
  176.700   14.018   74.978    0.384    0.270
  177.000   13.491   76.219    0.380    0.258
  177.300   14.011   74.971    0.379    0.266
  177.600   13.744   65.631    0.416    0.296
  177.900   12.733   66.873    0.436    0.301
  178.200   10.728   77.449    0.410    0.246
  178.500    6.795   94.873    0.427    0.196
  178.800    5.010  112.296    0.495    0.188
  179.100    4.732  111.047    0.511    0.162
  179.400    4.641  107.309    0.501    0.173
  179.700    4.640  116.641    0.489    0.187
  180.000    4.818  115.393    0.477    0.177
  180.300    4.910  111.655    0.487    0.178
  180.600    5.099  117.253    0.526    0.170
  180.900    5.097  119.116    0.464    0.159
  181.200    4.906  108.532    0.454    0.074
  181.500    4.633   93.591    0.491    0.101
  181.800    4.375  112.881    0.510    0.185
  182.100    4.292  120.346    0.541    0.219
  182.400    4.996  106.650    0.500    0.224
  182.700    8.506   87.974    0.430    0.257
  183.000    9.902   90.460    0.411    0.263
  183.300   10.481   96.680    0.408    0.227
  183.600   10.478  101.655    0.418    0.211
  183.900    9.895  102.274    0.422    0.208
  184.200    9.344  102.893    0.418    0.226
  184.500    8.657  104.133    0.422    0.218
  184.800    8.021  107.243    0.457    0.175
  185.100    8.018  110.350    0.472    0.201
  185.400    8.170  102.878    0.463    0.224
  185.700    9.332   92.916    0.417    0.254
  186.000   11.721   91.668    0.431    0.280
  186.300   13.134   99.755    0.440    0.280
  186.600   13.384  100.373    0.447    0.277
  186.900   12.881   94.145    0.451    0.256
  187.200   12.163   94.764    0.441    0.236
  187.500   11.706   99.118    0.432    0.270
  187.800   11.704  107.205    0.426    0.260
  188.100   11.926  112.180    0.418    0.247
  188.400   12.384  108.442    0.406    0.247
  188.700   12.861   99.725    0.390    0.254
  189.000   13.874   88.518    0.388    0.270
  189.300   14.138   69.220    0.358    0.319
  189.600   13.607   66.727    0.327    0.330
  189.900   11.463   75.436    0.392    0.269
  190.200    9.842   77.923    0.440    0.230
  190.500    9.472   79.785    0.423    0.233
  190.800    9.838   74.181    0.414    0.241
  191.100   11.024   69.820    0.407    0.272
  191.400   12.354   67.949    0.427    0.293
  191.700   14.109   64.834    0.431    0.313
  192.000   14.651   59.850    0.430    0.319
  192.300   14.373   60.470    0.431    0.285
  192.600   14.098   64.822    0.424    0.269
  192.900   13.569   67.309    0.447    0.281
  193.200   12.813   71.038    0.458    0.297
  193.500   12.330   69.168    0.411    0.303
  193.800   12.565   64.807    0.424    0.303
  194.100   12.563   63.559    0.431    0.303
  194.400   12.800   64.178    0.394    0.303
  194.700   13.043   64.174    0.385    0.296
  195.000   12.552   62.303    0.396    0.292
  195.300   12.550   62.922    0.407    0.301
  195.600   12.547   60.428    0.430    0.311
  195.900   13.029   65.403    0.445    0.318
  196.200   13.026   64.778    0.451    0.291
  196.500   13.024   59.795    0.461    0.284
  196.800   12.297   62.903    0.453    0.270
  197.100   12.064   69.746    0.441    0.223
  197.400   10.966   78.456    0.448    0.243
  197.700   10.355   79.696    0.442    0.259
  198.000   10.352   72.847    0.465    0.267
  198.300   10.548   64.751    0.446    0.282
  198.600   10.749   61.636    0.446    0.301
  198.900   10.952   59.765    0.443    0.291
  199.201   10.540   62.251    0.435    0.272
  199.501   10.145   66.604    0.417    0.269
  199.801    9.952   72.824    0.415    0.276
  200.101   10.140   68.463    0.441    0.280
  200.401   10.733   67.838    0.453    0.266
  200.701   11.145   77.793    0.448    0.236
  201.001   10.934   85.257    0.399    0.236
  201.301   10.522   84.631    0.413    0.254
  201.601   10.322   90.852    0.422    0.263
  201.901    8.863   98.316    0.439    0.245
