~VERSION INFORMATION
 VERS.                 2.0:   CWLS LOG ASCII STANDARD -VERSION 2.0
 WRAP.                  NO:   ONE LINE PER DEPTH STEP
~WELL INFORMATION BLOCK
#MNEM.UNIT           DATA                    DESCRIPTION OF MNEMONIC
#---------    -------------------            -------------------------------
# Generated from Intellog Unique Number	CW_70_72/WELL/1068
NULL.         -999.25                        : NULL_VALUE
WELL.         WESTMIN SMITH 14-35            : Well_name    - WELL              
LOC .         14-35-071-24W4                 : Location     - LOCATION          
UWI .         00/14-35-071-24W4/0            : Uwi          - UNIQUE WELL ID    
ENTR.         JAYE                           : Entered      - ENTERED BY        
SRVC.         WESTERN ATLAS                  : Scn          - SERVICE COMPANY   
DATE.         7 MAR 83                       : Date         - LOG DATE          
STRT.M        423                            : top_depth    - START DEPTH       
STOP.M        627                            : bot_depth    - STOP DEPTH        
STEP.M        0.25                           : increment    - STEP LENGTH       
~CURVE INFORMATION BLOCK
#MNEM UNIT       ERCB CURVE CODE    CURVE DESCRIPTION
#-----------   ------------------   ----------------------------------
DEPT.M        00 001 00 00         : DEPTH        - DEPTH                       
DPHI.V/V      00 890 00 00         : PHID         - DENSITY POROSITY (SANDSTONE)
NPHI.V/V      00 330 00 00         : PHIN         - NEUTRON POROSITY (SANDSTONE)
GR  .API      00 310 00 00         : GR           - GAMMA RAY                   
CALI.MM       00 280 01 00         : CAL          - CALIPER                     
ILD .OHMM     00 120 00 00         : RESD         - DEEP RESISTIVITY (DIL)      
~PARAMETER INFORMATION       
#MNEM.UNIT           DATA             DESCRIPTION OF MNEMONIC
#---------         -----------     ------------------------------
GL  .M        655.8                : gl           - GROUND LEVEL ELEVATION      
EREF.M        659                  : kb           - ELEVATION OF DEPTH REFERENCE
DATM.M        655.8                : datum        - DATUM ELEVATION             
TDD .M        651                  : tdd          - TOTAL DEPTH DRILLER         
RUN .         ONE                  : Run          - RUN NUMBER                  
ENG .         PETERSON             : Engineer     - RECORDING ENGINEER          
WIT .         OVERWATER            : Witness      - WITNESSED BY                
MUD .         GEL CHEM             : Mud_type     - MUD TYPE                    
MATR.         SANDSTONE            : Logunit      - NEUTRON MATRIX              
TMAX.C        22                   : BHT          - MAXIMUM RECORDED TEMPERATURE
BHTD.M        651.3                : BHTDEP       - MAXIMUM RECORDED TEMPERATURE
RMT .C        12                   : MDTP         - TEMPERATURE OF MUD          
MUDD.KG/M     1120                 : MWT          - MUD DENSITY                 
NEUT.         1                    : NEUTRON      - NEUTRON TYPE                
RESI.         0                    : RESIST       - RESISTIVITY TYPE            
RM  .OHMM     5                    : RM           - RESISTIVITY OF MUD          
RMC .OHMM     4.7                  : RMC          - RESISTIVITY OF MUD CAKE     
RMF .OHMM     4.5                  : RMF          - RESISTIVITY OF MUD FILTRATE 
SUFT.C        0                    : SUFT         - SURFACE TEMPERATURE         
~A  DEPTH     PHID     PHIN       GR      CAL     RESD
# ...
  496.000    0.286    0.333   55.417  158.182    3.159
  496.250    0.281    0.331   56.873  158.238    3.175
  496.500    0.278    0.330   58.332  157.644    3.185
  496.750    0.286    0.328   56.681  155.896    3.238
  497.000    0.292    0.325   56.155  156.790    3.284
  497.250    0.289    0.322   56.863  157.898    3.332
  497.500    0.277    0.320   57.948  158.579    3.386
  497.750    0.266    0.320   59.157  159.166    3.429
  498.000    0.262    0.321   61.175  158.990    3.485
  498.250    0.258    0.326   62.691  158.525    3.549
  498.500    0.256    0.332   64.336  158.247    3.696
  498.750    0.270    0.339   66.973  157.876    3.828
  499.000    0.275    0.339   69.300  157.503    4.039
  499.250    0.281    0.336   70.693  157.546    4.230
  499.500    0.283    0.333   71.345  157.287    4.365
  499.750    0.274    0.329   71.623  157.325    4.495
  500.000    0.258    0.326   72.766  157.060    4.603
  500.250    0.238    0.325   73.665  157.014    4.714
  500.500    0.217    0.328   74.252  156.634    4.764
  500.750    0.200    0.334   74.529  156.673    4.761
  501.000    0.201    0.339   75.243  156.723    4.696
  501.250    0.215    0.344   75.706  155.715    4.581
  501.500    0.224    0.348   75.982  155.028    4.510
  501.750    0.233    0.349   76.134  155.814    4.499
  502.000    0.240    0.343   76.784  157.767    4.556
  502.250    0.249    0.337   76.941  158.865    4.762
  502.500    0.258    0.330   76.845  158.923    5.101
  502.750    0.248    0.320   76.561  159.387    5.454
  503.000    0.220    0.311   73.856  159.545    5.659
  503.250    0.191    0.302   70.409  159.274    5.509
  503.500    0.170    0.293   69.317  158.689    5.196
  503.750    0.162    0.297   68.974  158.100    4.854
  504.000    0.194    0.315   69.311  157.308    4.526
  504.250    0.223    0.335   72.941  157.255    4.292
  504.500    0.248    0.348   75.456  157.306    4.186
  504.750    0.240    0.359   77.533  157.150    4.207
  505.000    0.252    0.367   82.780  157.183    4.205
  505.250    0.258    0.375   84.797  156.822    4.179
  505.500    0.265    0.384   84.824  156.551    4.169
  505.750    0.264    0.392   83.361  156.382    4.167
  506.000    0.253    0.385   80.906  156.006    4.172
  506.250    0.246    0.375   78.201  155.527    4.169
  506.500    0.240    0.365   74.751  155.255    4.159
  506.750    0.239    0.355   71.614  155.198    4.164
  507.000    0.239    0.348   69.466  155.355    4.185
  507.250    0.242    0.343   69.060  155.939    4.175
  507.500    0.248    0.346   69.091  156.082    4.196
  507.750    0.257    0.353   70.049  156.351    4.217
  508.000    0.246    0.359   72.065  156.603    4.215
  508.250    0.258    0.360   75.450  156.452    4.157
  508.500    0.252    0.360   78.272  156.393    4.078
  508.750    0.255    0.361   81.593  156.551    3.977
  509.000    0.261    0.365   84.726  156.812    3.857
  509.250    0.262    0.369   85.378  157.285    3.749
  509.500    0.267    0.375   87.393  157.644    3.663
  509.750    0.255    0.383   87.792  158.325    3.599
  510.000    0.241    0.390   85.772  158.474    3.524
  510.250    0.222    0.395   88.596  159.046    3.502
  510.500    0.205    0.398   91.669  159.411    3.506
  510.750    0.220    0.398   91.261  160.092    3.551
  511.000    0.228    0.396   90.298  160.364    3.637
  511.250    0.234    0.393   89.954  160.306    3.703
  511.500    0.231    0.391   87.309  159.816    3.813
  511.750    0.233    0.391   88.521  159.241    3.986
  512.000    0.242    0.392   89.975  158.869    4.254
  512.250    0.243    0.390   90.936  158.910    4.522
  512.500    0.231    0.387   92.209  159.169    4.736
  512.750    0.212    0.387   93.974  159.762    4.961
  513.000    0.194    0.389   96.176  160.012    5.061
  513.250    0.181    0.391   98.691  160.268    5.144
  513.500    0.171    0.390   99.773  160.207    5.151
  513.750    0.188    0.385   99.929  160.265    5.187
  514.000    0.203    0.378  100.081  161.676    5.252
  514.250    0.202    0.373  101.043  164.152    5.297
  514.500    0.200    0.375  102.189  164.094    5.315
  514.750    0.181    0.384  103.335  162.244    5.342
  515.000    0.176    0.390  102.678  161.872    5.318
  515.250    0.183    0.393  101.651  163.722    5.286
  515.500    0.187    0.396  102.859  165.139    5.243
  515.750    0.178    0.397  104.007  166.245    5.171
  516.000    0.149    0.397  105.339  167.025    5.064
  516.250    0.133    0.395  107.542  167.188    4.984
  516.500    0.129    0.393  108.936  167.016    4.927
  516.750    0.127    0.390  110.397  166.219    4.877
  517.000    0.135    0.384  110.361  165.957    4.802
  517.250    0.144    0.379  108.897  166.645    4.719
  517.500    0.156    0.371  106.506  167.216    4.602
  517.750    0.168    0.363  102.435  167.472    4.365
  518.000    0.177    0.353   97.122  166.883    4.009
  518.250    0.203    0.344   91.124  163.559    3.739
  518.500    0.245    0.334   86.121  160.963    3.474
  518.750    0.288    0.340   82.798  159.115    3.269
  519.000    0.287    0.350   82.017  158.743    3.094
  519.250    0.293    0.350   85.961  158.680    3.151
  519.500    0.280    0.349   88.222  158.841    3.276
  519.750    0.272    0.350   89.247  158.889    3.490
  520.000    0.261    0.351   89.462  159.041    3.682
  520.250    0.242    0.357   89.055  159.524    3.966
  520.500    0.238    0.366   88.962  159.771    4.217
  520.750    0.225    0.375   89.918  160.240    4.457
  521.000    0.216    0.376   91.934  160.825    4.660
  521.250    0.210    0.376   94.076  161.181    4.683
  521.500    0.229    0.375   93.668  161.761    4.628
  521.750    0.224    0.373   91.587  162.449    4.616
  522.000    0.223    0.373   89.192  163.124    4.614
  522.250    0.220    0.375   87.608  163.703    4.637
  522.500    0.208    0.379   87.696  163.957    4.626
  522.750    0.205    0.382   89.280  163.905    4.597
  523.000    0.190    0.381   91.294  163.950    4.603
  523.250    0.179    0.376   94.489  163.894    4.601
  523.500    0.181    0.374   98.433  163.524    4.589
  523.750    0.165    0.374  100.075  163.255    4.535
  524.000    0.165    0.380  100.103  162.776    4.382
  524.250    0.192    0.379   98.020  162.401    4.078
  524.500    0.213    0.372   94.322  162.128    3.747
  524.750    0.243    0.365   91.495  161.973    3.500
  525.000    0.260    0.359   89.845  161.382    3.345
  525.250    0.282    0.367   89.127  161.330    3.293
  525.500    0.288    0.375   89.467  160.748    3.322
  525.750    0.278    0.381   88.196  160.157    3.376
  526.000    0.269    0.383   86.295  159.357    3.438
  526.250    0.265    0.376   82.661  158.982    3.462
  526.500    0.263    0.360   79.397  158.507    3.492
  526.750    0.264    0.340   75.324  158.349    3.510
  527.000    0.249    0.324   72.995  158.391    3.501
  527.250    0.218    0.313   73.708  158.552    3.519
  527.500    0.182    0.307   74.728  158.595    3.530
  527.750    0.186    0.314   72.085  159.068    3.595
  528.000    0.237    0.331   73.730  156.155    3.660
  528.250    0.262    0.366   75.682  152.298    3.742
  528.500    0.270    0.379   75.838  151.510    3.846
  528.750    0.277    0.373   74.684  153.134    4.013
  529.000    0.284    0.365   76.141  157.300    4.315
  529.250    0.290    0.353   76.790  153.442    4.630
  529.500    0.274    0.337   75.330  153.069    5.081
  529.750    0.252    0.306   70.887  154.598    5.629
  530.000    0.214    0.250   70.045  157.705    6.392
  530.250    0.154    0.238   69.823  159.549    6.871
  530.500    0.123    0.246   70.164  160.448    7.584
  530.750    0.160    0.262   70.939  160.918    7.928
  531.000    0.197    0.291   71.463  160.757    7.324
  531.250    0.222    0.309   66.522  160.174    6.579
  531.500    0.231    0.324   67.857  159.581    5.864
  531.750    0.243    0.339   70.990  158.995    5.151
  532.000    0.252    0.357   74.373  157.989    4.566
  532.250    0.270    0.378   76.388  155.080    4.093
