~VERSION INFORMATION
 VERS.                 2.0:   CWLS LOG ASCII STANDARD -VERSION 2.0
 WRAP.                  NO:   ONE LINE PER DEPTH STEP
~WELL INFORMATION BLOCK
#MNEM.UNIT           DATA                    DESCRIPTION OF MNEMONIC
#---------    -------------------            -------------------------------
# Generated from Intellog Unique Number	CC_80_83/WELL/2443
NULL.         -999.25                        : NULL_VALUE
WELL.         SUNCOR GRAHAM                  : WELL_NAME
LOC .         16-15-080-05W4                 : Location     - LOCATION          
UWI .         00/16-15-080-05W400            : Uwi          - UNIQUE WELL ID    
ENTR.         DW                             : Entered      - ENTERED BY        
SRVC.         SCHLUMBERGER                   : Scn          - SERVICE COMPANY   
DATE.         24 NOV 77                      : Date         - LOG DATE
STRT.M        85                             : top_depth    - START DEPTH       
STOP.M        289.9                          : bot_depth    - STOP DEPTH        
STEP.M        0.3                            : increment    - STEP LENGTH       
~CURVE INFORMATION BLOCK
#MNEM UNIT       ERCB CURVE CODE    CURVE DESCRIPTION
#-----------   ------------------   ----------------------------------
DEPT.M        00 001 00 00         : DEPTH        - DEPTH                       
DPHI.V/V      00 890 00 00         : PHID         - DENSITY POROSITY (LIMESTONE)
NPHI.V/V      00 330 00 00         : PHIN         - NEUTRON POROSITY (LIMESTONE)
GR  .API      00 310 00 00         : GR           - GAMMA RAY                   
ILD .OHMM     00 120 00 00         : RESD         - DEEP RESISTIVITY (DIL)      
~PARAMETER INFORMATION       
#MNEM.UNIT           DATA             DESCRIPTION OF MNEMONIC
#---------         -----------     ------------------------------
GL  .M        465.7                : gl           - GROUND LEVEL ELEVATION      
EREF.M        468.7                : kb           - ELEVATION OF DEPTH REFERENCE
DATM.M        468.7                : datum        - DATUM ELEVATION             
TDD .M        298                  : tdd          - TOTAL DEPTH DRILLER         
RUN .         ONE                  : Run          - RUN NUMBER                  
ENG .         BILL                 : Engineer     - RECORDING ENGINEER          
WIT .         JIM                  : Witness      - WITNESSED BY                
MUD .         GEL                  : Mud_type     - MUD TYPE                    
MATR.         LIMESTONE            : Logunit      - NEUTRON MATRIX              
TMAX.C        22                   : BHT          - MAXIMUM RECORDED TEMPERATURE
BHTD.M        298                  : BHTDEP       - MAXIMUM RECORDED TEMPERATURE
MATR.         1                    : LOGUNIT      - NEUTRON MATRIX              
RMT .C        25                   : MDTP         - TEMPERATURE OF MUD          
NEUT.         1                    : NEUTRON      - NEUTRON TYPE                
RESI.         0                    : RESIST       - RESISTIVITY TYPE            
RMC .OHMM     0.25                 : RMC          - RESISTIVITY OF MUD CAKE     
RMF .OHMM     0.25                 : RMF          - RESISTIVITY OF MUD FILTRATE 
SUFT.C        15                   : SUFT         - SURFACE TEMPERATURE         
~A  DEPTH     PHID     PHIN       GR     RESD
# ...
  189.401    0.263    0.473   99.895    6.366
  189.701    0.256    0.466  100.581    7.003
  190.001    0.254    0.451  100.608    7.276
  190.301    0.262    0.449   94.250    7.559
  190.601    0.277    0.451   86.611    8.158
  190.901    0.289    0.443   82.814    8.476
  191.201    0.298    0.438   80.297    8.316
  191.501    0.306    0.445   83.534    5.465
  191.801    0.283    0.483   89.331    4.346
  192.101    0.283    0.497   97.056    4.346
  192.401    0.284    0.480   99.014    4.691
  192.701    0.274    0.493   91.375    4.967
  193.001    0.257    0.495   92.694    5.361
  193.301    0.250    0.461   95.306    5.361
  193.601    0.256    0.448   97.899    5.361
  193.901    0.263    0.471   97.300    4.874
  194.201    0.277    0.496  100.540    4.515
  194.501    0.289    0.507  101.220    4.515
  194.801    0.297    0.492   96.145    5.465
  195.101    0.307    0.471   87.216    6.246
  195.401    0.316    0.440   78.296    5.677
  195.701    0.308    0.461   82.823    4.027
  196.001    0.306    0.504   90.548    3.731
  196.301    0.299    0.519   93.786    4.104
  196.601    0.285    0.479   91.264    4.691
  196.901    0.291    0.462   83.620    5.260
  197.201    0.310    0.454   81.106    6.614
  197.501    0.308    0.450   84.995    7.138
  197.801    0.290    0.440   88.882    7.416
  198.101    0.267    0.428   90.182    7.704
  198.401    0.268    0.408   91.505    8.316
  198.701    0.260    0.429   78.107    9.504
  199.001    0.246    0.459   72.393    9.874
  199.301    0.277    0.427   71.160    9.148
  199.601    0.307    0.416   71.192    7.416
  199.901    0.303    0.422   73.801    5.570
  200.201    0.274    0.440   77.037    4.691
  200.501    0.258    0.462   80.907    4.104
  200.801    0.261    0.490   91.190    4.027
  201.101    0.265    0.522  100.831    4.104
  201.401    0.263    0.534  101.512    4.602
  201.701    0.259    0.533   84.270    5.063
  202.001    0.272    0.496   80.470    5.465
  202.301    0.282    0.471   88.190    5.570
  202.601    0.273    0.481   89.518    5.570
  202.901    0.272    0.491   87.643    5.898
  203.201    0.273    0.474   88.960    6.246
  203.501    0.279    0.447   90.919    6.741
  203.801    0.281    0.447   90.963    6.871
  204.101    0.267    0.455   91.002    6.614
  204.401    0.273    0.437   92.318    6.366
  204.701    0.282    0.435   95.561    5.898
  205.001    0.289    0.449   96.881    5.063
  205.301    0.293    0.471   94.998    4.346
  205.601    0.269    0.457   89.278    3.591
  205.901    0.270    0.462   86.116    2.911
  206.201    0.297    0.491   84.885    2.547
  206.501    0.335    0.523   85.576    2.272
  206.801    0.318    0.535   85.602    2.105
  207.101    0.309    0.565   84.370    2.105
  207.401    0.308    0.581   83.124    2.105
  207.701    0.318    0.583   76.760    2.105
  208.001    0.320    0.562   78.085    2.145
  208.301    0.313    0.539   88.361    2.272
  208.601    0.300    0.523   82.010    2.749
  208.901    0.285    0.507   83.323    3.142
  209.201    0.269    0.498   90.402    3.523
  209.501    0.263    0.482   94.286    4.264
  209.801    0.260    0.463   88.564    4.781
  210.101    0.260    0.451   82.853    5.260
  210.401    0.266    0.442   81.608    5.465
  210.701    0.275    0.442   80.364    5.570
  211.001    0.279    0.442   82.328    5.361
  211.301    0.286    0.440   90.690    4.874
  211.601    0.286    0.440  101.610    4.346
  211.901    0.255    0.450   97.819    3.876
  212.201    0.248    0.462   95.290    3.803
  212.501    0.254    0.464   95.983    3.803
  212.801    0.258    0.478   96.021    3.731
  213.101    0.263    0.485   97.337    3.523
  213.401    0.264    0.491   94.185    3.457
  213.701    0.268    0.504   91.661    3.457
  214.001    0.265    0.513   91.696    3.457
  214.301    0.258    0.515   94.936    3.457
  214.601    0.254    0.539   96.904    3.523
  214.901    0.251    0.515   95.026    3.731
  215.201    0.251    0.504   93.137    3.876
  215.501    0.250    0.486   89.981    4.104
  215.801    0.252    0.499   87.466    4.781
  216.101    0.275    0.476   84.934    5.063
  216.401    0.286    0.459   82.422    5.161
  216.701    0.291    0.459   81.826    5.063
  217.001    0.278    0.456   85.705    4.874
  217.301    0.258    0.478   90.231    4.691
  217.601    0.254    0.478   90.900    4.691
  217.901    0.253    0.460   89.659    5.260
  218.201    0.240    0.441   79.458    5.898
  218.501    0.201    0.413   72.458    6.366
  218.801    0.126    0.405   69.942    6.246
  219.101    0.197    0.441   78.941    5.787
  219.401    0.245    0.437   88.583    5.260
  219.701    0.266    0.413   73.259    4.691
  220.001    0.277    0.403   72.027    4.104
  220.301    0.281    0.422   76.543    3.523
  220.601    0.288    0.495   86.193    3.142
  220.901    0.301    0.506   86.232    2.802
  221.201    0.314    0.546   81.788    2.646
  221.501    0.305    0.571   92.706    2.547
  221.801    0.293    0.536   97.868    2.596
  222.101    0.299    0.496   74.224    2.749
  222.401    0.358    0.442   41.621    3.025
  222.701    0.357    0.392   43.586    3.327
  223.001    0.326    0.374   53.866    3.876
  223.301    0.296    0.372   69.268    4.346
  223.601    0.277    0.372   76.355    4.691
  223.901    0.257    0.381   80.228    4.967
  224.201    0.247    0.419   92.434    5.063
  224.501    0.251    0.470   95.678    5.063
  224.801    0.257    0.499  100.835    4.781
  225.101    0.263    0.504  100.882    4.515
  225.401    0.270    0.518   98.999    4.264
  225.701    0.307    0.573   90.725    3.951
  226.001    0.364    0.586   89.476    3.803
  226.301    0.344    0.573  101.680    3.660
  226.601    0.269    0.495   99.798    3.660
  226.901    0.279    0.467   87.038    3.660
  227.201    0.280    0.446   89.002    3.660
  227.501    0.275    0.397   86.478    3.523
  227.801    0.291    0.385   60.279    3.327
  228.101    0.286    0.375   60.955    3.142
  228.401    0.289    0.356   70.601    3.025
  228.701    0.298    0.358   81.522    2.967
  229.001    0.302    0.364   88.599    2.911
  229.301    0.280    0.359   93.130    2.911
  229.601    0.278    0.352   86.766    2.967
  229.901    0.297    0.364   80.408    3.025
  230.201    0.298    0.370   76.610    3.025
  230.501    0.269    0.354   75.360    2.967
  230.801    0.262    0.354   76.692    2.911
  231.101    0.289    0.346   74.162    2.856
  231.401    0.303    0.346   65.881    2.802
  231.701    0.303    0.360   63.364    2.802
  232.001    0.293    0.366   63.416    2.802
  232.301    0.284    0.357   64.740    2.856
  232.602    0.287    0.351   64.766    2.911
  232.902    0.294    0.355   66.727    2.856
  233.202    0.297    0.352   73.806    2.749
  233.502    0.298    0.351   86.648    2.646
  233.802    0.298    0.364   73.891    2.499
  234.102    0.303    0.372   61.127    2.229
  234.402    0.317    0.367   52.846    2.105
  234.702    0.337    0.347   49.685    1.988
  235.002    0.337    0.339   77.248    1.950
  235.302    0.315    0.335   81.132    1.950
  235.602    0.307    0.329   52.373    1.950
  235.902    0.328    0.336   38.969    1.913
  236.202    0.340    0.349   30.701    1.877
  236.502    0.344    0.362   32.007    1.842
  236.802    0.348    0.366   34.608    1.807
  237.102    0.345    0.363   33.367    1.807
  237.402    0.336    0.347   35.328    1.807
  237.702    0.331    0.351   39.219    1.807
  238.002    0.333    0.374   37.968    1.842
  238.302    0.353    0.375   32.892    1.842
  238.602    0.350    0.352   35.502    1.877
  238.902    0.338    0.337   38.105    1.877
  239.202    0.335    0.353   38.772    1.877
  239.502    0.337    0.361   38.814    1.877
  239.802    0.338    0.363   38.224    1.877
  240.102    0.335    0.353   39.533    1.913
  240.402    0.331    0.356   37.662    2.065
  240.702    0.325    0.374   35.776    2.272
  241.002    0.261    0.391   90.864    2.697
  241.302    0.258    0.405   80.023    3.391
