~VERSION INFORMATION
 VERS.                 2.0:   CWLS LOG ASCII STANDARD -VERSION 2.0
 WRAP.                  NO:   ONE LINE PER DEPTH STEP
~WELL INFORMATION BLOCK
#MNEM.UNIT           DATA                    DESCRIPTION OF MNEMONIC
#---------    -------------------            -------------------------------
# Generated from Intellog Unique Number	CW_76_78/WELL/2807
WELL.         10-21-078-26W4                 : Well_name    - WELL
LOC .         00/10-21-078-26W4/0            : Location     - LOCATION
UWI .         00/10-21-078-26W4/0            : Uwi          - UNIQUE WELL ID
ENTR.         JJ                             : Entered      - ENTERED BY
SRVC.         SCHLUMBERGER                   : Scn          - SERVICE COMPANY
DATE.         18 FEB 65                      : Date         - LOG DATE
STRT.M        411.48                         : top_depth    - START DEPTH
STOP.M        539.48                         : bot_depth    - STOP DEPTH
STEP.M        0.25                           : increment    - STEP LENGTH
 NULL. -999.2500:NULL Value
~CURVE INFORMATION BLOCK
#MNEM UNIT       ERCB CURVE CODE    CURVE DESCRIPTION
#-----------   ------------------   ----------------------------------
DEPT.M        00 001 00 00         : DEPTH        - DEPTH
DELT.US/F     00 520 00 00         : DELT         - SONIC TRAVEL TIME
GR  .API      00 310 00 00         : GR           - GAMMA RAY
ILD .OHMM     00 120 00 00         : RESD         - DEEP RESISTIVITY (DIL)
~PARAMETER INFORMATION
#MNEM.UNIT           DATA             DESCRIPTION OF MNEMONIC
#---------         -----------     ------------------------------
GL  .M        591.922              : gl           - GROUND LEVEL ELEVATION
EREF.M        595.274              : kb           - ELEVATION OF DEPTH REFERENCE
DATM.M        591.922              : datum        - DATUM ELEVATION
TDD .M        566.928              : tdd          - TOTAL DEPTH DRILLER
RUN .         ONE                  : Run          - RUN NUMBER
ENG .         HAMILTON             : Engineer     - RECORDING ENGINEER
WIT .         BYERS                : Witness      - WITNESSED BY
BASE.         SL                   : Branch       - HOME BASE OF LOGGING UNIT
MUD .         GEL                  : Mud_type     - MUD TYPE
MATR.         SANDSTONE            : Logunit      - NEUTRON MATRIX
TMAX.C        23.8889              : BHT          - MAXIMUM RECORDED TEMPERATURE
BHTD.M        567.538              : BHTDEP       - MAXIMUM RECORDED TEMPERATURE
RMT .C        23.3333              : MDTP         - TEMPERATURE OF MUD
MUDD.KG/M     1104                 : MWT          - MUD DENSITY
NEUT.         1                    : NEUTRON      - NEUTRON TYPE
RESI.         0                    : RESIST       - RESISTIVITY TYPE
RM  .OHMM     4.76                 : RM           - RESISTIVITY OF MUD
RMC .OHMM     3.57                 : RMC          - RESISTIVITY OF MUD CAKE
RMF .OHMM     5.08                 : RMF          - RESISTIVITY OF MUD FILTRATE
SUFT.C        5                    : SUFT         - SURFACE TEMPERATURE
~A  DEPTH     DELT       GR     RESD
  411.480  310.798   59.316   22.461
  411.730  289.773   53.073   30.512
  411.980  252.559   48.435   34.455
  412.230  260.422   45.294   32.269
  412.480  287.479   40.856   27.848
  412.730  308.897   41.623   21.463
  412.980  299.268   47.515   17.121
  413.230  298.019   54.158   15.136
  413.480  301.013   60.626   12.843
  413.730  298.447   65.089   11.869
  413.980  329.645   64.518   11.195
  414.230  342.848   62.973   10.961
  414.480  356.874   64.885   11.454
  414.730  361.827   67.310   12.515
  414.980  362.851   67.211   13.665
  415.230  369.853   68.391   14.569
  415.480  341.866   65.570   15.130
  415.730  323.268   59.274   15.594
  415.980  310.135   57.479   15.565
  416.230  302.587   62.383   14.829
  416.480  315.113   65.859   14.032
  416.730  320.308   61.863   13.189
  416.980  329.984   63.270   12.633
  417.230  346.621   66.882   12.312
  417.480  358.866   66.540   12.005
  417.730  364.848   62.295   11.725
  417.980  359.233   64.350   11.600
  418.230  361.059   66.409   11.524
  418.480  363.251   66.624   11.512
  418.730  362.749   68.083   11.622
  418.980  358.522   69.430   11.777
  419.230  346.835   71.804   11.965
  419.480  336.486   72.476   12.044
  419.730  340.923   70.674   11.655
  419.980  347.807   68.149   11.170
  420.230  354.550   69.613   11.085
  420.480  361.040   73.388   11.370
  420.730  364.789   71.870   11.652
  420.980  365.081   67.212   11.916
  421.230  362.412   65.454   11.947
  421.480  360.523   67.025   11.886
  421.730  360.562   68.831   11.298
  421.980  360.186   67.044   10.393
  422.230  361.199   66.501   10.285
  422.480  374.458   69.078   12.045
  422.730  386.825   71.323   14.683
  422.980  374.479   73.912   17.438
  423.230  383.023   65.384   20.844
  423.480  375.540   56.855   23.285
  423.730  403.023   52.550   24.358
  423.980  417.978   52.694   25.330
  424.230  426.086   52.735   26.410
  424.480  406.457   55.308   26.870
  424.730  347.339   56.236   27.144
  424.980  290.473   52.504   26.972
  425.230  266.557   52.845   25.122
  425.480  301.403   56.526   22.546
  425.730  339.594   60.437   20.648
  425.980  354.280   65.761   19.617
  426.230  364.338   67.847   19.713
  426.480  364.684   62.745   20.568
  426.730  368.765   61.931   21.634
  426.980  365.218   63.428   22.028
  427.230  363.756   66.698   21.960
  427.480  363.666   68.654   21.220
  427.730  360.583   66.490   19.669
  427.980  356.499   63.889   18.349
  428.230  355.436   62.216   17.152
  428.480  355.837   65.770   16.285
  428.730  357.979   69.932   15.467
  428.980  357.023   70.642   15.486
  429.230  361.603   68.693   16.074
  429.480  365.866   66.719   16.683
  429.730  365.770   65.924   17.434
  429.980  357.568   70.565   18.601
  430.230  352.451   70.519   19.732
  430.480  346.195   65.326   20.285
  430.730  338.933   63.352   20.596
  430.980  341.419   65.321   20.674
  431.230  341.991   63.647   19.751
  431.480  345.516   63.586   18.491
  431.730  350.726   63.130   18.033
  431.980  350.790   64.809   17.850
  432.230  352.443   66.436   17.162
  432.480  349.491   67.426   16.567
  432.730  343.859   64.450   16.238
  432.980  343.846   61.087   15.999
  433.230  347.309   61.778   15.748
  433.480  347.398   65.789   15.774
  433.730  347.410   70.219   15.927
  433.980  333.831   71.944   16.090
  434.230  320.140   68.472   15.940
  434.480  320.150   63.176   15.552
  434.730  324.707   66.320   14.731
  434.980  342.300   70.621   13.953
  435.230  344.120   72.978   13.738
  435.480  350.114   70.820   13.919
  435.730  350.447   69.085   14.209
  435.980  346.652   69.439   14.615
  436.230  346.256   68.711   15.042
  436.480  341.186   69.096   15.295
  436.730  344.945   67.755   15.157
  436.980  349.910   69.729   14.746
  437.230  349.837   71.854   13.912
  437.480  347.190   70.760   13.251
  437.730  347.219   73.130   12.870
  437.980  345.342   76.439   12.682
  438.230  350.615   79.437   12.591
  438.480  355.284   80.007   12.645
  438.730  357.394   76.100   12.938
  438.980  353.180   72.130   13.354
  439.230  349.373   70.792   13.754
  439.480  348.383   71.269   14.080
  439.730  349.852   69.900   14.058
  439.980  350.113   67.869   13.854
  440.230  354.100   67.005   13.217
  440.480  349.137   71.028   12.543
  440.730  358.126   77.486   11.696
  440.980  361.325   79.297   11.166
  441.230  361.980   75.806   10.886
  441.480  363.004   77.005   11.021
  441.730  366.726   76.846   11.433
  441.980  359.451   75.174   12.007
  442.230  351.396   75.985   12.714
  442.480  343.077   78.449   13.390
  442.730  334.753   77.409   14.415
  442.980  331.236   74.165   15.117
  443.230  335.932   72.248   15.190
  443.480  335.354   73.950   13.799
  443.730  336.545   75.210   12.312
  443.980  342.570   71.723   11.099
  444.230  359.245   71.436   10.001
  444.480  379.768   76.059    9.405
  444.730  387.583   81.016    9.158
  444.980  368.526   84.119    9.113
  445.230  345.023   77.260    9.771
  445.480  332.413   76.908   11.592
  445.730  336.091   79.968   12.539
  445.980  340.109   78.534   13.847
  446.230  334.483   74.826   16.067
  446.480  341.513   73.820   19.138
  446.730  321.729   71.780   23.786
  446.980  304.887   63.566   27.312
  447.230  279.673   52.686   32.868
  447.480  277.992   48.368   40.445
  447.730  303.784   53.026   43.303
  447.980  322.049   58.034   39.026
  448.230  338.919   58.331   33.992
  448.480  343.644   60.687   27.917
  448.730  347.153   63.149   23.219
  448.980  358.308   62.475   19.058
  449.230  350.332   65.814   15.886
  449.480  351.133   73.998   13.748
  449.730  346.460   84.350   12.325
  449.980  334.495   78.788   11.798
  450.230  339.676   70.208   12.463
  450.480  338.876   63.445   14.155
  450.730  350.633   65.155   16.218
  450.980  358.070   66.973   17.619
  451.230  327.243   68.367   18.456
  451.480  298.700   62.675   19.007
  451.730  286.486   56.862   18.224
  451.980  299.302   61.698   16.634
  452.230  332.872   69.792   15.502
  452.480  337.066   70.268   15.163
  452.730  338.018   69.167   15.042
  452.980  343.860   70.064   15.043
  453.230  344.900   71.283   15.070
  453.480  350.016   72.346   15.136
  453.730  350.815   68.929   15.254
  453.980  334.894   64.478   15.429
  454.230  328.169   64.996   15.669
  454.480  327.088   68.305   15.729
  454.730  330.784   69.164   15.085
  454.980  351.459   68.252   14.248
  455.230  350.580   71.590   13.365
  455.480  349.782   74.233   12.592
  455.730  348.068   73.065   12.114
  455.980  349.574   71.406   11.850
  456.230  351.090   69.398   11.763
  456.480  351.329   69.073   11.794
  456.730  353.143   69.377   11.901
  456.980  349.969   72.211   11.966
  457.230  349.132   75.185   12.010
  457.480  353.368   77.379   11.953
  457.730  352.959   73.388   11.806
  457.980  350.576   70.223   11.691
  458.230  353.682   69.809   11.665
  458.480  347.835   71.156   11.684
  458.730  348.681   73.482   11.720
  458.980  344.094   76.355   11.883
  459.230  340.616   73.196   12.044
  459.480  342.600   72.074   12.360
  459.730  343.363   71.455   12.868
  459.980  348.069   69.829   13.120
  460.230  353.022   67.718   13.146
  460.480  345.380   68.335   12.764
  460.730  346.931   68.416   12.430
  460.980  348.920   68.694   12.036
  461.230  348.088   71.183   11.682
  461.480  356.242   70.908   11.323
  461.730  357.842   71.582   11.008
  461.980  356.740   74.811   10.852
  462.230  356.932   73.134   10.882
  462.480  357.218   72.763   11.262
  462.730  358.310   75.379   12.256
  462.980  353.876   75.817   13.862
  463.230  342.847   69.774   15.560
  463.480  339.005   64.702   17.074
  463.730  336.317   60.771   18.789
  463.980  335.229   62.985   20.656
  464.230  342.887   67.371   22.467
  464.480  341.018   65.632   24.806
  464.730  321.874   60.687   28.803
  464.980  306.060   54.585   35.497
  465.230  285.582   48.885   43.585
  465.480  270.064   46.075   47.349
