~VERSION INFORMATION
 VERS.                 2.0:   CWLS LOG ASCII STANDARD -VERSION 2.0
 WRAP.                  NO:   ONE LINE PER DEPTH STEP
~WELL INFORMATION BLOCK
#MNEM.UNIT           DATA                    DESCRIPTION OF MNEMONIC
#---------    -------------------            -------------------------------
# Generated from Intellog Unique Number	CS_73_76/WELL/3255
WELL.         HOME OIL COMPANY LIMITED       : Well_name    - WELL
LOC .         00/11-01-076-06W4/0            : Location     - LOCATION
UWI .         00/11-01-076-06W4/0            : Uwi          - UNIQUE WELL ID
ENTR.         SP                             : Entered      - ENTERED BY
SRVC.         SCHLUMBERGER                   : Scn          - SERVICE COMPANY
STRT.M        182                            : top_depth    - START DEPTH
STOP.M        415                            : bot_depth    - STOP DEPTH
STEP.M        0.25                           : increment    - STEP LENGTH
 NULL. -999.2500:NULL Value
~CURVE INFORMATION BLOCK
#MNEM UNIT       ERCB CURVE CODE    CURVE DESCRIPTION
#-----------   ------------------   ----------------------------------
DEPT.M        00 001 00 00         : DEPTH        - DEPTH
ILD .OHMM     00 120 00 00         : RESD         - DEEP RESISTIVITY (DIL)
DPHI.V/V      00 890 00 00         : PHID         - DENSITY POROSITY (LIMESTONE)
NPHI.V/V      00 330 00 00         : PHIN         - NEUTRON POROSITY (LIMESTONE)
GR  .API      00 310 00 00         : GR           - GAMMA RAY
~PARAMETER INFORMATION
#MNEM.UNIT           DATA             DESCRIPTION OF MNEMONIC
#---------         -----------     ------------------------------
GL  .M        595.55               : gl           - GROUND LEVEL ELEVATION
EREF.M        599.05               : kb           - ELEVATION OF DEPTH REFERENCE
DATM.M        595.55               : datum        - DATUM ELEVATION
TDD .M        423                  : tdd          - TOTAL DEPTH DRILLER
RUN .         ONE                  : Run          - RUN NUMBER
ENG .         BILL                 : Engineer     - RECORDING ENGINEER
WIT .         JIM                  : Witness      - WITNESSED BY
MUD .         GEL                  : Mud_type     - MUD TYPE
MATR.         LIMESTONE            : Logunit      - NEUTRON MATRIX
TMAX.C        20.5                 : BHT          - MAXIMUM RECORDED TEMPERATURE
BHTD.M        423                  : BHTDEP       - MAXIMUM RECORDED TEMPERATURE
MATR.         1                    : LOGUNIT      - NEUTRON MATRIX
RMT .C        25                   : MDTP         - TEMPERATURE OF MUD
NEUT.         1                    : NEUTRON      - NEUTRON TYPE
RESI.         0                    : RESIST       - RESISTIVITY TYPE
RMC .OHMM     0.25                 : RMC          - RESISTIVITY OF MUD CAKE
RMF .OHMM     0.25                 : RMF          - RESISTIVITY OF MUD FILTRATE
SUFT.C        15                   : SUFT         - SURFACE TEMPERATURE
~A  DEPTH     RESD     PHID     PHIN       GR
# ...
  356.000   18.359    0.222    0.360   75.145
  356.250   16.729    0.222    0.363   72.740
  356.500   15.242    0.229    0.371   72.757
  356.750   14.148    0.240    0.376   75.810
  357.000   12.654    0.237    0.361   81.906
  357.250   10.905    0.217    0.366   86.170
  357.500    9.224    0.227    0.393   93.478
  357.750    8.098    0.246    0.450   97.748
  358.000    7.243    0.262    0.502   97.771
  358.250    6.723    0.248    0.433   97.179
  358.500    6.477    0.265    0.526   97.804
  358.750    6.846    0.290    0.621   97.213
  359.000    7.941    0.313    0.623   90.552
  359.250    9.559    0.299    0.580   85.711
  359.500   10.683    0.230    0.506   82.698
  359.750   11.940    0.209    0.379   79.680
  360.000   13.344    0.207    0.372   77.267
  360.250   14.640    0.202    0.366   75.464
  360.500   16.060    0.204    0.373   75.480
  360.750   17.619    0.220    0.383   76.105
  361.000   20.060    0.234    0.386   78.562
  361.250   22.419    0.233    0.380   81.005
  361.500   25.526    0.236    0.379   84.059
  361.750   30.162    0.261    0.385   81.043
  362.000   31.885    0.276    0.389   73.163
  362.250   33.085    0.294    0.384   62.856
  362.500   31.871    0.300    0.379   61.054
  362.750   30.139    0.291    0.373   62.895
  363.000   26.955    0.274    0.369   68.384
  363.250   23.664    0.271    0.365   71.433
  363.500   20.776    0.233    0.359   82.993
  363.750   18.581    0.217    0.362   91.512
  364.000   19.280    0.231    0.366   98.818
  364.250   23.644    0.243    0.370  105.517
  364.500   30.093    0.261    0.382   92.784
  364.750   41.254    0.277    0.388   75.799
  365.000   60.916    0.290    0.389   61.241
  365.250   89.948    0.301    0.392   53.972
  365.500  106.287    0.304    0.382   52.170
  365.750  104.307    0.301    0.376   55.833
  366.000   96.821    0.307    0.378   58.891
  366.250   89.873    0.305    0.381   57.693
  366.500   78.900    0.296    0.382   53.458
  366.750   70.566    0.287    0.387   52.874
  367.000   66.729    0.288    0.395   54.109
  367.250   64.281    0.299    0.377   55.334
  367.500   65.469    0.296    0.371   55.960
  367.750   67.937    0.293    0.380   52.943
  368.000   69.195    0.295    0.394   51.749
  368.250   70.472    0.302    0.389   50.553
  368.500   70.463    0.301    0.386   51.179
  368.750   70.447    0.303    0.400   52.414
  369.000   74.463    0.305    0.404   53.045
  369.250   78.716    0.311    0.389   53.056
  369.500   86.348    0.310    0.390   53.075
  369.750   87.954    0.306    0.403   53.094
  370.000   89.585    0.307    0.404   52.503
  370.250   81.625    0.309    0.398   57.383
  370.500   67.777    0.311    0.387   61.652
  370.750   54.228    0.314    0.393   67.745
  371.000   37.398    0.300    0.402   73.832
  371.250   29.371    0.277    0.393   83.567
  371.500   26.269    0.246    0.402   98.160
  371.750   26.261    0.237    0.414   90.893
  372.000   27.249    0.262    0.408   82.410
  372.250   28.803    0.250    0.392   88.502
  372.500   31.020    0.181    0.376  101.883
  372.750   36.655    0.187    0.375   94.004
  373.000   44.951    0.233    0.409   81.270
  373.250   62.779    0.301    0.394   73.395
  373.500   78.432    0.306    0.390   68.552
  373.750   68.847    0.306    0.389   67.360
  374.000   62.734    0.291    0.379   68.590
  374.250   56.112    0.284    0.366   72.862
  374.500   44.069    0.273    0.364   81.383
  374.750   37.278    0.265    0.377   90.507
  375.000   34.601    0.263    0.379  101.460
  375.250   34.593    0.274    0.394  100.869
  375.500   35.897    0.282    0.425   95.424
  375.750   38.652    0.280    0.423   89.978
  376.000   41.624    0.285    0.413   88.781
  376.250   44.003    0.275    0.408   88.192
  376.500   51.038    0.283    0.401   82.135
  376.750   60.309    0.299    0.388   87.017
  377.000   63.751    0.303    0.397   85.818
  377.250   59.175    0.297    0.394   84.014
  377.500   66.130    0.304    0.392   93.143
  377.750   72.552    0.290    0.387  108.346
  378.000   73.897    0.282    0.390  115.649
  378.250   75.268    0.292    0.395  109.594
  378.500   71.174    0.300    0.407   88.968
  378.750   68.565    0.291    0.384   77.446
  379.000   64.835    0.302    0.381   73.820
  379.250   64.821    0.300    0.399   80.520
  379.500   63.614    0.288    0.420   87.218
  379.750   62.429    0.278    0.433   77.519
  380.000   60.140    0.290    0.413   70.252
  380.250   56.870    0.286    0.400   65.413
  380.500   54.787    0.284    0.408   66.037
  380.750   60.099    0.297    0.418   70.914
  381.000   64.725    0.291    0.437   64.252
  381.250   80.864    0.300    0.431   58.805
  381.500   97.344    0.304    0.418   62.467
  381.750  108.792    0.313    0.404   66.740
  382.000  115.001    0.306    0.411   66.156
  382.250  119.326    0.304    0.415   64.349
  382.500  121.536    0.315    0.406   55.864
  382.750  119.276    0.311    0.400   57.706
  383.000  114.904    0.316    0.394   64.412
  383.250  104.692    0.320    0.384   67.458
  383.500   93.635    0.313    0.383   72.942
  383.750   79.202    0.309    0.396   74.782
  384.000   73.521    0.308    0.401   74.802
  384.250   64.543    0.297    0.390   76.034
  384.500   58.810    0.292    0.389   86.991
  384.750   51.632    0.295    0.394   95.506
  385.000   42.872    0.295    0.385  108.883
  385.250   36.266    0.265    0.381  121.657
  385.500   30.114    0.250    0.379  149.608
  385.750   25.474    0.244    0.391  162.988
  386.000   21.152    0.243    0.402  148.434
  386.250   18.919    0.236    0.380  131.445
  386.500   16.920    0.249    0.367  136.322
  386.750   16.605    0.211    0.370  148.487
  387.000   18.558    0.205    0.403  161.865
  387.250   21.929    0.233    0.414  141.846
  387.500   27.911    0.273    0.417  127.287
  387.750   46.070    0.295    0.408  102.406
  388.000   63.157    0.306    0.409   82.993
  388.250   77.453    0.314    0.399   67.221
  388.500   78.886    0.318    0.392   49.629
  388.750   71.877    0.324    0.397   55.726
  389.000   64.284    0.332    0.384   64.243
  389.250   59.670    0.325    0.377   81.871
  389.500   57.484    0.307    0.390  125.007
  389.750   55.377    0.292    0.421  114.702
  390.000   55.364    0.321    0.434   95.287
  390.250   60.732    0.329    0.435   59.476
  390.500   64.204    0.324    0.435   57.066
  390.750   73.100    0.315    0.430   58.905
  391.000   96.557    0.316    0.421   52.243
  391.250  109.938    0.325    0.419   46.798
  391.500  118.390    0.332    0.414   42.565
  391.750  118.357    0.343    0.419   46.240
  392.000  116.151    0.353    0.429   47.466
  392.250  114.001    0.357    0.437   48.695
  392.500  111.866    0.344    0.426   49.938
  392.750  113.951    0.339    0.432   49.950
  393.000  116.051    0.329    0.431   48.748
  393.250  116.031    0.332    0.427   49.375
  393.500  118.182    0.333    0.420   51.825
  393.750  120.364    0.327    0.409   50.019
  394.000  120.341    0.336    0.398   46.399
  394.250  120.323    0.335    0.402   44.592
  394.500  120.299    0.332    0.403   44.007
  394.750  118.057    0.341    0.412   45.849
  395.000  115.848    0.338    0.413   47.688
  395.250  118.006    0.336    0.411   49.526
  395.500  120.197    0.331    0.409   51.364
  395.750  122.427    0.327    0.410   50.777
  396.000  124.694    0.328    0.420   45.935
  396.250  122.374    0.334    0.421   39.274
  396.500  113.585    0.335    0.409   38.689
  396.750  101.584    0.341    0.400   39.328
  397.000   96.064    0.337    0.399   39.343
  397.250   90.838    0.340    0.401   38.747
  397.500   87.504    0.348    0.412   38.155
  397.750   87.491    0.349    0.438   37.565
  398.000   85.852    0.353    0.439   35.762
  398.250   85.841    0.344    0.430   33.961
  398.500   84.240    0.327    0.419   33.368
  398.750   84.232    0.324    0.400   32.781
  399.000   78.186    0.320    0.396   34.018
  399.250   58.077    0.313    0.391   35.856
