~VERSION INFORMATION
 VERS.                 2.0:   CWLS LOG ASCII STANDARD -VERSION 2.0
 WRAP.                  NO:   ONE LINE PER DEPTH STEP
~WELL INFORMATION BLOCK
#MNEM.UNIT           DATA                    DESCRIPTION OF MNEMONIC
#---------    -------------------            -------------------------------
# Generated from Intellog Unique Number	CS_73_76/WELL/834
WELL.         DOME ET AL KIRBY               : Well_name    - WELL
LOC .         00/10-29-073-05W4/0            : Location     - LOCATION
UWI .         00/10-29-073-05W4/0            : Uwi          - UNIQUE WELL ID
ENTR.         SP                             : Entered      - ENTERED BY
SRVC.         SCHLUMBERGER                   : Scn          - SERVICE COMPANY
STRT.M        270                            : top_depth    - START DEPTH
STOP.M        507                            : bot_depth    - STOP DEPTH
STEP.M        0.25                           : increment    - STEP LENGTH
 NULL. -999.2500:NULL Value
~CURVE INFORMATION BLOCK
#MNEM UNIT       ERCB CURVE CODE    CURVE DESCRIPTION
#-----------   ------------------   ----------------------------------
DEPT.M        00 001 00 00         : DEPTH        - DEPTH
ILD .OHMM     00 120 00 00         : RESD         - DEEP RESISTIVITY (DIL)
DPHI.V/V      00 890 00 00         : PHID         - DENSITY POROSITY (LIMESTONE)
NPHI.V/V      00 330 00 00         : PHIN         - NEUTRON POROSITY (LIMESTONE)
GR  .API      00 310 00 00         : GR           - GAMMA RAY
~PARAMETER INFORMATION
#MNEM.UNIT           DATA             DESCRIPTION OF MNEMONIC
#---------         -----------     ------------------------------
GL  .M        669.03               : gl           - GROUND LEVEL ELEVATION
EREF.M        672.93               : kb           - ELEVATION OF DEPTH REFERENCE
DATM.M        669.03               : datum        - DATUM ELEVATION
TDD .M        514.6                : tdd          - TOTAL DEPTH DRILLER
RUN .         ONE                  : Run          - RUN NUMBER
ENG .         BILL                 : Engineer     - RECORDING ENGINEER
WIT .         JIM                  : Witness      - WITNESSED BY
MUD .         GEL                  : Mud_type     - MUD TYPE
MATR.         LIMESTONE            : Logunit      - NEUTRON MATRIX
TMAX.C        20                   : BHT          - MAXIMUM RECORDED TEMPERATURE
BHTD.M        514.6                : BHTDEP       - MAXIMUM RECORDED TEMPERATURE
MATR.         1                    : LOGUNIT      - NEUTRON MATRIX
RMT .C        25                   : MDTP         - TEMPERATURE OF MUD
NEUT.         1                    : NEUTRON      - NEUTRON TYPE
RESI.         0                    : RESIST       - RESISTIVITY TYPE
RMC .OHMM     0.25                 : RMC          - RESISTIVITY OF MUD CAKE
RMF .OHMM     0.25                 : RMF          - RESISTIVITY OF MUD FILTRATE
SUFT.C        15                   : SUFT         - SURFACE TEMPERATURE
~A  DEPTH     RESD     PHID     PHIN       GR
# ...
  313.500    4.472    0.265    0.429   99.339
  313.750    4.557    0.260    0.434  100.550
  314.000    4.558    0.254    0.427  102.970
  314.250    4.645    0.247    0.425  104.786
  314.500    4.734    0.240    0.433  105.996
  314.750    4.823    0.230    0.449  103.578
  315.000    4.915    0.222    0.457  101.159
  315.250    4.917    0.227    0.455  102.370
  315.500    4.827    0.228    0.452  102.370
  315.750    4.567    0.235    0.451   95.718
  316.000    4.402    0.242    0.446   89.066
  316.250    4.165    0.254    0.434   76.970
  316.500    4.089    0.266    0.410   73.341
  316.750    4.015    0.259    0.389   72.737
  317.000    4.169    0.264    0.381   88.464
  317.250    4.169    0.246    0.408   98.142
  317.500    4.170    0.242    0.431  104.192
  317.750    4.172    0.236    0.445  107.217
  318.000    4.096    0.228    0.454  106.008
  318.250    3.876    0.220    0.466  107.823
  318.500    3.805    0.222    0.478  107.824
  318.750    3.667    0.219    0.492  102.381
  319.000    3.470    0.271    0.489   96.939
  319.250    3.344    0.295    0.466   92.706
  319.500    3.283    0.281    0.445   88.473
  319.750    3.165    0.279    0.428   86.659
  320.000    3.165    0.274    0.422   86.055
  320.250    3.167    0.268    0.429   89.080
  320.500    3.168    0.269    0.440   90.895
  320.750    3.169    0.260    0.452   93.315
  321.000    3.111    0.265    0.463   92.712
  321.250    3.055    0.264    0.462   89.083
  321.500    2.890    0.271    0.448   84.850
  321.750    2.837    0.277    0.443   81.222
  322.000    2.587    0.283    0.429   77.594
  322.250    2.493    0.291    0.417   73.966
  322.500    2.315    0.299    0.416   71.547
  322.750    2.231    0.304    0.420   70.338
  323.000    2.072    0.311    0.416   70.339
  323.250    1.961    0.315    0.415   70.945
  323.500    1.890    0.309    0.415   71.551
  323.750    1.855    0.311    0.416   72.761
  324.000    1.856    0.300    0.422   73.972
  324.250    1.891    0.294    0.423   75.787
  324.500    1.927    0.293    0.419   73.973
  324.750    1.928    0.299    0.420   74.579
  325.000    1.964    0.293    0.419   77.604
  325.250    2.117    0.282    0.417   80.629
  325.500    2.197    0.263    0.417   84.259
  325.750    2.367    0.262    0.414   84.260
  326.000    2.550    0.267    0.412   80.027
  326.250    2.648    0.263    0.427   75.794
  326.500    2.552    0.268    0.440   70.351
  326.750    2.326    0.277    0.451   63.699
  327.000    2.043    0.305    0.448   60.070
  327.250    1.795    0.321    0.440   58.861
  327.500    1.730    0.320    0.433   60.072
  327.750    1.577    0.320    0.420   60.678
  328.000    1.465    0.326    0.411   61.283
  328.250    1.412    0.328    0.415   63.099
  328.500    1.386    0.325    0.421   62.495
  328.750    1.387    0.320    0.428   63.101
  329.000    1.387    0.333    0.428   64.311
  329.250    1.288    0.332    0.426   66.731
  329.500    1.387    0.333    0.437   66.127
  329.750    1.388    0.331    0.442   64.314
  330.000    1.388    0.327    0.429   62.500
  330.250    1.389    0.327    0.420   59.477
  330.500    1.389    0.333    0.414   59.477
  330.750    1.390    0.331    0.419   58.268
  331.000    1.390    0.327    0.426   58.874
  331.250    1.416    0.325    0.431   57.061
  331.500    1.417    0.322    0.428   58.271
  331.750    1.471    0.310    0.405   60.086
  332.000    1.555    0.305    0.394   61.297
  332.250    1.676    0.300    0.399   67.346
  332.500    1.806    0.296    0.417   74.000
  332.750    1.945    0.293    0.427   77.025
  333.000    2.216    0.290    0.434   78.841
  333.250    2.432    0.280    0.439   78.841
  333.500    2.771    0.267    0.437   78.842
  333.750    2.930    0.254    0.442   79.448
  334.000    3.042    0.265    0.443   74.610
  334.250    2.932    0.296    0.439   63.119
  334.500    2.391    0.315    0.417   52.233
  334.750    2.100    0.328    0.404   43.766
  335.000    1.879    0.314    0.397   43.162
  335.250    1.745    0.315    0.386   43.767
  335.500    1.621    0.320    0.376   46.792
  335.750    1.591    0.325    0.388   48.003
  336.000    1.534    0.338    0.399   49.818
  336.250    1.534    0.345    0.408   50.424
  336.500    1.535    0.340    0.414   48.610
  336.750    1.535    0.333    0.413   46.192
  337.000    1.536    0.327    0.404   45.588
  337.250    1.536    0.326    0.407   46.194
  337.500    1.565    0.326    0.408   46.799
  337.750    1.566    0.334    0.404   48.615
  338.000    1.566    0.339    0.410   48.615
  338.250    1.567    0.342    0.427   48.011
  338.500    1.567    0.345    0.438   48.012
  338.750    1.568    0.336    0.433   48.618
  339.000    1.568    0.332    0.428   50.433
  339.250    1.598    0.337    0.428   51.644
  339.500    1.598    0.331    0.420   52.249
  339.750    1.599    0.336    0.416   52.250
  340.000    1.599    0.342    0.421   52.251
  340.250    1.600    0.337    0.424   54.067
  340.500    1.571    0.331    0.426   55.277
  340.750    1.571    0.339    0.432   55.278
  341.000    1.571    0.337    0.432   54.069
  341.250    1.543    0.345    0.422   53.465
  341.500    1.543    0.354    0.427   54.676
  341.750    1.544    0.354    0.434   55.886
  342.000    1.516    0.348    0.437   57.097
  342.250    1.516    0.353    0.431   57.702
  342.500    1.517    0.354    0.427   57.098
  342.750    1.517    0.348    0.422   55.285
  343.000    1.518    0.346    0.426   53.471
  343.250    1.518    0.345    0.420   51.657
  343.500    1.491    0.344    0.416   49.844
  343.750    1.491    0.342    0.425   51.054
  344.000    1.464    0.336    0.428   54.079
  344.250    1.464    0.334    0.428   57.709
  344.500    1.438    0.344    0.442   58.919
  344.750    1.438    0.349    0.449   58.920
  345.000    1.412    0.345    0.449   55.292
  345.250    1.413    0.345    0.447   53.478
  345.500    1.387    0.344    0.442   52.874
  345.750    1.362    0.348    0.436   52.875
  346.000    1.337    0.346    0.433   54.086
  346.250    1.338    0.343    0.431   56.506
  346.500    1.338    0.339    0.434   57.717
  346.750    1.389    0.333    0.433   60.137
  347.000    1.415    0.330    0.424   61.347
  347.250    1.416    0.328    0.420   61.953
  347.500    1.416    0.338    0.420   59.535
  347.750    1.391    0.340    0.428   57.721
  348.000    1.366    0.344    0.433   57.722
  348.250    1.366    0.343    0.438   58.932
  348.500    1.341    0.336    0.433   59.538
  348.750    1.341    0.339    0.426   60.144
  349.000    1.342    0.336    0.420   59.540
  349.250    1.317    0.332    0.424   58.331
  349.500    1.318    0.320    0.425   55.912
  349.750    1.318    0.285    0.420   53.494
  350.000    1.394    0.227    0.402   52.285
  350.250    1.588    0.178    0.317   51.681
  350.500    1.985    0.158    0.260   52.287
  350.750    2.179    0.247    0.293   52.892
  351.000    2.220    0.311    0.390   54.707
  351.250    2.024    0.337    0.426   55.918
  351.500    1.811    0.343    0.461   58.338
  351.750    1.591    0.351    0.473   59.549
  352.000    1.505    0.348    0.466   62.574
  352.250    1.398    0.340    0.449   64.994
  352.500    1.347    0.339    0.437   64.995
  352.750    1.275    0.337    0.431   64.391
  353.000    1.251    0.324    0.436   64.391
  353.250    1.229    0.314    0.453   63.787
  353.500    1.206    0.337    0.458   61.974
  353.750    1.185    0.344    0.453   63.789
  354.000    1.207    0.342    0.462   68.629
  354.250    1.230    0.340    0.478   74.073
  354.500    1.325    0.334    0.487   75.889
  354.750    1.455    0.325    0.488   76.494
  355.000    1.538    0.315    0.487   77.705
  355.250    1.688    0.303    0.498   81.334
  355.500    1.786    0.293    0.511   84.964
  355.750    1.820    0.296    0.524   87.385
  356.000    1.787    0.314    0.500   84.966
  356.250    1.722    0.313    0.490   78.919
  356.500    1.660    0.298    0.487   80.129
  356.750    1.660    0.286    0.489   85.574
