~VERSION INFORMATION
 VERS.                 2.0:   CWLS LOG ASCII STANDARD -VERSION 2.0
 WRAP.                  NO:   ONE LINE PER DEPTH STEP
~WELL INFORMATION BLOCK
#MNEM.UNIT           DATA                    DESCRIPTION OF MNEMONIC
#---------    -------------------            -------------------------------
# Generated from Intellog Unique Number	CS_73_76/WELL/3269
WELL.         BAILEY SELBURN OIL & GAS       : Well_name    - WELL
LOC .         00/11-35-075-18W4/0            : Location     - LOCATION
UWI .         00/11-35-075-18W4/0            : Uwi          - UNIQUE WELL ID
ENTR.         SP                             : Entered      - ENTERED BY
SRVC.         SCHLUMBERGER                   : Scn          - SERVICE COMPANY
STRT.M        243.84                         : top_depth    - START DEPTH
STOP.M        450.84                         : bot_depth    - STOP DEPTH
STEP.M        0.25                           : increment    - STEP LENGTH
 NULL. -999.2500:NULL Value
~CURVE INFORMATION BLOCK
#MNEM UNIT       ERCB CURVE CODE    CURVE DESCRIPTION
#-----------   ------------------   ----------------------------------
DEPT.M        00 001 00 00         : DEPTH        - DEPTH
GR  .API      00 310 00 00         : GR           - GAMMA RAY
DPHI.V/V      00 890 00 00         : PHID         - DENSITY POROSITY (SANDSTONE)
NPHI.V/V      00 330 00 00         : PHIN         - NEUTRON POROSITY (SANDSTONE)
ILD .OHMM     00 120 00 00         : RESD         - DEEP RESISTIVITY (DIL)
~PARAMETER INFORMATION
#MNEM.UNIT           DATA             DESCRIPTION OF MNEMONIC
#---------         -----------     ------------------------------
GL  .M        598.932              : gl           - GROUND LEVEL ELEVATION
EREF.M        598.932              : kb           - ELEVATION OF DEPTH REFERENCE
DATM.M        598.932              : datum        - DATUM ELEVATION
TDD .M        459.029              : tdd          - TOTAL DEPTH DRILLER
RUN .         ONE                  : Run          - RUN NUMBER
ENG .         BILL                 : Engineer     - RECORDING ENGINEER
WIT .         JIM                  : Witness      - WITNESSED BY
MUD .         GEL                  : Mud_type     - MUD TYPE
MATR.         SANDSTONE            : Logunit      - NEUTRON MATRIX
TMAX.C        26.6667              : BHT          - MAXIMUM RECORDED TEMPERATURE
BHTD.M        559.308              : BHTDEP       - MAXIMUM RECORDED TEMPERATURE
MATR.         1                    : LOGUNIT      - NEUTRON MATRIX
RMT .C        25                   : MDTP         - TEMPERATURE OF MUD
NEUT.         1                    : NEUTRON      - NEUTRON TYPE
RESI.         0                    : RESIST       - RESISTIVITY TYPE
RMC .OHMM     0.25                 : RMC          - RESISTIVITY OF MUD CAKE
RMF .OHMM     0.25                 : RMF          - RESISTIVITY OF MUD FILTRATE
SUFT.C        15                   : SUFT         - SURFACE TEMPERATURE
~A  DEPTH       GR     PHID     PHIN     RESD
# ...
  417.840   97.176    0.258    0.541    2.559
  418.090   97.928    0.251    0.533    2.324
  418.340  100.215    0.259    0.522    2.161
  418.590  102.938    0.254    0.514    2.117
  418.840  106.147    0.245    0.505    2.187
  419.090  107.057    0.236    0.493    2.358
  419.340  104.774    0.214    0.475    2.588
  419.590  102.574    0.209    0.447    3.046
  419.840  102.077    0.193    0.433    3.369
  420.090  103.289    0.182    0.447    3.949
  420.340  100.729    0.180    0.439    4.526
  420.590   97.536    0.169    0.434    4.935
  420.840   92.499    0.153    0.424    5.416
  421.090   89.869    0.134    0.401    6.056
  421.340   87.909    0.116    0.390    6.352
  421.590   90.296    0.132    0.368    7.070
  421.840   94.778    0.111    0.382    7.398
  422.090   94.796    0.148    0.396    7.478
  422.340   94.796    0.165    0.401    7.513
  422.590   95.395    0.180    0.410    7.407
  422.840   95.749    0.171    0.417    7.158
  423.090   96.073    0.190    0.407    6.598
  423.340   95.632    0.180    0.411    6.330
  423.590   94.808    0.167    0.416    5.976
  423.840   94.860    0.161    0.420    6.057
  424.090   95.220    0.152    0.379    6.362
  424.340   97.138    0.140    0.399    6.595
  424.590   99.156    0.129    0.423    6.747
  424.840   99.965    0.181    0.427    6.966
  425.090   97.385    0.181    0.410    6.995
  425.340   98.875    0.166    0.421    7.005
  425.590  103.261    0.148    0.426    6.865
  425.840  106.874    0.187    0.419    6.696
  426.090  108.782    0.177    0.413    6.412
  426.340  110.844    0.167    0.424    5.916
  426.590  112.130    0.181    0.431    5.574
  426.840  113.200    0.189    0.434    5.218
  427.090  113.324    0.185    0.435    5.004
  427.340  113.344    0.202    0.443    4.744
  427.590  116.522    0.187    0.455    4.417
  427.840  117.812    0.211    0.460    4.394
  428.090  118.231    0.218    0.465    4.253
  428.340  117.835    0.193    0.461    4.252
  428.590  117.427    0.190    0.450    4.249
  428.840  115.863    0.184    0.448    4.251
  429.090  115.143    0.205    0.468    4.296
  429.340  115.212    0.199    0.472    4.354
  429.590  114.726    0.166    0.463    4.637
  429.840  113.502    0.137    0.451    5.055
  430.090  111.445    0.112    0.416    5.414
  430.340  112.651    0.092    0.409    5.944
  430.590  116.448    0.151    0.437    6.337
  430.840  120.736    0.175    0.459    6.606
  431.090  122.125    0.185    0.472    6.557
  431.340  113.157    0.197    0.448    6.064
  431.590  102.735    0.196    0.415    5.625
  431.840  101.213    0.185    0.419    5.233
  432.090  106.783    0.188    0.428    5.284
  432.340  110.012    0.183    0.415    6.166
  432.590  103.293    0.173    0.411    7.364
  432.840   96.239    0.187    0.399    9.706
  433.090   90.232    0.198    0.382   12.293
  433.340   89.115    0.197    0.361   16.305
  433.590   88.445    0.094    0.325   21.629
  433.840   94.720    0.025    0.272   25.365
  434.090  106.225    0.004    0.298   20.257
  434.340  118.773    0.049    0.343   18.233
  434.590  120.851    0.124    0.370   14.273
  434.840  118.584    0.168    0.363   11.797
  435.090  119.377    0.176    0.375    9.969
  435.340  121.454    0.176    0.391    9.411
  435.590  118.648    0.173    0.377    9.583
  435.840  115.276    0.172    0.360   10.160
  436.090  111.623    0.175    0.350   10.938
  436.340  110.449    0.167    0.342   11.468
  436.590  110.413    0.160    0.338   11.585
  436.840  111.118    0.151    0.341   11.910
  437.090  111.711    0.145    0.369   11.659
  437.340  113.036    0.140    0.390   11.169
  437.590  116.062    0.146    0.383   10.727
  437.840  120.109    0.140    0.376   10.261
  438.090  123.355    0.131    0.392    9.563
  438.340  116.463    0.147    0.379    8.929
  438.590   98.744    0.186    0.363    8.684
  438.840   97.167    0.203    0.353    8.564
  439.090  103.677    0.192    0.353    8.852
  439.340  109.761    0.181    0.361    9.271
  439.590  113.746    0.175    0.361    9.647
  439.840  116.732    0.167    0.363   10.056
  440.090  116.923    0.151    0.364   10.529
  440.340  115.988    0.143    0.365   10.665
  440.590  116.669    0.149    0.364   10.821
  440.840  118.082    0.156    0.365   10.603
  441.090  119.411    0.159    0.383   10.253
  441.340  120.970    0.142    0.399    9.378
  441.590  121.049    0.132    0.416    8.416
  441.840  120.329    0.118    0.436    7.358
  442.090  120.870    0.108    0.472    6.848
  442.340  123.391    0.111    0.480    6.600
  442.590  125.322    0.151    0.449    6.848
  442.840  124.531    0.154    0.402    7.282
  443.090  121.670    0.148    0.368    8.091
  443.340  116.699    0.139    0.373    8.829
  443.590  109.230    0.133    0.359    9.850
  443.840  101.817    0.149    0.354   10.722
  444.090   95.526    0.159    0.375   11.589
  444.340   90.851    0.202    0.347   12.476
  444.590   92.948    0.195    0.324   13.066
  444.840   97.497    0.177    0.304   13.687
  445.090  102.154    0.160    0.307   14.098
  445.340  106.055    0.160    0.324   14.523
  445.590  109.553    0.181    0.348   15.180
  445.840  105.019    0.203    0.364   16.154
  446.090  101.532    0.239    0.379   16.804
  446.340  104.596    0.249    0.373   17.318
  446.590  108.089    0.235    0.361   17.818
  446.840  111.867    0.217    0.345   17.099
  447.090  115.700    0.204    0.330   16.529
  447.340  121.254    0.187    0.318   15.702
  447.590  127.990    0.169    0.311   14.526
  447.840  137.750    0.154    0.323   13.800
  448.090  142.388    0.142    0.328   13.438
  448.340  134.439    0.138    0.332   13.237
  448.590  124.981    0.151    0.333   13.205
  448.840  121.036    0.159    0.330   13.196
  449.090  113.546    0.164    0.325   13.202
  449.340  102.606    0.156    0.317   13.281
  449.590  113.089    0.170    0.302   13.435
  449.840  134.056    0.136    0.297   13.608
  450.090  137.296    0.123    0.307   13.660
  450.340  111.282    0.127    0.317   13.930
  450.590   98.374    0.138    0.330   14.090
  450.840   90.775    0.165    0.329   14.218
