~VERSION INFORMATION
 VERS.                 2.0:   CWLS LOG ASCII STANDARD -VERSION 2.0
 WRAP.                  NO:   ONE LINE PER DEPTH STEP
~WELL INFORMATION BLOCK
#MNEM.UNIT           DATA                    DESCRIPTION OF MNEMONIC
#---------    -------------------            -------------------------------
# Generated from Intellog Unique Number	CN_94_101/WELL/5002
WELL.         DOME PETROLEUM LTD.            : Well_name    - WELL
LOC .         00/10-10-097-19W4/0            : Location     - LOCATION
UWI .         00/10-10-097-19W4/0            : Uwi          - UNIQUE WELL ID
ENTR.         JOETTE                         : Entered      - ENTERED BY
SRVC.         SCHLUMBERGER                   : Scn          - SERVICE COMPANY
DATE.         08/17/92                       : Date         - LOG DATE
STRT.M        426.72                         : top_depth    - START DEPTH
STOP.M        530.47                         : bot_depth    - STOP DEPTH
STEP.M        0.25                           : increment    - STEP LENGTH
 NULL. -999.2500:NULL Value
~CURVE INFORMATION BLOCK
#MNEM UNIT       ERCB CURVE CODE    CURVE DESCRIPTION
#-----------   ------------------   ----------------------------------
DEPT.M        00 001 00 00         : DEPTH        - DEPTH
ILD .OHMM     00 120 00 00         : RESD         - DEEP RESISTIVITY (DIL)
GR  .API      00 310 00 00         : GR           - GAMMA RAY
NPHI.V/V      00 330 00 00         : PHIN         - NEUTRON POROSITY (SANDSTONE)
~PARAMETER INFORMATION
#MNEM.UNIT           DATA             DESCRIPTION OF MNEMONIC
#---------         -----------     ------------------------------
GL  .M        786.232              : gl           - GROUND LEVEL ELEVATION
EREF.M        788.548              : kb           - ELEVATION OF DEPTH REFERENCE
DATM.M        788.548              : datum        - DATUM ELEVATION
TDD .M        534.924              : tdd          - TOTAL DEPTH DRILLER
RUN .         ONE                  : Run          - RUN NUMBER
ENG .         BILL                 : Engineer     - RECORDING ENGINEER
WIT .         JIM                  : Witness      - WITNESSED BY
MUD .         GEL                  : Mud_type     - MUD TYPE
MATR.         SANDSTONE            : Logunit      - NEUTRON MATRIX
TMAX.C        21.1111              : BHT          - MAXIMUM RECORDED TEMPERATURE
BHTD.M        534.924              : BHTDEP       - MAXIMUM RECORDED TEMPERATURE
RMT .C        21.1111              : MDTP         - TEMPERATURE OF MUD
MUDD.KG/M     9500                 : MWT          - MUD DENSITY
NEUT.         1                    : NEUTRON      - NEUTRON TYPE
RESI.         0                    : RESIST       - RESISTIVITY TYPE
RM  .OHMM     10.5                 : RM           - RESISTIVITY OF MUD
RMC .OHMM     10.5                 : RMC          - RESISTIVITY OF MUD CAKE
RMF .OHMM     10.5                 : RMF          - RESISTIVITY OF MUD FILTRATE
SUFT.C        4                    : SUFT         - SURFACE TEMPERATURE
~A  DEPTH     RESD       GR     PHIN
  426.720    5.507   76.674    0.319
  426.970    5.838   77.948    0.363
  427.220    5.953   78.614    0.370
  427.470    5.854   75.022    0.377
  427.720    5.548   73.864    0.360
  427.970    5.561   75.137    0.372
  428.220    6.112   75.803    0.383
  428.470    6.843   77.713    0.396
  428.720    7.525   74.730    0.377
  428.970    7.680   76.004    0.353
  429.220    7.414   84.560    0.358
  429.470    7.026   90.712    0.358
  429.720    6.416   85.283    0.378
  429.970    5.542   82.314    0.389
  430.220    4.968   89.668    0.382
  430.470    4.622   95.198    0.379
  430.720    4.380  100.135    0.387
  430.970    4.151  100.192    0.412
  431.220    3.791   95.993    0.429
  431.470    3.526   88.145    0.430
  431.720    3.404   81.514    0.431
  431.970    3.539   76.692    0.396
  432.220    3.894   69.453    0.402
  432.470    4.122   69.510    0.391
  432.720    4.532   73.245    0.388
  432.970    4.710   76.343    0.386
  433.220    5.182   78.832    0.377
  433.470    5.283   76.443    0.368
  433.720    5.493   77.109    0.357
  433.970    5.208   83.261    0.379
  434.220    4.583   85.751    0.401
  434.470    4.185   85.808    0.414
  434.720    3.891   84.649    0.421
  434.970    3.554   84.707    0.392
  435.220    3.187   84.778    0.396
  435.470    3.134   79.363    0.404
  435.720    3.200   81.245    0.402
  435.970    3.326   85.559    0.403
  436.220    3.659   89.279    0.400
  436.470    3.873   83.849    0.374
  436.720    4.025   79.042    0.373
  436.970    4.345   79.114    0.358
  437.220    4.601   79.171    0.364
  437.470    4.876   82.283    0.364
  437.720    4.974   81.733    0.368
  437.970    5.078   76.911    0.371
  438.220    4.997   76.389    0.373
  438.470    4.824   78.242    0.379
  438.720    4.830   75.867    0.378
  438.970    4.934   74.723    0.380
  439.220    5.034   74.172    0.385
  439.470    5.333   72.405    0.372
  439.720    5.646   74.287    0.373
  439.970    5.983   79.223    0.390
  440.220    6.106   81.105    0.383
  440.470    6.117   78.716    0.381
  440.720    6.131   78.165    0.386
  440.970    6.024   78.251    0.392
  441.220    5.818   77.092    0.390
  441.470    5.516   77.758    0.379
  441.720    5.420   75.977    0.369
  441.970    5.233   67.521    0.356
  442.220    5.345   60.889    0.356
  442.470    5.453   63.379    0.361
  442.720    5.883   68.909    0.362
  442.970    6.234   73.831    0.362
  443.220    6.602   72.079    0.359
  443.470    6.867   75.191    0.354
  443.720    6.630   75.248    0.346
  443.970    6.400   73.481    0.356
  444.220    6.068   74.741    0.375
  444.470    6.074   76.028    0.366
  444.720    6.085   73.639    0.366
  444.970    6.213   76.751    0.372
  445.220    6.224   76.823    0.358
  445.470    6.119   76.880    0.349
  445.720    5.692   80.572    0.415
  445.970    5.200   86.724    0.429
  446.220    4.662   88.620    0.418
  446.470    4.179   84.421    0.425
  446.720    3.814   77.775    0.436
  446.970    3.234   57.144    0.392
  447.220    3.012   54.769    0.359
  447.470    3.016   56.043    0.345
  447.720    3.441   60.371    0.361
  447.970    3.924   65.293    0.374
  448.220    5.193   65.350    0.379
  448.470    7.824   61.759    0.367
  448.720    8.760   55.128    0.354
  448.970    9.107   47.888    0.321
  449.220    8.957   42.473    0.297
  449.470    8.651   49.827    0.256
  449.720    9.158   62.089    0.175
  449.970   11.465   63.957    0.155
  450.220   11.068   65.824    0.185
  450.470    9.565   64.057    0.231
  450.720    8.417   64.722    0.398
  450.970    7.542   73.322    0.399
  451.220    6.761   75.811    0.390
  451.470    5.843   75.261    0.397
  451.720    5.336   72.871    0.393
  451.970    4.870   66.848    0.383
  452.220    4.529   64.487    0.380
  452.470    4.458   69.424    0.389
  452.720    4.549   67.035    0.388
  452.970    4.728   63.444    0.370
  453.220    5.296   64.109    0.258
  453.470    6.268   66.599    0.241
  453.720    7.018   69.696    0.208
  453.970    8.311   69.754    0.316
  454.220    8.807   78.339    0.339
  454.470    8.988   82.667    0.341
  454.720    8.673   83.332    0.334
  454.970    7.492   83.390    0.347
  455.220    6.239   83.447    0.363
  455.470    5.907   81.680    0.334
  455.720    5.298   75.049    0.326
  455.970    5.307   78.147    0.315
  456.220    5.419   84.907    0.324
  456.470    5.432   86.789    0.334
  456.720    5.541   86.238    0.339
  456.970    5.447   96.025    0.341
  457.220    5.263   93.042    0.348
  457.470    5.079   82.168    0.372
  457.720    4.640   81.617    0.371
  457.970    4.393   78.620    0.365
  458.220    4.012   82.340    0.361
  458.470    3.873   79.951    0.366
  458.720    3.954   83.671    0.373
  458.970    4.115   91.634    0.362
  459.220    4.196   99.610    0.371
  459.470    4.128   97.843    0.383
  459.720    3.986   93.036    0.389
  459.970    3.777   91.892    0.375
  460.220    3.645   90.719    0.354
  460.470    3.651   89.560    0.343
  460.720    3.873   91.442    0.341
  460.970    4.098   96.364    0.343
  461.220    4.588   95.827    0.331
  461.470    5.043   91.034    0.327
  461.720    5.545   89.253    0.332
  461.970    5.873   90.527    0.328
  462.220    6.106   93.016    0.313
  462.470    6.234   91.250    0.311
  462.720    6.362   86.457    0.316
  462.970    6.371   83.474    0.300
  463.220    6.389   85.963    0.299
  463.470    6.520   88.453    0.313
  463.720    6.529   86.701    0.325
  463.970    6.788   86.136    0.337
  464.220    7.061   85.585    0.333
  464.470    7.203   81.994    0.302
  464.720    7.782   79.633    0.303
  464.970    7.789   85.757    0.303
  465.220    7.953   91.302    0.302
  465.470    7.822   91.373    0.310
  465.720    7.412   86.552    0.326
  465.970    7.024   82.961    0.330
  466.220    6.654   89.099    0.333
  466.470    6.190   95.251    0.345
  466.720    5.653   97.133    0.363
  466.970    5.258   93.542    0.389
  467.220    4.894   89.343    0.390
  467.470    4.813   83.928    0.354
  467.720    5.004   78.512    0.327
  467.970    5.814   78.570    0.316
  468.220    6.632   82.275    0.313
  468.470    7.564   85.388    0.319
  468.720    8.639   84.837    0.312
  468.970    8.647   84.286    0.300
  469.220    8.508   84.952    0.313
  469.470    8.364   85.023    0.319
  469.720    7.784   86.283    0.302
  469.970    7.511   93.029    0.305
  470.220    6.997   96.141    0.302
  470.470    7.000   94.374    0.299
  470.720    6.885   92.622    0.311
  470.970    6.904   95.097    0.326
  471.220    6.913   96.993    0.347
  471.470    6.926   98.875    0.343
  471.720    6.814   98.324    0.327
  471.970    6.824   92.301    0.331
  472.220    6.470   88.087    0.340
  472.470    6.021   84.510    0.345
  472.720    5.701   84.568    0.334
  472.970    5.209   88.882    0.343
  473.220    4.845   93.804    0.344
  473.470    4.945   95.700    0.350
  473.720    5.335   92.109    0.359
  473.970    5.445   89.719    0.355
  474.220    5.358   91.007    0.350
  474.470    4.984   92.281    0.351
  474.720    4.636   92.946    0.371
  474.970    4.558   93.612    0.370
  475.220    4.402   95.493    0.385
  475.470    4.410   93.755    0.386
  475.720    4.675   89.542    0.361
  475.970    4.858   89.614    0.346
  476.220    5.051   94.535    0.323
  476.470    4.967   96.403    0.345
  476.720    4.707   92.204    0.391
  476.970    4.218   92.869    0.401
  477.220    3.852   93.549    0.388
  477.470    3.650   88.119    0.382
  477.720    3.727   88.799    0.379
  477.970    3.732   91.897    0.410
  478.220    3.539   94.401    0.412
  478.470    3.353   92.026    0.397
  478.720    3.062   87.204    0.380
  478.970    2.746   82.426    0.373
  479.220    2.752   81.847    0.376
  479.470    2.861   81.296    0.374
  479.720    3.086   81.353    0.356
  479.970    3.392   84.480    0.351
  480.220    3.660   88.186    0.370
  480.470    3.949   86.419    0.364
  480.720    4.184   85.868    0.359
