~VERSION INFORMATION
 VERS.                 2.0:   CWLS LOG ASCII STANDARD -VERSION 2.0
 WRAP.                  NO:   ONE LINE PER DEPTH STEP
~WELL INFORMATION BLOCK
#MNEM.UNIT           DATA                    DESCRIPTION OF MNEMONIC
#---------    -------------------            -------------------------------
# Generated from Intellog Unique Number	nealta/WELL/2304
WELL.         AMOCO PELICAN                  : Well_name    - WELL
LOC .         10-29-077-24W4                 : Location     - LOCATION
UWI .         00/10-29-077-24W4/0            : Uwi          - UNIQUE WELL ID
ENTR.         JAYE                           : Entered      - ENTERED BY
SRVC.         WESTERN ATLAS                  : Scn          - SERVICE COMPANY
DATE.         4 FEB 79                       : Date         - LOG DATE
STRT.M        365                            : top_depth    - START DEPTH
STOP.M        640                            : bot_depth    - STOP DEPTH
STEP.M        0.25                           : increment    - STEP LENGTH
 NULL. -999.2500:NULL Value
~CURVE INFORMATION BLOCK
#MNEM UNIT       ERCB CURVE CODE    CURVE DESCRIPTION
#-----------   ------------------   ----------------------------------
DEPT.M        00 001 00 00         : DEPTH        - DEPTH
GR  .API      00 310 00 00         : GR           - GAMMA RAY
ILD .OHMM     00 120 00 00         : RESD         - DEEP RESISTIVITY (DIL)
CALI.MM       00 280 01 00         : CAL          - CALIPER
NPHI.V/V      00 330 00 00         : PHIN         - NEUTRON POROSITY (SANDSTONE)
DPHI.V/V      00 890 00 00         : PHID         - DENSITY POROSITY (SANDSTONE)
~PARAMETER INFORMATION
#MNEM.UNIT           DATA             DESCRIPTION OF MNEMONIC
#---------         -----------     ------------------------------
GL  .M        666.57               : gl           - GROUND LEVEL ELEVATION
EREF.M        670.67               : kb           - ELEVATION OF DEPTH REFERENCE
DATM.M        666.57               : datum        - DATUM ELEVATION
TDD .M        642                  : tdd          - TOTAL DEPTH DRILLER
RUN .         ONE                  : Run          - RUN NUMBER
ENG .         FRENNETTE            : Engineer     - RECORDING ENGINEER
WIT .         LAMPEN               : Witness      - WITNESSED BY
BASE.         R.D.                 : Branch       - HOME BASE OF LOGGING UNIT
MUD .         GEL CHEM             : Mud_type     - MUD TYPE
MATR.         SANDSTONE            : Logunit      - NEUTRON MATRIX
TMAX.C        29                   : BHT          - MAXIMUM RECORDED TEMPERATURE
BHTD.M        643.4                : BHTDEP       - MAXIMUM RECORDED TEMPERATURE
RMT .C        15.5                 : MDTP         - TEMPERATURE OF MUD
MUDD.KG/M     1050                 : MWT          - MUD DENSITY
NEUT.         1                    : NEUTRON      - NEUTRON TYPE
RESI.         0                    : RESIST       - RESISTIVITY TYPE
RM  .OHMM     5.1                  : RM           - RESISTIVITY OF MUD
RMC .OHMM     6.87                 : RMC          - RESISTIVITY OF MUD CAKE
RMF .OHMM     5.5                  : RMF          - RESISTIVITY OF MUD FILTRATE
SUFT.C        4.5                  : SUFT         - SURFACE TEMPERATURE
~A  DEPTH       GR     RESD      CAL     PHIN     PHID
# ...
  584.000   92.728   12.797  202.612    0.291    0.050
  584.250   92.581   11.018  202.584    0.308    0.034
  584.500   94.414   10.314  202.534    0.327    0.075
  584.750   99.788   11.200  202.389    0.381    0.116
  585.000   91.635   13.928  201.633    0.390    0.142
  585.250   75.670   18.012  201.286    0.389    0.166
  585.500   60.015   20.187  200.938    0.358    0.206
  585.750   55.092   20.581  200.572    0.295    0.280
  586.000   68.962   17.687  200.232    0.321    0.356
  586.250   76.567   14.618  199.776    0.365    0.187
  586.500   92.049   11.364  199.017    0.444    0.231
  586.750  112.058    9.749  199.074    0.462    0.275
  587.000  118.733    8.808  200.167    0.473    0.288
  587.250  108.288    8.368  201.060    0.482    0.268
  587.500   98.216    8.055  200.705    0.499    0.303
  587.750   90.938    7.810  199.744    0.512    0.346
  588.000   88.616    7.517  198.979    0.524    0.426
  588.250  106.765    7.036  198.532    0.522    0.468
  588.500  114.122    6.721  198.581    0.508    0.482
  588.750  115.462    6.555  198.954    0.494    0.277
  589.000  118.479    6.523  199.741    0.479    0.273
  589.250  117.832    6.626  200.731    0.498    0.266
  589.500  117.438    6.730  201.735    0.510    0.297
  589.750  118.591    6.952  202.409    0.490    0.333
  590.000  119.436    7.273  203.196    0.462    0.193
  590.250  117.489    7.738  204.186    0.445    0.116
  590.500  110.268    8.112  205.076    0.427    0.073
  590.750  104.041    8.224  205.552    0.407    0.151
  591.000  101.661    8.125  205.617    0.392    0.224
  591.250   99.654    7.863  204.550    0.383    0.230
  591.500  117.429    7.583  203.988    0.385    0.232
  591.750  126.956    7.407  203.127    0.400    0.213
  592.000  124.019    7.358  202.259    0.413    0.184
  592.250  100.051    7.488  201.385    0.418    0.121
  592.500   86.133    7.777  200.526    0.409    0.130
  592.750   75.998    8.138  200.168    0.392    0.124
  593.000   73.556    8.250  199.826    0.372    0.255
  593.250   78.125    8.272  199.363    0.350    0.243
  593.500   83.436    8.248  199.019    0.342    0.229
  593.750   88.121    8.162  198.664    0.346    0.219
  594.000   85.925    7.988  198.643    0.346    0.235
  594.250   84.597    7.760  198.811    0.350    0.223
  594.500   83.583    7.511  198.642    0.359    0.217
  594.750   80.829    7.256  198.497    0.367    0.228
  595.000   74.974    7.088  198.353    0.375    0.272
  595.250   68.870    7.054  198.116    0.369    0.279
  595.500   70.210    7.139  197.874    0.361    0.263
  595.750   74.533    7.264  197.614    0.348    0.235
  596.000   79.032    7.447  197.478    0.324    0.224
  596.250   86.700    7.678  197.535    0.328    0.256
  596.500   96.723    8.019  198.236    0.341    0.248
  596.750  101.598    8.437  199.129    0.350    0.239
  597.000  105.670    9.078  199.909    0.354    0.219
  597.250  109.303   10.250  200.785    0.346    0.204
  597.500  103.324   11.660  202.084    0.330    0.220
  597.750   90.153   15.361  202.560    0.306    0.218
  598.000   81.072   34.932  202.635    0.274    0.113
  598.250   74.782   46.967  202.488    0.166    0.015
  598.500   74.385   49.604  202.454    0.170   -0.007
  598.750   74.427   46.607  202.303    0.186   -0.025
  599.000   77.813   38.163  202.056    0.209   -0.008
  599.250   85.850   27.238  201.607    0.233    0.019
  599.500   92.709   20.177  201.039    0.277    0.067
  599.750   95.043   15.832  200.695    0.291    0.104
  600.000   97.375   13.085  200.235    0.302    0.117
  600.250   98.472   11.017  199.781    0.315    0.104
  600.500   99.996    9.226  199.326    0.330    0.090
  600.750  103.257    8.556  198.979    0.346    0.111
  601.000  116.383    8.189  198.933    0.362    0.189
  601.250  125.103    8.119  198.996    0.377    0.214
  601.500  121.235    8.155  199.079    0.388    0.201
  601.750  110.790    8.269  199.130    0.385    0.143
  602.000  105.990    8.214  198.883    0.357    0.147
  602.250  103.492    7.979  198.741    0.348    0.187
  602.500  102.344    7.651  198.389    0.342    0.208
  602.750  102.447    7.255  197.928    0.348    0.194
  603.000  106.080    6.829  197.577    0.356    0.177
  603.250  112.628    6.334  197.329    0.368    0.188
  603.500  118.932    5.939  197.289    0.386    0.207
  603.750  116.985    5.508  197.460    0.420    0.174
  604.000  107.161    5.089  197.832    0.439    0.197
  604.250   95.412    4.772  197.995    0.403    0.281
  604.500   77.339    4.542  198.061    0.374    0.280
  604.750   77.505    4.571  198.226    0.358    0.268
  605.000   79.463    4.863  198.390    0.355    0.271
  605.250   80.865    5.301  198.764    0.357    0.272
  605.500   83.448    6.271  198.629    0.361    0.264
  605.750   88.571    7.254  198.274    0.367    0.261
  606.000   99.151    7.575  197.609    0.373    0.287
  606.250  103.965    7.526  197.259    0.380    0.283
  606.500  106.607    7.297  196.608    0.368    0.167
  606.750  101.994    6.780  195.939    0.359    0.201
  607.000   98.929    6.598  195.592    0.358    0.218
  607.250  101.390    6.615  195.657    0.359    0.231
  607.500  106.945    6.885  195.816    0.364    0.208
  607.750  111.696    7.124  196.613    0.372    0.173
  608.000  110.865    7.303  197.088    0.374    0.178
  608.250  110.655    7.391  197.874    0.382    0.216
  608.500  115.598    7.507  198.341    0.404    0.236
  608.750  119.414    7.653  199.337    0.427    0.256
  609.000  114.739    7.919  200.335    0.457    0.309
  609.250  111.676    8.271  201.217    0.464    0.393
  609.500  115.870    8.293  202.010    0.444    0.232
  609.750  118.759    8.131  202.275    0.415    0.153
  610.000  116.688    7.929  202.346    0.364    0.158
  610.250  114.061    7.774  201.990    0.370    0.150
  610.500  113.292    7.722  201.749    0.385    0.144
  610.750  115.812    7.829  201.609    0.372    0.145
  611.000  118.887    8.132  201.456    0.356    0.151
  611.250  122.026    8.414  201.327    0.348    0.141
  611.500  124.171    8.627  201.272    0.359    0.147
  611.750  125.018    8.795  201.129    0.369    0.151
  612.000  123.752    8.917  200.885    0.371    0.134
  612.250  121.126    8.990  200.633    0.368    0.109
  612.500  118.867    8.997  200.399    0.383    0.021
  612.750  116.856    8.938  200.550    0.380    0.169
  613.000  114.350    8.828  201.131    0.370    0.158
  613.250  108.683    8.561  202.436    0.361    0.138
  613.500  110.209    8.133  204.045    0.363    0.125
  613.750  111.982    7.655  204.835    0.367    0.136
  614.000  115.123    7.085  205.310    0.370    0.160
  614.250  118.200    6.498  205.274    0.374    0.151
  614.500  119.415    6.004  205.434    0.383    0.139
  614.750  117.965    5.516  205.615    0.403    0.125
  615.000  118.312    5.059  205.877    0.424    0.113
  615.250  120.216    4.546  205.838    0.427    0.118
  615.500  121.302    4.185  205.588    0.429    0.152
  615.750  118.925    4.096  205.348    0.434    0.141
  616.000  120.636    4.046  205.398    0.433    0.110
  616.250  122.966    4.079  205.673    0.429    0.079
  616.500  126.417    4.479  205.746    0.429    0.162
  616.750  127.694    4.955  205.596    0.445    0.148
  617.000  128.601    5.119  205.249    0.452    0.133
  617.250  129.015    4.991  204.994    0.435    0.132
  617.500  127.995    4.794  204.335    0.422    0.123
  617.750  124.124    4.728  203.877    0.411    0.130
  618.000  118.516    4.784  203.116    0.398    0.075
  618.250  114.154    5.024  201.526    0.377    0.116
  618.500  111.835    5.123  200.452    0.367    0.124
  618.750  106.908    5.155  200.407    0.369    0.114
  619.000  105.957    5.008  202.017    0.378    0.106
  619.250  108.595    4.618  203.217    0.370    0.100
  619.500  106.345    4.259  204.004    0.364    0.113
  619.750  102.221    4.016  204.388    0.376    0.100
  620.000   95.561    3.902  204.657    0.382    0.092
  620.250   87.658    3.891  204.408    0.385    0.105
