~VERSION INFORMATION
 VERS.                 2.0:   CWLS LOG ASCII STANDARD -VERSION 2.0
 WRAP.                  NO:   ONE LINE PER DEPTH STEP
~WELL INFORMATION BLOCK
#MNEM.UNIT           DATA                    DESCRIPTION OF MNEMONIC
#---------    -------------------            -------------------------------
# Generated from Intellog Unique Number	CW_76_78/WELL/903
WELL.         AMOCO ROCK  10-23              : Well_name    - WELL
LOC .         00/10-23-077-23W4/0            : Location     - LOCATION
UWI .         00/10-23-077-23W4/0            : Uwi          - UNIQUE WELL ID
ENTR.         jj                             : Entered      - ENTERED BY
SRVC.         WESTERN ATLAS                  : Scn          - SERVICE COMPANY
DATE.         17 MARCH 78                    : Date         - LOG DATE
STRT.M        332.232                        : top_depth    - START DEPTH
STOP.M        575.982                        : bot_depth    - STOP DEPTH
STEP.M        0.25                           : increment    - STEP LENGTH
 NULL. -999.2500:NULL Value
~CURVE INFORMATION BLOCK
#MNEM UNIT       ERCB CURVE CODE    CURVE DESCRIPTION
#-----------   ------------------   ----------------------------------
DEPT.M        00 001 00 00         : DEPTH        - DEPTH
ILD .OHMM     00 120 00 00         : RESD         - DEEP RESISTIVITY (DIL)
DPHI.V/V      00 890 00 00         : PHID         - DENSITY POROSITY (SANDSTONE)
NPHI.V/V      00 330 00 00         : PHIN         - NEUTRON POROSITY (SANDSTONE)
GR  .API      00 310 00 00         : GR           - GAMMA RAY
CALI.MM       00 280 01 00         : CAL          - CALIPER
~PARAMETER INFORMATION
#MNEM.UNIT           DATA             DESCRIPTION OF MNEMONIC
#---------         -----------     ------------------------------
GL  .M        654.101              : gl           - GROUND LEVEL ELEVATION
EREF.M        658.063              : kb           - ELEVATION OF DEPTH REFERENCE
DATM.M        654.101              : datum        - DATUM ELEVATION
TDD .M        577.291              : tdd          - TOTAL DEPTH DRILLER
RUN .         ONE                  : Run          - RUN NUMBER
ENG .         BURLET               : Engineer     - RECORDING ENGINEER
WIT .         DAHLSTEDT/REGAN      : Witness      - WITNESSED BY
BASE.         EDMONTON             : Branch       - HOME BASE OF LOGGING UNIT
MUD .         GEL BENDEX           : Mud_type     - MUD TYPE
MATR.         SANDSTONE            : Logunit      - NEUTRON MATRIX
TMAX.C        26.1111              : BHT          - MAXIMUM RECORDED TEMPERATURE
BHTD.M        575.767              : BHTDEP       - MAXIMUM RECORDED TEMPERATURE
RMT .C        21.1111              : MDTP         - TEMPERATURE OF MUD
MUDD.KG/M     1140                 : MWT          - MUD DENSITY
NEUT.         1                    : NEUTRON      - NEUTRON TYPE
RESI.         0                    : RESIST       - RESISTIVITY TYPE
RM  .OHMM     2.13                 : RM           - RESISTIVITY OF MUD
RMC .OHMM     2.9                  : RMC          - RESISTIVITY OF MUD CAKE
RMF .OHMM     2.2                  : RMF          - RESISTIVITY OF MUD FILTRATE
SUFT.C        4.5                  : SUFT         - SURFACE TEMPERATURE
~A  DEPTH     RESD     PHID     PHIN       GR      CAL
  332.232    1.731    0.228    0.407   98.273  249.202
  332.482    1.752    0.243    0.417   98.219  249.326
  332.732    1.774    0.251    0.414   96.979  249.550
  332.982    1.837    0.259    0.410   96.240  249.465
  333.232    1.895    0.262    0.412  101.810  249.263
  333.482    1.918    0.253    0.416   99.133  249.280
  333.732    1.924    0.246    0.418   95.019  249.721
  333.982    1.908    0.243    0.411   96.591  249.946
  334.232    1.899    0.252    0.414  100.161  250.282
  334.482    1.908    0.259    0.422  103.858  250.407
  334.732    1.950    0.258    0.416  105.741  250.422
  334.982    2.080    0.252    0.423  103.814  250.436
  335.232    2.304    0.251    0.430   95.765  249.926
  335.482    2.700    0.251    0.418   94.836  249.201
  335.732    3.333    0.248    0.405   92.661  247.843
  335.982    4.288    0.238    0.396   88.546  246.482
  336.232    4.968    0.229    0.387   82.184  244.068
  336.482    5.048    0.211    0.376   77.508  242.071
  336.732    4.777    0.152    0.353   74.019  240.398
  336.982    4.322    0.201    0.339   76.777  239.459
  337.232    3.933    0.236    0.348   81.035  239.052
  337.482    3.486    0.222    0.363   86.919  239.073
  337.732    3.172    0.221    0.376   92.987  239.197
  337.982    2.941    0.217    0.378  113.925  239.525
  338.232    2.681    0.212    0.378  103.814  239.757
  338.482    2.430    0.222    0.398   98.701  239.983
  338.732    2.191    0.241    0.397   97.024  240.633
  338.982    2.004    0.259    0.401   94.285  241.501
  339.232    1.827    0.268    0.412   88.984  242.151
  339.482    1.697    0.263    0.400   86.808  243.009
  339.732    1.588    0.256    0.420   93.126  243.659
  339.982    1.495    0.264    0.415   90.638  245.053
  340.232    1.471    0.280    0.405   88.211  246.548
  340.482    1.526    0.290    0.405   87.845  251.642
  340.732    1.788    0.296    0.422   88.355  251.024
  340.982    2.433    0.302    0.425   86.928  248.079
  341.232    3.142    0.307    0.364   82.690  244.287
  341.482    4.740    0.311    0.354   78.638  240.073
  341.732    8.527    0.315    0.353   74.337  236.811
  341.982   12.161    0.325    0.358   64.226  234.709
  342.232   13.494    0.332    0.364   57.301  233.244
  342.482   13.789    0.339    0.368   52.188  232.415
  342.732   13.396    0.342    0.377   50.574  232.114
  342.982   12.845    0.337    0.393   51.895  232.130
  343.232   12.294    0.327    0.389   53.279  231.939
  343.482   11.921    0.325    0.383   53.663  231.529
  343.732   11.757    0.324    0.375   53.049  231.544
  343.982   11.572    0.325    0.355   52.559  231.351
  344.232   11.412    0.325    0.349   52.756  231.048
  344.482   11.191    0.321    0.350   52.328  231.066
  344.732   10.894    0.318    0.366   52.150  230.870
  344.982   10.406    0.319    0.371   50.785  230.567
  345.232   10.035    0.322    0.378   52.857  229.847
  345.482    9.374    0.323    0.387   54.427  229.014
  345.732    8.609    0.321    0.373   49.252  228.396
  345.982    7.967    0.316    0.353   50.637  227.991
  346.232    7.456    0.309    0.351   56.518  227.373
  346.482    7.096    0.302    0.351   56.028  227.072
  346.732    7.011    0.293    0.357   55.164  226.875
  346.982    7.163    0.288    0.357   62.295  226.680
  347.232    7.252    0.293    0.360   67.678  226.802
  347.482    7.233    0.301    0.368   65.313  226.925
  347.732    7.040    0.301    0.345   58.327  227.366
  347.982    6.713    0.294    0.347   56.712  227.702
  348.232    6.018    0.288    0.358   56.971  228.030
  348.482    4.995    0.288    0.371   59.230  228.788
  348.732    3.972    0.286    0.367   64.362  229.230
  348.982    3.188    0.282    0.370   69.307  229.668
  349.232    2.583    0.276    0.357   75.315  230.002
  349.482    2.381    0.272    0.385  108.122  230.334
  349.732    2.723    0.269    0.390  107.508  230.455
  349.982    3.190    0.262    0.353   87.276  230.895
  350.232    3.880    0.253    0.340   79.477  231.228
  350.482    4.553    0.253    0.334   74.114  231.142
  350.732    5.168    0.261    0.338   68.188  231.157
  350.982    5.745    0.275    0.353   62.200  230.857
  351.232    6.508    0.287    0.350   60.522  230.344
  351.482    7.331    0.295    0.340   59.595  229.620
  351.732    8.257    0.299    0.340   58.231  229.105
  351.982    8.993    0.304    0.337   53.993  228.806
  352.232    9.293    0.310    0.335   49.566  228.714
  352.482    9.303    0.320    0.335   46.514  228.519
  352.732    9.418    0.320    0.348   44.714  228.115
  352.982    9.770    0.316    0.349   44.536  228.131
  353.232   10.384    0.308    0.347   44.982  228.783
  353.482   11.058    0.312    0.360   45.992  229.433
  353.732   11.536    0.320    0.360   46.688  229.766
  353.982   11.854    0.324    0.356   46.760  229.678
  354.232   12.024    0.326    0.356   46.582  229.375
  354.482   12.127    0.333    0.359   46.092  228.861
  354.732   12.004    0.338    0.350   45.601  228.138
  354.982   11.641    0.338    0.341   45.050  227.837
  355.232   11.120    0.329    0.347   44.998  227.748
  355.482   10.723    0.324    0.369   45.256  227.975
  355.732   10.054    0.323    0.371   45.578  228.416
  355.982    8.878    0.326    0.375   45.900  228.962
  356.232    7.694    0.339    0.378   47.222  228.976
  356.482    7.027    0.334    0.369   51.479  228.782
  356.732    6.982    0.322    0.366   54.176  228.270
  356.982    7.242    0.323    0.361   57.559  227.863
  357.232    7.800    0.329    0.362   58.880  227.666
  357.482    8.591    0.332    0.354   54.392  227.368
  357.732    9.251    0.327    0.358   50.653  226.854
  357.982    9.560    0.319    0.362   47.852  226.763
  358.232    9.464    0.316    0.363   49.111  226.888
  358.482    9.057    0.321    0.375   48.558  227.220
  358.732    8.717    0.327    0.368   48.880  227.659
  358.982    8.421    0.325    0.363   52.638  227.676
  359.232    8.120    0.314    0.365   54.898  228.010
  359.482    7.685    0.305    0.364   56.531  228.133
  359.732    7.205    0.304    0.360   59.852  227.831
  359.982    6.756    0.320    0.340   60.236  227.743
  360.232    6.228    0.340    0.341   56.935  228.077
  360.482    5.720    0.360    0.344   58.383  228.408
  360.732    5.343    0.381    0.354   60.828  229.272
  360.982    4.972    0.411    0.362   69.396  232.356
  361.232    4.786    0.402    0.363   78.714  235.440
  361.482    4.881    0.296    0.350   83.473  237.045
  361.732    5.120    0.258    0.347   84.419  236.744
  361.982    5.535    0.233    0.340   82.367  235.383
  362.232    6.521    0.238    0.328   82.877  234.025
  362.482    7.513    0.236    0.325   84.198  233.724
  362.732    8.671    0.226    0.328   82.708  233.741
  362.982   10.527    0.269    0.324   78.532  233.759
  363.232   12.425    0.288    0.316   71.170  233.775
  363.482   13.582    0.311    0.310   32.821  233.684
  363.732   14.328    0.302    0.305   30.894  233.382
  363.982   14.780    0.295    0.300   30.466  232.869
  364.232   15.075    0.306    0.319   29.163  232.569
  364.482   15.290    0.303    0.318   25.987  232.057
  364.732   15.366    0.295    0.316   25.248  231.649
  364.982   15.351    0.290    0.314   26.382  231.454
  365.232   15.170    0.293    0.304   27.578  231.258
  365.482   14.765    0.299    0.305   27.088  231.064
  365.732   14.052    0.306    0.307   27.035  230.658
  365.982   13.101    0.304    0.313   28.545  230.465
  366.232   11.677    0.299    0.319   36.488  230.797
  366.482   10.351    0.286    0.326   52.428  231.131
  366.732    8.755    0.269    0.325   61.934  231.358
  366.982    7.601    0.268    0.328   61.132  231.904
  367.232    6.022    0.274    0.334   58.642  232.343
  367.482    4.682    0.268    0.343   76.957  233.101
  367.732    4.088    0.241    0.366   93.022  233.749
  367.982    3.876    0.230    0.359  105.589  234.403
  368.232    3.540    0.251    0.361  106.849  234.735
  368.482    3.167    0.268    0.369   95.925  234.753
