~VERSION INFORMATION
 VERS.                 2.0:   CWLS LOG ASCII STANDARD -VERSION 2.0
 WRAP.                  NO:   ONE LINE PER DEPTH STEP
~WELL INFORMATION BLOCK
#MNEM.UNIT           DATA                    DESCRIPTION OF MNEMONIC
#---------    -------------------            -------------------------------
# Generated from Intellog Unique Number	CS_71_72/WELL/3325
WELL.         SASKATCHEWAN OIL AND GAS CO.   : Well_name    - WELL
LOC .         00/10-29-072-18W4/0            : Location     - LOCATION
UWI .         00/10-29-072-18W4/0            : Uwi          - UNIQUE WELL ID
ENTR.         JOETTE                         : Entered      - ENTERED BY
SRVC.         SCHLUMBERGER                   : Scn          - SERVICE COMPANY
DATE.         05/13/92                       : Date         - LOG DATE
STRT.M        285                            : top_depth    - START DEPTH
STOP.M        465                            : bot_depth    - STOP DEPTH
STEP.M        0.25                           : increment    - STEP LENGTH
 NULL. -999.2500:NULL Value
~CURVE INFORMATION BLOCK
#MNEM UNIT       ERCB CURVE CODE    CURVE DESCRIPTION
#-----------   ------------------   ----------------------------------
DEPT.M        00 001 00 00         : DEPTH        - DEPTH
CALI.MM       00 280 01 00         : CAL          - CALIPER
GR  .API      00 310 00 00         : GR           - GAMMA RAY
NPHI.V/V      00 330 00 00         : PHIN         - NEUTRON POROSITY (SANDSTONE)
DPHI.V/V      00 890 00 00         : PHID         - DENSITY POROSITY (SANDSTONE)
ILD .OHMM     00 120 00 00         : RESD         - DEEP RESISTIVITY (DIL)
~PARAMETER INFORMATION
#MNEM.UNIT           DATA             DESCRIPTION OF MNEMONIC
#---------         -----------     ------------------------------
GL  .M        587.9                : gl           - GROUND LEVEL ELEVATION
EREF.M        601.4                : kb           - ELEVATION OF DEPTH REFERENCE
DATM.M        601.4                : datum        - DATUM ELEVATION
TDD .M        504                  : tdd          - TOTAL DEPTH DRILLER
RUN .         ONE                  : Run          - RUN NUMBER
ENG .         BILL                 : Engineer     - RECORDING ENGINEER
WIT .         JIM                  : Witness      - WITNESSED BY
MUD .         GEL                  : Mud_type     - MUD TYPE
MATR.         SANDSTONE            : Logunit      - NEUTRON MATRIX
TMAX.C        21                   : BHT          - MAXIMUM RECORDED TEMPERATURE
BHTD.M        504                  : BHTDEP       - MAXIMUM RECORDED TEMPERATURE
MATR.         1                    : LOGUNIT      - NEUTRON MATRIX
RMT .C        24                   : MDTP         - TEMPERATURE OF MUD
NEUT.         1                    : NEUTRON      - NEUTRON TYPE
RESI.         0                    : RESIST       - RESISTIVITY TYPE
RMC .OHMM     4.1                  : RMC          - RESISTIVITY OF MUD CAKE
RMF .OHMM     4.1                  : RMF          - RESISTIVITY OF MUD FILTRATE
SUFT.C        15                   : SUFT         - SURFACE TEMPERATURE
~A  DEPTH      CAL       GR     PHIN     PHID     RESD
  285.000  173.015   87.630    0.484    0.270    2.918
  285.250  169.002   93.027    0.485    0.268    2.760
  285.500  166.988   99.023    0.494    0.262    2.610
  285.750  169.978  102.017    0.497    0.257    2.469
  286.000  172.970  101.410    0.494    0.256    2.513
  286.250  173.960   99.602    0.492    0.262    2.703
  286.500  173.946   99.597    0.498    0.269    2.854
  286.750  172.937  100.188    0.496    0.280    2.905
  287.000  174.924  100.780    0.490    0.288    2.799
  287.250  175.916  101.376    0.485    0.282    2.849
  287.500  179.898  101.366    0.487    0.271    3.120
  287.750  181.893  101.362    0.495    0.267    3.177
  288.000  182.883  100.755    0.506    0.268    3.294
  288.250  180.874  100.147    0.497    0.269    3.291
  288.500  176.861   98.940    0.491    0.269    3.290
  288.750  174.849   97.733    0.495    0.267    3.111
  289.000  171.834  100.729    0.500    0.263    2.943
  289.250  170.820  104.323    0.502    0.258    2.887
  289.500  170.815  107.918    0.496    0.256    3.049
  289.750  170.801  107.910    0.496    0.252    3.219
  290.000  171.787  105.504    0.489    0.249    3.217
  290.250  172.779  103.096    0.445    0.248    3.157
  290.500  175.769  101.888    0.439    0.251    3.042
  290.750  175.755  101.881    0.448    0.261    2.984
  291.000  175.744  102.473    0.476    0.269    3.151
  291.250  174.730  100.666    0.494    0.273    3.854
  291.500  173.724   83.254    0.507    0.268    5.875
  291.750  168.711   70.643    0.456    0.273    6.320
  292.000  159.694   62.834    0.384    0.304    6.432
  292.250  155.679   59.824    0.350    0.343    6.429
  292.500  154.673   59.818    0.337    0.360    6.080
  292.750  154.659   60.413    0.343    0.367    5.856
  293.000  154.651   62.205    0.365    0.365    5.641
  293.250  154.637   63.397    0.398    0.336    5.639
  293.500  154.626   63.394    0.419    0.312    5.634
  293.750  154.618   63.987    0.419    0.305    5.736
  294.000  154.601   63.981    0.413    0.296    5.838
  294.250  154.590   64.573    0.398    0.294    5.944
  294.500  154.582   65.766    0.384    0.294    5.938
  294.750  155.571   68.161    0.376    0.291    5.936
  295.000  156.557   72.356    0.366    0.281    5.933
  295.250  157.544   80.152    0.371    0.280    5.821
  295.500  159.539   87.346    0.395    0.284    5.607
  295.750  165.527   86.137    0.415    0.286    5.302
  296.000  173.522   86.134    0.432    0.293    5.203
  296.250  181.514   90.329    0.433    0.299    5.201
  296.500  188.503   89.122    0.413    0.311    5.198
  296.750  186.491   87.313    0.437    0.285    5.290
  297.000  181.481   90.307    0.438    0.287    5.386
  297.250  170.466   92.100    0.427    0.332    5.687
  297.500  160.451   90.894    0.401    0.303    6.115
  297.750  155.438   85.487    0.385    0.275    6.342
  298.000  152.423   83.078    0.371    0.264    6.575
  298.250  151.403   96.878    0.366    0.259    6.817
  298.500  151.395  100.473    0.358    0.253    6.810
  298.750  151.389  105.268    0.353    0.243    6.806
  299.000  151.373   99.259    0.363    0.241    6.803
  299.250  151.367   93.850    0.380    0.252    6.675
  299.500  151.356   89.040    0.396    0.258    6.550
  299.750  152.340   84.832    0.401    0.256    6.310
  300.000  152.332   80.624    0.386    0.255    5.968
  300.250  152.323   74.015    0.360    0.255    5.750
  300.500  152.309   66.806    0.368    0.255    5.538
  300.750  152.298   58.996    0.372    0.261    5.334
  301.000  152.284   52.987    0.362    0.279    5.138
  301.250  152.273   54.181    0.362    0.288    5.137
  301.500  151.265   70.379    0.378    0.282    5.040
  301.750  151.254   71.574    0.383    0.285    5.036
  302.000  151.243   71.568    0.367    0.278    5.127
  302.250  151.229   72.161    0.381    0.285    5.123
  302.500  151.218   76.956    0.389    0.301    5.121
  302.750  152.210   91.955    0.365    0.272    5.024
  303.000  154.194  102.152    0.374    0.215    4.839
  303.250  157.189   97.944    0.404    0.162    4.750
  303.500  161.180   97.335    0.444    0.147    4.411
  303.750  165.170   99.731    0.450    0.163    4.095
  304.000  172.159  106.926    0.460    0.181    3.945
  304.250  178.150  112.921    0.481    0.199    3.800
  304.500  182.140  118.317    0.503    0.208    3.799
  304.750  187.131  120.711    0.502    0.221    3.796
  305.000  188.118  115.902    0.493    0.229    3.657
  305.250  187.109  113.492    0.489    0.185    3.459
  305.500  185.100  115.289    0.484    0.177    3.154
  305.750  179.081  117.683    0.494    0.214    2.771
  306.000  177.072  120.077    0.508    0.238    2.526
  306.250  176.061  118.870    0.517    0.253    2.525
  306.500  181.051  115.861    0.507    0.260    2.977
  306.750  186.039  112.853    0.479    0.233    3.991
  307.000  186.031  109.845    0.453    0.228    4.972
  307.250  183.019  104.438    0.417    0.231    5.547
  307.500  176.005  100.830    0.416    0.245    5.965
  307.750  169.986  101.422    0.437    0.266    6.071
  308.000  169.978  102.614    0.424    0.262    5.959
  308.250  170.970  102.608    0.404    0.240    5.846
  308.500  176.961  100.800    0.400    0.243    5.632
  308.750  186.954   97.192    0.410    0.237    6.059
  309.000  193.945   89.985    0.424    0.257    6.885
  309.250  192.931   79.174    0.421    0.282    7.138
  309.500  187.921   73.165    0.409    0.293    7.264
  309.750  160.900   76.760    0.398    0.293    7.262
  310.000  157.882   82.756    0.384    0.279    7.123
  310.250  157.877   83.948    0.379    0.270    6.988
  310.500  161.862   83.341    0.379    0.268    7.116
  310.750  162.854   87.537    0.390    0.262    7.513
  311.000  163.840   95.934    0.421    0.257    7.934
  311.250  162.831   99.529    0.435    0.257    8.852
  311.500  159.814   95.921    0.457    0.279    9.697
  311.750  159.808   83.309    0.465    0.297   10.053
  312.000  157.796   73.097    0.440    0.304   10.425
  312.250  156.785   70.090    0.432    0.294   10.041
  312.500  155.771   70.680    0.432    0.270    9.854
  312.750  154.759   69.476    0.439    0.249    8.821
  313.000  154.751   64.666    0.426    0.236    7.895
  313.250  154.737   65.258    0.407    0.274    7.606
  313.500  154.726   66.455    0.391    0.289    7.463
  313.750  154.715   70.650    0.390    0.279    7.880
  314.000  154.704   76.045    0.405    0.272    8.476
  314.250  154.696   80.840    0.421    0.282    8.949
  314.500  154.684   82.034    0.409    0.316    9.111
  314.750  154.673   76.025    0.395    0.321    8.774
  315.000  156.660   70.617    0.394    0.296    8.455
  315.250  157.650   76.012    0.394    0.268    7.709
  315.500  163.635   82.606    0.373    0.270    6.774
  315.750  168.629   85.602    0.378    0.275    6.064
  316.000  173.622   91.598    0.406    0.257    5.949
  316.250  179.610   98.794    0.438    0.244    6.167
  316.500  177.599  104.189    0.439    0.242    6.278
  316.750  171.588  103.579    0.413    0.247    6.392
  317.000  163.574  101.171    0.406    0.248    6.385
  317.250  160.559  104.167    0.408    0.250    6.267
  317.500  160.551  109.563    0.399    0.251    6.037
  317.750  165.539  120.960    0.394    0.242    5.817
  318.000  168.532  121.554    0.395    0.231    5.708
  318.250  172.514  116.744    0.439    0.314    6.025
  318.500  172.505  113.738    0.445    0.340    6.248
  318.750  171.497  110.130    0.433    0.312    6.477
  319.000  168.485  102.920    0.408    0.279    6.474
  319.250  165.472   96.912    0.397    0.263    6.122
  319.500  164.461   94.502    0.384    0.240    5.791
  319.750  165.445   91.495    0.371    0.231    5.478
  320.000  168.437   93.287    0.374    0.225    4.994
  320.250  172.431   96.285    0.384    0.213    4.470
  320.500  178.422  109.481    0.412    0.222    4.151
  320.750  185.413  110.677    0.443    0.230    4.072
  321.000  187.403  108.866    0.427    0.203    4.222
  321.250  186.389  111.861    0.431    0.206    4.378
