~VERSION INFORMATION
 VERS.                 2.0:   CWLS LOG ASCII STANDARD -VERSION 2.0
 WRAP.                  NO:   ONE LINE PER DEPTH STEP
~WELL INFORMATION BLOCK
#MNEM.UNIT           DATA                    DESCRIPTION OF MNEMONIC
#---------    -------------------            -------------------------------
# Generated from Intellog Unique Number	CW_70_72/WELL/1060
NULL.         -999.25                        : NULL_VALUE
WELL.         HUSKY ET AL SMITH 11-21        : Well_name    - WELL              
LOC .         11-21-071-24W4                 : Location     - LOCATION          
UWI .         00/11-21-071-24W4/0            : Uwi          - UNIQUE WELL ID    
ENTR.         JAYE                           : Entered      - ENTERED BY        
SRVC.         SCHLUMBERGER                   : Scn          - SERVICE COMPANY   
DATE.         18 DEC 77                      : Date         - LOG DATE          
STRT.M        422.453                        : top_depth    - START DEPTH       
STOP.M        642.453                        : bot_depth    - STOP DEPTH        
STEP.M        0.25                           : increment    - STEP LENGTH       
~CURVE INFORMATION BLOCK
#MNEM UNIT       ERCB CURVE CODE    CURVE DESCRIPTION
#-----------   ------------------   ----------------------------------
DEPT.M        00 001 00 00         : DEPTH        - DEPTH                       
DPHI.V/V      00 890 00 00         : PHID         - DENSITY POROSITY (SANDSTONE)
NPHI.V/V      00 330 00 00         : PHIN         - NEUTRON POROSITY (SANDSTONE)
GR  .API      00 310 00 00         : GR           - GAMMA RAY                   
CALI.MM       00 280 01 00         : CAL          - CALIPER                     
ILD .OHMM     00 120 00 00         : RESD         - DEEP RESISTIVITY (DIL)      
~PARAMETER INFORMATION       
#MNEM.UNIT           DATA             DESCRIPTION OF MNEMONIC
#---------         -----------     ------------------------------
GL  .M        642.671              : gl           - GROUND LEVEL ELEVATION      
EREF.M        646.633              : kb           - ELEVATION OF DEPTH REFERENCE
DATM.M        642.671              : datum        - DATUM ELEVATION             
TDD .M        658.368              : tdd          - TOTAL DEPTH DRILLER         
RUN .         ONE                  : Run          - RUN NUMBER                  
ENG .         DALY                 : Engineer     - RECORDING ENGINEER          
WIT .         TODD/GEORGE          : Witness      - WITNESSED BY                
BASE.         EDM                  : Branch       - HOME BASE OF LOGGING UNIT   
MUD .         GEL                  : Mud_type     - MUD TYPE                    
MATR.         SANDSTONE            : Logunit      - NEUTRON MATRIX              
TMAX.C        26.1111              : BHT          - MAXIMUM RECORDED TEMPERATURE
BHTD.M        658.368              : BHTDEP       - MAXIMUM RECORDED TEMPERATURE
RMT .C        -17.7778             : MDTP         - TEMPERATURE OF MUD          
MUDD.KG/M     1092                 : MWT          - MUD DENSITY                 
NEUT.         1                    : NEUTRON      - NEUTRON TYPE                
RESI.         0                    : RESIST       - RESISTIVITY TYPE            
RM  .OHMM     0                    : RM           - RESISTIVITY OF MUD          
RMC .OHMM     0                    : RMC          - RESISTIVITY OF MUD CAKE     
RMF .OHMM     6.97                 : RMF          - RESISTIVITY OF MUD FILTRATE 
SUFT.C        -17.7778             : SUFT         - SURFACE TEMPERATURE         
~A  DEPTH     PHID     PHIN       GR      CAL     RESD
# ...
  568.453    0.182    0.442  130.332  177.792    4.311
  568.703    0.192    0.435  122.288  177.483    4.507
  568.953    0.171    0.419  115.180  178.655    4.745
  569.203    0.161    0.397  110.069  180.461    4.924
  569.453    0.171    0.406  109.138  180.998    4.875
  569.703    0.156    0.413  115.883  179.634    4.626
  569.953    0.161    0.398  120.694  177.953    4.470
  570.203    0.182    0.396  123.445  176.378    4.345
  570.453    0.197    0.414  122.077  176.386    4.278
  570.703    0.186    0.442  120.897  176.502    4.205
  570.953    0.175    0.430  120.341  176.723    4.148
  571.203    0.149    0.415  122.468  177.049    4.130
  571.453    0.139    0.411  127.591  177.163    4.135
  571.703    0.140    0.407  133.087  176.961    4.126
  571.953    0.179    0.406  131.908  176.865    4.132
  572.203    0.191    0.416  129.042  176.876    4.138
  572.453    0.177    0.395  127.925  176.886    4.127
  572.703    0.185    0.401  123.937  176.471    4.110
  572.953    0.179    0.407  120.822  176.480    4.170
  573.203    0.168    0.393  123.449  176.279    4.261
  573.453    0.153    0.403  128.758  176.181    4.356
  573.703    0.165    0.422  133.006  176.403    4.411
  573.953    0.163    0.429  135.071  176.412    4.467
  574.203    0.166    0.424  130.959  176.844    4.490
  574.453    0.143    0.419  131.962  177.170    4.488
  574.703    0.143    0.405  135.150  177.391    4.469
  574.953    0.193    0.407  138.650  177.613    4.491
  575.203    0.188    0.418  139.155  177.305    4.506
  575.453    0.171    0.417  138.100  177.630    4.503
  575.703    0.156    0.411  134.798  177.745    4.492
  575.953    0.159    0.407  130.623  177.967    4.465
  576.203    0.177    0.423  129.817  177.976    4.447
  576.453    0.162    0.427  132.194  178.196    4.427
  576.703    0.113    0.427  138.939  178.628    4.344
  576.953    0.107    0.421  142.251  179.060    4.317
  577.203    0.166    0.407  141.258  180.867    4.290
  577.453    0.167    0.414  132.091  181.298    4.193
  577.703    0.176    0.409  126.855  180.885    4.106
  577.953    0.191    0.393  124.739  180.682    4.029
  578.203    0.213    0.386  128.925  179.108    3.989
  578.453    0.202    0.400  129.742  179.116    4.009
  578.703    0.178    0.398  129.748  181.238    4.075
  578.953    0.182    0.381  129.566  181.248    4.149
  579.203    0.186    0.368  127.138  180.517    4.202
  579.453    0.176    0.381  125.396  179.365    4.224
  579.703    0.167    0.406  124.715  178.846    4.238
  579.953    0.179    0.402  131.523  178.116    4.243
  580.203    0.179    0.412  134.024  177.493    4.305
  580.453    0.171    0.419  135.839  177.078    4.326
  580.703    0.163    0.411  141.897  176.876    4.349
  580.953    0.156    0.403  146.645  177.624    4.387
  581.203    0.167    0.397  153.577  178.796    4.434
  581.453    0.165    0.403  158.699  179.651    4.515
  581.703    0.158    0.411  159.828  181.034    4.521
  581.953    0.149    0.404  153.156  182.312    4.486
  582.203    0.138    0.396  147.796  183.061    4.516
  582.453    0.159    0.409  140.438  182.858    4.599
  582.703    0.168    0.411  138.946  182.235    4.692
  582.953    0.167    0.393  141.572  181.081    4.796
  583.203    0.161    0.389  141.952  179.505    4.847
  583.453    0.146    0.393  132.973  178.458    5.124
  583.703    0.153    0.389  122.183  177.517    5.590
  583.953    0.161    0.383  111.518  176.575    6.885
  584.203    0.161    0.378  100.230  176.161    8.248
  584.453    0.156    0.359   89.066  175.219    9.480
  584.703    0.046    0.339   81.833  174.174   12.488
  584.953   -0.005    0.249   80.216  173.653   14.766
  585.203    0.007    0.214   83.217  173.243   15.928
  585.453    0.049    0.235   87.652  173.038   13.816
  585.703    0.076    0.255   93.835  173.259   11.437
  585.953    0.101    0.287  101.267  173.586   10.034
  586.203    0.119    0.317  111.131  173.807    9.101
  586.453    0.134    0.333  109.140  174.027    8.666
  586.703    0.140    0.347  101.033  174.036    8.220
  586.953    0.112    0.355   93.676  174.363    7.814
  587.203    0.066    0.309   86.194  174.477    7.623
  587.453    0.040    0.281   83.578  174.488    7.547
  587.703    0.039    0.284   93.631  174.497    7.602
  587.953    0.079    0.330  100.437  174.505    7.697
  588.203    0.096    0.364   92.081  175.151    7.823
  588.453    0.050    0.380   81.666  175.474    7.877
  588.703    0.034    0.335   87.724  175.590    7.543
  588.953    0.027    0.296   94.718  175.177    7.154
  589.203    0.047    0.293  105.706  175.080    6.311
  589.453    0.076    0.330  114.510  174.878    5.215
  589.703    0.127    0.359  121.941  174.574    4.883
  589.953    0.164    0.390  122.633  174.580    4.633
  590.203    0.156    0.392  124.136  174.275    4.461
  590.453    0.138    0.380  124.578  174.494    4.336
  590.703    0.116    0.390  125.208  174.609    4.213
  590.953    0.123    0.406  128.583  174.620    4.188
  591.203    0.145    0.409  130.835  174.628    4.216
  591.453    0.166    0.409  133.960  174.954    4.254
  591.703    0.150    0.405  128.350  175.282    4.406
  591.953    0.152    0.394  122.552  175.502    4.622
  592.203    0.148    0.383  115.570  175.617    4.822
  592.453    0.117    0.372  112.268  175.836    4.874
  592.703    0.088    0.351  118.888  175.423    4.808
  592.953    0.091    0.359  125.944  174.903    4.752
  593.203    0.171    0.366  122.393  173.963    4.734
  593.453    0.188    0.371  121.088  173.654    4.721
  593.703    0.170    0.375  123.090  173.346    4.763
  593.953    0.149    0.387  124.843  173.356    4.823
  594.203    0.130    0.394  124.848  173.682    4.875
  594.453    0.132    0.395  123.918  174.011    4.946
  594.703    0.124    0.389  121.303  174.125    5.017
  594.953    0.085    0.374  114.943  174.029    5.061
  595.203    0.071    0.321  121.126  173.827    5.117
  595.453    0.151    0.348  126.873  173.836    5.143
  595.703    0.156    0.362  126.878  173.950    5.148
  595.953    0.153    0.380  125.324  173.432    5.147
  596.203    0.143    0.397  124.456  173.441    5.125
  596.453    0.142    0.392  123.775  173.555    5.018
  596.703    0.131    0.378  123.781  174.093    4.905
  596.953    0.096    0.366  123.973  174.525    4.759
  597.203    0.124    0.338  125.850  174.852    4.693
  597.453    0.163    0.357  129.850  174.862    4.648
  597.703    0.168    0.355  136.221  175.081    4.662
  597.953    0.166    0.355  139.657  174.882    4.712
  598.203    0.141    0.361  136.855  174.890    4.889
  598.453    0.122    0.373  128.936  174.898    5.073
  598.703    0.087    0.385  119.207  174.802    5.137
  598.953    0.075    0.379  117.529  174.389    5.201
  599.203    0.084    0.340  118.782  174.082    5.248
  599.453    0.128    0.355  119.161  174.196    5.264
  599.703    0.143    0.362  118.356  174.522    5.281
  599.953    0.140    0.368  116.552  174.531    5.259
  600.203    0.119    0.369  114.747  173.907    5.168
  600.453    0.129    0.365  112.881  173.177    4.876
  600.703    0.117    0.356  108.394  170.756    4.022
  600.953    0.091    0.337  102.409  170.026    3.136
  601.203    0.075    0.296  133.614  171.515    2.655
  601.453    0.141    0.297  147.972  173.637    2.355
  601.703    0.200    0.328  157.337  177.239    2.097
  601.953    0.216    0.512  165.891  183.271    1.785
  602.203    0.196    0.512  170.514  191.944    1.534
  602.453    0.219    0.489  170.207  188.256    1.203
  602.703    0.166    0.473  156.111  184.038    0.949
  602.953    0.177    0.492  149.814  179.928    0.770
  603.203    0.166    0.510  140.896  177.929    0.623
  603.453    0.156    0.487  130.856  176.881    0.665
  603.703    0.141    0.370  128.616  176.362    0.872
  603.953    0.115    0.357  130.617  176.160    1.145
  604.203    0.132    0.371  134.242  176.381    1.431
  604.453    0.113    0.373  137.805  176.603    1.879
  604.703    0.125    0.368  138.434  176.928    2.597
