~VERSION INFORMATION
 VERS.                 2.0:   CWLS LOG ASCII STANDARD -VERSION 2.0
 WRAP.                  NO:   ONE LINE PER DEPTH STEP
~WELL INFORMATION BLOCK
#MNEM.UNIT           DATA                    DESCRIPTION OF MNEMONIC
#---------    -------------------            -------------------------------
# Generated from Intellog Unique Number	CC_80_83/WELL/2402
NULL.         -999.25                        : NULL_VALUE
WELL.         PARA ET AL GRANOR              : Well_name    - WELL
LOC .         11-19-083-17W4                 : Location     - LOCATION          
UWI .         00/11-19-083-17W400            : Uwi          - UNIQUE WELL ID    
ENTR.         DW                             : Entered      - ENTERED BY        
SRVC.         COMPUTALOG                     : Scn          - SERVICE COMPANY   
DATE.         31 JAN 82                      : Date         - LOG DATE
STRT.M        100                            : top_depth    - START DEPTH       
STOP.M        300.1                          : bot_depth    - STOP DEPTH        
STEP.M        0.3                            : increment    - STEP LENGTH       
~CURVE INFORMATION BLOCK
#MNEM UNIT       ERCB CURVE CODE    CURVE DESCRIPTION
#-----------   ------------------   ----------------------------------
DEPT.M        00 001 00 00         : DEPTH        - DEPTH                       
ILD .OHMM     00 120 00 00         : RESD         - DEEP RESISTIVITY (DIL)      
GR  .API      00 310 00 00         : GR           - GAMMA RAY                   
NPHI.V/V      00 330 00 00         : PHIN         - NEUTRON POROSITY (LIMESTONE)
DPHI.V/V      00 890 00 00         : PHID         - DENSITY POROSITY (LIMESTONE)
~PARAMETER INFORMATION       
#MNEM.UNIT           DATA             DESCRIPTION OF MNEMONIC
#---------         -----------     ------------------------------
GL  .M        542.3                : gl           - GROUND LEVEL ELEVATION      
EREF.M        545.33               : kb           - ELEVATION OF DEPTH REFERENCE
DATM.M        545.33               : datum        - DATUM ELEVATION             
TDD .M        304                  : tdd          - TOTAL DEPTH DRILLER         
RUN .         ONE                  : Run          - RUN NUMBER                  
ENG .         BILL                 : Engineer     - RECORDING ENGINEER          
WIT .         JIM                  : Witness      - WITNESSED BY                
MUD .         GEL                  : Mud_type     - MUD TYPE                    
MATR.         LIMESTONE            : Logunit      - NEUTRON MATRIX              
TMAX.C        22                   : BHT          - MAXIMUM RECORDED TEMPERATURE
BHTD.M        304                  : BHTDEP       - MAXIMUM RECORDED TEMPERATURE
MATR.         1                    : LOGUNIT      - NEUTRON MATRIX              
RMT .C        25                   : MDTP         - TEMPERATURE OF MUD          
NEUT.         1                    : NEUTRON      - NEUTRON TYPE                
RESI.         0                    : RESIST       - RESISTIVITY TYPE            
RMC .OHMM     0.25                 : RMC          - RESISTIVITY OF MUD CAKE     
RMF .OHMM     0.25                 : RMF          - RESISTIVITY OF MUD FILTRATE 
SUFT.C        15                   : SUFT         - SURFACE TEMPERATURE         
~A  DEPTH     RESD       GR     PHIN     PHID
# ...
  204.401    9.502   98.187    0.412    0.172
  204.701    9.143   88.216    0.448    0.188
  205.001    9.140   83.224    0.426    0.223
  205.301    9.134   86.326    0.393    0.238
  205.601    8.625   93.784    0.437    0.244
  205.901    6.997   96.265    0.459    0.256
  206.201    6.241   98.121    0.469    0.263
  206.501    6.238   92.506    0.447    0.266
  206.801    7.682   80.665    0.446    0.264
  207.101   10.400   72.561    0.528    0.237
  207.401   12.567   65.703    0.395    0.130
  207.701   13.296   61.956    0.264    0.181
  208.001   13.289   81.244    0.394    0.253
  208.301   12.787   87.457    0.472    0.272
  208.601   12.074   82.465    0.452    0.272
  208.901   11.619   79.965    0.422    0.272
  209.201   11.181   86.799    0.428    0.273
  209.501   10.965   89.902    0.417    0.272
  209.801   11.169   89.890    0.405    0.263
  210.101   11.595   86.766    0.447    0.257
  210.401   12.502   81.154    0.426    0.242
  210.701   13.228   73.671    0.210    0.209
  211.001   13.733   76.773    0.173    0.075
  211.301   13.467   82.364    0.292    0.221
  211.601   12.479   93.560    0.352    0.231
  211.901   10.514   99.153    0.460    0.199
  212.201    8.858   97.274    0.471    0.203
  212.501    7.901   96.635    0.480    0.229
  212.801    7.750   97.251    0.480    0.239
  213.101    7.745   99.106    0.367    0.234
  213.401    7.890  100.340    0.360    0.213
  213.701    7.738  100.953    0.401    0.206
  214.001    7.589  102.810    0.436    0.209
  214.301    7.729  105.289    0.467    0.205
  214.601    7.727  107.144    0.507    0.226
  214.901    8.331  107.133    0.452    0.247
  215.201    8.814  105.252    0.389    0.245
  215.501    9.871  103.372    0.384    0.229
  215.801   10.645  101.493    0.406    0.216
  216.101   11.262  100.239    0.441    0.210
  216.401   11.691  100.852    0.423    0.225
  216.701   12.136  105.198    0.405    0.213
  217.001   12.131  107.677    0.443    0.185
  217.301   12.125  106.421    0.472    0.224
  217.601   12.120   98.939    0.448    0.261
  217.901   11.883   91.456    0.379    0.274
  218.201   11.436   88.953    0.407    0.282
  218.501   11.216   86.453    0.412    0.297
  218.801   10.792   83.948    0.397    0.291
  219.101   10.585   84.563    0.438    0.248
  219.401   10.581   92.022    0.420    0.222
  219.701   10.575   96.992    0.383    0.218
  220.001   10.770   98.847    0.404    0.227
  220.301   10.766  100.702    0.427    0.237
  220.601   10.965  101.315    0.439    0.219
  220.901   10.962  100.683    0.418    0.212
  221.201   10.955  100.049    0.372    0.203
  221.501   10.948  102.528    0.397    0.204
  221.801   11.153  105.630    0.454    0.189
  222.101   11.363  104.997    0.428    0.182
  222.401   11.354  100.004    0.398    0.217
  222.701   11.568   96.880    0.397    0.222
  223.001   11.784   97.489    0.422    0.221
  223.301   12.232   91.875    0.473    0.194
  223.601   12.460   85.640    0.452    0.126
  223.901   12.453   85.629    0.275    0.192
  224.201   12.447   98.069    0.342    0.234
  224.501   11.978  107.397    0.373    0.209
  224.801   11.970  106.760    0.409    0.185
  225.101   11.967  103.639    0.472    0.200
  225.401   12.422   97.401    0.459    0.216
  225.701   12.654   99.256    0.340    0.226
  226.001   12.890   98.624    0.330    0.208
  226.301   12.641   95.500    0.375    0.195
  226.601   12.634   94.867    0.495    0.221
  226.901   12.159   96.097    0.408    0.207
  227.201   11.925   99.201    0.402    0.198
  227.501   11.694  102.301    0.475    0.200
  227.801   11.913  101.666    0.459    0.201
  228.101   11.682   99.787    0.405    0.195
  228.401   11.676   98.530    0.412    0.195
  228.701   11.452  102.879    0.381    0.205
  229.001   11.019  108.473    0.405    0.212
  229.301   10.402  105.972    0.471    0.217
  229.601   10.202  105.337    0.412    0.206
  229.901   10.007  109.058    0.441    0.189
  230.201   10.001  109.050    0.476    0.192
  230.501    9.997  108.417    0.509    0.187
  230.801   10.182  107.160    0.473    0.174
  231.101   10.370  104.658    0.436    0.222
  231.401   10.365  100.289    0.438    0.251
  231.701   10.361   90.316    0.428    0.248
  232.001   10.756   81.590    0.419    0.235
  232.301   12.278   84.689    0.386    0.242
  232.601   14.837   88.416    0.428    0.252
  232.901   18.619   88.402    0.497    0.230
  233.201   22.077   66.603    0.191    0.000
  233.501   40.490   56.630    0.128    0.000
  233.801   52.776   67.201    0.150    0.012
  234.101   54.794   70.926    0.154    0.020
  234.401   45.300   71.539    0.142    0.031
  234.701   24.674   73.394    0.139    0.094
  235.001   18.908   78.987    0.203    0.149
  235.301   15.933   78.350    0.354    0.214
  235.601   14.483   78.965    0.450    0.235
  235.901   13.419   83.934    0.410    0.235
  236.201   12.197   82.678    0.375    0.196
  236.501   11.737   81.421    0.379    0.182
  236.801   11.509   85.143    0.403    0.230
  237.101   11.506   86.377    0.399    0.247
  237.401   11.719   86.991    0.406    0.260
  237.701   11.938   86.355    0.421    0.261
  238.001   12.161   85.723    0.447    0.262
  238.301   12.621   83.221    0.472    0.267
  238.601   12.616   81.963    0.390    0.252
  238.901   12.611   85.063    0.403    0.209
  239.201   12.606   86.921    0.444    0.233
  239.501   12.839   89.402    0.393    0.204
  239.801   12.833   87.520    0.438    0.171
  240.101   12.586   86.266    0.477    0.195
  240.401   11.659   88.122    0.337    0.260
  240.701   11.221   93.093    0.316    0.239
  241.001    9.277  103.043    0.333    0.205
  241.301    8.274  117.973    0.412    0.207
  241.601    8.271  114.226    0.450    0.204
  241.901    8.751  107.367    0.466    0.197
  242.201   10.373   99.884    0.404    0.189
  242.501   11.401   97.383    0.391    0.189
  242.801   12.530   95.501    0.376    0.212
  243.101   13.770   91.134    0.364    0.233
  243.401   15.129   86.141    0.413    0.243
  243.701   14.840   91.112    0.443    0.253
  244.001   12.742  104.174    0.413    0.202
  244.301   11.366  106.028    0.382    0.162
  244.601   10.529  107.888    0.428    0.175
  244.901   10.134  115.971    0.486    0.194
  245.201   10.127  119.071    0.500    0.202
  245.501   10.122  116.570    0.479    0.207
  245.801   10.117  112.199    0.448    0.208
  246.101   10.111  108.452    0.452    0.145
  246.401   10.107  106.575    0.399    0.150
  246.701   10.102  108.431    0.397    0.183
  247.001    9.907  112.776    0.390    0.193
  247.301    9.903  112.767    0.375    0.191
  247.602    9.708  107.776    0.378    0.154
  247.902    9.704  106.518    0.376    0.134
  248.202    9.519  118.959    0.368    0.160
  248.502    9.333  123.929    0.414    0.185
  248.802    9.330  124.536    0.422    0.191
  249.102    9.151  125.150    0.422    0.193
  249.402    8.972  128.875    0.410    0.200
  249.702    8.969  131.976    0.361    0.203
  250.002    9.312  130.719    0.391    0.203
  250.302   11.041  123.862    0.391    0.180
  250.602   14.667  105.796    0.355    0.140
  250.902   14.939  100.802    0.362    0.153
  251.202   13.579  115.111    0.412    0.170
  251.502   12.824  115.101    0.384    0.182
  251.802   11.656  113.840    0.353    0.191
  252.102   10.596  118.190    0.384    0.189
  252.402   10.391  126.272    0.402    0.181
  252.702   11.205  123.770    0.405    0.184
  253.002   12.312  110.062    0.410    0.170
  253.302   12.784  104.448    0.382    0.166
  253.602   13.525  108.173    0.381    0.204
  253.902   14.039  111.895    0.374    0.216
  254.202   14.036  110.639    0.361    0.232
  254.502   14.296  105.648    0.351    0.247
  254.802   14.561   98.166    0.297    0.238
  255.102   15.118   95.663    0.319    0.230
  255.402   17.258   91.296    0.374    0.222
  255.702   22.496   84.436    0.415    0.189
  256.002   32.241   76.332    0.199    0.109
  256.302   51.778   66.982    0.124    0.000
