~VERSION INFORMATION
 VERS.                 2.0:   CWLS LOG ASCII STANDARD -VERSION 2.0
 WRAP.                  NO:   ONE LINE PER DEPTH STEP
~WELL INFORMATION BLOCK
#MNEM.UNIT           DATA                    DESCRIPTION OF MNEMONIC
#---------    -------------------            -------------------------------
# Generated from Intellog Unique Number	CW_70_72/WELL/1052
NULL.         -999.25                        : NULL_VALUE
WELL.         G.P.D. SMITH 11-03             : Well_name    - WELL              
LOC .         11-03-072-01W5                 : Location     - LOCATION          
UWI .         00/11-03-072-01W5/0            : Uwi          - UNIQUE WELL ID    
ENTR.         JAYE                           : Entered      - ENTERED BY        
SRVC.         SCHLUMBERGER                   : Scn          - SERVICE COMPANY   
DATE.         30 JULY 76                     : Date         - LOG DATE          
STRT.M        435.864                        : top_depth    - START DEPTH       
STOP.M        694.864                        : bot_depth    - STOP DEPTH        
STEP.M        0.25                           : increment    - STEP LENGTH       
~CURVE INFORMATION BLOCK
#MNEM UNIT       ERCB CURVE CODE    CURVE DESCRIPTION
#-----------   ------------------   ----------------------------------
DEPT.M        00 001 00 00         : DEPTH        - DEPTH                       
DPHI.V/V      00 890 00 00         : PHID         - DENSITY POROSITY (SANDSTONE)
NPHI.V/V      00 330 00 00         : PHIN         - NEUTRON POROSITY (SANDSTONE)
GR  .API      00 310 00 00         : GR           - GAMMA RAY                   
CALI.MM       00 280 01 00         : CAL          - CALIPER                     
ILD .OHMM     00 120 00 00         : RESD         - DEEP RESISTIVITY (DIL)      
~PARAMETER INFORMATION       
#MNEM.UNIT           DATA             DESCRIPTION OF MNEMONIC
#---------         -----------     ------------------------------
GL  .M        635.203              : gl           - GROUND LEVEL ELEVATION      
EREF.M        638.861              : kb           - ELEVATION OF DEPTH REFERENCE
DATM.M        635.203              : datum        - DATUM ELEVATION             
TDD .M        719.328              : tdd          - TOTAL DEPTH DRILLER         
RUN .         ONE                  : Run          - RUN NUMBER                  
BASE.         EDM                  : Branch       - HOME BASE OF LOGGING UNIT   
MUD .         GEL                  : Mud_type     - MUD TYPE                    
MATR.         SANDSTONE            : Logunit      - NEUTRON MATRIX              
TMAX.C        36.1111              : BHT          - MAXIMUM RECORDED TEMPERATURE
BHTD.M        719.938              : BHTDEP       - MAXIMUM RECORDED TEMPERATURE
RMT .C        15.5556              : MDTP         - TEMPERATURE OF MUD          
MUDD.KG/M     1164                 : MWT          - MUD DENSITY                 
NEUT.         1                    : NEUTRON      - NEUTRON TYPE                
RESI.         0                    : RESIST       - RESISTIVITY TYPE            
RM  .OHMM     5.56                 : RM           - RESISTIVITY OF MUD          
RMC .OHMM     0                    : RMC          - RESISTIVITY OF MUD CAKE     
RMF .OHMM     5.16                 : RMF          - RESISTIVITY OF MUD FILTRATE 
SUFT.C        0                    : SUFT         - SURFACE TEMPERATURE         
~A  DEPTH     PHID     PHIN       GR      CAL     RESD
  435.864    0.180    0.474   76.578  198.037    3.478
  436.114    0.182    0.459   77.969  190.005    3.153
  436.364    0.170    0.465   80.277  187.573    2.633
  436.614    0.180    0.483   81.009  188.476    2.405
  436.864    0.229    0.502   77.674  191.315    2.390
  437.114    0.216    0.499   74.134  200.076    2.640
  437.364    0.228    0.478   70.188  206.359    2.949
  437.614    0.226    0.456   66.902  204.143    3.312
  437.864    0.207    0.443   67.890  193.962    3.464
  438.114    0.228    0.434   69.333  184.854    3.380
  438.364    0.205    0.443   70.269  183.285    3.196
  438.614    0.223    0.465   70.646  185.047    2.903
  438.864    0.218    0.475   70.816  189.289    2.735
  439.114    0.224    0.484   69.665  193.636    2.840
  439.364    0.253    0.497   67.909  200.567    3.003
  439.614    0.276    0.488   66.147  204.801    3.134
  439.864    0.310    0.467   62.557  192.147    3.375
  440.114    0.252    0.431   61.712  167.970    3.615
  440.364    0.226    0.417   60.868  181.688    3.851
  440.614    0.276    0.426   58.448  186.889    4.064
  440.864    0.297    0.415   55.925  171.971    4.337
  441.114    0.266    0.415   53.402  161.683    4.671
  441.364    0.254    0.415   49.968  159.371    4.983
  441.614    0.236    0.415   46.579  159.089    5.396
  441.864    0.220    0.414   42.683  159.117    5.790
  442.114    0.193    0.416   39.957  159.596    6.089
  442.364    0.153    0.419   40.586  159.543    6.027
  442.614    0.132    0.427   44.471  159.247    5.762
  442.864    0.219    0.441   45.507  158.541    5.244
  443.114    0.298    0.449   43.445  158.036    4.703
  443.364    0.290    0.434   44.276  157.447    4.195
  443.614    0.283    0.429   49.586  157.591    3.859
  443.864    0.282    0.431   54.588  157.736    3.603
  444.114    0.290    0.429   59.795  157.884    3.426
  444.364    0.268    0.435   64.034  160.301    3.300
  444.614    0.248    0.447   69.902  163.673    3.249
  444.864    0.218    0.472   74.396  169.526    3.275
  445.114    0.175    0.504   76.653  177.321    3.438
  445.364    0.148    0.490   78.452  187.799    3.764
  445.614    0.217    0.454   79.694  196.667    4.031
  445.864    0.262    0.438   80.323  188.641    4.357
  446.114    0.243    0.453   79.580  192.770    4.658
  446.364    0.260    0.452   77.465  199.699    4.478
  446.614    0.280    0.436   76.823  169.713    3.965
  446.864    0.233    0.495   78.927  162.656    3.472
  447.114    0.215    0.548   82.150  167.326    3.113
  447.364    0.253    0.580   82.323  176.948    2.923
  447.614    0.299    0.559   79.551  185.058    2.857
  447.864    0.323    0.549   77.736  192.319    2.864
  448.114    0.331    0.545   75.570  196.015    3.007
  448.364    0.325    0.543   72.795  194.547    3.191
  448.614    0.299    0.538   70.120  190.069    3.325
  448.864    0.279    0.531   67.343  182.039    3.458
  449.114    0.250    0.510   66.041  171.644    3.506
  449.364    0.208    0.494   66.671  167.164    3.426
  449.614    0.188    0.508   69.130  167.113    3.252
  449.864    0.261    0.500   71.336  168.540    3.042
  450.114    0.282    0.505   73.190  173.211    2.866
  450.364    0.274    0.554   73.921  180.141    2.745
  450.614    0.306    0.591   73.941  188.255    2.654
  450.864    0.314    0.589   72.484  198.313    2.632
  451.114    0.308    0.573   71.487  205.451    2.644
  451.364    0.309    0.574   71.356  210.013    2.651
  451.614    0.308    0.559   72.089  209.195    2.688
  451.864    0.314    0.551   73.327  209.884    2.759
  452.114    0.326    0.555   74.415  211.970    2.892
  452.364    0.335    0.537   75.706  205.661    2.953
  452.614    0.313    0.544   77.505  190.854    2.977
  452.864    0.302    0.556   79.762  196.709    2.986
  453.114    0.323    0.571   80.342  192.335    2.977
  453.364    0.306    0.565   79.447  193.132    2.952
  453.614    0.274    0.552   77.280  196.407    2.950
  453.864    0.296    0.545   77.503  197.738    2.946
  454.114    0.327    0.561   78.592  186.048    3.004
  454.364    0.333    0.557   78.966  190.722    3.112
  454.614    0.309    0.559   78.834  197.331    3.285
  454.864    0.300    0.543   78.500  198.553    3.461
  455.114    0.294    0.532   78.570  188.692    3.580
  455.364    0.299    0.516   79.046  180.771    3.717
  455.614    0.295    0.503   79.678  177.586    3.830
  455.864    0.301    0.494   81.476  174.502    3.970
  456.114    0.290    0.491   82.818  173.045    4.076
  456.364    0.275    0.480   81.010  175.453    4.209
  456.614    0.254    0.466   78.995  178.288    4.322
  456.864    0.223    0.456   75.354  183.606    4.389
  457.114    0.192    0.447   71.355  186.337    4.466
  457.364    0.196    0.429   66.951  174.756    4.494
  457.614    0.189    0.428   66.413  167.157    4.449
  457.864    0.206    0.436   65.314  173.120    4.317
  458.114    0.225    0.432   62.843  178.005    4.265
  458.364    0.232    0.423   63.320  173.311    4.177
  458.614    0.232    0.438   66.443  165.173    4.074
  458.864    0.224    0.469   69.310  168.877    4.012
  459.114    0.201    0.476   71.363  170.534    3.971
  459.364    0.235    0.469   72.502  172.300    3.874
  459.614    0.183    0.462   73.843  175.029    3.766
  459.864    0.186    0.452   73.406  178.623    3.674
  460.114    0.232    0.441   70.936  181.356    3.630
  460.364    0.224    0.432   69.023  172.680    3.627
  460.614    0.259    0.425   66.754  157.228    3.650
  460.864    0.251    0.420   65.453  155.760    3.667
  461.114    0.246    0.420   65.421  155.696    3.724
  461.364    0.235    0.422   65.186  155.960    3.782
  461.614    0.241    0.421   62.156  156.326    3.862
  461.864    0.255    0.418   58.056  156.691    3.908
  462.114    0.265    0.412   52.535  157.163    3.919
  462.364    0.276    0.398   49.555  157.195    3.901
  462.614    0.287    0.400   50.235  157.457    3.813
  462.864    0.294    0.411   51.831  157.611    3.726
  463.114    0.274    0.416   52.564  157.981    3.602
  463.364    0.285    0.412   52.637  158.120    3.475
  463.614    0.304    0.408   52.553  158.270    3.366
  463.864    0.305    0.410   53.234  158.632    3.290
  464.114    0.307    0.414   54.830  159.006    3.244
  464.364    0.302    0.418   56.478  159.579    3.206
  464.614    0.298    0.421   57.869  160.592    3.185
  464.864    0.292    0.421   57.382  161.385    3.211
  465.114    0.282    0.419   59.132  162.616    3.328
  465.364    0.276    0.417   61.438  163.411    3.355
  465.614    0.271    0.409   64.406  163.989    3.285
  465.864    0.232    0.422   67.222  165.438    3.130
  466.114    0.232    0.437   70.192  166.008    3.014
  466.364    0.238    0.448   72.247  167.457    2.893
  466.614    0.251    0.442   73.385  168.999    2.817
  466.864    0.265    0.449   75.136  172.164    2.743
  467.114    0.246    0.466   77.646  178.235    2.695
  467.364    0.213    0.466   79.953  179.569    2.659
  467.614    0.196    0.474   80.586  179.717    2.680
  467.864    0.201    0.483   80.249  180.405    2.732
  468.114    0.202    0.504   79.097  183.893    2.760
  468.364    0.233    0.519   77.032  188.560    2.777
  468.614    0.268    0.530   73.492  193.228    2.800
  468.864    0.293    0.517   69.496  200.805    2.844
  469.114    0.320    0.493   66.262  179.860    2.905
  469.364    0.295    0.467   66.587  162.150    2.977
  469.614    0.272    0.463   66.606  163.263    3.057
  469.864    0.252    0.485   65.153  165.568    3.197
  470.114    0.240    0.504   63.595  170.023    3.319
  470.364    0.230    0.504   60.362  177.490    3.433
  470.614    0.268    0.455   55.245  166.231    3.538
  470.864    0.277    0.427   52.773  162.830    3.640
  471.114    0.259    0.423   54.015  162.231    3.724
  471.364    0.255    0.429   54.748  162.267    3.838
  471.614    0.258    0.428   54.207  162.534    3.927
  471.864    0.269    0.424   53.514  162.569    4.010
  472.114    0.284    0.419   53.843  162.941    4.058
