~VERSION INFORMATION
 VERS.                 2.0:   CWLS LOG ASCII STANDARD -VERSION 2.0
 WRAP.                  NO:   ONE LINE PER DEPTH STEP
~WELL INFORMATION BLOCK
#MNEM.UNIT           DATA                    DESCRIPTION OF MNEMONIC
#---------    -------------------            -------------------------------
# Generated from Intellog Unique Number	CW_79_81/WELL/2470
NULL.         -999.25                        : NULL_VALUE
WELL.         CHEVRON FINA MUSKWA            : Well_name    - WELL              
LOC .         10-18-081-04W5                 : Location     - LOCATION          
UWI .         00/10-18-081-04W5/0            : Uwi          - UNIQUE WELL ID    
ENTR.         MAX                            : Entered      - ENTERED BY        
SRVC.         SCHLUMBERGER                   : Scn          - SERVICE COMPANY   
DATE.         06 MAR 74                      : Date         - LOG DATE
STRT.M        298.704                        : top_depth    - START DEPTH       
STOP.M        542.204                        : bot_depth    - STOP DEPTH        
STEP.M        0.25                           : increment    - STEP LENGTH       
~CURVE INFORMATION BLOCK
#MNEM UNIT       ERCB CURVE CODE    CURVE DESCRIPTION
#-----------   ------------------   ----------------------------------
DEPT.M        00 001 00 00         : DEPTH        - DEPTH                       
ILD .OHMM     00 120 00 00         : RESD         - DEEP RESISTIVITY (DIL)      
NPHI.V/V      00 330 00 00         : PHIN         - NEUTRON POROSITY (SANDSTONE)
DPHI.V/V      00 890 00 00         : PHID         - DENSITY POROSITY (SANDSTONE)
GR  .API      00 310 00 00         : GR           - GAMMA RAY                   
CALI.MM       00 280 01 00         : CAL          - CALIPER                     
~PARAMETER INFORMATION       
#MNEM.UNIT           DATA             DESCRIPTION OF MNEMONIC
#---------         -----------     ------------------------------
GL  .M        596.189              : gl           - GROUND LEVEL ELEVATION      
EREF.M        599.999              : kb           - ELEVATION OF DEPTH REFERENCE
DATM.M        596.189              : datum        - DATUM ELEVATION             
TDD .M        541.934              : tdd          - TOTAL DEPTH DRILLER         
RUN .         ONE                  : Run          - RUN NUMBER                  
ENG .         BILL                 : Engineer     - RECORDING ENGINEER          
WIT .         JIM                  : Witness      - WITNESSED BY                
MUD .         GEL                  : Mud_type     - MUD TYPE                    
MATR.         SANDSTONE            : Logunit      - NEUTRON MATRIX              
TMAX.C        28.3333              : BHT          - MAXIMUM RECORDED TEMPERATURE
BHTD.M        541.934              : BHTDEP       - MAXIMUM RECORDED TEMPERATURE
MATR.         1                    : LOGUNIT      - NEUTRON MATRIX              
RMT .C        20.5556              : MDTP         - TEMPERATURE OF MUD          
NEUT.         1                    : NEUTRON      - NEUTRON TYPE                
RESI.         0                    : RESIST       - RESISTIVITY TYPE            
RMC .OHMM     7.58                 : RMC          - RESISTIVITY OF MUD CAKE     
RMF .OHMM     8.19                 : RMF          - RESISTIVITY OF MUD FILTRATE 
SUFT.C        -15                  : SUFT         - SURFACE TEMPERATURE         
~A  DEPTH     RESD     PHIN     PHID       GR      CAL
  298.704    2.689    0.488    0.229  119.978  229.824
  298.954    2.918    0.486    0.239  101.891  225.272
  299.204    3.162    0.479    0.236   91.057  219.595
  299.454    3.389    0.461    0.217   85.426  213.636
  299.704    3.564    0.438    0.197   84.136  209.763
  299.954    3.787    0.430    0.211   83.218  210.378
  300.204    3.992    0.439    0.197   79.797  207.483
  300.454    4.226    0.434    0.230   75.340  196.359
  300.704    4.451    0.436    0.250   71.234  192.088
  300.954    4.632    0.439    0.262   68.067  193.083
  301.204    4.742    0.440    0.271   65.897  196.364
  301.454    4.775    0.436    0.288   64.061  197.476
  301.704    4.775    0.439    0.297   63.084  197.064
  301.954    4.740    0.444    0.296   61.677  196.668
  302.204    4.680    0.453    0.298   60.270  196.571
  302.454    4.612    0.456    0.307   58.863  196.374
  302.704    4.554    0.455    0.317   58.219  196.177
  302.954    4.521    0.455    0.315   60.058  196.577
  303.204    4.520    0.452    0.314   61.037  196.579
  303.454    4.520    0.451    0.303   60.804  196.979
  303.704    4.593    0.448    0.300   60.042  197.378
  303.954    4.676    0.446    0.302   59.926  197.578
  304.204    4.718    0.446    0.302   60.807  197.481
  304.454    4.683    0.446    0.294   62.315  197.169
  304.704    4.683    0.443    0.290   62.804  197.585
  304.954    4.716    0.430    0.301   62.102  197.587
  305.204    4.749    0.423    0.303   61.575  197.589
  305.454    4.766    0.424    0.302   61.459  197.591
  305.704    4.748    0.429    0.301   61.870  197.791
  305.954    4.666    0.437    0.304   62.860  198.589
  306.204    4.596    0.439    0.304   63.105  198.590
  306.454    4.595    0.444    0.298   64.514  198.592
  306.704    4.669    0.442    0.305   66.803  198.892
  306.954    4.838    0.438    0.301   69.386  199.093
  307.204    5.114    0.430    0.282   71.617  199.095
  307.454    5.646    0.391    0.253   72.498  199.263
  307.704    6.522    0.317    0.227   71.033  200.093
  307.954    7.880    0.282    0.186   67.983  201.287
  308.204   10.013    0.282    0.152   68.101  201.289
  308.454   12.568    0.310    0.172   70.214  200.695
  308.704   14.357    0.340    0.228   71.331  200.001
  308.954   13.941    0.317    0.225   65.563  199.689
  309.204   12.565    0.284    0.176   60.186  200.105
  309.454   10.933    0.282    0.106   61.595  200.504
  309.704    8.823    0.324    0.125   64.236  201.499
  309.954    7.005    0.381    0.166   67.171  200.309
  310.204    5.832    0.430    0.202   69.578  197.232
  310.454    5.300    0.457    0.256   71.046  195.645
  310.704    4.883    0.462    0.281   72.514  195.646
  310.954    4.642    0.471    0.280   73.219  195.648
  311.204    4.609    0.471    0.278   73.748  195.948
  311.454    4.642    0.462    0.283   73.632  196.944
  311.704    4.658    0.449    0.293   72.929  198.436
  311.954    4.617    0.446    0.292   72.080  199.713
  312.204    4.582    0.448    0.290   71.348  200.129
  312.454    4.516    0.452    0.282   70.645  199.734
  312.704    4.403    0.457    0.282   70.646  199.636
  312.954    4.261    0.463    0.281   71.234  200.036
  313.204    4.088    0.467    0.277   72.408  201.031
  313.454    3.769    0.461    0.263   75.069  202.706
  313.704    3.372    0.462    0.250   78.982  203.122
  313.954    3.229    0.467    0.240   80.860  203.521
  314.204    3.143    0.465    0.241   81.331  203.324
  314.454    3.098    0.459    0.234   81.684  203.724
  314.704    3.070    0.454    0.215   83.093  205.414
  314.954    3.021    0.459    0.196   87.494  209.506
  315.204    2.998    0.458    0.191   91.896  214.062
  315.454    2.955    0.455    0.201   94.244  217.243
  315.704    2.976    0.463    0.203   93.424  218.934
  315.954    3.114    0.474    0.204   91.313  218.141
  316.204    3.399    0.478    0.207   89.436  214.368
  316.454    3.864    0.454    0.211   88.969  206.290
  316.704    4.104    0.433    0.208   88.970  199.669
  316.954    4.438    0.434    0.210   88.736  198.876
  317.204    4.677    0.440    0.218   88.503  198.679
  317.454    4.866    0.444    0.220   88.387  198.681
  317.704    5.026    0.444    0.216   88.447  198.683
  317.954    5.151    0.447    0.211   88.487  198.851
  318.204    5.228    0.462    0.200   87.510  199.681
  318.454    5.303    0.454    0.206   85.399  200.081
  318.704    5.351    0.437    0.215   78.008  200.182
  318.954    5.369    0.408    0.227   67.216  200.184
  319.204    5.359    0.378    0.243   54.661  200.186
  319.454    5.271    0.371    0.267   41.364  199.940
  319.704    5.040    0.376    0.282   39.409  198.700
  319.954    4.721    0.380    0.267   40.818  198.702
  320.204    4.497    0.384    0.255   48.212  198.406
  320.454    4.355    0.390    0.248   54.666  198.011
  320.704    4.277    0.402    0.248   58.011  197.714
  320.954    4.264    0.423    0.257   60.780  197.717
  321.204    4.361    0.416    0.276   60.537  197.719
  321.454    4.487    0.415    0.271   59.834  198.515
  321.704    4.544    0.414    0.253   58.075  199.014
  321.954    4.560    0.412    0.242   55.847  198.619
  322.204    4.535    0.409    0.246   53.443  197.726
  322.454    4.348    0.405    0.267   52.133  197.894
  322.704    3.947    0.406    0.276   58.491  198.724
  322.954    3.460    0.420    0.269   65.297  200.713
  323.204    3.249    0.459    0.248   74.744  204.192
  323.454    3.248    0.491    0.235   83.662  208.366
  323.704    3.426    0.500    0.235   90.294  211.150
  323.954    3.771    0.481    0.227   93.796  208.338
  324.204    3.945    0.452    0.214   91.353  204.201
  324.454    4.117    0.439    0.221   89.946  203.408
  324.704    4.343    0.440    0.209   89.243  203.509
  324.954    4.584    0.437    0.194   88.071  203.114
  325.204    4.821    0.425    0.192   86.136  202.221
  325.454    5.123    0.417    0.218   83.389  202.224
  325.704    5.400    0.409    0.207   80.213  202.226
  325.954    5.596    0.408    0.216   79.275  201.830
  326.204    5.800    0.408    0.222   78.513  201.733
  326.454    5.969    0.412    0.225   76.403  201.735
  326.704    6.088    0.419    0.227   73.588  201.737
  326.954    6.176    0.426    0.239   72.689  201.656
  327.204    6.175    0.432    0.251   71.713  201.244
  327.454    6.174    0.428    0.252   69.133  201.246
  327.704    6.074    0.423    0.253   68.312  201.248
  327.954    5.922    0.427    0.259   69.017  201.250
  328.204    5.699    0.441    0.266   69.899  201.153
  328.454    5.287    0.449    0.257   67.857  200.592
  328.704    5.017    0.435    0.247   64.680  199.767
  328.954    5.126    0.429    0.281   65.150  199.768
  329.204    5.098    0.424    0.285   66.325  199.770
  329.454    4.859    0.411    0.274   67.617  200.170
  329.704    4.559    0.392    0.258   69.026  201.066
  329.954    4.474    0.381    0.236   71.921  202.674
  330.204    4.541    0.396    0.187   75.834  204.745
  330.454    4.706    0.461    0.144   82.405  209.119
  330.704    5.060    0.478    0.184   80.706  211.406
  330.954    5.478    0.469    0.239   75.897  208.627
  331.204    5.838    0.454    0.274   71.673  202.469
  331.454    6.043    0.446    0.287   69.973  199.209
  331.704    5.997    0.426    0.286   68.508  198.797
  331.954    5.742    0.421    0.295   68.978  198.402
  332.204    5.468    0.431    0.299   69.097  198.007
  332.454    5.334    0.438    0.301   68.746  197.810
  332.704    5.342    0.436    0.301   68.043  197.911
  332.954    5.380    0.437    0.290   67.438  198.311
  333.204    5.380    0.444    0.278   67.928  198.313
  333.454    5.379    0.440    0.270   68.868  198.315
  333.704    5.320    0.439    0.271   68.400  198.019
  333.954    5.225    0.442    0.277   68.753  198.020
  334.204    5.122    0.450    0.281   70.514  198.320
  334.454    5.063    0.460    0.272   73.165  198.323
  334.704    5.139    0.465    0.270   75.855  198.325
  334.954    5.402    0.463    0.278   78.673  198.327
