~VERSION INFORMATION
 VERS.                 2.0:   CWLS LOG ASCII STANDARD -VERSION 2.0
 WRAP.                  NO:   ONE LINE PER DEPTH STEP
~WELL INFORMATION BLOCK
#MNEM.UNIT           DATA                    DESCRIPTION OF MNEMONIC
#---------    -------------------            -------------------------------
# Generated from Intellog Unique Number	CS_71_72/WELL/870
WELL.         AEC IPIATIK KIRBY              : Well_name    - WELL
LOC .         00/10-25-071-05W4/0            : Location     - LOCATION
UWI .         00/10-25-071-05W4/0            : Uwi          - UNIQUE WELL ID
ENTR.         SP                             : Entered      - ENTERED BY
SRVC.         SCHLUMBERGER                   : Scn          - SERVICE COMPANY
STRT.M        300                            : top_depth    - START DEPTH
STOP.M        520                            : bot_depth    - STOP DEPTH
STEP.M        0.25                           : increment    - STEP LENGTH
 NULL. -999.2500:NULL Value
~CURVE INFORMATION BLOCK
#MNEM UNIT       ERCB CURVE CODE    CURVE DESCRIPTION
#-----------   ------------------   ----------------------------------
DEPT.M        00 001 00 00         : DEPTH        - DEPTH
GR  .API      00 310 00 00         : GR           - GAMMA RAY
NPHI.V/V      00 330 00 00         : PHIN         - NEUTRON POROSITY (LIMESTONE)
DPHI.V/V      00 890 00 00         : PHID         - DENSITY POROSITY (LIMESTONE)
ILD .OHMM     00 120 00 00         : RESD         - DEEP RESISTIVITY (DIL)
~PARAMETER INFORMATION
#MNEM.UNIT           DATA             DESCRIPTION OF MNEMONIC
#---------         -----------     ------------------------------
GL  .M        681.4                : gl           - GROUND LEVEL ELEVATION
EREF.M        685.4                : kb           - ELEVATION OF DEPTH REFERENCE
DATM.M        681.4                : datum        - DATUM ELEVATION
TDD .M        543.5                : tdd          - TOTAL DEPTH DRILLER
RUN .         ONE                  : Run          - RUN NUMBER
ENG .         BILL                 : Engineer     - RECORDING ENGINEER
WIT .         JIM                  : Witness      - WITNESSED BY
MUD .         GEL                  : Mud_type     - MUD TYPE
MATR.         LIMESTONE            : Logunit      - NEUTRON MATRIX
TMAX.C        20                   : BHT          - MAXIMUM RECORDED TEMPERATURE
BHTD.M        543.5                : BHTDEP       - MAXIMUM RECORDED TEMPERATURE
MATR.         1                    : LOGUNIT      - NEUTRON MATRIX
RMT .C        25                   : MDTP         - TEMPERATURE OF MUD
NEUT.         1                    : NEUTRON      - NEUTRON TYPE
RESI.         0                    : RESIST       - RESISTIVITY TYPE
RMC .OHMM     0.25                 : RMC          - RESISTIVITY OF MUD CAKE
RMF .OHMM     0.25                 : RMF          - RESISTIVITY OF MUD FILTRATE
SUFT.C        15                   : SUFT         - SURFACE TEMPERATURE
~A  DEPTH       GR     PHIN     PHID     RESD
# ...
  387.000   84.969    0.491    0.274    3.931
  387.250   84.382    0.495    0.292    3.941
  387.500   82.311    0.478    0.290    3.944
  387.750   81.538    0.465    0.274    3.909
  388.000   79.590    0.458    0.267    3.811
  388.250   79.180    0.451    0.283    3.722
  388.500   78.545    0.449    0.298    3.641
  388.750   77.855    0.456    0.312    3.569
  389.000   78.210    0.463    0.321    3.395
  389.250   78.403    0.434    0.305    3.601
  389.500   80.268    0.428    0.284    3.877
  389.750   81.204    0.448    0.262    4.013
  390.000   81.300    0.459    0.253    4.038
  390.250   79.264    0.459    0.270    4.019
  390.500   71.719    0.439    0.296    3.866
  390.750   70.533    0.426    0.317    3.733
  391.000   78.759    0.421    0.298    3.680
  391.250   86.739    0.427    0.273    3.725
  391.500   93.263    0.479    0.251    3.791
  391.750   90.686    0.508    0.235    3.836
  392.000   82.047    0.531    0.248    3.796
  392.250   76.502    0.531    0.283    3.631
  392.500   72.835    0.492    0.309    3.493
  392.750   71.228    0.475    0.331    3.380
  393.000   69.621    0.459    0.331    3.357
  393.250   68.381    0.444    0.329    3.359
  393.500   68.353    0.440    0.327    3.505
  393.750   70.936    0.450    0.324    3.682
  394.000   72.363    0.458    0.304    3.817
  394.250   69.546    0.428    0.249    4.034
  394.500   73.098    0.400    0.204    4.120
  394.750   82.172    0.421    0.204    4.116
  395.000   93.304    0.462    0.217    4.042
  395.250  102.620    0.491    0.230    3.947
  395.500  103.381    0.497    0.229    3.790
  395.750  102.930    0.517    0.225    3.592
  396.000  106.676    0.535    0.223    3.385
  396.250  108.031    0.555    0.237    3.232
  396.500  109.644    0.551    0.249    3.093
  396.750  110.402    0.560    0.256    3.009
  397.000  111.408    0.561    0.251    3.005
  397.250  110.953    0.558    0.245    3.070
  397.500  106.261    0.583    0.239    3.143
  397.750   99.556    0.602    0.248    3.210
  398.000  102.805    0.584    0.264    3.218
  398.250  104.355    0.560    0.263    3.190
  398.500  103.418    0.545    0.256    3.104
  398.750  101.818    0.556    0.266    3.009
  399.000   99.244    0.567    0.268    3.414
  399.250   96.483    0.561    0.253    3.832
  399.500   92.511    0.527    0.244    4.283
  399.750   85.931    0.496    0.249    4.724
  400.000   81.656    0.475    0.253    5.164
  400.250   87.033    0.461    0.244    5.456
  400.500   91.793    0.464    0.235    5.690
  400.750   93.707    0.486    0.236    5.879
  401.000   88.646    0.499    0.241    5.961
  401.250   85.888    0.484    0.243    5.954
  401.500   86.348    0.471    0.236    5.826
  401.750   87.474    0.460    0.228    5.636
  402.000   88.479    0.451    0.218    5.271
  402.250   87.967    0.456    0.214    4.785
  402.500   86.601    0.458    0.237    4.246
  402.750   91.063    0.453    0.259    3.811
  403.000   96.987    0.452    0.252    3.344
  403.250   99.441    0.487    0.239    3.340
  403.500  100.144    0.511    0.228    3.769
  403.750   99.022    0.499    0.223    4.142
  404.000  100.273    0.507    0.224    4.495
  404.250  101.942    0.520    0.227    4.617
  404.500  101.428    0.531    0.236    4.629
  404.750   99.761    0.538    0.249    4.428
  405.000  101.311    0.532    0.250    3.982
  405.250  104.929    0.528    0.243    3.689
  405.500  106.296    0.533    0.236    3.451
  405.750  106.631    0.540    0.232    3.389
  406.000  106.787    0.521    0.229    3.366
  406.250  107.305    0.513    0.229    3.250
  406.500  108.025    0.531    0.228    3.198
  406.750  108.223    0.550    0.223    3.212
  407.000  108.880    0.554    0.210    3.369
  407.250  108.772    0.530    0.201    3.614
  407.500  108.259    0.494    0.207    3.748
  407.750  107.684    0.476    0.216    3.793
  408.000  106.888    0.513    0.230    3.733
  408.250  107.326    0.546    0.240    3.578
  408.500  109.361    0.543    0.252    3.500
  408.750  112.004    0.535    0.255    3.412
  409.000  113.190    0.547    0.253    3.465
  409.250  110.555    0.551    0.255    3.745
  409.500  104.401    0.531    0.261    4.210
  409.750   96.550    0.497    0.259    4.602
  410.000   92.273    0.471    0.252    4.853
  410.250   91.216    0.453    0.241    5.033
  410.500   94.045    0.472    0.237    5.161
  410.750   95.042    0.497    0.234    5.223
  411.000   95.078    0.503    0.232    5.207
  411.250   94.198    0.496    0.231    5.019
  411.500   93.144    0.496    0.235    4.721
  411.750   91.728    0.510    0.244    4.399
  412.000   90.368    0.524    0.255    4.153
  412.250   89.541    0.531    0.264    4.079
  412.500   87.998    0.511    0.272    4.367
  412.750   84.877    0.494    0.279    4.675
  413.000   80.359    0.481    0.287    5.110
  413.250   77.786    0.470    0.296    5.535
  413.500   78.849    0.459    0.305    5.610
  413.750   81.978    0.449    0.304    5.397
  414.000   80.676    0.449    0.281    5.271
  414.250   74.460    0.479    0.264    5.761
  414.500   68.003    0.447    0.235    6.564
  414.750   66.402    0.290    0.127    6.831
  415.000   67.162    0.294    0.079    7.070
  415.250   71.014    0.371    0.255    6.726
  415.500   75.415    0.449    0.295    5.925
  415.750   77.814    0.492    0.309    5.531
  416.000   74.031    0.503    0.315    5.173
  416.250   71.450    0.496    0.323    5.071
  416.500   73.305    0.490    0.329    5.085
  416.750   75.101    0.487    0.334    5.136
  417.000   75.433    0.474    0.336    5.217
  417.250   75.951    0.465    0.333    5.301
  417.500   80.842    0.474    0.324    5.354
  417.750   83.176    0.474    0.304    5.417
  418.000   81.936    0.466    0.287    5.452
  418.250   85.128    0.459    0.274    5.518
  418.500   89.237    0.453    0.267    5.500
  418.750   90.653    0.450    0.267    5.443
  419.000   94.167    0.452    0.268    5.396
  419.250   95.097    0.460    0.257    5.492
  419.500   95.664    0.455    0.248    5.706
  419.750   91.878    0.453    0.241    5.884
  420.000   90.756    0.463    0.246    5.988
  420.250   93.399    0.470    0.256    5.903
  420.500   93.860    0.464    0.260    5.459
  420.750   91.708    0.466    0.259    4.836
  421.000   92.712    0.491    0.263    4.119
  421.250   95.542    0.514    0.265    3.668
  421.500   98.614    0.541    0.260    3.083
  421.750  100.152    0.563    0.255    2.478
  422.000  102.563    0.584    0.252    2.424
  422.250  103.075    0.603    0.252    2.340
  422.500  102.920    0.598    0.263    2.329
  422.750  101.195    0.574    0.275    2.270
  423.000  100.256    0.562    0.283    2.213
  423.250  101.564    0.579    0.281    2.239
  423.500  101.177    0.575    0.267    2.340
  423.750   98.842    0.551    0.254    2.491
  424.000   98.389    0.538    0.255    2.598
  424.250  100.671    0.530    0.263    2.669
  424.500  102.826    0.546    0.255    2.661
  424.750  104.374    0.568    0.253    2.713
  425.000  103.135    0.586    0.261    3.096
  425.250   97.768    0.565    0.270    3.507
  425.500   91.733    0.508    0.265    3.883
  425.750   85.580    0.463    0.258    4.350
  426.000   84.643    0.480    0.251    4.674
  426.250   84.251    0.477    0.257    5.254
  426.500   77.915    0.478    0.252    6.102
  426.750   71.098    0.412    0.219    6.433
  427.000   67.851    0.382    0.198    7.005
  427.250   66.125    0.406    0.188    7.345
  427.500   70.957    0.428    0.249    7.661
  427.750   73.410    0.445    0.293    7.608
  428.000   73.631    0.435    0.297    7.306
  428.250   77.545    0.424    0.268    7.002
  428.500   81.887    0.439    0.247    6.864
  428.750   82.037    0.451    0.254    6.792
  429.000   82.496    0.462    0.252    6.900
  429.250   83.135    0.460    0.229    7.009
  429.500   82.017    0.459    0.216    7.080
  429.750   84.785    0.461    0.220    7.045
  430.000   85.601    0.469    0.231    6.714
  430.250   85.028    0.480    0.237    6.244
