~VERSION INFORMATION
 VERS.                 2.0:   CWLS LOG ASCII STANDARD -VERSION 2.0
 WRAP.                  NO:   ONE LINE PER DEPTH STEP
~WELL INFORMATION BLOCK
#MNEM.UNIT           DATA                    DESCRIPTION OF MNEMONIC
#---------    -------------------            -------------------------------
# Generated from Intellog Unique Number	CW_82_90/WELL/3080
WELL.         11-32-086-22W4                 : Well_name    - WELL
LOC .         00/11-32-086-22W4/0            : Location     - LOCATION
UWI .         00/11-32-086-22W4/0            : Uwi          - UNIQUE WELL ID
ENTR.         MAX                            : Entered      - ENTERED BY
SRVC.         SCHLUMBERGER                   : Scn          - SERVICE COMPANY
STRT.M        152.4                          : top_depth    - START DEPTH
STOP.M        347.4                          : bot_depth    - STOP DEPTH
STEP.M        0.25                           : increment    - STEP LENGTH
 NULL. -999.2500:NULL Value
~CURVE INFORMATION BLOCK
#MNEM UNIT       ERCB CURVE CODE    CURVE DESCRIPTION
#-----------   ------------------   ----------------------------------
DEPT.M        00 001 00 00         : DEPTH        - DEPTH
ILD .OHMM     00 120 00 00         : RESD         - DEEP RESISTIVITY (DIL)
NPHI.V/V      00 330 00 00         : PHIN         - NEUTRON POROSITY (SANDSTONE)
DPHI.V/V      00 890 00 00         : PHID         - DENSITY POROSITY (SANDSTONE)
CALI.MM       00 280 01 00         : CAL          - CALIPER
GR  .API      00 310 00 00         : GR           - GAMMA RAY
~PARAMETER INFORMATION
#MNEM.UNIT           DATA             DESCRIPTION OF MNEMONIC
#---------         -----------     ------------------------------
GL  .M        563.88               : gl           - GROUND LEVEL ELEVATION
EREF.M        567.233              : kb           - ELEVATION OF DEPTH REFERENCE
DATM.M        563.88               : datum        - DATUM ELEVATION
TDD .M        350.52               : tdd          - TOTAL DEPTH DRILLER
RUN .         ONE                  : Run          - RUN NUMBER
ENG .         BILL                 : Engineer     - RECORDING ENGINEER
WIT .         JIM                  : Witness      - WITNESSED BY
MUD .         GEL                  : Mud_type     - MUD TYPE
MATR.         SANDSTONE            : Logunit      - NEUTRON MATRIX
TMAX.C        20.5556              : BHT          - MAXIMUM RECORDED TEMPERATURE
BHTD.M        2.56383e+06          : BHTDEP       - MAXIMUM RECORDED TEMPERATURE
MATR.         1                    : LOGUNIT      - NEUTRON MATRIX
RMT .C        15.5556              : MDTP         - TEMPERATURE OF MUD
NEUT.         1                    : NEUTRON      - NEUTRON TYPE
RESI.         0                    : RESIST       - RESISTIVITY TYPE
RMC .OHMM     4.28                 : RMC          - RESISTIVITY OF MUD CAKE
RMF .OHMM     3.31                 : RMF          - RESISTIVITY OF MUD FILTRATE
SUFT.C        -17.7778             : SUFT         - SURFACE TEMPERATURE
~A  DEPTH     RESD     PHIN     PHID      CAL       GR
# ...
  188.900   11.612    0.477    0.279  300.256   81.035
  189.150   10.709    0.475    0.267  302.216   82.191
  189.400   10.425    0.486    0.256  304.176   84.787
  189.650   10.909    0.496    0.242  300.292   83.357
  189.900   11.518    0.469    0.249  297.871   83.077
  190.150   11.521    0.447    0.245  298.371   83.084
  190.400   10.917    0.438    0.239  298.870   83.667
  190.650   10.724    0.456    0.253  299.859   90.289
  190.900   11.636    0.480    0.265  299.868   88.858
  191.150   11.429    0.480    0.276  298.420   85.415
  191.400   11.745    0.457    0.275  298.433   81.971
  191.650   12.290    0.430    0.273  300.880   78.814
  191.900   12.860    0.417    0.253  300.892   69.906
  192.150   13.335    0.414    0.230  300.419   60.423
  192.400   14.730    0.379    0.218  297.997   54.103
  192.650   17.968    0.354    0.186  298.009   49.221
  192.900   23.136    0.296    0.130  300.456   46.640
  193.150   39.761    0.252    0.030  301.929   42.910
  193.400   57.052    0.184    0.039  301.457   40.616
  193.650   78.962    0.101    0.110  300.982   42.348
  193.900   74.821    0.197    0.229  300.018   46.958
  194.150   67.766    0.233    0.286  296.135   50.704
  194.400   50.786    0.294    0.335  295.175   50.425
  194.650   42.800    0.368    0.360  293.726   49.569
  194.900   41.290    0.424    0.357  294.713   49.290
  195.150   38.427    0.419    0.358  295.212   48.720
  195.400   37.071    0.414    0.357  295.225   46.714
  195.650   37.415    0.416    0.356  295.237   44.996
  195.900   38.107    0.414    0.358  294.762   47.016
  196.150   38.115    0.413    0.361  294.777   46.163
  196.400   37.783    0.422    0.356  294.789   45.593
  196.650   37.451    0.423    0.353  294.799   45.025
  196.900   37.124    0.420    0.356  294.326   45.035
  197.150   37.132    0.412    0.356  294.338   45.330
  197.400   36.808    0.417    0.353  294.838   45.336
  197.650   35.835    0.427    0.360  294.850   45.055
  197.900   34.886    0.425    0.372  294.375   45.063
  198.150   34.271    0.431    0.376  293.903   45.070
  198.400   33.970    0.450    0.373  294.400   45.653
  198.650   33.370    0.458    0.372  294.902   46.811
  198.900   32.782    0.431    0.370  294.914   47.106
  199.150   31.914    0.405    0.370  294.924   47.402
  199.400   31.350    0.393    0.370  294.939   47.120
  199.650   31.075    0.406    0.370  294.463   46.554
  199.900   30.254    0.411    0.371  293.992   46.272
  200.150   29.453    0.409    0.372  294.003   46.280
  200.400   28.416    0.428    0.373  294.014   46.575
  200.650   26.683    0.446    0.372  294.026   49.171
  200.900   22.897    0.440    0.349  294.525   49.179
  201.150   22.900    0.435    0.311  296.001   49.187
  201.400   24.843    0.456    0.284  296.500   50.057
  201.650   26.951    0.453    0.341  296.510   50.064
  201.900   27.447    0.429    0.372  296.524   49.495
  202.150   26.963    0.424    0.375  296.537   49.504
  202.400   26.727    0.430    0.373  296.551   51.811
  202.650   26.255    0.436    0.368  296.564   53.545
  202.900   26.026    0.447    0.363  296.576   53.551
  203.150   25.798    0.453    0.358  296.589   52.697
  203.400   25.572    0.445    0.355  296.598   52.416
  203.650   25.349    0.449    0.362  296.126   52.423
  203.900   25.127    0.452    0.368  296.138   52.144
  204.150   24.684    0.461    0.371  296.640   53.876
  204.400   24.030    0.461    0.370  296.649   53.883
  204.650   23.395    0.434    0.366  296.664   56.479
  204.900   22.369    0.418    0.362  297.163   63.101
  205.150   21.194    0.421    0.354  297.173   71.736
  205.400   18.349    0.437    0.334  297.188   82.960
  205.650   10.586    0.454    0.288  298.661   91.883
  205.900    7.653    0.472    0.247  301.598  101.094
  206.150    6.220    0.499    0.228  303.556  105.991
  206.400    4.921    0.531    0.243  304.057  109.162
  206.650    4.377    0.526    0.239  303.093  112.045
  206.900    4.074    0.517    0.229  303.595  112.915
  207.150    4.038    0.518    0.243  303.120  111.485
  207.400    4.112    0.492    0.246  303.133  111.780
  207.650    4.226    0.482    0.243  303.144  113.225
  207.900    4.343    0.496    0.236  303.157  115.246
  208.150    4.463    0.518    0.220  303.167  116.116
  208.400    4.505    0.509    0.221  303.185  115.836
  208.650    4.547    0.506    0.221  303.194  114.405
  208.900    4.548    0.525    0.221  303.209  113.551
  209.150    4.508    0.539    0.228  303.218  112.983
  209.400    4.469    0.536    0.235  303.233  114.428
  209.650    4.470    0.523    0.241  302.269  117.885
  209.900    4.391    0.515    0.237  301.310  114.443
  210.150    4.275    0.510    0.236  301.809  111.574
  210.400    4.276    0.489    0.242  302.794  109.855
  210.650    4.277    0.488    0.242  304.755  111.588
  210.900    4.239    0.511    0.241  304.768  112.171
  211.150    4.202    0.531    0.237  304.780  111.029
  211.400    4.203    0.537    0.232  304.792  110.173
  211.650    4.166    0.507    0.230  304.804  109.892
  211.900    4.167    0.501    0.230  304.819  109.899
  212.150    4.168    0.511    0.238  304.832  109.620
  212.400    4.169    0.516    0.245  304.844  108.190
  212.650    4.208    0.531    0.251  304.856  107.909
  212.900    4.286    0.544    0.254  304.867  107.053
  213.150    4.326    0.532    0.258  305.855  105.910
  213.400    4.405    0.498    0.263  305.380  105.629
  213.650    4.487    0.510    0.268  304.905  101.324
  213.900    4.569    0.519    0.274  304.917   99.030
  214.150    4.696    0.507    0.276  305.906   97.024
  214.400    4.739    0.491    0.272  305.918   96.456
  214.650    4.871    0.490    0.267  305.930   95.889
  214.900    4.961    0.492    0.263  305.458   93.883
  215.150    5.144    0.476    0.258  305.468   91.590
  215.400    5.431    0.461    0.253  305.480   89.584
  215.650    5.839    0.465    0.246  305.495   87.866
  215.900    6.508    0.461    0.257  306.481   85.284
  216.150    8.157    0.460    0.280  306.978   82.704
  216.400    8.769    0.465    0.289  306.503   80.123
  216.650    8.015    0.434    0.310  304.570   80.993
  216.900    6.693    0.438    0.306  305.067   82.725
  217.150    5.691    0.464    0.289  306.055   84.459
  217.400    4.972    0.475    0.256  307.042   87.629
  217.650    4.669    0.477    0.224  309.976   92.814
  217.900    4.385    0.474    0.179  310.477   97.423
  218.150    4.268    0.476    0.180  310.488  103.182
  218.400    4.118    0.488    0.200  310.500  107.216
  218.650    4.045    0.494    0.204  310.512  110.675
  218.900    3.974    0.506    0.220  310.527  112.984
  219.150    4.011    0.511    0.240  311.025  112.991
  219.400    4.159    0.501    0.268  311.038  108.683
  219.650    4.512    0.503    0.283  312.027  101.789
  219.900    4.895    0.497    0.278  312.037   94.031
  220.150    5.606    0.489    0.259  313.023   90.875
  220.400    6.248    0.482    0.259  314.498   87.143
  220.650    7.155    0.473    0.263  314.509   85.137
  220.900    7.903    0.463    0.271  314.036   84.283
  221.150    8.651    0.448    0.282  313.559   81.989
  221.400    9.301    0.436    0.294  307.730   79.983
  221.650    9.732    0.442    0.288  309.203   78.265
  221.900   10.002    0.450    0.277  310.189   77.121
  222.150   10.095    0.433    0.274  309.717   75.403
  222.400   10.006    0.406    0.246  310.214   73.685
  222.650    9.918    0.418    0.250  310.713   71.967
  222.900    9.921    0.427    0.301  310.727   75.138
  223.150   10.288    0.437    0.300  311.225   78.885
  223.400   10.766    0.448    0.294  311.239   76.880
  223.650   10.963    0.422    0.284  311.254   75.448
  223.900   11.166    0.417    0.288  311.263   75.455
  224.150   11.169    0.422    0.290  311.275   76.325
  224.400   11.171    0.430    0.288  311.775   77.771
  224.650   11.174    0.425    0.289  312.277   78.641
  224.900   11.176    0.427    0.300  312.776   78.648
  225.150   10.881    0.470    0.306  313.275   79.519
