~VERSION INFORMATION
 VERS.                 2.0:   CWLS LOG ASCII STANDARD -VERSION 2.0
 WRAP.                  NO:   ONE LINE PER DEPTH STEP
~WELL INFORMATION BLOCK
#MNEM.UNIT           DATA                    DESCRIPTION OF MNEMONIC
#---------    -------------------            -------------------------------
# Generated from Intellog Unique Number	CW_70_72/WELL/3750
NULL.         -999.25                        : NULL_VALUE
WELL.         NORCEN ENERGY RESOURCES LTD.   : Well_name    - WELL              
LOC .         00/10-22-071-05W5/0            : Location     - LOCATION          
UWI .         00/10-22-071-05W5/0            : Uwi          - UNIQUE WELL ID    
ENTR.         JOETTE                         : Entered      - ENTERED BY        
SRVC.         COMPUTALOG                     : Scn          - SERVICE COMPANY   
DATE.         05/13/92                       : Date         - LOG DATE          
STRT.M        610                            : top_depth    - START DEPTH       
STOP.M        835                            : bot_depth    - STOP DEPTH        
STEP.M        0.25                           : increment    - STEP LENGTH       
~CURVE INFORMATION BLOCK
#MNEM UNIT       ERCB CURVE CODE    CURVE DESCRIPTION
#-----------   ------------------   ----------------------------------
DEPT.M        00 001 00 00         : DEPTH        - DEPTH                       
DPHI.V/V      00 890 00 00         : PHID         - DENSITY POROSITY (SANDSTONE)
GR  .API      00 310 00 00         : GR           - GAMMA RAY                   
CALI.MM       00 280 01 00         : CAL          - CALIPER                     
ILD .OHMM     00 120 00 00         : RESD         - DEEP RESISTIVITY (DIL)      
NPHI.V/V      00 330 00 00         : PHIN         - NEUTRON POROSITY (SANDSTONE)
~PARAMETER INFORMATION       
#MNEM.UNIT           DATA             DESCRIPTION OF MNEMONIC
#---------         -----------     ------------------------------
GL  .M        778.85               : gl           - GROUND LEVEL ELEVATION      
EREF.M        782.2                : kb           - ELEVATION OF DEPTH REFERENCE
DATM.M        782.2                : datum        - DATUM ELEVATION             
TDD .M        874.9                : tdd          - TOTAL DEPTH DRILLER         
RUN .         ONE                  : Run          - RUN NUMBER                  
ENG .         BILL                 : Engineer     - RECORDING ENGINEER          
WIT .         JIM                  : Witness      - WITNESSED BY                
MUD .         GEL                  : Mud_type     - MUD TYPE                    
MATR.         SANDSTONE            : Logunit      - NEUTRON MATRIX              
TMAX.C        39                   : BHT          - MAXIMUM RECORDED TEMPERATURE
BHTD.M        874.9                : BHTDEP       - MAXIMUM RECORDED TEMPERATURE
MATR.         1                    : LOGUNIT      - NEUTRON MATRIX              
RMT .C        24.4                 : MDTP         - TEMPERATURE OF MUD          
NEUT.         1                    : NEUTRON      - NEUTRON TYPE                
RESI.         0                    : RESIST       - RESISTIVITY TYPE            
RMC .OHMM     2.7                  : RMC          - RESISTIVITY OF MUD CAKE     
RMF .OHMM     4.4                  : RMF          - RESISTIVITY OF MUD FILTRATE 
SUFT.C        15                   : SUFT         - SURFACE TEMPERATURE         
~A  DEPTH     PHID       GR      CAL     RESD     PHIN
# ...
  756.000    0.244   75.120  195.531    3.243    0.401
  756.250    0.239   75.772  195.587    3.307    0.398
  756.500    0.227   75.817  194.592    3.505    0.403
  756.750    0.201   82.821  195.774    3.574    0.411
  757.000    0.187   87.279  195.830    3.717    0.411
  757.250    0.172   89.858  195.886    3.864    0.391
  757.500    0.166   89.249  197.049    3.866    0.375
  757.750    0.166   87.403  197.105    3.944    0.373
  758.000    0.167   84.936  196.147    3.871    0.362
  758.250    0.177   83.078  195.152    3.873    0.347
  758.500    0.193   80.600  194.176    3.876    0.330
  758.750    0.217   76.231  194.250    3.805    0.337
  759.000    0.226   69.982  195.357    3.807    0.362
  759.250    0.238   66.232  197.534    3.667    0.383
  759.500    0.241   65.657  198.678    3.464    0.399
  759.750    0.239   66.963  197.720    3.211    0.397
  760.000    0.239   68.911  196.706    3.034    0.394
  760.250    0.240   69.564  196.800    3.036    0.394
  760.500    0.240   71.511  197.944    3.038    0.386
  760.750    0.231   73.448  199.051    2.926    0.379
  761.000    0.224   75.384  200.176    2.765    0.365
  761.250    0.227   76.701  201.339    2.563    0.372
  761.500    0.242   73.571  201.414    2.515    0.382
  761.750    0.258   67.941  201.451    2.422    0.385
  762.000    0.269   65.463  199.442    2.425    0.388
  762.250    0.258   67.411  198.466    2.473    0.388
  762.500    0.240   68.097  197.490    2.522    0.399
  762.750    0.223   67.511  198.597    2.572    0.397
  763.000    0.201   70.720  199.722    2.574    0.388
  763.250    0.209   72.004  201.899    2.575    0.382
  763.500    0.219   75.201  202.029    2.433    0.385
  763.750    0.232   79.029  202.067    2.256    0.387
  764.000    0.246   82.227  202.141    2.172    0.385
  764.250    0.262   82.272  201.183    1.976    0.381
  764.500    0.280   63.400  201.221    1.832    0.373
  764.750    0.298   60.291  200.263    1.798    0.364
  765.000    0.300   59.075  200.338    1.765    0.366
  765.250    0.298   60.403  199.361    1.733    0.376
  765.500    0.298   60.426  199.436    1.701    0.387
  765.750    0.299   59.209  199.511    1.701    0.399
  766.000    0.306   59.254  198.534    1.670    0.421
  766.250    0.307   60.571  198.665    1.640    0.418
  766.500    0.302   61.246  198.683    1.610    0.392
  766.750    0.296   59.400  198.758    1.581    0.372
  767.000    0.302   58.172  198.833    1.581    0.377
  767.250    0.312   55.694  198.926    1.582    0.385
  767.500    0.311   54.478  199.000    1.614    0.390
  767.750    0.305   54.534  199.094    1.678    0.393
  768.000    0.302   55.198  199.131    1.711    0.382
  768.250    0.300   57.788  199.224    1.745    0.364
  768.500    0.299   58.463  199.280    1.780    0.375
  768.750    0.298   57.235  199.373    1.815    0.390
  769.000    0.298   54.758  199.429    1.852    0.408
  769.250    0.297   54.803  199.523    1.853    0.413
  769.500    0.297   56.109  199.579    1.854    0.408
  769.750    0.298   57.414  199.672    1.855    0.406
  770.000    0.302   58.720  199.784    1.856    0.398
  770.250    0.300   59.396  199.840    1.857    0.389
  770.500    0.294   58.810  199.896    1.823    0.390
  770.750    0.293   58.855  199.989    1.790    0.396
  771.000    0.297   59.541  200.045    1.791    0.406
  771.250    0.303   60.847  200.157    1.725    0.421
  771.500    0.307   61.522  200.194    1.693    0.421
  771.750    0.309   61.567  200.287    1.694    0.415
  772.000    0.309   60.351  200.343    1.695    0.410
  772.250    0.304   57.231  200.418    1.797    0.406
  772.500    0.305   54.765  200.492    1.940    0.390
  772.750    0.302   56.713  200.567    2.136    0.387
  773.000    0.291   59.280  200.642    2.179    0.374
  773.250    0.290   60.586  200.716    2.180    0.364
  773.500    0.295   60.000  199.740    2.140    0.371
  773.750    0.302   59.403  199.815    2.225    0.380
  774.000    0.298   58.187  198.876    2.313    0.390
  774.250    0.274   56.970  198.950    2.451    0.394
  774.500    0.233   55.123  199.006    2.548    0.301
  774.750    0.233   53.907  199.099    2.600    0.268
  775.000    0.257   55.843  199.155    2.551    0.326
  775.250    0.272   58.422  199.249    2.410    0.345
  775.500    0.304   59.097  199.342    2.278    0.371
  775.750    0.330   59.130  199.379    2.236    0.380
  776.000    0.335   59.198  199.491    2.195    0.390
  776.250    0.302   58.589  198.496    2.238    0.373
  776.500    0.289   58.645  198.552    2.372    0.342
  776.750    0.259   58.071  198.664    2.662    0.279
  777.000    0.229   57.474  198.701    2.821    0.259
  777.250    0.165   55.627  198.813    3.165    0.256
  777.500    0.148   52.519  198.850    3.552    0.257
  777.750    0.152   48.791  198.962    3.554    0.258
  778.000    0.162   48.847  199.000    3.294    0.256
  778.250    0.178   50.131  200.162    2.884    0.261
  778.500    0.231   52.709  200.218    2.525    0.282
  778.750    0.296   54.634  200.330    2.296    0.326
  779.000    0.290   58.485  200.368    2.088    0.344
  779.250    0.285   59.779  200.461    2.049    0.383
  779.500    0.283   61.716  200.535    2.012    0.382
  779.750    0.289   62.380  200.629    2.013    0.387
  780.000    0.295   63.697  200.666    2.054    0.383
  780.250    0.293   64.373  200.759    2.095    0.381
  780.500    0.298   64.428  200.815    2.095    0.393
  780.750    0.304   63.212  200.890    2.097    0.400
  781.000    0.312   62.615  201.002    2.098    0.400
  781.250    0.309   60.138  201.058    2.060    0.395
  781.500    0.303   57.671  200.100    2.022    0.390
  781.750    0.294   56.444  200.156    2.023    0.383
  782.000    0.289   55.869  199.161    1.987    0.369
  782.250    0.284   56.556  199.236    1.987    0.367
  782.500    0.283   57.209  199.236    1.988    0.372
  782.750    0.280   59.156  201.543    1.990    0.380
  783.000    0.276   62.376  201.599    1.954    0.386
  783.250    0.271   63.671  201.692    1.917    0.387
  783.500    0.280   64.335  201.729    1.847    0.386
  783.750    0.288   65.010  201.804    1.745    0.384
  784.000    0.293   65.044  201.897    1.649    0.388
  784.250    0.297   63.208  201.972    1.588    0.395
  784.500    0.306   62.003  202.046    1.559    0.391
  784.750    0.312   62.025  202.121    1.560    0.388
  785.000    0.308   61.451  202.214    1.591    0.391
  785.250    0.303   61.496  202.251    1.622    0.401
  785.500    0.299   62.801  202.345    1.687    0.406
  785.750    0.301   62.216  202.438    1.688    0.392
  786.000    0.308   64.163  202.475    1.689    0.392
  786.250    0.312   66.111  202.587    1.690    0.411
  786.500    0.311   66.144  202.643    1.691    0.432
  786.750    0.311   64.917  202.736    1.692    0.429
  787.000    0.321   63.701  202.829    1.693    0.413
  787.250    0.332   62.484  202.867    1.694    0.407
  787.500    0.344   61.910  202.941    1.695    0.415
  787.750    0.362   61.943  203.016    1.729    0.446
  788.000    0.377   61.369  203.091    1.730    0.471
  788.250    0.396   61.402  203.165    1.731    0.477
  788.500    0.419   61.447  203.258    1.732    0.468
  788.750    0.437   61.525  203.352    1.734    0.456
  789.000    0.341   61.548  203.408    1.734    0.440
  789.250    0.321   61.592  203.464    1.735    0.422
  789.500    0.308   61.637  203.575    1.736    0.413
  789.750    0.299   61.693  203.631    1.737    0.411
  790.000    0.286   61.727  203.725    1.738    0.399
  790.250    0.281   62.413  203.762    1.773    0.386
  790.500    0.279   63.719  203.855    1.808    0.377
  790.750    0.280   64.394  203.911    1.844    0.382
  791.000    0.277   62.547  203.986    1.881    0.385
  791.250    0.271   62.592  204.098    1.919    0.382
  791.500    0.274   65.159  204.172    1.957    0.381
  791.750    0.279   66.465  204.247    1.995    0.381
  792.000    0.274   67.760  204.321    2.036    0.380
  792.250    0.265   69.696  204.415    2.116    0.376
