~VERSION INFORMATION
 VERS.                 2.0:   CWLS LOG ASCII STANDARD -VERSION 2.0
 WRAP.                  NO:   ONE LINE PER DEPTH STEP
~WELL INFORMATION BLOCK
#MNEM.UNIT           DATA                    DESCRIPTION OF MNEMONIC
#---------    -------------------            -------------------------------
# Generated from Intellog Unique Number	CW_79_81/WELL/2489
WELL.         13-26-080-22W4                 : Well_name    - WELL
LOC .         00/13-26-080-22W4/0            : Location     - LOCATION
UWI .         00/13-26-080-22W4/0            : Uwi          - UNIQUE WELL ID
ENTR.         MAX                            : Entered      - ENTERED BY
SRVC.         SCHLUMBERGER                   : Scn          - SERVICE COMPANY
STRT.M        185                            : top_depth    - START DEPTH
STOP.M        440                            : bot_depth    - STOP DEPTH
STEP.M        0.25                           : increment    - STEP LENGTH
 NULL. -999.2500:NULL Value
~CURVE INFORMATION BLOCK
#MNEM UNIT       ERCB CURVE CODE    CURVE DESCRIPTION
#-----------   ------------------   ----------------------------------
DEPT.M        00 001 00 00         : DEPTH        - DEPTH
ILD .OHMM     00 120 00 00         : RESD         - DEEP RESISTIVITY (DIL)
NPHI.V/V      00 330 00 00         : PHIN         - NEUTRON POROSITY (SANDSTONE)
DPHI.V/V      00 890 00 00         : PHID         - DENSITY POROSITY (SANDSTONE)
GR  .API      00 310 00 00         : GR           - GAMMA RAY
CALI.MM       00 280 01 00         : CAL          - CALIPER
~PARAMETER INFORMATION
#MNEM.UNIT           DATA             DESCRIPTION OF MNEMONIC
#---------         -----------     ------------------------------
GL  .M        595.95               : gl           - GROUND LEVEL ELEVATION
EREF.M        600.6                : kb           - ELEVATION OF DEPTH REFERENCE
DATM.M        595.95               : datum        - DATUM ELEVATION
TDD .M        449                  : tdd          - TOTAL DEPTH DRILLER
RUN .         ONE                  : Run          - RUN NUMBER
ENG .         BILL                 : Engineer     - RECORDING ENGINEER
WIT .         JIM                  : Witness      - WITNESSED BY
MUD .         GEL                  : Mud_type     - MUD TYPE
MATR.         SANDSTONE            : Logunit      - NEUTRON MATRIX
TMAX.C        36                   : BHT          - MAXIMUM RECORDED TEMPERATURE
BHTD.M        449                  : BHTDEP       - MAXIMUM RECORDED TEMPERATURE
MATR.         1                    : LOGUNIT      - NEUTRON MATRIX
RMT .C        17                   : MDTP         - TEMPERATURE OF MUD
NEUT.         1                    : NEUTRON      - NEUTRON TYPE
RESI.         0                    : RESIST       - RESISTIVITY TYPE
RMC .OHMM     4.46                 : RMC          - RESISTIVITY OF MUD CAKE
RMF .OHMM     4.55                 : RMF          - RESISTIVITY OF MUD FILTRATE
SUFT.C        -20                  : SUFT         - SURFACE TEMPERATURE
~A  DEPTH     RESD     PHIN     PHID       GR      CAL
# ...
  258.000  110.685    0.456    0.351   58.202  219.615
  258.250  124.968    0.445    0.351   58.289  222.639
  258.500  137.047    0.459    0.357   57.746  224.226
  258.750  137.922    0.460    0.365   56.042  224.949
  259.000  137.233    0.454    0.368   55.407  226.267
  259.250  135.053    0.451    0.368   55.722  227.387
  259.500  130.950    0.457    0.367   56.097  227.814
  259.750  123.203    0.476    0.371   54.416  227.094
  260.000  118.442    0.476    0.379   52.146  225.789
  260.250  113.980    0.468    0.374   48.769  225.713
  260.500  111.567    0.476    0.369   48.789  225.646
  260.750  109.386    0.489    0.369   51.131  225.583
  261.000  104.353    0.493    0.368   53.650  225.122
  261.250   87.617    0.479    0.336   52.924  223.201
  261.500   66.832    0.468    0.241   51.885  221.875
  261.750   37.633    0.482    0.292   52.081  221.429
  262.000   34.843    0.497    0.345   53.172  220.671
  262.250   34.000    0.500    0.372   55.157  219.408
  262.500   31.189    0.488    0.369   57.795  217.847
  262.750   27.727    0.473    0.362   59.909  216.334
  263.000   25.078    0.469    0.358   56.386  215.029
  263.250   23.417    0.463    0.373   58.018  213.367
  263.500   22.130    0.459    0.377   60.004  212.006
  263.750   20.582    0.460    0.371   60.319  211.338
  264.000   18.703    0.473    0.353   59.264  211.268
  264.250   16.658    0.500    0.325   59.703  211.205
  264.500   16.258    0.503    0.348   60.899  211.132
  264.750   16.976    0.481    0.371   60.619  211.055
  265.000   18.305    0.468    0.374   59.985  210.989
  265.250   19.498    0.461    0.373   60.300  210.728
  265.500   20.107    0.460    0.374   61.685  210.265
  265.750   20.380    0.460    0.378   63.119  209.777
  266.000   20.346    0.438    0.378   63.319  209.704
  266.250   19.883    0.441    0.372   62.801  209.641
  266.500   19.646    0.444    0.368   60.674  210.465
  266.750   19.912    0.448    0.367   59.205  211.387
  267.000   20.602    0.456    0.370   58.989  211.916
  267.250   21.163    0.474    0.369   58.844  211.928
  267.500   20.977    0.472    0.364   58.309  212.268
  267.750   20.798    0.465    0.361   57.320  212.588
  268.000   20.738    0.459    0.364   57.216  212.615
  268.250   20.636    0.452    0.365   58.721  212.747
  268.500   20.495    0.446    0.364   61.003  212.982
  268.750   20.472    0.451    0.361   61.223  212.736
  269.000   20.450    0.453    0.356   58.945  211.823
  269.250   20.426    0.459    0.355   57.237  210.181
  269.500   20.860    0.468    0.357   57.139  210.616
  269.750   21.308    0.475    0.357   58.410  211.735
  270.000   21.678    0.481    0.356   60.810  212.453
  270.250   22.398    0.491    0.358   63.792  211.974
  270.500   22.905    0.468    0.358   62.257  211.908
  270.750   23.222    0.435    0.355   62.223  211.442
  271.000   23.020    0.447    0.353   63.254  211.273
  271.250   22.569    0.456    0.351   63.922  211.798
  271.500   21.967    0.445    0.351   63.460  212.819
  271.750   20.910    0.437    0.353   61.999  213.610
  272.000   19.793    0.442    0.355   63.195  213.950
  272.250   18.905    0.438    0.358   66.008  214.284
  272.500   18.059    0.431    0.359   66.508  214.915
  272.750   17.453    0.434    0.358   65.041  215.440
  273.000   17.084    0.451    0.355   62.022  215.668
  273.250   16.706    0.473    0.349   57.679  215.604
  273.500   16.181    0.478    0.352   56.401  215.532
  273.750   15.569    0.480    0.361   57.302  215.455
  274.000   14.896    0.494    0.362   56.967  215.389
  274.250   14.505    0.501    0.363   56.099  215.322
  274.500   14.518    0.496    0.365   55.464  215.254
  274.750   14.956    0.481    0.362   55.887  215.093
  275.000   15.053    0.476    0.362   55.852  214.600
  275.250   15.151    0.454    0.363   55.330  214.530
  275.500   14.994    0.442    0.361   56.239  215.363
  275.750   14.811    0.449    0.361   56.199  216.490
  276.000   14.629    0.470    0.362   54.376  217.413
  276.250   14.268    0.477    0.359   51.470  217.567
  276.500   14.143    0.465    0.353   51.427  216.668
  276.750   14.128    0.454    0.348   50.667  215.805
  277.000   14.113    0.466    0.347   51.344  215.229
  277.250   13.992    0.478    0.345   53.091  215.159
  277.500   13.822    0.483    0.338   55.191  215.498
  277.750   13.845    0.489    0.319   57.069  215.900
  278.000   14.046    0.497    0.304   59.508  216.240
  278.250   14.132    0.484    0.227   63.748  216.970
  278.500   14.219    0.451    0.225   62.633  218.285
  278.750   14.256    0.431    0.264   59.494  219.593
  279.000   14.295    0.432    0.312   57.013  220.606
  279.250   14.622    0.436    0.347   57.362  221.332
  279.500   15.300    0.445    0.353   58.062  221.274
  279.750   16.209    0.461    0.343   56.350  221.990
  280.000   17.551    0.445    0.216   53.571  222.127
  280.250   19.428    0.358    0.138   51.392  221.866
  280.500   21.537    0.260    0.161   51.117  221.200
  280.750   22.112    0.326    0.234   54.276  219.922
  281.000   19.698    0.382    0.286   57.215  219.863
  281.250   16.030    0.416    0.320   58.839  219.787
  281.500   14.626    0.432    0.334   60.635  219.720
  281.750   14.296    0.442    0.343   61.307  219.452
  282.000   14.571    0.456    0.354   60.261  219.080
  282.250   15.332    0.484    0.359   56.903  219.081
  282.500   16.555    0.507    0.352   53.385  219.436
  282.750   17.157    0.488    0.355   55.012  220.152
  283.000   17.010    0.479    0.357   57.529  220.289
  283.250   16.365    0.472    0.349   60.105  220.223
  283.500   15.553    0.466    0.337   62.385  220.247
  283.750   14.722    0.463    0.342   65.226  220.559
  284.000   14.041    0.449    0.348   68.896  220.486
  284.250   13.613    0.435    0.344   66.955  220.431
  284.500   13.425    0.424    0.342   62.866  220.349
  284.750   13.310    0.415    0.340   60.090  220.275
  285.000   13.196    0.413    0.338   59.638  220.218
  285.250   13.082    0.432    0.336   60.163  220.140
  285.500   13.055    0.436    0.338   60.615  220.068
  285.750   12.954    0.448    0.337   61.766  220.401
  286.000   12.774    0.441    0.334   63.804  220.427
  286.250   12.713    0.429    0.333   65.309  220.357
  286.500   12.722    0.421    0.334   65.687  220.195
  286.750   12.499    0.424    0.336   65.160  219.804
  287.000   12.389    0.443    0.333   65.117  220.144
  287.250   12.284    0.443    0.329   66.022  220.471
  287.500   12.180    0.441    0.324   66.580  220.495
  287.750   12.116    0.441    0.320   66.664  220.227
  288.000   12.097    0.442    0.317   66.446  219.769
  288.250   12.091    0.437    0.314   66.246  219.302
  288.500   12.075    0.433    0.315   65.455  219.230
  288.750   12.062    0.438    0.325   64.232  218.367
  289.000   12.049    0.446    0.328   63.713  217.499
  289.250   11.990    0.451    0.328   63.552  216.636
  289.500   11.909    0.453    0.329   63.573  216.274
  289.750   11.895    0.453    0.338   63.957  217.627
  290.000   11.883    0.453    0.345   64.901  218.793
  290.250   12.045    0.452    0.345   65.105  217.937
  290.500   12.144    0.452    0.342   65.297  217.379
  290.750   12.085    0.451    0.339   65.495  217.114
  291.000   11.894    0.451    0.338   65.402  217.142
  291.250   11.776    0.451    0.336   64.000  217.531
  291.500   12.130    0.451    0.324   61.978  217.879
  291.750   12.759    0.400    0.309   60.505  217.809
  292.000   13.275    0.384    0.307   61.892  217.436
  292.250   13.361    0.401    0.314   64.115  217.175
  292.500   12.979    0.431    0.323   65.206  217.121
  292.750   12.301    0.438    0.328   62.807  217.037
  293.000   11.827    0.437    0.335   60.537  216.964
  293.250   11.553    0.436    0.338   61.685  216.505
  293.500   11.411    0.438    0.338   63.540  216.624
  293.750   11.354    0.441    0.335   64.921  216.951
  294.000   11.363    0.446    0.329   65.417  217.288
  294.250   11.434    0.453    0.326   65.128  217.685
