~VERSION INFORMATION
 VERS.                 2.0:   CWLS LOG ASCII STANDARD -VERSION 2.0
 WRAP.                  NO:   ONE LINE PER DEPTH STEP
~WELL INFORMATION BLOCK
#MNEM.UNIT           DATA                    DESCRIPTION OF MNEMONIC
#---------    -------------------            -------------------------------
# Generated from Intellog Unique Number	CS_67_68/WELL/2217
WELL.         15-01-067-06W4                 : Well_name    - WELL
LOC .         00/15-01-067-06W4/0            : Location     - LOCATION
UWI .         00/15-01-067-06W4/0            : Uwi          - UNIQUE WELL ID
ENTR.         SP                             : Entered      - ENTERED BY
SRVC.         SCHLUMBERGER                   : Scn          - SERVICE COMPANY
STRT.M        315                            : top_depth    - START DEPTH
STOP.M        535                            : bot_depth    - STOP DEPTH
STEP.M        0.25                           : increment    - STEP LENGTH
 NULL. -999.2500:NULL Value
~CURVE INFORMATION BLOCK
#MNEM UNIT       ERCB CURVE CODE    CURVE DESCRIPTION
#-----------   ------------------   ----------------------------------
DEPT.M        00 001 00 00         : DEPTH        - DEPTH
ILD .OHMM     00 120 00 00         : RESD         - DEEP RESISTIVITY (DIL)
DPHI.V/V      00 890 00 00         : PHID         - DENSITY POROSITY (LIMESTONE)
NPHI.V/V      00 330 00 00         : PHIN         - NEUTRON POROSITY (LIMESTONE)
GR  .API      00 310 00 00         : GR           - GAMMA RAY
CALI.MM       00 280 01 00         : CAL          - CALIPER
~PARAMETER INFORMATION
#MNEM.UNIT           DATA             DESCRIPTION OF MNEMONIC
#---------         -----------     ------------------------------
GL  .M        647.05               : gl           - GROUND LEVEL ELEVATION
EREF.M        650.03               : kb           - ELEVATION OF DEPTH REFERENCE
DATM.M        650.03               : datum        - DATUM ELEVATION
TDD .M        542                  : tdd          - TOTAL DEPTH DRILLER
RUN .         ONE                  : Run          - RUN NUMBER
ENG .         BILL                 : Engineer     - RECORDING ENGINEER
WIT .         JIM                  : Witness      - WITNESSED BY
MUD .         GEL                  : Mud_type     - MUD TYPE
MATR.         LIMESTONE            : Logunit      - NEUTRON MATRIX
TMAX.C        18.8                 : BHT          - MAXIMUM RECORDED TEMPERATURE
BHTD.M        544                  : BHTDEP       - MAXIMUM RECORDED TEMPERATURE
MATR.         1                    : LOGUNIT      - NEUTRON MATRIX
RMT .C        25                   : MDTP         - TEMPERATURE OF MUD
NEUT.         1                    : NEUTRON      - NEUTRON TYPE
RESI.         0                    : RESIST       - RESISTIVITY TYPE
RMC .OHMM     0.25                 : RMC          - RESISTIVITY OF MUD CAKE
RMF .OHMM     0.25                 : RMF          - RESISTIVITY OF MUD FILTRATE
SUFT.C        15                   : SUFT         - SURFACE TEMPERATURE
~A  DEPTH     RESD     PHID     PHIN       GR      CAL
# ...
  351.500    5.860    0.274    0.466   85.214  161.868
  351.750    5.507    0.274    0.483   86.123  161.250
  352.000    5.404    0.280    0.483   87.032  161.041
  352.250    5.404    0.287    0.471   88.185  160.729
  352.500    5.444    0.291    0.468   89.216  160.417
  352.750    5.495    0.288    0.490   89.455  160.003
  353.000    5.525    0.278    0.487   89.328  159.893
  353.250    5.556    0.269    0.479   89.202  159.886
  353.500    5.576    0.263    0.477   89.198  159.575
  353.750    5.628    0.261    0.480   89.254  159.771
  354.000    5.670    0.264    0.494   89.493  159.864
  354.250    5.712    0.281    0.503   89.367  159.857
  354.500    5.722    0.282    0.498   89.241  159.849
  354.750    5.732    0.272    0.489   89.418  159.842
  355.000    5.732    0.267    0.483   89.840  159.835
  355.250    5.731    0.267    0.485   90.627  159.928
  355.500    5.731    0.266    0.484   91.537  160.327
  355.750    5.698    0.277    0.482   92.203  160.828
  356.000    5.655    0.308    0.485   92.076  168.839
  356.250    5.622    0.339    0.487   91.341  178.575
  356.500    5.611    0.326    0.485   90.606  196.128
  356.750    5.621    0.309    0.490   90.783  202.920
  357.000    5.578    0.293    0.490   91.631  187.079
  357.250    5.641    0.273    0.477   92.602  173.572
  357.500    5.736    0.273    0.469   91.745  162.601
  357.750    5.812    0.292    0.475   86.320  157.926
  358.000    5.966    0.301    0.482   83.819  157.512
  358.250    6.113    0.288    0.467   87.895  157.809
  358.500    6.287    0.277    0.454   89.717  157.699
  358.750    6.465    0.268    0.436   85.876  157.490
  359.000    6.441    0.262    0.418   80.390  156.974
  359.250    6.285    0.267    0.406   78.254  156.358
  359.500    6.075    0.278    0.411   81.963  155.843
  359.750    5.895    0.281    0.439   83.056  155.531
  360.000    5.774    0.290    0.458   84.331  155.523
  360.250    5.719    0.294    0.475   84.326  155.617
  360.500    5.718    0.292    0.488   83.347  155.610
  360.750    5.728    0.302    0.492   81.881  155.907
  361.000    5.728    0.306    0.480   81.329  156.001
  361.250    5.749    0.300    0.472   81.019  156.399
  361.500    5.835    0.303    0.482   81.015  156.696
  361.750    6.035    0.307    0.495   81.193  157.094
  362.000    6.242    0.298    0.495   80.763  157.391
  362.250    6.432    0.287    0.490   79.479  157.791
  362.500    6.577    0.278    0.488   82.215  158.392
  362.750    6.676    0.263    0.485   82.089  159.400
  363.000    6.764    0.249    0.476   78.796  160.509
  363.250    6.712    0.259    0.461   74.894  161.719
  363.500    6.624    0.278    0.451   74.950  160.900
  363.750    6.367    0.293    0.455   76.589  159.877
  364.000    6.098    0.296    0.460   77.682  159.158
  364.250    5.972    0.282    0.458   79.382  158.746
  364.500    6.108    0.271    0.456   79.865  158.129
  364.750    6.671    0.283    0.457   74.257  157.411
  365.000    7.621    0.295    0.463   71.817  156.998
  365.250    8.855    0.301    0.460   71.264  156.685
  365.500   11.030    0.316    0.454   64.987  156.373
  365.750   13.972    0.329    0.441   55.848  156.265
  366.000   17.501    0.337    0.433   52.250  156.663
  366.250   18.653    0.344    0.437   50.236  157.264
  366.500   18.031    0.350    0.444   48.769  157.866
  366.750   16.788    0.354    0.435   48.278  158.265
  367.000   13.679    0.356    0.427   47.664  158.359
  367.250   11.379    0.353    0.424   45.529  158.451
  367.500    9.573    0.351    0.423   48.752  158.242
  367.750    7.527    0.365    0.419   53.680  157.829
  368.000    5.852    0.374    0.419   58.730  157.720
  368.250    5.500    0.366    0.440   59.944  157.712
  368.500    4.988    0.362    0.465   55.615  157.705
  368.750    4.481    0.366    0.448   52.992  157.494
  369.000    4.464    0.364    0.436   55.668  157.284
  369.250    4.522    0.345    0.434   60.657  157.377
  369.500    4.547    0.328    0.439   64.793  157.877
  369.750    4.607    0.320    0.441   67.590  158.276
  370.000    4.650    0.336    0.439   65.759  158.269
  370.250    4.711    0.352    0.441   63.440  158.464
  370.500    4.737    0.351    0.451   61.974  158.457
  370.750    4.728    0.345    0.461   63.979  158.856
  371.000    4.745    0.345    0.459   66.533  159.152
  371.250    4.727    0.344    0.450   69.391  159.247
  371.500    4.708    0.344    0.442   72.980  159.137
  371.750    4.842    0.339    0.444   76.324  158.926
  372.000    4.999    0.334    0.444   78.695  158.918
  372.250    5.103    0.339    0.454   80.518  159.114
  372.500    5.258    0.333    0.440   81.426  159.614
  372.750    5.387    0.324    0.422   81.057  160.114
  373.000    5.603    0.317    0.425   83.366  160.310
  373.250    5.634    0.300    0.448   87.564  160.912
  373.500    5.708    0.290    0.465   91.092  161.717
  373.750    5.772    0.286    0.457   93.341  162.825
  374.000    5.782    0.284    0.441   91.875  163.326
  374.250    5.749    0.289    0.437   83.709  162.709
  374.500    5.727    0.296    0.443   79.198  160.266
  374.750    5.748    0.304    0.411   79.924  159.344
  375.000    5.737    0.312    0.388   84.244  161.469
  375.250    5.704    0.320    0.403   86.858  165.114
  375.500    5.650    0.329    0.433   86.549  168.660
  375.750    5.503    0.338    0.469   84.595  172.407
  376.000    5.240    0.329    0.491   83.068  174.837
  376.250    5.018    0.320    0.487   80.994  162.852
  376.500    4.842    0.309    0.483   79.040  159.699
  376.750    4.778    0.292    0.477   78.549  158.980
  377.000    4.859    0.276    0.459   78.971  158.566
  377.250    4.941    0.255    0.436   80.549  157.849
  377.500    4.941    0.244    0.418   81.641  157.334
  377.750    4.903    0.254    0.421   77.861  156.615
  378.000    4.811    0.287    0.428   71.766  155.491
  378.250    4.748    0.312    0.428   66.281  154.875
  378.500    4.703    0.319    0.412   62.196  154.665
  378.750    4.676    0.311    0.403   67.306  154.759
  379.000    4.764    0.304    0.397   70.773  155.460
  379.250    4.836    0.297    0.410   72.840  155.758
  379.500    4.918    0.292    0.415   71.921  156.360
  379.750    5.067    0.296    0.408   70.882  156.759
  380.000    5.202    0.294    0.402   72.157  156.853
  380.250    5.310    0.285    0.400   77.024  157.047
  380.500    5.379    0.274    0.397   80.248  157.244
  380.750    5.419    0.265    0.395   84.566  157.440
  381.000    5.429    0.260    0.405   86.938  157.838
  381.250    5.439    0.269    0.409   88.151  158.134
  381.500    5.428    0.268    0.403   87.476  158.330
  381.750    5.377    0.265    0.427   80.651  158.423
  382.000    5.286    0.276    0.446   67.979  158.518
  382.250    5.197    0.298    0.450   59.084  158.613
  382.500    5.100    0.311    0.440   53.476  158.301
  382.750    5.023    0.320    0.432   54.871  158.090
  383.000    4.911    0.327    0.431   58.095  157.880
  383.250    4.828    0.332    0.435   61.014  156.856
  383.500    4.711    0.331    0.447   63.811  156.443
  383.750    4.666    0.332    0.440   63.319  156.538
  384.000    4.596    0.335    0.427   60.148  157.037
  384.250    4.570    0.338    0.437   58.804  156.827
  384.500    4.570    0.342    0.453   58.434  156.413
  384.750    4.595    0.345    0.449   58.673  156.102
  385.000    4.603    0.348    0.442   59.521  155.790
  385.250    4.603    0.350    0.458   60.491  155.782
  385.500    4.576    0.350    0.455   60.851  155.673
  385.750    4.541    0.349    0.461   61.091  155.462
  386.000    4.482    0.350    0.466   60.478  155.556
  386.250    4.431    0.351    0.457   59.255  155.651
  386.500    4.397    0.354    0.453   58.642  155.643
  386.750    4.364    0.358    0.457   58.941  155.838
  387.000    4.307    0.360    0.451   58.937  156.135
  387.250    4.266    0.356    0.448   58.993  156.331
  387.500    4.265    0.355    0.454   58.684  156.730
  387.750    4.265    0.359    0.460   58.315  157.128
