~VERSION INFORMATION
 VERS.                 2.0:   CWLS LOG ASCII STANDARD -VERSION 2.0
 WRAP.                  NO:   ONE LINE PER DEPTH STEP
~WELL INFORMATION BLOCK
#MNEM.UNIT           DATA                    DESCRIPTION OF MNEMONIC
#---------    -------------------            -------------------------------
# Generated from Intellog Unique Number	CS_73_76/WELL/3261
WELL.         ALLIED ROXANA MINERALS         : Well_name    - WELL
LOC .         00/11-10-076-15W4/0            : Location     - LOCATION
UWI .         00/11-10-076-15W4/0            : Uwi          - UNIQUE WELL ID
ENTR.         SP                             : Entered      - ENTERED BY
SRVC.         SCHLUMBERGER                   : Scn          - SERVICE COMPANY
STRT.M        341.376                        : top_depth    - START DEPTH
STOP.M        569.626                        : bot_depth    - STOP DEPTH
STEP.M        0.25                           : increment    - STEP LENGTH
 NULL. -999.2500:NULL Value
~CURVE INFORMATION BLOCK
#MNEM UNIT       ERCB CURVE CODE    CURVE DESCRIPTION
#-----------   ------------------   ----------------------------------
DEPT.M        00 001 00 00         : DEPTH        - DEPTH
GR  .API      00 310 00 00         : GR           - GAMMA RAY
DPHI.V/V      00 890 00 00         : PHID         - DENSITY POROSITY (SANDSTONE)
NPHI.V/V      00 330 00 00         : PHIN         - NEUTRON POROSITY (SANDSTONE)
ILD .OHMM     00 120 00 00         : RESD         - DEEP RESISTIVITY (DIL)
~PARAMETER INFORMATION
#MNEM.UNIT           DATA             DESCRIPTION OF MNEMONIC
#---------         -----------     ------------------------------
GL  .M        715.518              : gl           - GROUND LEVEL ELEVATION
EREF.M        718.566              : kb           - ELEVATION OF DEPTH REFERENCE
DATM.M        715.518              : datum        - DATUM ELEVATION
TDD .M        579.12               : tdd          - TOTAL DEPTH DRILLER
RUN .         ONE                  : Run          - RUN NUMBER
ENG .         BILL                 : Engineer     - RECORDING ENGINEER
WIT .         JIM                  : Witness      - WITNESSED BY
MUD .         GEL                  : Mud_type     - MUD TYPE
MATR.         SANDSTONE            : Logunit      - NEUTRON MATRIX
TMAX.C        23.3333              : BHT          - MAXIMUM RECORDED TEMPERATURE
BHTD.M        579.12               : BHTDEP       - MAXIMUM RECORDED TEMPERATURE
MATR.         1                    : LOGUNIT      - NEUTRON MATRIX
RMT .C        25                   : MDTP         - TEMPERATURE OF MUD
NEUT.         1                    : NEUTRON      - NEUTRON TYPE
RESI.         0                    : RESIST       - RESISTIVITY TYPE
RMC .OHMM     0.25                 : RMC          - RESISTIVITY OF MUD CAKE
RMF .OHMM     0.25                 : RMF          - RESISTIVITY OF MUD FILTRATE
SUFT.C        15                   : SUFT         - SURFACE TEMPERATURE
~A  DEPTH       GR     PHID     PHIN     RESD
# ...
  384.876   48.214    0.298    0.439   13.006
  385.126   48.834    0.306    0.448   12.875
  385.376   48.834    0.318    0.445   12.666
  385.626   47.942    0.330    0.440   12.540
  385.876   46.981    0.325    0.444   12.414
  386.126   45.684    0.329    0.451   12.188
  386.376   45.872    0.324    0.448   12.140
  386.626   46.309    0.320    0.456   12.021
  386.876   47.315    0.335    0.468   11.939
  387.126   47.590    0.327    0.476   11.843
  387.376   47.609    0.324    0.462   11.789
  387.626   46.540    0.333    0.461   11.698
  387.876   46.257    0.336    0.459   11.707
  388.126   48.519    0.327    0.475   11.711
  388.376   51.994    0.327    0.486   11.736
  388.626   52.828    0.321    0.488   11.873
  388.876   54.030    0.317    0.459   12.031
  389.126   53.813    0.316    0.444   12.135
  389.376   52.807    0.316    0.433   12.262
  389.626   50.111    0.318    0.422   12.385
  389.876   49.076    0.323    0.419   12.611
  390.126   49.079    0.327    0.417   12.726
  390.376   50.307    0.316    0.414   12.915
  390.626   51.533    0.324    0.421   12.897
  390.876   52.621    0.327    0.426   12.755
  391.126   52.009    0.330    0.445   12.728
  391.376   51.390    0.336    0.476   12.502
  391.626   51.392    0.344    0.487   12.386
  391.876   51.143    0.352    0.470   12.163
  392.126   50.776    0.342    0.435   11.962
  392.376   48.752    0.321    0.420   11.639
  392.626   49.697    0.312    0.427   11.221
  392.876   50.687    0.313    0.444   11.253
  393.126   50.422    0.322    0.449   11.290
  393.376   49.493    0.334    0.436   11.423
  393.626   48.466    0.337    0.424   11.628
  393.876   47.344    0.334    0.425   11.803
  394.126   47.058    0.333    0.432   11.977
  394.376   46.913    0.323    0.436   12.049
  394.626   48.461    0.338    0.440   12.024
  394.876   50.013    0.336    0.451   11.888
  395.126   50.362    0.339    0.453   11.757
  395.376   50.352    0.337    0.445   11.607
  395.626   49.960    0.342    0.442   11.422
  395.876   49.610    0.345    0.451   11.295
  396.126   50.779    0.360    0.476   11.178
  396.376   52.213    0.365    0.489   11.184
  396.626   54.090    0.361    0.480   11.140
  396.876   55.918    0.351    0.463   11.090
  397.126   56.342    0.341    0.487   10.889
  397.376   58.078    0.337    0.506   10.672
  397.626   60.076    0.329    0.516   10.554
  397.876   64.467    0.326    0.512   10.557
  398.126   68.972    0.332    0.513   10.530
  398.376   74.999    0.339    0.516   10.480
  398.626   83.850    0.346    0.531   10.398
  398.876   74.385    0.344    0.517   10.418
  399.126   62.852    0.340    0.509   10.557
  399.376   56.358    0.328    0.502   10.681
  399.626   53.118    0.317    0.507   10.915
  399.876   52.095    0.330    0.513   11.163
  400.126   52.729    0.335    0.517   11.630
  400.376   52.631    0.329    0.518   12.096
  400.626   52.786    0.326    0.511   12.411
  400.876   50.457    0.312    0.498   12.680
  401.126   48.926    0.315    0.493   13.031
  401.376   47.382    0.309    0.488   13.431
  401.626   45.518    0.301    0.488   13.728
  401.876   44.163    0.310    0.480   14.045
  402.126   43.113    0.307    0.473   14.275
  402.376   42.947    0.314    0.478   14.322
  402.626   42.829    0.322    0.469   14.452
  402.876   44.136    0.320    0.479   14.448
  403.126   44.718    0.331    0.474   14.438
  403.376   44.674    0.335    0.474   14.376
  403.626   43.529    0.328    0.469   14.291
  403.876   41.514    0.328    0.453   14.207
  404.126   39.491    0.315    0.458   14.081
  404.376   38.548    0.308    0.468   13.957
  404.626   38.574    0.312    0.480   13.742
  404.876   38.554    0.309    0.489   13.560
  405.126   38.526    0.314    0.492   13.392
  405.376   38.554    0.319    0.483   13.125
  405.626   38.221    0.327    0.478   12.901
  405.876   38.597    0.322    0.469   12.894
  406.126   39.022    0.332    0.471   12.961
  406.376   40.641    0.337    0.479   12.961
  406.626   41.545    0.343    0.487   12.962
  406.876   42.057    0.341    0.502   12.906
  407.126   42.075    0.330    0.495   12.811
  407.376   41.387    0.326    0.486   12.640
  407.626   40.649    0.335    0.493   12.456
  407.876   38.959    0.320    0.506   12.286
  408.126   37.762    0.321    0.526   12.021
  408.376   37.769    0.332    0.523   11.730
  408.626   37.748    0.334    0.526   11.520
  408.876   37.133    0.341    0.514   11.323
  409.126   36.804    0.341    0.503   11.200
  409.376   35.679    0.341    0.500   10.985
  409.626   34.154    0.342    0.509   10.935
  409.876   33.613    0.349    0.512   10.830
  410.126   34.678    0.347    0.520   10.833
  410.376   35.643    0.339    0.508   10.756
  410.626   36.430    0.339    0.491   10.761
  410.876   36.367    0.330    0.499   10.762
  411.126   35.297    0.328    0.524   10.771
  411.376   35.157    0.341    0.536   10.672
  411.626   35.126    0.346    0.535   10.762
  411.876   35.127    0.356    0.485   10.764
  412.126   35.189    0.349    0.484   10.767
  412.376   36.189    0.336    0.491   10.768
  412.626   36.835    0.320    0.489   10.767
  412.876   37.425    0.317    0.491   10.761
  413.126   36.809    0.340    0.492   10.688
  413.376   37.072    0.348    0.491   10.692
  413.626   37.419    0.353    0.480   10.694
  413.876   38.022    0.343    0.461   10.636
  414.126   37.981    0.335    0.477   10.619
  414.376   37.949    0.338    0.493   10.617
  414.626   38.910    0.349    0.503   10.564
  414.876   39.760    0.348    0.476   10.522
  415.126   39.722    0.348    0.465   10.463
  415.376   38.760    0.362    0.466   10.329
  415.626   37.821    0.351    0.485   10.296
  415.876   37.906    0.348    0.490   10.160
  416.126   37.174    0.349    0.480   10.024
  416.376   37.208    0.348    0.481    9.986
  416.626   37.677    0.356    0.479    9.908
  416.876   37.735    0.353    0.471    9.904
  417.126   38.397    0.348    0.477    9.993
  417.376   39.301    0.271    0.467   10.808
  417.626   41.017    0.201    0.407    9.511
  417.876   41.355    0.152    0.346   11.818
  418.126   39.032    0.079    0.183   14.391
  418.376   36.928   -0.005    0.128   20.185
  418.626   35.947    0.000    0.154   30.776
  418.876   36.506    0.012    0.189   41.777
  419.126   37.994    0.117    0.273   46.022
  419.376   42.161    0.267    0.356   33.629
  419.626   44.044    0.315    0.437   22.337
  419.876   47.390    0.356    0.466   15.117
  420.126   49.457    0.357    0.520   12.282
  420.376   50.324    0.365    0.514   10.924
  420.626   51.951    0.357    0.498   10.407
  420.876   53.101    0.364    0.507   10.558
  421.126   54.838    0.339    0.548   11.009
  421.376   58.352    0.313    0.560   11.400
  421.626   60.782    0.291    0.536   11.810
  421.876   65.626    0.271    0.531   11.923
  422.126   67.756    0.260    0.564   12.066
  422.376   70.833    0.297    0.597   11.997
  422.626   72.296    0.316    0.574   11.829
  422.876   72.148    0.322    0.558   11.917
  423.126   73.031    0.318    0.532   11.889
  423.376   73.986    0.313    0.520   11.753
  423.626   74.380    0.304    0.534   11.568
  423.876   74.515    0.306    0.541   11.416
  424.126   74.546    0.321    0.554   10.971
  424.376   73.845    0.317    0.575   11.071
  424.626   73.770    0.327    0.582   10.690
  424.876   73.266    0.326    0.574   10.431
  425.126   73.321    0.331    0.568   10.260
  425.376   72.616    0.329    0.575   10.102
  425.626   72.550    0.332    0.585   10.040
  425.876   74.165    0.326    0.573   10.064
  426.126   75.059    0.328    0.565   10.108
  426.376   75.692    0.318    0.548   10.250
  426.626   75.086    0.311    0.545   10.263
  426.876   76.163    0.314    0.554   10.266
  427.126   78.213    0.307    0.579   10.103
  427.376   78.373    0.299    0.576    9.623
  427.626   77.357    0.150    0.558    8.656
  427.876   76.769    0.102    0.527    7.874
  428.126   80.045    0.155    0.490    7.092
