~VERSION INFORMATION
 VERS.                 2.0:   CWLS LOG ASCII STANDARD -VERSION 2.0
 WRAP.                  NO:   ONE LINE PER DEPTH STEP
~WELL INFORMATION BLOCK
#MNEM.UNIT           DATA                    DESCRIPTION OF MNEMONIC
#---------    -------------------            -------------------------------
# Generated from Intellog Unique Number	CS_69_70/WELL/899
WELL.         BOW VALLEY INDUSTRIES          : Well_name    - WELL
LOC .         00/11-26-069-12W4/0            : Location     - LOCATION
UWI .         00/11-26-069-12W4/0            : Uwi          - UNIQUE WELL ID
ENTR.         SP                             : Entered      - ENTERED BY
SRVC.         SCHLUMBERGER                   : Scn          - SERVICE COMPANY
STRT.M        265                            : top_depth    - START DEPTH
STOP.M        470                            : bot_depth    - STOP DEPTH
STEP.M        0.25                           : increment    - STEP LENGTH
 NULL. -999.2500:NULL Value
~CURVE INFORMATION BLOCK
#MNEM UNIT       ERCB CURVE CODE    CURVE DESCRIPTION
#-----------   ------------------   ----------------------------------
DEPT.M        00 001 00 00         : DEPTH        - DEPTH
ILD .OHMM     00 120 00 00         : RESD         - DEEP RESISTIVITY (DIL)
DPHI.V/V      00 890 00 00         : PHID         - DENSITY POROSITY (LIMESTONE)
NPHI.V/V      00 330 00 00         : PHIN         - NEUTRON POROSITY (LIMESTONE)
GR  .API      00 310 00 00         : GR           - GAMMA RAY
~PARAMETER INFORMATION
#MNEM.UNIT           DATA             DESCRIPTION OF MNEMONIC
#---------         -----------     ------------------------------
GL  .M        587.6                : gl           - GROUND LEVEL ELEVATION
EREF.M        590.3                : kb           - ELEVATION OF DEPTH REFERENCE
DATM.M        587.6                : datum        - DATUM ELEVATION
TDD .M        475                  : tdd          - TOTAL DEPTH DRILLER
RUN .         ONE                  : Run          - RUN NUMBER
ENG .         BILL                 : Engineer     - RECORDING ENGINEER
WIT .         JIM                  : Witness      - WITNESSED BY
MUD .         GEL                  : Mud_type     - MUD TYPE
MATR.         LIMESTONE            : Logunit      - NEUTRON MATRIX
TMAX.C        14.4                 : BHT          - MAXIMUM RECORDED TEMPERATURE
BHTD.M        475                  : BHTDEP       - MAXIMUM RECORDED TEMPERATURE
MATR.         1                    : LOGUNIT      - NEUTRON MATRIX
RMT .C        25                   : MDTP         - TEMPERATURE OF MUD
NEUT.         1                    : NEUTRON      - NEUTRON TYPE
RESI.         0                    : RESIST       - RESISTIVITY TYPE
RMC .OHMM     0.25                 : RMC          - RESISTIVITY OF MUD CAKE
RMF .OHMM     0.25                 : RMF          - RESISTIVITY OF MUD FILTRATE
SUFT.C        15                   : SUFT         - SURFACE TEMPERATURE
~A  DEPTH     RESD     PHID     PHIN       GR
# ...
  308.500    3.670    0.259    0.435  103.346
  308.750    3.644    0.247    0.455   99.181
  309.000    3.605    0.279    0.488   89.675
  309.250    3.507    0.313    0.500   79.261
  309.500    3.281    0.335    0.473   69.087
  309.750    3.099    0.352    0.451   61.038
  310.000    3.015    0.349    0.435   68.403
  310.250    2.944    0.345    0.423   72.732
  310.500    2.896    0.330    0.417   76.213
  310.750    2.897    0.319    0.409   78.358
  311.000    3.026    0.300    0.416   79.837
  311.250    3.237    0.284    0.432   82.163
  311.500    3.522    0.272    0.441   86.616
  311.750    3.705    0.262    0.425   90.705
  312.000    3.963    0.255    0.412   95.823
  312.250    4.201    0.242    0.403  101.487
  312.500    4.420    0.256    0.421  105.331
  312.750    4.555    0.277    0.446   95.405
  313.000    4.678    0.292    0.530   90.567
  313.250    4.671    0.304    0.509   87.435
  313.500    4.604    0.307    0.497   88.246
  313.750    4.438    0.308    0.486   88.573
  314.000    4.293    0.313    0.462   88.413
  314.250    4.138    0.306    0.455   90.071
  314.500    4.025    0.300    0.464   93.250
  314.750    3.946    0.295    0.471   94.785
  315.000    3.970    0.290    0.475   96.567
  315.250    4.046    0.285    0.474   94.710
  315.500    4.131    0.276    0.473   93.272
  315.750    4.219    0.265    0.476   91.536
  316.000    4.260    0.256    0.478   90.404
  316.250    4.310    0.248    0.475   91.336
  316.500    4.288    0.283    0.475   96.278
  316.750    4.282    0.310    0.492   98.603
  317.000    4.292    0.295    0.509   97.712
  317.250    4.318    0.278    0.507   98.887
  317.500    4.376    0.279    0.500   98.846
  317.750    4.435    0.285    0.497   92.619
  318.000    4.496    0.279    0.499   91.972
  318.250    4.557    0.270    0.493   96.484
  318.500    4.593    0.260    0.483   99.782
  318.750    4.629    0.255    0.500  102.414
  319.000    4.675    0.266    0.511   98.066
  319.250    4.729    0.285    0.495   87.529
  319.500    4.740    0.302    0.474   79.239
  319.750    4.689    0.312    0.445   76.530
  320.000    4.605    0.318    0.428   77.763
  320.250    4.480    0.320    0.415   81.972
  320.500    4.342    0.321    0.413   86.241
  320.750    4.162    0.317    0.426   89.359
  321.000    3.974    0.304    0.427   89.440
  321.250    3.816    0.312    0.430   77.509
  321.500    3.726    0.318    0.448   73.769
  321.750    3.770    0.316    0.441   80.101
  322.000    3.807    0.308    0.442   84.249
  322.250    3.866    0.299    0.457   86.454
  322.500    3.955    0.295    0.484   88.176
  322.750    4.016    0.305    0.492   90.383
  323.000    4.132    0.312    0.432   88.765
  323.250    4.211    0.301    0.418   85.148
  323.500    4.324    0.296    0.408   82.864
  323.750    4.424    0.287    0.400   83.549
  324.000    4.467    0.275    0.395   86.853
  324.250    4.428    0.258    0.399   88.813
  324.500    4.381    0.238    0.405   91.628
  324.750    4.326    0.245    0.407   93.650
  325.000    4.376    0.262    0.419   95.371
  325.250    4.528    0.273    0.413   92.907
  325.500    4.728    0.265    0.403   89.526
  325.750    4.965    0.268    0.415   89.730
  326.000    5.156    0.266    0.440   93.817
  326.250    5.245    0.255    0.441   96.631
  326.500    5.276    0.248    0.441   97.138
  326.750    5.280    0.243    0.445   99.284
  327.000    5.291    0.239    0.445  102.825
  327.250    5.323    0.233    0.441  105.880
  327.500    5.326    0.231    0.472  105.539
  327.750    5.319    0.241    0.479   96.457
  328.000    5.320    0.262    0.446   77.911
  328.250    5.263    0.284    0.443   73.988
  328.500    5.101    0.286    0.437   80.385
  328.750    4.981    0.275    0.433   83.863
  329.000    4.910    0.266    0.435   86.977
  329.250    4.894    0.261    0.453   90.215
  329.500    4.924    0.280    0.465   93.332
  329.750    4.972    0.294    0.462   88.682
  330.000    5.002    0.305    0.453   78.327
  330.250    5.013    0.316    0.444   71.370
  330.500    4.978    0.327    0.437   65.141
  330.750    4.861    0.331    0.438   68.380
  331.000    4.703    0.322    0.452   67.552
  331.250    4.508    0.310    0.460   71.821
  331.500    4.345    0.298    0.440   76.093
  331.750    4.195    0.285    0.425   79.268
  332.000    4.105    0.278    0.419   83.172
  332.250    4.106    0.275    0.415   86.168
  332.500    4.178    0.273    0.407   88.377
  332.750    4.362    0.275    0.425   89.426
  333.000    4.522    0.286    0.440   91.268
  333.250    4.600    0.296    0.427   94.263
  333.500    4.654    0.307    0.441   96.470
  333.750    4.664    0.316    0.460   96.734
  334.000    4.615    0.321    0.441   94.814
  334.250    4.506    0.313    0.432   88.952
  334.500    4.425    0.304    0.438   83.269
  334.750    4.629    0.310    0.429   79.167
  335.000    4.657    0.320    0.417   77.061
  335.250    4.633    0.328    0.407   74.534
  335.500    4.311    0.331    0.399   73.160
  335.750    4.116    0.324    0.419   75.912
  336.000    3.873    0.321    0.417   81.578
  336.250    3.774    0.316    0.426   85.846
  336.500    3.755    0.308    0.439   85.260
  336.750    3.771    0.301    0.460   76.726
  337.000    3.815    0.294    0.460   71.167
  337.250    3.939    0.299    0.440   70.337
  337.500    4.106    0.312    0.429   71.819
  337.750    4.240    0.325    0.430   74.028
  338.000    4.403    0.331    0.447   75.320
  338.250    4.479    0.328    0.467   76.552
  338.500    4.439    0.333    0.480   77.728
  338.750    4.376    0.329    0.485   78.417
  339.000    4.361    0.310    0.484   75.828
  339.250    4.396    0.296    0.463   79.007
  339.500    4.464    0.286    0.454   85.100
  339.750    4.499    0.276    0.450   89.790
  340.000    4.493    0.267    0.467   93.999
  340.250    4.428    0.256    0.456   96.023
  340.500    4.213    0.267    0.443   95.802
  340.750    4.053    0.286    0.474   90.182
  341.000    3.936    0.303    0.513   86.380
  341.250    3.908    0.296    0.488   89.861
  341.500    3.998    0.275    0.463   91.519
  341.750    4.075    0.266    0.478   84.203
  342.000    4.177    0.286    0.491   79.067
  342.250    4.289    0.304    0.466   76.112
  342.500    4.388    0.321    0.462   73.462
  342.750    4.398    0.345    0.474   73.243
  343.000    4.335    0.343    0.485   73.505
  343.250    4.233    0.344    0.472   71.103
  343.500    4.126    0.347    0.456   68.329
  343.750    4.067    0.342    0.434   66.897
  344.000    4.061    0.338    0.433   66.553
  344.250    4.040    0.337    0.454   66.454
  344.500    3.989    0.331    0.470   67.081
  344.750    4.044    0.325    0.441   69.713
  345.000    4.121    0.319    0.423   68.582
  345.250    4.256    0.313    0.426   67.390
  345.500    4.370    0.308    0.430   68.019
  345.750    4.479    0.320    0.437   69.011
  346.000    4.566    0.319    0.441   69.335
  346.250    4.688    0.313    0.435   67.901
  346.500    4.823    0.309    0.432   65.802
  346.750    4.953    0.306    0.439   64.003
  347.000    5.039    0.305    0.444   62.931
  347.250    5.155    0.301    0.432   62.586
  347.500    5.235    0.297    0.411   67.160
  347.750    5.267    0.301    0.402   70.275
  348.000    5.288    0.293    0.395   72.180
  348.250    5.342    0.282    0.411   69.775
  348.500    5.363    0.272    0.428   73.983
  348.750    5.375    0.274    0.434   79.283
  349.000    5.317    0.278    0.430   83.493
  349.250    5.173    0.279    0.430   86.911
  349.500    4.931    0.282    0.445   82.990
  349.750    4.478    0.302    0.467   76.397
  350.000    4.212    0.320    0.488   78.846
  350.250    3.970    0.315    0.478   84.334
  350.500    3.848    0.294    0.468   86.959
  350.750    3.981    0.278    0.474   90.868
  351.000    4.204    0.269    0.468   89.672
  351.250    4.489    0.272    0.475   82.657
  351.500    4.661    0.269    0.475   79.521
  351.750    4.787    0.262    0.466   82.155
