~VERSION INFORMATION
 VERS.                 2.0:   CWLS LOG ASCII STANDARD -VERSION 2.0
 WRAP.                  NO:   ONE LINE PER DEPTH STEP
~WELL INFORMATION BLOCK
#MNEM.UNIT           DATA                    DESCRIPTION OF MNEMONIC
#---------    -------------------            -------------------------------
# Generated from Intellog Unique Number	CS_73_76/WELL/3229
WELL.         DOME PETOLEUM LIMITED          : Well_name    - WELL
LOC .         00/10-04-075-07W4/0            : Location     - LOCATION
UWI .         00/10-04-075-07W4/0            : Uwi          - UNIQUE WELL ID
ENTR.         SP                             : Entered      - ENTERED BY
SRVC.         SCHLUMBERGER                   : Scn          - SERVICE COMPANY
STRT.M        265.176                        : top_depth    - START DEPTH
STOP.M        487.426                        : bot_depth    - STOP DEPTH
STEP.M        0.25                           : increment    - STEP LENGTH
 NULL. -999.2500:NULL Value
~CURVE INFORMATION BLOCK
#MNEM UNIT       ERCB CURVE CODE    CURVE DESCRIPTION
#-----------   ------------------   ----------------------------------
DEPT.M        00 001 00 00         : DEPTH        - DEPTH
GR  .API      00 310 00 00         : GR           - GAMMA RAY
DPHI.V/V      00 890 00 00         : PHID         - DENSITY POROSITY (SANDSTONE)
NPHI.V/V      00 330 00 00         : PHIN         - NEUTRON POROSITY (SANDSTONE)
ILD .OHMM     00 120 00 00         : RESD         - DEEP RESISTIVITY (DIL)
~PARAMETER INFORMATION
#MNEM.UNIT           DATA             DESCRIPTION OF MNEMONIC
#---------         -----------     ------------------------------
GL  .M        662.33               : gl           - GROUND LEVEL ELEVATION
EREF.M        665.074              : kb           - ELEVATION OF DEPTH REFERENCE
DATM.M        662.33               : datum        - DATUM ELEVATION
TDD .M        550.469              : tdd          - TOTAL DEPTH DRILLER
RUN .         ONE                  : Run          - RUN NUMBER
ENG .         BILL                 : Engineer     - RECORDING ENGINEER
WIT .         JIM                  : Witness      - WITNESSED BY
MUD .         GEL                  : Mud_type     - MUD TYPE
MATR.         SANDSTONE            : Logunit      - NEUTRON MATRIX
TMAX.C        60                   : BHT          - MAXIMUM RECORDED TEMPERATURE
BHTD.M        550.469              : BHTDEP       - MAXIMUM RECORDED TEMPERATURE
MATR.         1                    : LOGUNIT      - NEUTRON MATRIX
RMT .C        25                   : MDTP         - TEMPERATURE OF MUD
NEUT.         1                    : NEUTRON      - NEUTRON TYPE
RESI.         0                    : RESIST       - RESISTIVITY TYPE
RMC .OHMM     0.25                 : RMC          - RESISTIVITY OF MUD CAKE
RMF .OHMM     0.25                 : RMF          - RESISTIVITY OF MUD FILTRATE
SUFT.C        15                   : SUFT         - SURFACE TEMPERATURE
~A  DEPTH       GR     PHID     PHIN     RESD
# ...
  352.176  116.134    0.246    0.578    3.356
  352.426  112.799    0.267    0.600    3.422
  352.676  110.268    0.274    0.600    3.853
  352.926  110.968    0.275    0.578    4.485
  353.176  108.753    0.267    0.587    5.447
  353.426  102.282    0.258    0.585    6.488
  353.676   95.154    0.265    0.558    7.597
  353.926   93.353    0.281    0.524    8.725
  354.176   97.593    0.283    0.510    9.553
  354.426  101.914    0.261    0.511    9.570
  354.676  105.821    0.240    0.496    9.366
  354.926  106.701    0.226    0.480    9.389
  355.176  104.040    0.242    0.468    9.467
  355.426   98.380    0.246    0.479    9.774
  355.676   93.775    0.251    0.487   10.100
  355.926   92.120    0.258    0.487   10.204
  356.176   92.197    0.263    0.480   10.320
  356.426   92.155    0.262    0.481    9.703
  356.676   91.626    0.266    0.479    7.589
  356.926   94.089    0.275    0.479    5.985
  357.176  102.392    0.289    0.488    5.268
  357.426  109.357    0.287    0.508    5.392
  357.676  114.520    0.276    0.533    6.192
  357.926  111.293    0.270    0.566    6.870
  358.176   99.770    0.276    0.562    7.045
  358.426   91.152    0.279    0.518    6.403
  358.676   89.836    0.273    0.501    5.822
  358.926   95.235    0.258    0.494    5.434
  359.176  102.320    0.247    0.529    5.203
  359.426  108.589    0.247    0.550    4.986
  359.676  111.675    0.242    0.569    4.881
  359.926  110.932    0.241    0.583    4.729
  360.176  111.901    0.234    0.582    4.607
  360.426  112.262    0.240    0.564    4.618
  360.676  112.072    0.254    0.578    4.515
  360.926  108.459    0.262    0.576    4.622
  361.176  103.409    0.255    0.563    4.694
  361.426  100.568    0.257    0.570    4.835
  361.676  100.216    0.263    0.571    5.108
  361.926  101.213    0.249    0.570    5.430
  362.176  101.783    0.259    0.574    5.775
  362.426  100.726    0.255    0.565    6.141
  362.676  100.233    0.251    0.545    6.530
  362.926  101.173    0.256    0.521    6.942
  363.176  103.190    0.258    0.504    7.383
  363.426  104.244    0.255    0.511    7.706
  363.676  103.286    0.250    0.502    7.955
  363.926  100.234    0.244    0.520    8.094
  364.176   97.819    0.247    0.530    8.252
  364.426   97.690    0.255    0.512    8.432
  364.676   98.226    0.254    0.508    8.404
  364.926   99.284    0.240    0.528    8.578
  365.176   99.552    0.244    0.531    8.766
  365.426   98.921    0.249    0.510    9.033
  365.676  100.135    0.251    0.497    9.259
  365.926   98.265    0.253    0.495    9.246
  366.176   94.936    0.259    0.495    9.257
  366.426   92.997    0.264    0.502    8.973
  366.676   94.059    0.269    0.510    8.424
  366.926   96.325    0.273    0.504    7.904
  367.176   98.028    0.252    0.499    7.142
  367.426  100.635    0.234    0.518    6.628
  367.676  101.883    0.225    0.531    6.356
  367.926  104.560    0.222    0.539    6.234
  368.176  106.561    0.218    0.523    6.241
  368.426  107.713    0.226    0.509    6.137
  368.676  107.942    0.221    0.519    5.863
  368.926  104.316    0.223    0.537    5.147
  369.176  103.596    0.228    0.531    4.559
  369.426  105.028    0.235    0.523    3.829
  369.676  104.967    0.242    0.515    3.457
  369.926  105.839    0.254    0.518    3.028
  370.176  106.818    0.263    0.549    2.796
  370.426  107.733    0.259    0.574    2.678
  370.676  109.345    0.265    0.599    2.756
  370.926  109.454    0.256    0.615    2.837
  371.176  105.508    0.247    0.605    2.988
  371.426  103.122    0.248    0.591    3.158
  371.676  107.454    0.246    0.584    3.344
  371.926  109.951    0.244    0.574    3.675
  372.176  112.269    0.244    0.587    3.937
  372.426  107.210    0.246    0.581    4.252
  372.676  101.666    0.246    0.570    4.651
  372.926  100.791    0.247    0.559    4.996
  373.176  101.579    0.257    0.542    5.256
  373.426   99.202    0.252    0.526    5.415
  373.676   96.636    0.261    0.516    5.584
  373.926   96.573    0.270    0.524    5.762
  374.176   95.422    0.268    0.530    5.962
  374.426   85.984    0.266    0.542    6.142
  374.676   77.549    0.281    0.556    6.332
  374.926   66.987    0.299    0.524    6.388
  375.176   60.368    0.314    0.496    6.492
  375.426   62.893    0.327    0.481    6.625
  375.676   65.630    0.335    0.482    6.751
  375.926   62.861    0.339    0.471    6.732
  376.176   59.281    0.343    0.475    6.891
  376.426   58.240    0.335    0.465    6.875
  376.676   60.585    0.321    0.457    6.720
  376.926   61.553    0.320    0.463    6.632
  377.176   61.385    0.336    0.467    6.625
  377.426   60.720    0.340    0.467    6.626
  377.676   60.174    0.343    0.466    6.627
  377.926   59.627    0.341    0.463    6.627
  378.176   59.755    0.335    0.466    6.628
  378.426   60.774    0.340    0.486    6.629
  378.676   59.950    0.341    0.488    6.629
  378.926   58.398    0.339    0.486    6.627
  379.176   59.534    0.342    0.495    6.630
  379.426   61.602    0.345    0.486    6.498
  379.676   62.795    0.346    0.478    6.505
  379.926   62.617    0.337    0.479    6.514
  380.176   61.168    0.331    0.467    6.381
  380.426   61.517    0.323    0.468    6.412
  380.676   62.515    0.330    0.457    6.498
  380.926   62.595    0.336    0.451    6.838
  381.176   61.827    0.337    0.456    7.036
  381.426   59.870    0.336    0.465    7.252
  381.676   57.133    0.331    0.472    7.437
  381.926   55.196    0.258    0.455    7.427
  382.176   58.282    0.142    0.230    7.335
  382.426   64.611    0.201    0.278    7.076
  382.676   68.612    0.306    0.341    6.645
  382.926   68.964    0.327    0.418    6.327
  383.176   68.099    0.335    0.461    6.012
  383.426   72.569    0.334    0.471    5.731
  383.676   77.350    0.336    0.472    5.675
  383.926   85.144    0.325    0.460    5.501
  384.176   91.653    0.304    0.465    5.510
  384.426   95.780    0.274    0.484    5.550
  384.676   98.113    0.261    0.522    5.737
  384.926   93.257    0.275    0.551    6.018
  385.176   94.587    0.288    0.536    6.382
  385.426   92.310    0.278    0.531    6.647
  385.676   89.087    0.275    0.515    6.692
  385.926   90.178    0.273    0.502    6.389
  386.176   91.709    0.281    0.490    5.953
  386.426   90.098    0.278    0.500    5.382
  386.676   93.740    0.276    0.509    4.978
  386.926   97.671    0.270    0.520    4.524
  387.176   98.859    0.253    0.515    4.329
  387.426   97.614    0.237    0.520    4.153
  387.676   96.553    0.248    0.526    4.084
  387.926   97.743    0.239    0.547    4.088
  388.176   99.090    0.246    0.556    4.090
  388.426   99.627    0.250    0.565    4.176
  388.676  100.296    0.259    0.541    4.062
  388.926  100.868    0.255    0.535    3.939
  389.176  100.514    0.242    0.522    3.925
  389.426   99.426    0.236    0.502    4.115
  389.676   96.805    0.250    0.510    4.307
  389.926   91.256    0.268    0.550    4.527
  390.176   79.401    0.275    0.587    4.887
  390.426   70.332    0.289    0.618    5.100
  390.676   67.198    0.312    0.600    5.415
  390.926   65.692    0.332    0.525    5.761
  391.176   66.727    0.341    0.480    6.254
  391.426   67.576    0.335    0.482    6.521
  391.676   66.861    0.344    0.481    6.532
  391.926   64.439    0.340    0.489    6.552
  392.176   62.353    0.339    0.500    6.405
  392.426   62.594    0.344    0.498    6.411
  392.676   65.368    0.347    0.488    6.533
  392.926   67.044    0.350    0.481    6.667
  393.176   66.956    0.356    0.481    6.776
  393.426   68.400    0.346    0.486    6.846
  393.676   70.642    0.338    0.502    6.899
  393.926   71.743    0.344    0.496    6.781
  394.176   69.799    0.349    0.505    6.733
  394.426   66.840    0.349    0.493    6.659
  394.676   66.968    0.347    0.491    6.532
  394.926   66.002    0.340    0.502    6.534
  395.176   66.290    0.333    0.501    6.665
  395.426   68.680    0.337    0.499    6.846
