~VERSION INFORMATION
 VERS.                 2.0:   CWLS LOG ASCII STANDARD -VERSION 2.0
 WRAP.                  NO:   ONE LINE PER DEPTH STEP
~WELL INFORMATION BLOCK
#MNEM.UNIT           DATA                    DESCRIPTION OF MNEMONIC
#---------    -------------------            -------------------------------
# Generated from Intellog Unique Number	CW_82_90/WELL/3078
WELL.         11-24-087-23W4                 : Well_name    - WELL
LOC .         00/11-24-087-23W4/0            : Location     - LOCATION
UWI .         00/11-24-087-23W4/0            : Uwi          - UNIQUE WELL ID
ENTR.         MAX                            : Entered      - ENTERED BY
SRVC.         WESTERN ATLAS                  : Scn          - SERVICE COMPANY
STRT.M        121.92                         : top_depth    - START DEPTH
STOP.M        345.67                         : bot_depth    - STOP DEPTH
STEP.M        0.25                           : increment    - STEP LENGTH
 NULL. -999.2500:NULL Value
~CURVE INFORMATION BLOCK
#MNEM UNIT       ERCB CURVE CODE    CURVE DESCRIPTION
#-----------   ------------------   ----------------------------------
DEPT.M        00 001 00 00         : DEPTH        - DEPTH
ILD .OHMM     00 120 00 00         : RESD         - DEEP RESISTIVITY (DIL)
NPHI.V/V      00 330 00 00         : PHIN         - NEUTRON POROSITY (SANDSTONE)
DPHI.V/V      00 890 00 00         : PHID         - DENSITY POROSITY (SANDSTONE)
CALI.MM       00 280 01 00         : CAL          - CALIPER
GR  .API      00 310 00 00         : GR           - GAMMA RAY
~PARAMETER INFORMATION
#MNEM.UNIT           DATA             DESCRIPTION OF MNEMONIC
#---------         -----------     ------------------------------
GL  .M        539.496              : gl           - GROUND LEVEL ELEVATION
EREF.M        542.239              : kb           - ELEVATION OF DEPTH REFERENCE
DATM.M        539.496              : datum        - DATUM ELEVATION
TDD .M        319.126              : tdd          - TOTAL DEPTH DRILLER
RUN .         ONE                  : Run          - RUN NUMBER
ENG .         BILL                 : Engineer     - RECORDING ENGINEER
WIT .         JIM                  : Witness      - WITNESSED BY
MUD .         GEL                  : Mud_type     - MUD TYPE
MATR.         SANDSTONE            : Logunit      - NEUTRON MATRIX
TMAX.C        21.6667              : BHT          - MAXIMUM RECORDED TEMPERATURE
BHTD.M        319.126              : BHTDEP       - MAXIMUM RECORDED TEMPERATURE
MATR.         1                    : LOGUNIT      - NEUTRON MATRIX
RMT .C        20                   : MDTP         - TEMPERATURE OF MUD
NEUT.         1                    : NEUTRON      - NEUTRON TYPE
RESI.         0                    : RESIST       - RESISTIVITY TYPE
RMC .OHMM     5.2                  : RMC          - RESISTIVITY OF MUD CAKE
RMF .OHMM     5                    : RMF          - RESISTIVITY OF MUD FILTRATE
SUFT.C        -18.3333             : SUFT         - SURFACE TEMPERATURE
~A  DEPTH     RESD     PHIN     PHID      CAL       GR
# ...
  194.920    3.861    0.449    0.251  213.386  124.300
  195.170    4.004    0.448    0.250  210.804  127.571
  195.420    4.268    0.440    0.248  211.777  127.545
  195.670    4.427    0.447    0.244  211.745  130.821
  195.920    4.425    0.447    0.247  216.285  131.099
  196.170    4.264    0.448    0.250  218.793  126.291
  196.420    4.147    0.449    0.296  217.734  119.388
  196.670    4.146    0.446    0.306  215.670  118.171
  196.920    4.261    0.425    0.301  214.102  120.242
  197.170    4.542    0.423    0.273  215.593  123.210
  197.420    5.023    0.442    0.259  217.083  126.182
  197.670    5.710    0.447    0.267  216.538  123.166
  197.920    6.432    0.447    0.277  214.974  120.754
  198.170    7.048    0.447    0.272  212.896  117.445
  198.420    7.866    0.433    0.267  209.297  114.432
  198.670    8.699    0.411    0.263  209.764  108.424
  198.920    9.105    0.390    0.250  211.259   99.727
  199.170    8.855    0.379    0.263  208.173   96.714
  199.420    7.233    0.394    0.305  207.109   96.992
  199.670    5.592    0.420    0.308  209.623   98.764
  199.920    4.783    0.446    0.299  212.127  100.840
  200.170    3.871    0.438    0.305  212.090  104.410
  200.420    3.629    0.424    0.302  211.549  107.680
  200.670    3.595    0.406    0.231  210.999  111.250
  200.920    3.594    0.401    0.176  211.476  114.820
  201.170    3.626    0.394    0.097  212.448  113.599
  201.420    3.726    0.391    0.085  209.357  115.075
  201.670    3.972    0.436    0.132  210.343  124.928
  201.920    4.273    0.442    0.187  213.870  137.773
  202.170    4.640    0.433    0.185  214.342  131.768
  202.420    5.226    0.419    0.191  212.779  120.976
  202.670    5.833    0.408    0.244  211.724  112.876
  202.920    6.571    0.394    0.260  208.119  103.577
  203.170    7.334    0.386    0.259  207.578  101.759
  203.420    8.260    0.387    0.261  208.046  100.538
  203.670    9.051    0.400    0.266  211.573   99.625
  203.920    9.561    0.400    0.269  213.059   97.510
  204.170   10.007    0.397    0.271  211.486   95.990
  204.420   10.378    0.386    0.271  210.949   95.371
  204.670   10.568    0.381    0.267  210.408   96.547
  204.920   10.760    0.381    0.266  209.349   92.338
  205.170   11.056    0.375    0.284  208.299   90.821
  205.420   11.362    0.370    0.293  205.708   91.099
  205.670   11.463    0.365    0.278  205.167   90.480
  205.920   11.459    0.359    0.256  207.676   90.758
  206.170   11.456    0.357    0.222  208.148   93.430
  206.420   11.452    0.383    0.277  206.580   91.908
  206.670   11.241    0.418    0.286  206.548   90.092
  206.920   10.537    0.418    0.288  206.502   90.972
  207.170    9.523    0.397    0.296  205.961  100.226
  207.420    8.765    0.382    0.302  203.888  102.300
  207.670    8.293    0.374    0.306  202.329   99.586
  207.920    7.224    0.378    0.291  201.779   96.573
  208.170    6.588    0.398    0.272  203.265   98.941
  208.420    6.586    0.384    0.208  204.242  101.618
  208.670    6.584    0.392    0.271  204.723  107.881
  208.920    6.462    0.416    0.257  205.191  114.742
  209.170    6.058    0.422    0.229  205.159  113.823
  209.420    5.425    0.421    0.236  205.627  110.511
  209.670    5.039    0.424    0.259  205.590  103.905
  209.920    4.767    0.415    0.258  205.549  102.688
  210.170    4.594    0.423    0.249  206.026  106.856
  210.420    4.551    0.414    0.239  207.003  111.024
  210.670    4.720    0.413    0.241  207.480  115.192
  210.920    5.077    0.424    0.240  207.443  117.861
  211.170    5.719    0.438    0.242  207.407  120.533
  211.420    6.502    0.427    0.272  206.856  114.531
  211.670    7.324    0.410    0.277  205.806  108.227
  211.920    8.402    0.408    0.282  204.243   98.928
  212.170   10.092    0.423    0.290  202.165   94.117
  212.420   11.578    0.435    0.260  203.147   92.005
  212.670   12.007    0.435    0.322  206.164   88.992
  212.920   10.851    0.421    0.314  207.146   87.772
  213.170    8.623    0.422    0.311  206.591   88.648
  213.420    6.486    0.443    0.304  206.564   88.625
  213.670    5.201    0.433    0.289  203.977   90.399
  213.920    4.573    0.424    0.277  200.891   92.476
  214.170    3.840    0.416    0.294  197.791   95.746
  214.420    3.254    0.430    0.289  198.268  106.198
  214.670    2.940    0.441    0.273  199.245  110.665
  214.920    3.106    0.432    0.269  199.722  113.935
  215.170    3.373    0.430    0.265  201.212  118.702
  215.420    3.799    0.435    0.286  204.730  118.978
  215.670    4.240    0.428    0.282  205.721  116.862
  215.920    4.820    0.446    0.279  206.193  114.747
  216.170    5.429    0.444    0.287  204.116  109.642
  216.420    5.949    0.434    0.289  204.074  110.517
  216.670    6.519    0.427    0.272  207.597  114.984
  216.920    7.343    0.434    0.254  210.623  115.861
  217.170    8.581    0.423    0.249  213.641  114.937
  217.420   11.720    0.406    0.248  212.582  113.725
  217.670   18.712    0.373    0.244  210.509  110.113
  217.920   26.273    0.343    0.240  204.364   99.019
  218.170   30.700    0.306    0.226  203.309   91.817
  218.420   25.079    0.258    0.082  205.818   82.521
  218.670   14.586    0.205   -0.002  208.835   76.810
  218.920   11.807    0.184    0.006  208.799   78.884
  219.170    9.557    0.207    0.082  208.253   81.858
  219.420    8.098    0.231    0.200  208.217   86.624
  219.670    7.318    0.295    0.262  207.153   91.092
  219.920    6.988    0.342    0.251  207.125   96.457
  220.170    6.922    0.382    0.238  207.084  101.525
  220.420    6.983    0.418    0.226  208.579  103.294
  220.670    6.854    0.413    0.249  209.052  105.071
  220.920    6.545    0.402    0.277  208.497  103.851
  221.170    5.014    0.383    0.277  206.933  102.633
  221.420    4.489    0.381    0.264  205.878  103.211
  221.670    4.571    0.382    0.252  204.319  105.880
  221.920    4.829    0.408    0.256  201.228  108.857
  222.170    5.340    0.445    0.280  203.228  109.734
  222.420    6.070    0.444    0.272  207.264  105.823
  222.670    6.838    0.435    0.261  207.227   93.532
  222.920    7.222    0.424    0.263  207.186   89.320
  223.170    6.896    0.406    0.314  206.640   82.420
  223.420    6.585    0.379    0.311  206.599   83.593
  223.670    6.522    0.384    0.286  206.562   87.465
  223.920    6.764    0.408    0.204  206.530   93.129
  224.170    7.080    0.419    0.193  205.985   98.494
  224.420    6.576    0.405    0.237  204.925  101.163
  224.670    6.109    0.399    0.224  202.344  101.142
  224.920    5.571    0.387    0.234  200.271   98.130
  225.170    5.369    0.377    0.260  199.725  100.203
  225.420    5.269    0.366    0.276  199.689  102.873
  225.670    5.220    0.397    0.274  202.197  105.844
  225.920    5.218    0.414    0.277  204.701  106.120
  226.170    5.412    0.392    0.282  205.683  105.207
  226.420    6.040    0.403    0.284  206.160  103.690
  226.670    6.993    0.403    0.288  206.118  102.469
  226.920    8.172    0.388    0.300  205.068  102.748
  227.170   13.048    0.366    0.300  201.973  102.129
  227.420   18.152    0.340    0.271  202.954   95.226
  227.670   21.803    0.324    0.113  205.458   90.418
  227.920   19.168    0.288    0.003  206.440   81.119
  228.170   12.912    0.203   -0.021  206.912   74.214
  228.420   11.885    0.189    0.008  206.876   77.482
  228.670   11.245    0.224    0.079  206.335   82.852
  228.920   10.255    0.275    0.025  206.293   89.114
  229.170    9.882    0.285    0.017  206.257   87.298
  229.420    9.436    0.271    0.056  205.711   79.797
  229.670    8.846    0.269    0.097  205.670   77.976
  229.920    8.142    0.314    0.159  207.161   81.551
  230.170    7.918    0.361    0.186  208.651   89.010
  230.420    7.916    0.405    0.196  209.128  100.060
  230.670    7.841    0.426    0.214  207.560  105.425
  230.920    8.057    0.424    0.210  204.983  108.696
  231.170    8.129    0.415    0.202  204.432  110.470
