~VERSION INFORMATION
 VERS.                 2.0:   CWLS LOG ASCII STANDARD -VERSION 2.0
 WRAP.                  NO:   ONE LINE PER DEPTH STEP
~WELL INFORMATION BLOCK
#MNEM.UNIT           DATA                    DESCRIPTION OF MNEMONIC
#---------    -------------------            -------------------------------
# Generated from Intellog Unique Number	CW_70_72/WELL/3028
NULL.         -999.25                        : NULL_VALUE
WELL.         SULPETRO ET AL MITSUE 11-10    : Well_name    - WELL              
LOC .         11-10-070-05W5                 : Location     - LOCATION          
UWI .         00/11-10-070-05W5/0            : Uwi          - UNIQUE WELL ID    
ENTR.         JAYE                           : Entered      - ENTERED BY        
SRVC.         SCHLUMBERGER                   : Scn          - SERVICE COMPANY   
DATE.         4 FEB 79                       : Date         - LOG DATE          
STRT.M        680                            : top_depth    - START DEPTH       
STOP.M        905                            : bot_depth    - STOP DEPTH        
STEP.M        0.25                           : increment    - STEP LENGTH       
~CURVE INFORMATION BLOCK
#MNEM UNIT       ERCB CURVE CODE    CURVE DESCRIPTION
#-----------   ------------------   ----------------------------------
DEPT.M        00 001 00 00         : DEPTH        - DEPTH                       
CALI.MM       00 280 01 00         : CAL          - CALIPER                     
ILD .OHMM     00 120 00 00         : RESD         - DEEP RESISTIVITY (DIL)      
GR  .API      00 310 00 00         : GR           - GAMMA RAY                   
NPHI.V/V      00 330 00 00         : PHIN         - NEUTRON POROSITY (SANDSTONE)
DPHI.V/V      00 890 00 00         : PHID         - DENSITY POROSITY (SANDSTONE)
~PARAMETER INFORMATION       
#MNEM.UNIT           DATA             DESCRIPTION OF MNEMONIC
#---------         -----------     ------------------------------
GL  .M        785.2                : gl           - GROUND LEVEL ELEVATION      
EREF.M        788.2                : kb           - ELEVATION OF DEPTH REFERENCE
DATM.M        785.2                : datum        - DATUM ELEVATION             
TDD .M        931                  : tdd          - TOTAL DEPTH DRILLER         
RUN .         ONE                  : Run          - RUN NUMBER                  
ENG .         RIVOLLIER            : Engineer     - RECORDING ENGINEER          
WIT .         TRUNK                : Witness      - WITNESSED BY                
BASE.         EDM                  : Branch       - HOME BASE OF LOGGING UNIT   
MUD .         GEL                  : Mud_type     - MUD TYPE                    
MATR.         SANDSTONE            : Logunit      - NEUTRON MATRIX              
TMAX.C        0                    : BHT          - MAXIMUM RECORDED TEMPERATURE
BHTD.M        931                  : BHTDEP       - MAXIMUM RECORDED TEMPERATURE
RMT .C        11                   : MDTP         - TEMPERATURE OF MUD          
MUDD.KG/M     1102                 : MWT          - MUD DENSITY                 
NEUT.         1                    : NEUTRON      - NEUTRON TYPE                
RESI.         0                    : RESIST       - RESISTIVITY TYPE            
RM  .OHMM     5.96                 : RM           - RESISTIVITY OF MUD          
RMC .OHMM     0.25                 : RMC          - RESISTIVITY OF MUD CAKE     
RMF .OHMM     7.48                 : RMF          - RESISTIVITY OF MUD FILTRATE 
SUFT.C        0                    : SUFT         - SURFACE TEMPERATURE         
~A  DEPTH      CAL     RESD       GR     PHIN     PHID
# ...
  789.500  143.369    1.152   58.230    0.405    0.327
  789.750  141.133    1.173   57.377    0.409    0.335
  790.000  139.718    1.191   56.525    0.392    0.324
  790.250  140.864    1.188   56.168    0.392    0.316
  790.500  143.750    1.145   56.795    0.395    0.322
  790.750  146.536    1.121   57.981    0.381    0.308
  791.000  147.272    1.101   59.227    0.384    0.321
  791.250  147.494    1.096   60.658    0.388    0.339
  791.500  147.307    1.108   61.779    0.402    0.327
  791.750  147.124    1.119   62.469    0.405    0.309
  792.000  147.040    1.139   62.419    0.404    0.300
  792.250  147.060    1.168   61.631    0.405    0.320
  792.500  147.076    1.187   61.024    0.399    0.310
  792.750  146.889    1.218   60.296    0.391    0.310
  793.000  146.605    1.237   59.691    0.399    0.312
  793.250  146.723    1.234   59.271    0.398    0.297
  793.500  147.149    1.212   59.097    0.388    0.270
  793.750  147.681    1.175   59.047    0.391    0.260
  794.000  148.006    1.148   60.294    0.420    0.286
  794.250  147.923    1.132   61.848    0.435    0.311
  794.500  144.970    1.123   63.340    0.427    0.314
  794.750  138.736    1.122   61.377    0.415    0.310
  795.000  137.730    1.129   59.846    0.404    0.317
  795.250  140.107    1.143   60.907    0.394    0.294
  795.500  141.458    1.174   61.167    0.385    0.295
  795.750  142.603    1.211   60.375    0.407    0.289
  796.000  142.621    1.254   61.005    0.440    0.285
  796.250  141.924    1.296   61.695    0.438    0.284
  796.500  141.942    1.334   62.448    0.415    0.291
  796.750  141.756    1.366   62.088    0.387    0.295
  797.000  142.081    1.427   59.941    0.357    0.295
  797.250  143.020    1.445   56.621    0.339    0.227
  797.500  143.654    1.396   56.201    0.286    0.225
  797.750  142.751    1.323   57.508    0.317    0.288
  798.000  140.412    1.252   58.384    0.372    0.319
  798.250  139.508    1.189   59.198    0.403    0.334
  798.500  141.576    1.138   60.752    0.437    0.319
  798.750  143.441    1.091   61.380    0.439    0.321
  799.000  143.664    1.048   61.701    0.419    0.322
  799.250  142.660    1.026   63.008    0.427    0.326
  799.500  141.958    1.019   64.687    0.446    0.321
  799.750  143.514    1.020   63.650    0.452    0.341
  800.000  146.607    1.031   61.131    0.443    0.337
  800.250  148.061    1.041   59.354    0.436    0.328
  800.500  147.669    1.050   60.045    0.441    0.331
  800.750  147.276    1.047   61.104    0.455    0.334
  801.000  146.786    1.031   61.426    0.465    0.342
  801.250  146.495    1.017   60.328    0.459    0.344
  801.500  146.617    0.999   59.228    0.442    0.341
  801.750  146.533    0.983   58.746    0.430    0.336
  802.000  146.959    0.962   59.992    0.426    0.348
  802.250  147.798    0.945   61.916    0.437    0.354
  802.500  147.407    0.946   64.088    0.449    0.343
  802.750  144.351    0.972   65.518    0.435    0.334
  803.000  140.784    0.993   67.134    0.414    0.326
  803.250  140.597    1.026   72.268    0.403    0.310
  803.500  141.333    1.101   78.512    0.411    0.256
  803.750  144.016    1.302   84.139    0.429    0.213
  804.000  147.519    1.531   86.496    0.444    0.197
  804.250  149.791    1.970   83.483    0.426    0.213
  804.500  151.550    2.432   84.545    0.414    0.237
  804.750  144.294    2.709   85.420    0.395    0.233
  805.000  142.879    2.568   83.643    0.407    0.206
  805.250  145.767    2.363   80.816    0.416    0.206
  805.500  148.041    2.150   76.261    0.414    0.239
  805.750  147.442    1.949   73.434    0.411    0.256
  806.000  142.444    1.730   72.459    0.417    0.253
  806.250  140.411    1.577   72.964    0.425    0.272
  806.500  140.328    1.495   73.716    0.432    0.288
  806.750  142.293    1.474   70.951    0.411    0.286
  807.000  145.383    1.532   73.431    0.413    0.289
  807.250  149.193    1.616   76.961    0.423    0.275
  807.500  151.466    1.721   82.464    0.428    0.252
  807.750  152.406    1.825   80.934    0.418    0.210
  808.000  152.322    1.841   76.811    0.419    0.230
  808.250  151.521    1.819   74.293    0.405    0.249
  808.500  150.310    1.753   73.009    0.403    0.260
  808.750  150.125    1.729   73.886    0.415    0.247
  809.000  150.451    1.754   75.254    0.424    0.250
  809.250  150.268    1.843   78.968    0.424    0.239
  809.500  150.180    1.901   81.880    0.417    0.228
  809.750  150.506    1.931   84.484    0.408    0.240
  810.000  151.243    2.056   85.359    0.404    0.227
  810.250  152.799    2.231   83.149    0.412    0.192
  810.500  154.353    2.407   81.620    0.413    0.187
  810.750  156.421    2.511   82.741    0.408    0.179
  811.000  157.260    2.546   85.715    0.399    0.175
  811.250  157.484    2.549   87.578    0.389    0.178
  811.500  156.992    2.609   83.516    0.376    0.188
  811.750  156.702    2.661   83.405    0.365    0.200
  812.000  156.515    2.714   86.256    0.378    0.199
  812.250  156.532    2.753   88.797    0.401    0.178
  812.500  156.554    2.776   89.796    0.407    0.172
  812.750  156.571    2.763   89.069    0.398    0.182
  813.000  156.690    2.679   87.166    0.409    0.201
  813.250  157.426    2.550   84.279    0.401    0.213
  813.500  157.444    2.337   81.575    0.393    0.230
  813.750  155.310    2.048   77.885    0.404    0.251
  814.000  151.435    1.822   74.996    0.409    0.269
  814.250  149.200    1.636   72.046    0.396    0.283
  814.500  147.683    1.458   67.122    0.408    0.291
  814.750  147.597    1.336   59.975    0.395    0.305
  815.000  148.437    1.200   57.951    0.389    0.324
  815.250  149.274    1.106   59.197    0.394    0.326
  815.500  149.497    1.064   60.442    0.396    0.319
  815.750  148.184    1.121   60.332    0.396    0.310
  816.000  145.437    1.213   57.196    0.394    0.298
  816.250  143.714    1.282   53.690    0.372    0.293
  816.500  143.322    1.323   54.196    0.354    0.283
  816.750  144.673    1.329   59.083    0.361    0.269
  817.000  144.690    1.338   63.414    0.378    0.251
  817.250  142.454    1.352   67.621    0.398    0.295
  817.500  141.655    1.392   70.780    0.411    0.285
  817.750  143.211    1.451   66.535    0.394    0.268
  818.000  146.303    1.566   63.955    0.378    0.266
  818.250  147.038    1.757   63.535    0.368    0.255
  818.500  146.646    1.892   64.348    0.368    0.254
  818.750  145.845    1.919   64.670    0.376    0.263
  819.000  144.224    1.843   64.371    0.389    0.276
  819.250  139.324    1.744   63.643    0.398    0.296
  819.500  136.271    1.675   62.298    0.415    0.312
  819.750  141.617    1.696   61.014    0.426    0.298
  820.000  146.347    1.786   62.814    0.423    0.259
  820.250  147.494    1.880   65.850    0.412    0.242
  820.500  147.307    1.868   66.972    0.406    0.264
  820.750  146.916    1.781   67.046    0.421    0.282
  821.000  146.524    1.670   66.071    0.417    0.295
  821.250  143.980    1.598   64.541    0.425    0.291
  821.500  143.179    1.561   61.960    0.415    0.284
  821.750  146.991    1.586   58.764    0.423    0.275
  822.000  146.907    1.855   56.861    0.431    0.256
  822.250  140.674    2.164   55.333    0.404    0.229
  822.500  134.646    2.541   55.281    0.354    0.179
  822.750  145.219    2.562   55.910    0.291    0.117
  823.000  153.947    2.191   55.921    0.296    0.175
  823.250  148.845    1.808   54.576    0.334    0.223
  823.500  145.788    1.570   53.230    0.382    0.267
  823.750  144.784    1.335   51.946    0.404    0.309
  824.000  145.312    1.125   50.848    0.413    0.318
  824.250  146.255    1.031   51.108    0.419    0.306
  824.500  146.888    1.015   51.180    0.415    0.303
  824.750  147.727    1.012   51.686    0.408    0.314
  825.000  148.256    1.009   52.190    0.408    0.317
  825.250  149.094    1.018   52.079    0.405    0.304
  825.500  149.933    1.030   52.029    0.408    0.297
  825.750  150.568    1.069   51.919    0.396    0.309
