~VERSION INFORMATION
 VERS.                 2.0:   CWLS LOG ASCII STANDARD -VERSION 2.0
 WRAP.                  NO:   ONE LINE PER DEPTH STEP
~WELL INFORMATION BLOCK
#MNEM.UNIT           DATA                    DESCRIPTION OF MNEMONIC
#---------    -------------------            -------------------------------
# Generated from Intellog Unique Number	CS_71_72/WELL/849
WELL.         PEX PHILLIPS AEC WIAU          : Well_name    - WELL
LOC .         00/10-01-072-07W4/0            : Location     - LOCATION
UWI .         00/10-01-072-07W4/0            : Uwi          - UNIQUE WELL ID
ENTR.         SP                             : Entered      - ENTERED BY
SRVC.         SCHLUMBERGER                   : Scn          - SERVICE COMPANY
STRT.M        300                            : top_depth    - START DEPTH
STOP.M        525                            : bot_depth    - STOP DEPTH
STEP.M        0.25                           : increment    - STEP LENGTH
 NULL. -999.2500:NULL Value
~CURVE INFORMATION BLOCK
#MNEM UNIT       ERCB CURVE CODE    CURVE DESCRIPTION
#-----------   ------------------   ----------------------------------
DEPT.M        00 001 00 00         : DEPTH        - DEPTH
ILD .OHMM     00 120 00 00         : RESD         - DEEP RESISTIVITY (DIL)
DPHI.V/V      00 890 00 00         : PHID         - DENSITY POROSITY (LIMESTONE)
NPHI.V/V      00 330 00 00         : PHIN         - NEUTRON POROSITY (LIMESTONE)
GR  .API      00 310 00 00         : GR           - GAMMA RAY
~PARAMETER INFORMATION
#MNEM.UNIT           DATA             DESCRIPTION OF MNEMONIC
#---------         -----------     ------------------------------
GL  .M        664.2                : gl           - GROUND LEVEL ELEVATION
EREF.M        667.1                : kb           - ELEVATION OF DEPTH REFERENCE
DATM.M        664.2                : datum        - DATUM ELEVATION
TDD .M        536                  : tdd          - TOTAL DEPTH DRILLER
RUN .         ONE                  : Run          - RUN NUMBER
ENG .         BILL                 : Engineer     - RECORDING ENGINEER
WIT .         JIM                  : Witness      - WITNESSED BY
MUD .         GEL                  : Mud_type     - MUD TYPE
MATR.         LIMESTONE            : Logunit      - NEUTRON MATRIX
TMAX.C        19                   : BHT          - MAXIMUM RECORDED TEMPERATURE
BHTD.M        536                  : BHTDEP       - MAXIMUM RECORDED TEMPERATURE
MATR.         1                    : LOGUNIT      - NEUTRON MATRIX
RMT .C        25                   : MDTP         - TEMPERATURE OF MUD
NEUT.         1                    : NEUTRON      - NEUTRON TYPE
RESI.         0                    : RESIST       - RESISTIVITY TYPE
RMC .OHMM     0.25                 : RMC          - RESISTIVITY OF MUD CAKE
RMF .OHMM     0.25                 : RMF          - RESISTIVITY OF MUD FILTRATE
SUFT.C        15                   : SUFT         - SURFACE TEMPERATURE
~A  DEPTH     RESD     PHID     PHIN       GR
# ...
  343.500    6.685    0.231    0.477  110.522
  343.750    6.564    0.237    0.480  111.127
  344.000    6.447    0.262    0.494  106.850
  344.250    6.573    0.247    0.510  104.407
  344.500    6.699    0.249    0.524  100.133
  344.750    7.087    0.252    0.516   96.467
  345.000    7.640    0.258    0.495   95.851
  345.250    8.391    0.269    0.498   95.847
  345.500    8.875    0.279    0.503   94.620
  345.750    9.932    0.301    0.506   93.396
  346.000   10.506    0.318    0.502   97.656
  346.250   11.327    0.343    0.487   99.480
  346.500   11.983    0.285    0.471   99.474
  346.750   12.445    0.277    0.452   97.638
  347.000   12.925    0.275    0.430   96.414
  347.250   13.177    0.273    0.425   95.798
  347.500   12.942    0.271    0.421   94.570
  347.750   12.948    0.267    0.418   93.953
  348.000   12.481    0.243    0.412   93.336
  348.250   12.485    0.239    0.411   92.721
  348.500   12.489    0.236    0.427   92.714
  348.750   12.736    0.232    0.447   92.100
  349.000   12.981    0.223    0.459   91.486
  349.250   13.479    0.227    0.470   90.260
  349.500   14.260    0.283    0.480   84.767
  349.750   15.086    0.312    0.491   79.882
  350.000   14.014    0.295    0.462   78.049
  350.250   13.257    0.288    0.440   78.041
  350.500   11.862    0.270    0.428   83.521
  350.750   10.419    0.254    0.458   87.176
  351.000    8.982    0.242    0.491   95.093
  351.250    8.037    0.253    0.507   98.138
  351.500    7.603    0.234    0.509  102.401
  351.750    6.931    0.224    0.519  106.662
  352.000    6.558    0.238    0.531  107.267
  352.250    7.202    0.264    0.541  104.823
  352.500    7.620    0.287    0.512   95.058
  352.750    8.369    0.280    0.502   88.346
  353.000    9.020    0.273    0.492   82.853
  353.250    9.723    0.283    0.506   77.969
  353.500   11.085    0.305    0.501   72.474
  353.750   12.173    0.324    0.458   69.421
  354.000   12.879    0.329    0.445   65.147
  354.250   13.883    0.328    0.438   63.311
  354.500   14.417    0.327    0.445   63.305
  354.750   14.698    0.323    0.444   63.298
  355.000   14.700    0.321    0.443   63.292
  355.250   14.986    0.317    0.448   63.892
  355.500   15.276    0.313    0.457   63.886
  355.750   14.999    0.311    0.461   64.491
  356.000   14.731    0.318    0.449   65.705
  356.250   13.431    0.315    0.433   67.529
  356.500   12.947    0.307    0.422   68.744
  356.750   12.252    0.300    0.432   71.781
  357.000   12.255    0.307    0.439   72.996
  357.250   12.495    0.323    0.446   74.210
  357.500   12.734    0.332    0.448   74.815
  357.750   14.789    0.322    0.446   74.810
  358.000   14.797    0.315    0.445   74.803
  358.250   14.534    0.306    0.443   74.188
  358.500   14.539    0.298    0.433   74.180
  358.750   14.545    0.292    0.423   74.785
  359.000   14.024    0.287    0.421   74.781
  359.250   14.028    0.280    0.417   75.381
  359.500   13.524    0.287    0.417   75.376
  359.750   13.282    0.295    0.421   75.982
  360.000   12.803    0.294    0.424   77.805
  360.250   12.117    0.293    0.420   76.578
  360.500   11.678    0.292    0.415   75.353
  360.750   11.050    0.292    0.414   76.567
  361.000   10.649    0.292    0.421   78.390
  361.250    9.890    0.283    0.428   83.258
  361.500    9.360    0.263    0.439   85.083
  361.750    9.363    0.270    0.450   86.298
  362.000    9.545    0.309    0.459   86.903
  362.250    9.550    0.335    0.464   82.626
  362.500    9.737    0.352    0.460   80.183
  362.750    9.740    0.303    0.461   74.686
  363.000    9.744    0.298    0.493   72.853
  363.250    9.934    0.300    0.501   68.577
  363.500   10.316    0.302    0.497   66.133
  363.750   10.714    0.303    0.478   63.689
  364.000   11.129    0.314    0.467   60.632
  364.250   11.133    0.312    0.464   59.410
  364.500   11.346    0.305    0.459   58.184
  364.750   11.568    0.314    0.448   60.616
  365.000   11.789    0.320    0.439   60.610
  365.250   12.019    0.329    0.441   61.820
  365.500   12.254    0.335    0.448   61.816
  365.750   12.258    0.337    0.450   62.420
  366.000   12.497    0.334    0.450   62.415
  366.250   12.501    0.329    0.450   60.577
  366.500   12.742    0.325    0.450   61.182
  366.750   12.989    0.325    0.446   61.178
  367.000   13.488    0.323    0.442   60.562
  367.250   14.008    0.321    0.441   60.555
  367.500   14.547    0.302    0.412   58.108
  367.750   15.109    0.083    0.359   56.275
  368.000   15.115    0.051    0.233   51.388
  368.250   15.124    0.097    0.210   48.944
  368.500   14.047    0.169    0.263   45.890
  368.750   12.569    0.222    0.332   47.104
  369.000   11.458    0.274    0.373   52.586
  369.250   10.842    0.309    0.420   56.848
  369.500   10.646    0.328    0.438   56.233
  369.750   10.651    0.325    0.438   51.957
  370.000   10.861    0.321    0.438   50.733
  370.250   11.070    0.320    0.424   50.115
  370.500   11.284    0.316    0.412   50.720
  370.750   11.289    0.313    0.424   51.931
  371.000   11.508    0.313    0.426   51.926
  371.250   11.730    0.324    0.419   52.532
  371.500   11.957    0.326    0.418   51.305
  371.750   11.964    0.324    0.430   50.079
  372.000   11.969    0.320    0.440   49.465
  372.250   11.974    0.316    0.420   49.456
  372.500   11.982    0.310    0.413   49.451
  372.750   12.216    0.308    0.434   49.445
  373.000   12.220    0.318    0.441   49.438
  373.250   12.228    0.337    0.441   49.432
  373.500   12.232    0.345    0.436   49.425
  373.750   12.239    0.358    0.447   49.418
  374.000   12.245    0.370    0.460   49.412
  374.250   12.026    0.379    0.465   49.408
  374.500   11.593    0.365    0.464   50.623
  374.750   11.387    0.346    0.456   51.836
  375.000   11.182    0.336    0.448   53.658
  375.250   10.981    0.326    0.445   54.263
  375.500   10.784    0.341    0.442   54.257
  375.750   10.590    0.340    0.440   56.079
  376.000   10.401    0.337    0.440   57.294
  376.250   10.215    0.347    0.441   58.508
  376.500   10.033    0.341    0.442   58.500
  376.750   10.038    0.337    0.446   58.494
  377.000   10.042    0.335    0.458   59.707
  377.250    9.863    0.335    0.457   60.922
  377.500    9.868    0.334    0.455   60.305
  377.750    9.690    0.330    0.452   59.076
  378.000    9.341    0.320    0.445   59.072
  378.250    8.675    0.309    0.439   59.678
  378.500    8.057    0.296    0.429   62.111
  378.750    7.344    0.284    0.432   67.591
  379.000    6.821    0.248    0.469   73.073
  379.250    6.218    0.239    0.498   77.944
  379.500    5.775    0.253    0.510   82.207
  379.750    5.465    0.241    0.509   84.641
  380.000    5.366    0.227    0.507   87.074
  380.250    5.173    0.244    0.516   85.236
  380.500    5.081    0.245    0.505   83.400
  380.750    5.083    0.247    0.498   82.173
  381.000    5.377    0.260    0.510   81.558
  381.250    5.690    0.271    0.513   80.943
  381.500    6.134    0.276    0.503   80.330
  381.750    6.369    0.278    0.484   79.104
  382.000    6.616    0.281    0.478   77.875
  382.250    6.744    0.282    0.474   77.260
  382.500    6.746    0.283    0.473   77.257
  382.750    6.749    0.285    0.468   77.861
  383.000    6.754    0.287    0.466   79.074
  383.250    6.757    0.290    0.463   74.187
  383.500    6.760    0.296    0.461   71.742
  383.750    6.765    0.299    0.468   69.905
  384.000    6.767    0.299    0.471   69.901
  384.250    6.646    0.292    0.460   71.116
  384.500    6.290    0.273    0.456   74.768
  384.750    6.062    0.255    0.456   77.811
  385.000    5.631    0.263    0.468   80.245
  385.250    5.529    0.273    0.474   83.288
  385.500    5.533    0.284    0.484   79.012
  385.750    5.535    0.300    0.486   77.179
  386.000    5.642    0.296    0.494   73.512
  386.250    5.860    0.294    0.497   73.507
  386.500    5.972    0.293    0.491   76.550
  386.750    6.320    0.292    0.488   77.762
