~VERSION INFORMATION
 VERS.                 2.0:   CWLS LOG ASCII STANDARD -VERSION 2.0
 WRAP.                  NO:   ONE LINE PER DEPTH STEP
~WELL INFORMATION BLOCK
#MNEM.UNIT           DATA                    DESCRIPTION OF MNEMONIC
#---------    -------------------            -------------------------------
# Generated from Intellog Unique Number	CW_70_72/WELL/1065
NULL.         -999.25                        : NULL_VALUE
WELL.         GAO ET AL CALL 11-36           : Well_name    - WELL              
LOC .         11-36-072-19W4                 : Location     - LOCATION          
UWI .         00/11-36-072-19W4/0            : Uwi          - UNIQUE WELL ID    
ENTR.         JAYE                           : Entered      - ENTERED BY        
SRVC.         SCHLUMBERGER                   : Scn          - SERVICE COMPANY   
DATE.         16 FEB 76                      : Date         - LOG DATE          
STRT.M        344.424                        : top_depth    - START DEPTH       
STOP.M        554.674                        : bot_depth    - STOP DEPTH        
STEP.M        0.25                           : increment    - STEP LENGTH       
~CURVE INFORMATION BLOCK
#MNEM UNIT       ERCB CURVE CODE    CURVE DESCRIPTION
#-----------   ------------------   ----------------------------------
DEPT.M        00 001 00 00         : DEPTH        - DEPTH                       
DPHI.V/V      00 890 00 00         : PHID         - DENSITY POROSITY (SANDSTONE)
NPHI.V/V      00 330 00 00         : PHIN         - NEUTRON POROSITY (SANDSTONE)
GR  .API      00 310 00 00         : GR           - GAMMA RAY                   
CALI.MM       00 280 01 00         : CAL          - CALIPER                     
ILD .OHMM     00 120 00 00         : RESD         - DEEP RESISTIVITY (DLL)      
~PARAMETER INFORMATION       
#MNEM.UNIT           DATA             DESCRIPTION OF MNEMONIC
#---------         -----------     ------------------------------
GL  .M        644.256              : gl           - GROUND LEVEL ELEVATION      
EREF.M        647.395              : kb           - ELEVATION OF DEPTH REFERENCE
DATM.M        644.256              : datum        - DATUM ELEVATION             
TDD .M        571.195              : tdd          - TOTAL DEPTH DRILLER         
RUN .         ONE                  : Run          - RUN NUMBER                  
BASE.         EDM                  : Branch       - HOME BASE OF LOGGING UNIT   
MATR.         SANDSTONE            : Logunit      - NEUTRON MATRIX              
TMAX.C        28.3333              : BHT          - MAXIMUM RECORDED TEMPERATURE
BHTD.M        569.366              : BHTDEP       - MAXIMUM RECORDED TEMPERATURE
RMT .C        16.1111              : MDTP         - TEMPERATURE OF MUD          
MUDD.KG/M     0                    : MWT          - MUD DENSITY                 
NEUT.         1                    : NEUTRON      - NEUTRON TYPE                
RESI.         1                    : RESIST       - RESISTIVITY TYPE            
RM  .OHMM     3.57                 : RM           - RESISTIVITY OF MUD          
RMC .OHMM     0                    : RMC          - RESISTIVITY OF MUD CAKE     
RMF .OHMM     2.89                 : RMF          - RESISTIVITY OF MUD FILTRATE 
SUFT.C        -17.7778             : SUFT         - SURFACE TEMPERATURE         
~A  DEPTH     PHID     PHIN       GR      CAL     RESD
# ...
  380.924    0.296    0.431   83.078  157.123    6.297
  381.174    0.289    0.416   83.259  157.222    5.719
  381.424    0.291    0.414   78.920  157.425    5.100
  381.674    0.286    0.415   80.750  158.041    4.761
  381.924    0.284    0.411   83.679  158.968    4.561
  382.174    0.293    0.434   87.647  160.516    4.532
  382.424    0.329    0.502   89.660  168.061    4.689
  382.674    0.363    0.537   87.947  177.882    5.212
  382.924    0.355    0.515   79.456  173.431    5.878
  383.174    0.338    0.479   72.857  159.466    6.426
  383.424    0.308    0.462   69.190  156.462    6.710
  383.674    0.313    0.451   67.539  156.251    6.631
  383.924    0.311    0.440   71.323  156.247    6.566
  384.174    0.306    0.426   76.207  156.553    6.586
  384.424    0.295    0.461   77.914  156.859    6.580
  384.674    0.269    0.467   79.561  157.165    6.636
  384.924    0.278    0.474   81.146  157.265    6.619
  385.174    0.299    0.478   82.549  157.881    6.540
  385.424    0.308    0.483   85.722  158.084    6.334
  385.674    0.298    0.491   90.117  158.391    5.775
  385.924    0.283    0.497   91.581  158.904    5.312
  386.174    0.287    0.487   90.234  159.106    4.816
  386.424    0.297    0.461   91.698  160.240    4.248
  386.674    0.288    0.458   94.933  162.925    4.237
  386.924    0.229    0.508   99.877  175.538    4.465
  387.174    0.228    0.530   98.348  188.254    4.837
  387.424    0.263    0.545   87.474  192.284    5.219
  387.674    0.304    0.526   77.211  167.976    5.686
  387.924    0.322    0.441   70.857  160.215    5.970
  388.174    0.310    0.434   71.465  158.556    6.109
  388.424    0.301    0.438   66.211  158.036    6.321
  388.674    0.289    0.430   58.574  157.721    6.458
  388.924    0.284    0.416   52.342  157.924    6.404
  389.174    0.303    0.408   45.682  158.022    6.364
  389.424    0.313    0.407   45.008  158.226    6.395
  389.674    0.321    0.406   45.250  158.325    6.509
  389.924    0.328    0.406   45.248  158.424    6.672
  390.174    0.329    0.411   45.551  158.317    6.753
  390.424    0.325    0.416   48.602  158.313    6.822
  390.674    0.306    0.422   53.547  158.412    6.868
  390.924    0.264    0.416   55.437  158.718    6.913
  391.174    0.263    0.403   53.053  158.715    6.959
  391.424    0.278    0.391   54.272  159.020    6.965
  391.674    0.281    0.394   54.453  158.913    6.948
  391.924    0.290    0.401   52.069  158.806    6.917
  392.174    0.291    0.395   50.540  158.800    6.911
  392.424    0.289    0.388   52.186  158.900    6.880
  392.674    0.295    0.390   54.505  158.896    6.925
  392.924    0.297    0.386   55.296  158.686    6.894
  393.174    0.298    0.380   52.729  158.682    6.802
  393.424    0.308    0.377   53.581  158.677    6.759
  393.674    0.319    0.388   56.144  158.674    6.742
  393.924    0.317    0.394   55.775  158.774    6.748
  394.174    0.312    0.404   56.017  158.769    6.755
  394.424    0.314    0.414   56.503  159.074    6.688
  394.674    0.318    0.421   57.356  159.070    6.610
  394.924    0.317    0.412   60.041  159.275    6.520
  395.174    0.314    0.405   60.038  159.374    6.419
  395.424    0.321    0.422   57.715  159.265    6.310
  395.674    0.327    0.434   56.613  159.365    6.282
  395.924    0.332    0.427   56.367  159.465    6.323
  396.174    0.343    0.418   55.754  159.357    6.376
  396.424    0.336    0.416   53.858  159.353    6.430
  396.674    0.341    0.425   54.161  159.349    6.425
  396.924    0.338    0.449   54.403  159.241    6.408
  397.174    0.328    0.453   54.462  159.135    6.380
  397.424    0.336    0.445   54.887  158.922    6.341
  397.674    0.345    0.432   53.846  158.712    6.300
  397.924    0.333    0.424   55.065  158.605    6.272
  398.174    0.331    0.417   56.467  158.602    6.222
  398.424    0.335    0.407   57.442  158.597    6.136
  398.674    0.333    0.410   57.440  158.695    5.804
  398.924    0.328    0.428   57.254  158.693    5.788
  399.174    0.340    0.442   56.580  158.792    5.816
  399.424    0.347    0.456   54.990  158.994    5.811
  399.674    0.339    0.458   55.720  158.887    5.786
  399.924    0.340    0.460   58.772  159.194    5.834
  400.174    0.345    0.452   59.868  159.396    5.948
  400.424    0.344    0.442   59.378  159.599    6.043
  400.674    0.347    0.438   55.894  159.905    6.217
  400.924    0.338    0.440   51.555  160.315    6.540
  401.174    0.344    0.436   53.018  160.620    7.295
  401.424    0.335    0.430   52.711  160.616    9.036
  401.674    0.333    0.440   51.120  160.509    9.788
  401.924    0.337    0.430   50.385  160.195    8.384
  402.174    0.343    0.423   48.062  159.881    7.448
  402.424    0.342    0.431   46.960  159.877    6.691
  402.674    0.335    0.437   51.111  159.562    6.224
  402.924    0.336    0.432   53.429  159.455    5.800
  403.174    0.334    0.416   54.282  159.244    5.547
  403.424    0.333    0.416   54.646  159.136    5.491
  403.674    0.334    0.433   54.827  158.925    5.457
  403.924    0.337    0.446   54.824  158.818    5.463
  404.174    0.341    0.444   55.005  159.020    5.440
  404.424    0.336    0.448   55.552  158.810    5.434
  404.674    0.327    0.443   56.649  158.806    5.419
  404.924    0.322    0.434   58.479  158.905    5.435
  405.174    0.315    0.439   60.920  159.211    5.401
  405.424    0.321    0.448   60.429  159.414    5.427
  405.674    0.316    0.445   61.220  159.616    5.443
  405.924    0.303    0.448   63.356  159.820    5.458
  406.174    0.311    0.450   63.903  159.712    5.315
  406.424    0.324    0.440   62.984  159.810    5.206
  406.674    0.328    0.427   61.944  159.910    5.239
  406.924    0.330    0.450   59.681  160.010    5.343
  407.174    0.325    0.440   57.725  160.110    5.528
  407.424    0.321    0.431   54.791  160.209    5.750
  407.674    0.322    0.425   54.605  160.308    6.026
  407.924    0.319    0.426   55.030  160.717    6.133
  408.174    0.316    0.428   55.211  161.025    5.571
  408.424    0.311    0.426   55.636  160.917    5.849
  408.674    0.305    0.433   57.222  161.016    6.996
  408.924    0.315    0.447   59.785  161.322    8.618
  409.174    0.312    0.451   61.981  161.525   10.752
  409.424    0.289    0.439   60.269  161.935   13.941
  409.674    0.099    0.419   55.136  162.757   19.207
  409.924   -0.032    0.399   49.637  163.168   27.350
  410.174   -0.040    0.373   44.199  163.680   29.845
  410.424   -0.044    0.294   38.639  163.987   30.319
  410.674   -0.045    0.090   38.270  164.293   30.801
  410.924   -0.046    0.094   38.450  164.600   31.232
  411.174   -0.046    0.097   37.776  164.699   31.725
  411.424   -0.047    0.101   36.797  164.591   32.348
  411.674   -0.046    0.106   36.305  164.587   32.981
  411.924   -0.044    0.109   36.670  164.687   34.125
  412.174   -0.042    0.110   37.950  164.889   35.765
  412.424   -0.039    0.108   39.230  164.782   37.757
  412.674   -0.036    0.105   40.693  164.778   39.572
  412.924   -0.032    0.103   42.462  164.774   30.752
  413.174   -0.027    0.106   45.819  164.665   20.899
  413.424   -0.021    0.113   47.099  164.558   14.178
  413.674   -0.012    0.124   50.334  164.347   11.598
  413.924    0.009    0.155   55.950  164.343    9.282
  414.174    0.060    0.197   58.940  164.547    7.776
  414.424    0.279    0.424   60.465  164.233    7.114
  414.674    0.300    0.441   62.966  160.505    7.267
  414.924    0.312    0.442   65.407  156.985    7.425
  415.174    0.309    0.440   67.115  156.463    7.230
  415.424    0.305    0.443   65.463  156.460    6.725
  415.674    0.318    0.454   65.400  157.180    6.232
  415.924    0.321    0.474   65.275  157.899    5.840
  416.174    0.324    0.490   63.929  158.309    5.584
  416.424    0.331    0.495   64.599  159.029    5.488
  416.674    0.340    0.487   67.039  159.438    5.465
  416.924    0.336    0.481   67.526  159.642    5.451
  417.174    0.336    0.478   64.836  159.740    5.446
