~VERSION INFORMATION
 VERS.                 2.0:   CWLS LOG ASCII STANDARD -VERSION 2.0
 WRAP.                  NO:   ONE LINE PER DEPTH STEP
~WELL INFORMATION BLOCK
#MNEM.UNIT           DATA                    DESCRIPTION OF MNEMONIC
#---------    -------------------            -------------------------------
# Generated from Intellog Unique Number	CW_70_72/WELL/3020
NULL.         -999.25                        : NULL_VALUE
WELL.         SUNDANCE ET AL CALLS 10-08     : Well_name    - WELL              
LOC .         10-08-070-23W4                 : Location     - LOCATION          
UWI .         00/10-08-070-23W4/0            : Uwi          - UNIQUE WELL ID    
ENTR.         jj                             : Entered      - ENTERED BY        
SRVC.         SCHLUMBERGER                   : Scn          - SERVICE COMPANY   
DATE.         17 MAR 76                      : Date         - LOG DATE
STRT.M        396.24                         : top_depth    - START DEPTH       
STOP.M        575.99                         : bot_depth    - STOP DEPTH        
STEP.M        0.25                           : increment    - STEP LENGTH       
~CURVE INFORMATION BLOCK
#MNEM UNIT       ERCB CURVE CODE    CURVE DESCRIPTION
#-----------   ------------------   ----------------------------------
DEPT.M        00 001 00 00         : DEPTH        - DEPTH                       
ILD .OHMM     00 120 00 00         : RESD         - DEEP RESISTIVITY (DIL)      
CALI.MM       00 280 01 00         : CAL          - CALIPER                     
GR  .API      00 310 00 00         : GR           - GAMMA RAY                   
NPHI.V/V      00 330 00 00         : PHIN         - NEUTRON POROSITY (SANDSTONE)
DPHI.V/V      00 890 00 00         : PHID         - DENSITY POROSITY (SANDSTONE)
~PARAMETER INFORMATION       
#MNEM.UNIT           DATA             DESCRIPTION OF MNEMONIC
#---------         -----------     ------------------------------
GL  .M        615.391              : gl           - GROUND LEVEL ELEVATION      
EREF.M        618.744              : kb           - ELEVATION OF DEPTH REFERENCE
DATM.M        615.391              : datum        - DATUM ELEVATION             
TDD .M        586.74               : tdd          - TOTAL DEPTH DRILLER         
RUN .         ONE                  : Run          - RUN NUMBER                  
BASE.         EDM                  : Branch       - HOME BASE OF LOGGING UNIT   
MUD .         GEL CHEM             : Mud_type     - MUD TYPE                    
MATR.         SANDSTONE            : Logunit      - NEUTRON MATRIX              
TMAX.C        26.1111              : BHT          - MAXIMUM RECORDED TEMPERATURE
BHTD.M        586.74               : BHTDEP       - MAXIMUM RECORDED TEMPERATURE
RMT .C        -17.7778             : MDTP         - TEMPERATURE OF MUD          
MUDD.KG/M     1068                 : MWT          - MUD DENSITY                 
NEUT.         1                    : NEUTRON      - NEUTRON TYPE                
RESI.         0                    : RESIST       - RESISTIVITY TYPE            
RM  .OHMM     2.65                 : RM           - RESISTIVITY OF MUD          
RMC .OHMM     0.25                 : RMC          - RESISTIVITY OF MUD CAKE     
RMF .OHMM     2.72                 : RMF          - RESISTIVITY OF MUD FILTRATE 
SUFT.C        -17.7778             : SUFT         - SURFACE TEMPERATURE         
~A  DEPTH     RESD      CAL       GR     PHIN     PHID
# ...
  505.740    3.388  149.589  124.716    0.511    0.200
  505.990    3.369  149.335  118.540    0.511    0.207
  506.240    3.412  147.866  113.342    0.469    0.202
  506.490    3.545  146.069  113.779    0.442    0.198
  506.740    3.695  144.816  114.008    0.427    0.193
  506.990    3.924  144.124  113.275    0.430    0.166
  507.240    4.220  143.521  111.372    0.404    0.153
  507.490    4.506  143.823  108.565    0.413    0.171
  507.740    4.742  144.319  105.946    0.425    0.189
  507.990    4.846  145.156  105.024    0.436    0.174
  508.240    4.872  145.764  108.613    0.429    0.169
  508.490    4.773  146.157  116.546    0.411    0.174
  508.740    4.475  145.797  113.484    0.399    0.179
  508.990    4.115  144.323  106.274    0.403    0.154
  509.240    3.951  141.540   97.783    0.415    0.164
  509.490    3.873  138.218   91.095    0.436    0.175
  509.740    3.900  136.193   88.608    0.442    0.189
  509.990    3.926  134.300   91.112    0.439    0.206
  510.240    4.005  133.163   91.596    0.429    0.216
  510.490    4.191  132.916   88.604    0.423    0.230
  510.740    4.666  132.916   84.366    0.419    0.220
  510.990    5.510  134.404   77.617    0.408    0.208
  511.240    6.057  134.755   70.348    0.405    0.200
  511.490    6.672  135.569   67.539    0.417    0.187
  511.740    6.502  137.942   71.719    0.325    0.167
  511.990    5.762  141.190   80.425    0.296    0.123
  512.240    5.335  142.355   87.069    0.330    0.179
  512.490    4.948  142.196   90.141    0.372    0.206
  512.740    4.533  141.497   95.684    0.396    0.198
  512.990    4.368  141.011  100.052    0.394    0.175
  513.240    4.320  139.671  105.461    0.392    0.201
  513.490    4.365  138.842  104.984    0.393    0.197
  513.740    4.428  137.943   99.333    0.394    0.193
  513.990    4.526  137.333   93.424    0.389    0.184
  514.240    4.651  136.100   87.902    0.382    0.173
  514.490    4.761  135.639   84.637    0.416    0.159
  514.740    4.682  135.902   99.876    0.390    0.144
  514.990    4.554  136.626  111.498    0.380    0.148
  515.240    4.439  139.376  119.099    0.396    0.164
  515.490    4.326  139.951  125.162    0.410    0.184
  515.740    4.269  140.989  118.082    0.418    0.204
  515.990    4.238  141.938  118.832    0.404    0.186
  516.240    4.244  142.779  119.460    0.398    0.180
  516.490    4.282  143.381  119.103    0.409    0.166
  516.740    4.361  143.784  113.908    0.414    0.166
  516.990    4.431  144.053  107.414    0.418    0.151
  517.240    4.561  144.053  100.019    0.425    0.144
  517.490    4.799  141.253   93.333    0.405    0.165
  517.740    4.949  139.877   84.960    0.367    0.153
  517.990    5.066  138.968   86.355    0.354    0.120
  518.240    5.074  139.149   95.583    0.357    0.141
  518.490    4.873  140.406  107.133    0.378    0.180
  518.740    4.680  142.112  106.726    0.409    0.187
  518.990    4.422  143.836  103.525    0.435    0.194
  519.240    4.436  144.219  102.280    0.435    0.201
  519.490    4.452  144.070  102.572    0.419    0.193
  519.740    4.459  144.036  106.110    0.389    0.151
  519.990    4.517  144.104  111.899    0.395    0.146
  520.240    4.583  144.104  118.406    0.417    0.175
  520.490    4.621  143.813  119.028    0.406    0.167
  520.740    4.628  143.858  112.082    0.393    0.162
  520.990    4.670  143.820  110.514    0.385    0.171
  521.240    4.669  143.384  111.060    0.391    0.185
  521.490    4.626  143.302  112.522    0.398    0.198
  521.740    4.599  142.919  115.732    0.402    0.213
  521.990    4.556  142.443  117.523    0.412    0.194
  522.240    4.505  142.177  106.759    0.410    0.183
  522.490    4.470  142.137  107.771    0.410    0.181
  522.740    4.420  142.534  110.074    0.411    0.193
  522.990    4.371  142.714  107.266    0.401    0.174
  523.240    4.370  142.664   99.027    0.396    0.165
  523.490    4.475  141.567   92.728    0.401    0.184
  523.740    4.657  141.061   89.536    0.420    0.199
  523.990    4.980  140.581   92.293    0.429    0.210
  524.240    5.753  140.318   95.367    0.429    0.221
  524.490    7.148  140.050   90.878    0.421    0.214
  524.740    9.966  139.455   79.276    0.379    0.175
  524.990   11.446  137.877   69.421    0.286    0.127
  525.240   10.932  135.867   63.313    0.244    0.110
  525.490    8.700  133.857   66.139    0.258    0.146
  525.740    7.485  133.857   74.907    0.298    0.183
  525.990    6.088  133.826   84.976    0.378    0.221
  526.240    5.346  134.060   85.985    0.398    0.255
  526.490    4.950  135.545   83.442    0.412    0.228
  526.740    4.797  135.070   81.541    0.424    0.218
  526.990    4.726  134.043   79.889    0.408    0.244
  527.240    4.928  133.222   77.540    0.415    0.225
  527.490    5.110  132.529   75.000    0.387    0.235
  527.740    5.045  132.485   73.930    0.373    0.229
  527.990    4.933  133.333   79.340    0.390    0.218
  528.240    4.670  134.481   88.381    0.420    0.238
  528.490    4.492  137.086   89.768    0.437    0.251
  528.740    4.516  139.116   92.651    0.425    0.228
  528.990    4.734  142.686  102.264    0.426    0.205
  529.240    5.074  145.814   96.227    0.446    0.203
  529.490    5.377  145.814   82.486    0.427    0.230
  529.740    5.731  131.216   78.904    0.402    0.189
  529.990    5.866  131.231   81.734    0.349    0.163
  530.240    5.604  132.958   87.649    0.321    0.144
  530.490    5.303  132.958   97.270    0.379    0.208
  530.740    4.866  141.096  104.160    0.424    0.231
  530.990    4.630  144.525  117.651    0.449    0.206
  531.240    4.343  147.549  123.963    0.472    0.201
  531.490    4.171  150.154  130.469    0.490    0.203
  531.740    4.162  150.868  132.585    0.484    0.188
  531.990    4.253  149.948  130.810    0.480    0.174
  532.240    4.402  149.132  131.048    0.462    0.195
  532.490    4.515  149.195  134.768    0.464    0.194
  532.740    4.514  149.502  138.756    0.471    0.196
  532.990    4.383  149.554  139.568    0.463    0.205
  533.240    4.255  149.397  135.144    0.454    0.177
  533.490    4.155  148.930  125.747    0.440    0.144
  533.740    4.160  148.995  118.870    0.426    0.139
  533.990    4.346  149.173  115.740    0.422    0.137
  534.240    4.709  149.230  113.058    0.418    0.122
  534.490    5.045  149.090  106.176    0.404    0.100
  534.740    5.579  148.927   97.029    0.391    0.089
  534.990    6.054  148.552  102.377    0.369    0.077
  535.240    6.499  147.640  110.239    0.348    0.078
  535.490    6.486  146.716  115.130    0.363    0.126
  535.740    6.184  146.138  118.336    0.378    0.131
  535.990    5.853  145.765  122.912    0.395    0.119
  536.240    5.693  145.493  118.097    0.403    0.143
  536.490    5.702  145.454  112.377    0.408    0.139
  536.740    5.840  145.517  112.029    0.409    0.130
  536.990    5.910  145.053  117.377    0.410    0.123
  537.240    5.889  144.453  116.118    0.414    0.095
  537.490    5.865  143.869  122.821    0.419    0.128
  537.740    5.803  143.709  119.434    0.423    0.136
  537.990    5.757  143.677  115.459    0.418    0.137
  538.240    5.640  143.193  112.465    0.405    0.151
  538.490    5.537  142.490  112.759    0.398    0.132
  538.740    5.464  142.111  119.144    0.396    0.103
  538.990    5.364  141.857  126.163    0.400    0.121
  539.240    5.275  141.924  122.905    0.408    0.126
  539.490    5.181  142.215  117.646    0.416    0.112
  539.740    5.168  142.401  117.357    0.416    0.126
  539.990    5.197  142.685  125.156    0.416    0.182
  540.240    5.250  142.964  129.333    0.413    0.148
  540.490    5.385  143.363  128.601    0.405    0.149
  540.740    5.605  143.420  125.924    0.398    0.155
  540.990    5.922  143.918  122.276    0.388    0.161
  541.240    6.115  143.875  118.560    0.375    0.155
  541.490    6.447  143.942  115.950    0.371    0.143
  541.740    6.637  143.685  110.814    0.380    0.134
  541.990    6.551  143.752  104.711    0.375    0.119
