~VERSION INFORMATION
 VERS.                 2.0:   CWLS LOG ASCII STANDARD -VERSION 2.0
 WRAP.                  NO:   ONE LINE PER DEPTH STEP
~WELL INFORMATION BLOCK
#MNEM.UNIT           DATA                    DESCRIPTION OF MNEMONIC
#---------    -------------------            -------------------------------
# Generated from Intellog Unique Number	CS_69_70/WELL/866
WELL.         BRALORNE RESOURCES LIMITED     : Well_name    - WELL
LOC .         00/10-12-069-10W4/0            : Location     - LOCATION
UWI .         00/10-12-069-10W4/0            : Uwi          - UNIQUE WELL ID
ENTR.         SP                             : Entered      - ENTERED BY
SRVC.         SCHLUMBERGER                   : Scn          - SERVICE COMPANY
STRT.M        478.536                        : top_depth    - START DEPTH
STOP.M        685.536                        : bot_depth    - STOP DEPTH
STEP.M        0.25                           : increment    - STEP LENGTH
 NULL. -999.2500:NULL Value
~CURVE INFORMATION BLOCK
#MNEM UNIT       ERCB CURVE CODE    CURVE DESCRIPTION
#-----------   ------------------   ----------------------------------
DEPT.M        00 001 00 00         : DEPTH        - DEPTH
GR  .API      00 310 00 00         : GR           - GAMMA RAY
DPHI.V/V      00 890 00 00         : PHID         - DENSITY POROSITY (SANDSTONE)
NPHI.V/V      00 330 00 00         : PHIN         - NEUTRON POROSITY (SANDSTONE)
ILD .OHMM     00 120 00 00         : RESD         - DEEP RESISTIVITY (DIL)
~PARAMETER INFORMATION
#MNEM.UNIT           DATA             DESCRIPTION OF MNEMONIC
#---------         -----------     ------------------------------
GL  .M        798.119              : gl           - GROUND LEVEL ELEVATION
EREF.M        801.624              : kb           - ELEVATION OF DEPTH REFERENCE
DATM.M        798.119              : datum        - DATUM ELEVATION
TDD .M        687.019              : tdd          - TOTAL DEPTH DRILLER
RUN .         ONE                  : Run          - RUN NUMBER
ENG .         BILL                 : Engineer     - RECORDING ENGINEER
WIT .         JIM                  : Witness      - WITNESSED BY
MUD .         GEL                  : Mud_type     - MUD TYPE
MATR.         SANDSTONE            : Logunit      - NEUTRON MATRIX
TMAX.C        20                   : BHT          - MAXIMUM RECORDED TEMPERATURE
BHTD.M        687.019              : BHTDEP       - MAXIMUM RECORDED TEMPERATURE
MATR.         1                    : LOGUNIT      - NEUTRON MATRIX
RMT .C        25                   : MDTP         - TEMPERATURE OF MUD
NEUT.         1                    : NEUTRON      - NEUTRON TYPE
RESI.         0                    : RESIST       - RESISTIVITY TYPE
RMC .OHMM     0.25                 : RMC          - RESISTIVITY OF MUD CAKE
RMF .OHMM     0.25                 : RMF          - RESISTIVITY OF MUD FILTRATE
SUFT.C        15                   : SUFT         - SURFACE TEMPERATURE
~A  DEPTH       GR     PHID     PHIN     RESD
# ...
  652.536   58.084    0.239    0.356    3.622
  652.786   51.053    0.240    0.334    3.783
  653.036   62.532    0.207    0.326    3.996
  653.286   76.921    0.188    0.320    4.201
  653.536   90.667    0.175    0.317    4.558
  653.786  101.763    0.165    0.317    4.912
  654.036  108.121    0.153    0.329    5.083
  654.286  111.470    0.144    0.341    5.132
  654.536  104.902    0.162    0.355    5.059
  654.786   96.566    0.169    0.364    4.960
  655.036   88.729    0.160    0.368    4.786
  655.286   82.871    0.180    0.359    4.528
  655.536   79.340    0.201    0.347    4.309
  655.786   81.867    0.211    0.338    4.042
  656.036   81.851    0.201    0.334    3.845
  656.286   76.805    0.194    0.337    3.644
  656.536   80.138    0.181    0.338    3.504
  656.786   87.979    0.187    0.342    3.364
  657.036   91.269    0.191    0.357    3.227
  657.286   87.097    0.197    0.375    3.177
  657.536   85.238    0.207    0.384    3.198
  657.786   95.403    0.213    0.375    3.348
  658.036  110.361    0.173    0.382    3.612
  658.286  121.718    0.145    0.399    3.822
  658.536  129.532    0.120    0.419    3.980
  658.786  134.350    0.107    0.441    4.100
  659.036  137.567    0.097    0.457    4.099
  659.286  136.471    0.087    0.468    4.087
  659.536  133.006    0.082    0.481    4.059
  659.786  130.027    0.109    0.494    4.081
  660.036  131.733    0.096    0.489    4.095
  660.286  133.358    0.110    0.464    4.112
  660.536  127.393    0.140    0.435    4.098
  660.786  118.168    0.158    0.440    4.017
  661.036  107.526    0.184    0.395    3.893
  661.286   97.919    0.203    0.374    3.686
  661.536   89.949    0.207    0.363    3.428
  661.786   82.330    0.228    0.371    3.209
  662.036   75.902    0.251    0.388    3.039
  662.286   76.756    0.246    0.383    2.938
  662.536   81.617    0.236    0.377    2.949
  662.786   83.460    0.222    0.384    3.056
  663.036   84.128    0.208    0.386    3.235
  663.286   86.465    0.195    0.376    3.415
  663.536   90.559    0.201    0.368    3.714
  663.786   95.771    0.187    0.374    4.107
  664.036  103.251    0.178    0.365    4.445
  664.286  107.788    0.162    0.354    4.957
  664.536  110.437    0.149    0.345    5.261
  664.786  112.138    0.137    0.341    5.546
  665.036  112.214    0.139    0.351    5.693
  665.286  110.298    0.126    0.362    5.533
  665.536  111.527    0.120    0.373    5.355
  665.786  113.435    0.142    0.383    5.150
  666.036  112.989    0.162    0.392    5.004
  666.286  107.267    0.173    0.400    4.960
  666.536   84.977    0.170    0.407    5.094
  666.786   70.748    0.134    0.378    4.957
  667.036   59.270    0.102    0.331    4.701
  667.286   70.622    0.053    0.284    4.513
  667.536   84.322    0.108    0.310    4.443
  667.786   98.032    0.159    0.344    4.507
  668.036  108.899    0.181    0.360    4.719
  668.286  114.995    0.145    0.343    4.998
  668.536  120.623    0.122    0.333    5.207
  668.786  120.417    0.134    0.351    5.205
  669.036  100.730    0.160    0.365    4.511
  669.286   84.484    0.183    0.375    4.002
  669.536   74.745    0.199    0.391    3.575
  669.786   67.438    0.213    0.382    3.275
  670.036   61.082    0.227    0.353    3.060
  670.286   61.646    0.236    0.360    2.881
  670.536   71.297    0.198    0.367    2.776
  670.786   83.939    0.159    0.352    2.929
  671.036   97.710    0.132    0.335    3.337
  671.286  106.497    0.112    0.330    3.899
  671.536  111.061    0.110    0.351    4.521
  671.786  109.316    0.121    0.362    4.970
  672.036  108.447    0.117    0.360    5.223
  672.286  111.093    0.110    0.361    5.291
  672.536  112.993    0.117    0.373    5.185
  672.786  113.556    0.114    0.382    5.197
  673.036  111.262    0.105    0.390    5.186
  673.286  108.590    0.096    0.397    5.147
  673.536  109.467    0.107    0.395    5.112
  673.786  108.215    0.129    0.383    5.032
  674.036  109.901    0.149    0.371    4.992
  674.286  115.434    0.155    0.355    4.929
  674.536  120.497    0.141    0.345    4.881
  674.786  125.759    0.141    0.338    4.877
  675.036  129.813    0.146    0.333    4.886
  675.286  133.235    0.144    0.328    4.882
  675.536  136.114    0.141    0.331    4.877
  675.786  136.099    0.138    0.339    4.839
  676.036  133.873    0.136    0.336    4.755
  676.286  130.488    0.145    0.335    4.289
  676.536  122.343    0.168    0.335    3.803
  676.786  107.854    0.192    0.342    3.384
  677.036   92.378    0.213    0.353    3.176
  677.286   86.007    0.226    0.353    2.958
  677.536   89.265    0.201    0.348    2.866
  677.786   93.319    0.198    0.334    3.015
  678.036   97.780    0.192    0.325    3.166
  678.286  101.635    0.181    0.316    3.351
  678.536  105.088    0.174    0.335    3.588
  678.786  107.941    0.166    0.334    3.780
  679.036  109.981    0.156    0.331    3.905
  679.286  108.734    0.116    0.328    3.928
  679.536  104.144    0.100    0.326    3.901
  679.786  100.056    0.096    0.330    3.845
  680.036  103.806    0.124    0.345    3.850
  680.286  109.829    0.147    0.354    3.910
  680.536  110.587    0.168    0.358    4.107
  680.786  114.482    0.185    0.356    4.324
  681.036  119.314    0.170    0.351    4.593
  681.286  123.042    0.149    0.347    4.839
  681.536  125.048    0.132    0.338    5.082
  681.786  125.698    0.124    0.337    5.386
  682.036  125.658    0.137    0.333    5.490
  682.286  120.539    0.136    0.329    5.505
  682.536  109.924    0.140    0.323    5.478
  682.786   99.057    0.151    0.319    5.410
  683.036   81.126    0.140    0.344    5.352
  683.286   67.736    0.138    0.352    5.277
  683.536   76.856    0.133    0.341    5.230
  683.786   91.905    0.138    0.335    5.230
  684.036  108.061    0.143    0.332    5.202
  684.286  118.271    0.158    0.340    5.195
  684.536  118.194    0.170    0.334    5.185
  684.786  118.242    0.153    0.319    5.239
  685.036  119.295    0.116    0.305    5.254
  685.286  120.029    0.101    0.295    5.302
  685.536  118.806    0.111    0.195    5.361
