~VERSION INFORMATION
 VERS.                 2.0:   CWLS LOG ASCII STANDARD -VERSION 2.0
 WRAP.                  NO:   ONE LINE PER DEPTH STEP
~WELL INFORMATION BLOCK
#MNEM.UNIT           DATA                    DESCRIPTION OF MNEMONIC
#---------    -------------------            -------------------------------
# Generated from Intellog Unique Number	CX_WELLS/WELL/3924
WELL.         14-05-097-21W4                 : Well_name    - WELL
LOC .         00/14-05-097-21W4/0            : Location     - LOCATION
UWI .         00/14-05-097-21W4/0            : Uwi          - UNIQUE WELL ID
ENTR.         TIM                            : Entered      - ENTERED BY
SRVC.         SCHLUMBERGER                   : Scn          - SERVICE COMPANY
DATE.         08/11/92                       : Date         - LOG DATE
STRT.M        320.04                         : top_depth    - START DEPTH
STOP.M        503.04                         : bot_depth    - STOP DEPTH
STEP.M        0.25                           : increment    - STEP LENGTH
 NULL. -999.2500:NULL Value
~CURVE INFORMATION BLOCK
#MNEM UNIT       ERCB CURVE CODE    CURVE DESCRIPTION
#-----------   ------------------   ----------------------------------
DEPT.M        00 001 00 00         : DEPTH        - DEPTH
DPHI.V/V      00 890 00 00         : PHID         - DENSITY POROSITY (SANDSTONE)
GR  .API      00 310 00 00         : GR           - GAMMA RAY
ILD .OHMM     00 120 00 00         : RESD         - DEEP RESISTIVITY (DIL)
RHOB.KG/M3    00 350 00 00         : DENS         - BULK DENSITY
NPHI.V/V      00 330 00 00         : PHIN         - NEUTRON POROSITY (SANDSTONE)
~PARAMETER INFORMATION
#MNEM.UNIT           DATA             DESCRIPTION OF MNEMONIC
#---------         -----------     ------------------------------
GL  .M        330.5                : gl           - GROUND LEVEL ELEVATION
EREF.M        330.5                : kb           - ELEVATION OF DEPTH REFERENCE
DATM.M        330.5                : datum        - DATUM ELEVATION
TDD .M        518.16               : tdd          - TOTAL DEPTH DRILLER
RUN .         ONE                  : Run          - RUN NUMBER
ENG .         BILL                 : Engineer     - RECORDING ENGINEER
WIT .         JIM                  : Witness      - WITNESSED BY
MUD .         GEL                  : Mud_type     - MUD TYPE
MATR.         SANDSTONE            : Logunit      - NEUTRON MATRIX
TMAX.C        0                    : BHT          - MAXIMUM RECORDED TEMPERATURE
BHTD.M        518.16               : BHTDEP       - MAXIMUM RECORDED TEMPERATURE
RMT .C        0                    : MDTP         - TEMPERATURE OF MUD
MUDD.KG/M     0                    : MWT          - MUD DENSITY
NEUT.         1                    : NEUTRON      - NEUTRON TYPE
RESI.         0                    : RESIST       - RESISTIVITY TYPE
RM  .OHMM     0                    : RM           - RESISTIVITY OF MUD
RMC .OHMM     0                    : RMC          - RESISTIVITY OF MUD CAKE
RMF .OHMM     0                    : RMF          - RESISTIVITY OF MUD FILTRATE
SUFT.C        4                    : SUFT         - SURFACE TEMPERATURE
~A  DEPTH     PHID       GR     RESD     DENS     PHIN
# ...
  466.040    0.170   75.001    5.578 2368.910    0.414
  466.290    0.176   74.990    6.134 2358.890    0.379
  466.540    0.205   75.384    6.690 2311.070    0.372
  466.790    0.207   75.380    7.007 2309.000    0.416
  467.040    0.202   75.775    6.928 2316.890    0.422
  467.290    0.194   76.171    6.768 2330.710    0.425
  467.540    0.180   76.969    6.530 2352.480    0.419
  467.790    0.196   77.364    6.450 2326.570    0.401
  468.040    0.183   78.566    6.450 2348.340    0.362
  468.290    0.164   78.966    6.529 2380.040    0.363
  468.540    0.159   81.380    6.608 2387.910    0.366
  468.790    0.163   82.180    6.687 2381.860    0.363
  469.040    0.167   82.578    6.846 2373.830    0.358
  469.290    0.171   82.569    6.925 2367.760    0.350
  469.540    0.160   82.965    7.004 2385.580    0.352
  469.790    0.151   82.550    7.004 2401.390    0.366
  470.040    0.154   81.735    6.845 2395.350    0.370
  470.290    0.169   79.701    6.845 2371.420    0.376
  470.540    0.197   77.672    6.845 2325.590    0.396
  470.790    0.197   75.236    6.844 2325.500    0.411
  471.040    0.194   74.424    6.844 2329.390    0.421
  471.290    0.190   73.203    6.764 2337.280    0.425
  471.540    0.192   75.617    6.764 2333.200    0.421
  471.790    0.197   78.033    6.685 2325.160    0.417
  472.040    0.196   80.048    6.605 2327.070    0.412
  472.290    0.192   82.869    6.684 2332.940    0.409
  472.540    0.187   81.647    6.843 2340.810    0.407
  472.790    0.180   80.426    7.160 2352.640    0.404
  473.040    0.177   78.393    7.319 2358.540    0.400
  473.290    0.168   77.176    7.239 2372.340    0.393
  473.540    0.166   75.549    7.398 2376.230    0.386
  473.790    0.165   74.327    7.715 2378.130    0.377
  474.040    0.166   78.765    8.033 2376.060    0.363
  474.290    0.167   77.948    8.509 2373.970    0.356
  474.540    0.170   77.133    8.350 2369.930    0.348
  474.790    0.178   77.525    7.635 2355.920    0.397
  475.040    0.188   77.924    6.840 2339.960    0.432
  475.290    0.219   79.530    6.919 2288.210    0.462
  475.540    0.228   79.928    7.158 2274.220    0.495
  475.790    0.221   79.509    7.237 2286.050    0.482
  476.040    0.217   79.100    7.078 2291.930    0.460
  476.290    0.217   78.690    6.839 2291.820    0.454
  476.540    0.215   78.277    6.918 2295.710    0.448
  476.790    0.203   77.860    6.997 2315.520    0.439
  477.040    0.186   77.856    7.236 2343.250    0.422
  477.290    0.170   77.039    7.156 2369.000    0.415
  477.540    0.160   76.624    7.314 2386.800    0.410
  477.790    0.162   76.212    7.473 2382.740    0.400
  478.040    0.195   75.799    7.076 2328.980    0.399
  478.290    0.215   74.982    7.314 2295.120    0.423
  478.540    0.228   74.571    7.393 2273.180    0.430
  478.790    0.240   74.967    7.154 2253.220    0.442
  479.040    0.250   78.190    7.154 2237.240    0.452
  479.290    0.255   79.798    7.154 2229.190    0.460
  479.540    0.254   80.193    7.154 2231.090    0.479
  479.790    0.241   79.781    6.756 2252.860    0.503
  480.040    0.226   78.964    6.120 2276.640    0.511
  480.290    0.201   77.743    5.564 2318.280    0.488
  480.540    0.181   76.522    5.326 2351.980    0.472
  480.790    0.223   76.107    5.246 2282.330    0.444
  481.040    0.245   75.692    5.325 2246.450    0.453
  481.290    0.230   75.283    5.563 2270.230    0.472
  481.540    0.205   74.868    6.119 2311.880    0.483
  481.790    0.215   74.052    6.437 2295.900    0.484
  482.040    0.240   73.235    6.198 2254.080    0.485
  482.290    0.244   72.014    5.959 2248.040    0.488
  482.540    0.233   73.218    5.959 2265.840    0.490
  482.790    0.221   75.230    6.038 2285.620    0.489
  483.040    0.210   74.007    5.800 2303.420    0.489
  483.290    0.234   73.194    5.482 2263.590    0.486
  483.540    0.258   69.952    5.561 2223.750    0.504
  483.790    0.332   65.094    6.117 2102.460    0.522
  484.040    0.299   69.531    6.593 2156.020    0.566
  484.290    0.278   75.987    6.434 2191.700    0.524
  484.540    0.260   78.001    5.322 2221.420    0.485
  484.790    0.242   78.797    5.321 2251.140    0.470
  485.040    0.221   78.793    5.480 2284.840    0.452
  485.290    0.192   75.551    5.718 2332.440    0.446
  485.540    0.173   72.309    6.353 2364.170    0.436
  485.790    0.156   73.513    6.750 2391.900    0.429
  486.040    0.234   77.950    7.306 2264.630    0.432
  486.290    0.243   83.196    7.544 2248.650    0.434
  486.540    0.251   82.783    6.353 2236.640    0.472
  486.790    0.258   80.347    5.796 2224.630    0.497
  487.040    0.272   77.512    5.558 2200.660    0.530
  487.290    0.282   74.672    5.319 2184.680    0.522
  487.540    0.284   73.046    5.080 2180.620    0.508
  487.790    0.240   73.036    5.239 2254.080    0.528
  488.040    0.186   73.029    5.716 2343.430    0.539
  488.290    0.151   73.021    5.954 2400.960    0.542
  488.540    0.171   72.606    5.636 2367.080    0.544
  488.790    0.202   71.791    5.397 2317.340    0.550
  489.040    0.247   70.976    5.079 2241.730    0.523
  489.290    0.262   70.155    4.999 2217.800    0.514
  489.540    0.249   70.145    5.396 2239.570    0.507
  489.790    0.257   70.140    5.555 2225.580    0.500
  490.040    0.271   70.536    5.237 2203.640    0.495
  490.290    0.274   70.929    5.078 2197.570    0.525
  490.540    0.263   71.325    5.237 2215.390    0.537
  490.790    0.254   71.721    4.918 2231.200    0.519
  491.040    0.247   73.331    4.839 2243.020    0.510
  491.290    0.256   76.152    5.077 2227.010    0.491
  491.540    0.265   72.101    5.474 2213.040    0.467
  491.790    0.277   56.330    6.030 2193.090    0.389
  492.040    0.288   40.154    6.506 2175.120    0.353
  492.290    0.299   27.212    6.903 2157.150    0.347
  492.540    0.296   20.737    6.903 2161.040    0.347
  492.790    0.288   21.535    6.982 2174.840    0.356
  493.040    0.286   23.951   17.627 2178.730    0.366
  493.290    0.286   26.370   19.136 2178.650    0.376
  493.540    0.283   28.786   21.439 2182.560    0.396
  493.790    0.286   31.203   21.359 2178.480    0.411
  494.040    0.291   34.019   21.677 2170.440    0.416
  494.290    0.287   34.821   21.915 2176.320    0.424
  494.540    0.287   36.027   22.232 2176.210    0.432
  494.790    0.294   36.016   22.312 2164.210    0.437
  495.040    0.302   36.006   22.629 2152.200    0.438
  495.290    0.309   35.997   23.026 2140.190    0.441
  495.540    0.308   35.991   22.629 2142.090    0.444
  495.790    0.304   36.386   20.722 2147.970    0.446
  496.040    0.301   37.186   15.240 2153.870    0.465
  496.290    0.292   37.984   11.109 2167.670    0.473
  496.540    0.292   39.188    8.249 2167.610    0.478
  496.790    0.291   40.392    6.581 2169.490    0.476
  497.040    0.289   40.789    7.534 2173.380    0.453
  497.290    0.285   41.993    8.646 2179.250    0.441
  497.540    0.276   42.791    8.963 2195.090    0.442
  497.790    0.264   43.591    9.678 2214.850    0.446
  498.040    0.263   43.987   13.173 2216.750    0.445
  498.290    0.273   43.978   13.173 2198.780    0.438
  498.540    0.282   43.969   10.392 2184.770    0.433
  498.790    0.286   43.555   13.331 2178.700    0.431
  499.040    0.286   43.550   14.125 2178.640    0.428
  499.290    0.281   43.136   11.504 2186.500    0.423
  499.540    0.275   43.127   10.232 2196.370    0.418
  499.790    0.267   43.118    9.358 2210.200    0.413
  500.040    0.255   43.916    9.279 2229.980    0.407
  500.290    0.240   44.720   11.423 2253.740    0.407
  500.540    0.252   46.328   13.012 2233.790    0.412
  500.790    0.272   48.745   14.362 2201.910    0.418
  501.040    0.269   51.967   14.362 2205.800    0.420
  501.290    0.262   53.982   12.534 2217.640    0.416
  501.540    0.250   59.228   10.866 2237.420    0.415
  501.790    0.237   65.282    8.800 2259.170    0.419
  502.040    0.232   70.527    7.926 2267.050    0.423
  502.290    0.236   76.177    6.258 2260.990    0.430
