~VERSION INFORMATION
 VERS.                 2.0:   CWLS LOG ASCII STANDARD -VERSION 2.0
 WRAP.                  NO:   ONE LINE PER DEPTH STEP
~WELL INFORMATION BLOCK
#MNEM.UNIT           DATA                    DESCRIPTION OF MNEMONIC
#---------    -------------------            -------------------------------
# Generated from Intellog Unique Number	CW_76_78/WELL/875
WELL.         ASHLAND ET AL PORTAGE 10-12    : Well_name    - WELL
LOC .         00/10-12-077-19W4/0            : Location     - LOCATION
UWI .         00/10-12-077-19W4/0            : Uwi          - UNIQUE WELL ID
ENTR.         JAYE                           : Entered      - ENTERED BY
SRVC.         WESTERN ATLAS                  : Scn          - SERVICE COMPANY
DATE.         21 JAN 72                      : Date         - LOG DATE
STRT.M        198.12                         : top_depth    - START DEPTH
STOP.M        377.87                         : bot_depth    - STOP DEPTH
STEP.M        0.25                           : increment    - STEP LENGTH
 NULL. -999.2500:NULL Value
~CURVE INFORMATION BLOCK
#MNEM UNIT       ERCB CURVE CODE    CURVE DESCRIPTION
#-----------   ------------------   ----------------------------------
DEPT.M        00 001 00 00         : DEPTH        - DEPTH
ILD .OHMM     00 120 00 00         : RESD         - DEEP RESISTIVITY (DIL)
NPHI.V/V      00 330 00 00         : PHIN         - NEUTRON POROSITY (SANDSTONE)
DPHI.V/V      00 890 00 00         : PHID         - DENSITY POROSITY (SANDSTONE)
GR  .API      00 310 00 00         : GR           - GAMMA RAY
CALI.MM       00 280 01 00         : CAL          - CALIPER
~PARAMETER INFORMATION
#MNEM.UNIT           DATA             DESCRIPTION OF MNEMONIC
#---------         -----------     ------------------------------
GL  .M        556.26               : gl           - GROUND LEVEL ELEVATION
EREF.M        561.137              : kb           - ELEVATION OF DEPTH REFERENCE
DATM.M        556.26               : datum        - DATUM ELEVATION
TDD .M        399.288              : tdd          - TOTAL DEPTH DRILLER
RUN .         ONE                  : Run          - RUN NUMBER
MATR.         SANDSTONE            : Logunit      - NEUTRON MATRIX
TMAX.C        22.2222              : BHT          - MAXIMUM RECORDED TEMPERATURE
BHTD.M        399.288              : BHTDEP       - MAXIMUM RECORDED TEMPERATURE
RMT .C        23.3333              : MDTP         - TEMPERATURE OF MUD
MUDD.KG/M     0                    : MWT          - MUD DENSITY
NEUT.         1                    : NEUTRON      - NEUTRON TYPE
RESI.         0                    : RESIST       - RESISTIVITY TYPE
RM  .OHMM     2.2                  : RM           - RESISTIVITY OF MUD
RMC .OHMM     2.6                  : RMC          - RESISTIVITY OF MUD CAKE
RMF .OHMM     1.6                  : RMF          - RESISTIVITY OF MUD FILTRATE
SUFT.C        -17.7778             : SUFT         - SURFACE TEMPERATURE
~A  DEPTH     RESD     PHIN     PHID       GR      CAL
# ...
  234.620   13.864    0.398    0.301   85.265  173.609
  234.870   12.460    0.391    0.303   86.225  175.563
  235.120   11.407    0.380    0.315   87.809  174.172
  235.370   10.102    0.367    0.311   89.765  172.453
  235.620    8.928    0.344    0.305   90.920  171.165
  235.870    7.562    0.348    0.297   90.464  170.917
  236.120    6.684    0.383    0.287   89.087  171.721
  236.370    5.693    0.390    0.277   88.446  172.746
  236.620    5.489    0.408    0.279   88.548  173.118
  236.870    6.004    0.422    0.286   91.925  173.296
  237.120    6.916    0.429    0.272   99.375  173.355
  237.370    8.115    0.435    0.277  105.651  173.232
  237.620    9.381    0.424    0.287   99.088  173.086
  237.870   10.947    0.405    0.291   92.952  173.041
  238.120   12.822    0.389    0.299   88.180  173.227
  238.370   12.688    0.386    0.311   85.566  173.398
  238.620   12.234    0.395    0.320   85.239  173.362
  238.870   11.559    0.384    0.317   86.385  173.329
  239.120   11.043    0.399    0.301   90.256  173.400
  239.370   10.767    0.403    0.282   92.335  173.469
  239.620   10.210    0.386    0.269   92.004  173.425
  239.870    9.383    0.382    0.301   89.514  173.293
  240.120    8.339    0.368    0.306   84.923  172.935
  240.370    7.467    0.357    0.187   79.778  172.908
  240.620    6.649    0.334    0.141   74.938  172.876
  240.870    6.235    0.366    0.108   79.737  172.936
  241.120    6.148    0.389    0.233   93.979  172.700
  241.370    6.576    0.399    0.247   99.267  172.878
  241.620    7.205    0.406    0.249  102.587  173.048
  241.870    7.894    0.397    0.252  104.352  173.211
  242.120    8.213    0.385    0.269  104.396  173.493
  242.370    7.934    0.387    0.281  101.221  171.363
  242.620    7.440    0.386    0.273   97.989  166.306
  242.870    6.774    0.380    0.269  101.118  167.744
  243.120    6.133    0.375    0.255  105.172  170.207
  243.370    5.752    0.383    0.260  109.169  172.269
  243.620    5.692    0.410    0.242  111.928  172.646
  243.870    6.055    0.428    0.237  110.791  172.924
  244.120    6.808    0.426    0.232  107.805  173.001
  244.370    7.915    0.415    0.227  102.475  172.856
  244.620    9.117    0.411    0.223   95.786  171.986
  244.870   10.559    0.404    0.216   88.915  171.542
  245.120   12.858    0.390    0.242   82.407  170.977
  245.370   14.893    0.350    0.303   74.728  171.039
  245.620   16.808    0.352    0.304   79.153  172.367
  245.870   18.314    0.361    0.304   85.431  176.722
  246.120   19.231    0.378    0.307   92.698  175.019
  246.370   19.566    0.387    0.311   95.519  173.302
  246.620   19.219    0.388    0.309   84.936  170.033
  246.870   17.793    0.389    0.319   69.972  166.544
  247.120   16.441    0.391    0.339   72.361  167.877
  247.370   15.276    0.401    0.346   74.382  172.328
  247.620   14.142    0.416    0.340   74.789  173.974
  247.870   12.639    0.430    0.344   74.457  173.205
  248.120   11.422    0.440    0.345   75.181  170.033
  248.370   10.477    0.443    0.341   76.460  166.959
  248.620    9.972    0.450    0.337   78.165  164.106
  248.870    9.850    0.434    0.334   81.910  162.812
  249.120   10.516    0.417    0.330   85.780  163.193
  249.370   11.332    0.407    0.325   83.783  167.337
  249.620   11.832    0.392    0.322   80.301  171.275
  249.870   12.220    0.376    0.317   77.875  175.217
  250.120   12.432    0.379    0.312   75.258  177.589
  250.370   12.626    0.395    0.305   76.412  174.524
  250.620   12.894    0.411    0.300   79.169  172.084
  250.870   13.216    0.405    0.293   81.370  171.630
  251.120   13.572    0.396    0.288   83.822  171.906
  251.370   13.783    0.380    0.289   90.038  172.813
  251.620   13.022    0.353    0.284   93.720  174.662
  251.870   11.617    0.319    0.247   86.907  176.823
  252.120    9.659    0.280    0.112   85.528  179.291
  252.370    7.783    0.288    0.108   90.446  180.092
  252.620    6.815    0.311    0.114   98.390  179.640
  252.870    6.670    0.368    0.134  106.520  178.564
  253.120    6.939    0.410    0.217  110.513  177.264
  253.370    7.802    0.445    0.307   97.465  175.673
  253.620    8.757    0.448    0.322   93.799  174.685
  253.870    8.828    0.428    0.315   92.422  173.397
  254.120    8.591    0.419    0.308   93.947  172.429
  254.370    8.790    0.420    0.305   94.915  169.776
  254.620    9.402    0.414    0.304   94.705  165.552
  254.870   10.320    0.423    0.302   95.671  159.868
  255.120   11.393    0.416    0.305   91.022  166.747
  255.370   12.028    0.412    0.320   86.986  168.480
  255.620   12.375    0.396    0.326   83.877  164.578
  255.870   12.638    0.399    0.315   78.424  161.624
  256.120   12.763    0.438    0.301   77.042  160.951
  256.370   13.106    0.436    0.285   74.806  163.633
  256.620   14.019    0.426    0.281   72.864  169.662
  256.870   15.362    0.405    0.289   69.449  174.956
  257.120   15.688    0.393    0.315   69.430  175.248
  257.370   15.494    0.409    0.328   69.037  174.794
  257.620   15.107    0.391    0.330   70.743  174.444
  257.870   14.784    0.387    0.331   74.427  174.404
  258.120   14.932    0.395    0.327   74.161  174.161
  258.370   15.447    0.379    0.326   69.387  173.914
  258.620   16.340    0.360    0.331   68.069  173.993
  258.870   18.273    0.341    0.288   67.491  173.733
  259.120   19.436    0.303    0.091   68.147  171.716
  259.370   19.702    0.195    0.071   66.338  168.961
  259.620   19.281    0.160    0.047   63.167  173.842
  259.870   18.116    0.157    0.029   59.563  179.136
  260.120   16.250    0.160    0.034   60.719  177.746
  260.370   13.892    0.369    0.282   66.561  173.843
  260.620   11.008    0.386    0.315   75.926  170.039
  260.870    9.569    0.393    0.306   75.662  166.773
  261.120    9.159    0.391    0.299   75.086  165.577
  261.370    9.284    0.377    0.298   75.124  165.971
  261.620    9.482    0.367    0.300   75.417  167.181
  261.870    9.576    0.381    0.300   74.962  168.815
  262.120    9.635    0.387    0.298   73.083  170.563
  262.370    9.659    0.397    0.297   72.886  171.254
  262.620    9.629    0.406    0.303   74.093  171.744
  262.870    9.564    0.404    0.309   77.159  171.397
  263.120    9.431    0.410    0.311   78.436  170.842
  263.370    9.384    0.429    0.315   75.083  170.599
  263.620    9.372    0.421    0.317   73.523  170.143
  263.870    9.396    0.416    0.318   73.502  170.013
  264.120    9.453    0.421    0.320   73.844  169.654
  264.370    9.513    0.410    0.321   74.814  169.208
  264.620    9.589    0.397    0.322   75.037  168.846
  264.870    9.703    0.391    0.322   75.015  167.879
  265.120    9.727    0.396    0.324   72.715  167.521
  265.370    9.769    0.386    0.329   72.629  167.078
  265.620    9.811    0.383    0.330   74.217  166.717
  265.870    9.890    0.380    0.325   74.870  166.684
  266.120   10.424    0.371    0.318   74.236  167.075
  266.370   11.066    0.361    0.309   74.156  167.766
  266.620   12.466    0.328    0.292   76.351  168.568
  266.870   14.281    0.297    0.145   78.000  168.735
  267.120   16.177    0.256    0.066   75.633  170.070
  267.370   18.948    0.164    0.023   65.299  171.387
  267.620   21.584    0.146    0.013   59.420  172.926
  267.870   23.868    0.143    0.019   59.458  174.670
  268.120   25.768    0.142    0.019   59.554  175.468
  268.370   26.757    0.139    0.013   64.350  176.366
  268.620   26.477    0.134    0.017   67.726  177.069
  268.870   25.108    0.132    0.023   67.027  177.659
  269.120   23.944    0.134    0.021   65.959  178.366
  269.370   22.832    0.137    0.020   68.159  179.051
  269.620   20.787    0.144    0.036   70.053  179.430
  269.870   17.061    0.157    0.071   70.036  179.396
  270.120   14.055    0.188    0.201   70.879  174.557
  270.370   11.643    0.369    0.304   72.520  168.141
  270.620   10.310    0.393    0.317   74.786  166.220
  270.870    9.457    0.397    0.312   77.604  169.219
