~VERSION INFORMATION
 VERS.                 2.0:   CWLS LOG ASCII STANDARD -VERSION 2.0
 WRAP.                  NO:   ONE LINE PER DEPTH STEP
~WELL INFORMATION BLOCK
#MNEM.UNIT           DATA                    DESCRIPTION OF MNEMONIC
#---------    -------------------            -------------------------------
# Generated from Intellog Unique Number	CS_71_72/WELL/852
WELL.         BVX ET AL CALLING LAKE         : Well_name    - WELL
LOC .         00/10-09-071-16W4/0            : Location     - LOCATION
UWI .         00/10-09-071-16W4/0            : Uwi          - UNIQUE WELL ID
ENTR.         SP                             : Entered      - ENTERED BY
SRVC.         SCHLUMBERGER                   : Scn          - SERVICE COMPANY
STRT.M        285                            : top_depth    - START DEPTH
STOP.M        477                            : bot_depth    - STOP DEPTH
STEP.M        0.25                           : increment    - STEP LENGTH
 NULL. -999.2500:NULL Value
~CURVE INFORMATION BLOCK
#MNEM UNIT       ERCB CURVE CODE    CURVE DESCRIPTION
#-----------   ------------------   ----------------------------------
DEPT.M        00 001 00 00         : DEPTH        - DEPTH
ILD .OHMM     00 120 00 00         : RESD         - DEEP RESISTIVITY (DIL)
DPHI.V/V      00 890 00 00         : PHID         - DENSITY POROSITY (LIMESTONE)
NPHI.V/V      00 330 00 00         : PHIN         - NEUTRON POROSITY (LIMESTONE)
GR  .API      00 310 00 00         : GR           - GAMMA RAY
~PARAMETER INFORMATION
#MNEM.UNIT           DATA             DESCRIPTION OF MNEMONIC
#---------         -----------     ------------------------------
GL  .M        590.14               : gl           - GROUND LEVEL ELEVATION
EREF.M        593.79               : kb           - ELEVATION OF DEPTH REFERENCE
DATM.M        590.14               : datum        - DATUM ELEVATION
TDD .M        479                  : tdd          - TOTAL DEPTH DRILLER
RUN .         ONE                  : Run          - RUN NUMBER
ENG .         BILL                 : Engineer     - RECORDING ENGINEER
WIT .         JIM                  : Witness      - WITNESSED BY
MUD .         GEL                  : Mud_type     - MUD TYPE
MATR.         LIMESTONE            : Logunit      - NEUTRON MATRIX
TMAX.C        23                   : BHT          - MAXIMUM RECORDED TEMPERATURE
BHTD.M        479                  : BHTDEP       - MAXIMUM RECORDED TEMPERATURE
MATR.         1                    : LOGUNIT      - NEUTRON MATRIX
RMT .C        25                   : MDTP         - TEMPERATURE OF MUD
NEUT.         1                    : NEUTRON      - NEUTRON TYPE
RESI.         0                    : RESIST       - RESISTIVITY TYPE
RMC .OHMM     0.25                 : RMC          - RESISTIVITY OF MUD CAKE
RMF .OHMM     0.25                 : RMF          - RESISTIVITY OF MUD FILTRATE
SUFT.C        15                   : SUFT         - SURFACE TEMPERATURE
~A  DEPTH     RESD     PHID     PHIN       GR
  285.000    4.107    0.191    0.425  104.538
  285.250    3.879    0.198    0.436  105.861
  285.500    3.678    0.208    0.450  102.892
  285.750    3.408    0.217    0.463   99.374
  286.000    3.256    0.225    0.475   96.526
  286.250    3.110    0.234    0.473   93.865
  286.500    3.080    0.240    0.479   92.737
  286.750    3.066    0.233    0.488   92.405
  287.000    3.076    0.221    0.414   93.239
  287.250    3.151    0.212    0.420   94.561
  287.500    3.203    0.205    0.426   95.577
  287.750    3.244    0.198    0.426   96.961
  288.000    3.292    0.193    0.418   99.024
  288.250    3.327    0.190    0.425  103.782
  288.500    3.319    0.206    0.431  105.352
  288.750    3.268    0.220    0.436  105.203
  289.000    3.181    0.228    0.454  108.610
  289.250    3.126    0.226    0.471  112.751
  289.500    3.208    0.223    0.467  114.201
  289.750    3.280    0.227    0.449  109.329
  290.000    3.347    0.228    0.439  104.649
  290.250    3.332    0.218    0.411  101.987
  290.500    3.312    0.204    0.392  102.208
  290.750    3.298    0.194    0.374   99.485
  291.000    3.346    0.216    0.350   96.088
  291.250    3.480    0.239    0.439   97.778
  291.500    3.887    0.259    0.463   98.981
  291.750    4.578    0.278    0.477   95.766
  292.000    5.578    0.324    0.420   84.949
  292.250    7.017    0.368    0.389   73.459
  292.500    8.358    0.383    0.372   58.965
  292.750    9.285    0.382    0.285   43.856
  293.000    8.318    0.376    0.238   31.202
  293.250    5.785    0.368    0.207   19.405
  293.500    5.795    0.361    0.202   22.444
  293.750    4.646    0.354    0.227   25.363
  294.000    3.993    0.349    0.260   26.070
  294.250    3.490    0.344    0.284   24.515
  294.500    3.151    0.342    0.312   20.321
  294.750    2.926    0.348    0.330   18.948
  295.000    2.732    0.352    0.342   19.595
  295.250    2.685    0.352    0.329   20.365
  295.500    2.709    0.352    0.326   20.588
  295.750    2.713    0.353    0.334   20.502
  296.000    2.722    0.349    0.339   19.741
  296.250    2.741    0.345    0.331   18.982
  296.500    2.739    0.344    0.324   22.696
  296.750    2.682    0.347    0.328   25.797
  297.000    2.690    0.358    0.320   29.508
  297.250    2.704    0.364    0.312   32.982
  297.500    2.733    0.366    0.308   38.291
  297.750    2.769    0.366    0.328   43.663
  298.000    2.868    0.363    0.348   49.461
  298.250    2.927    0.358    0.361   54.219
  298.500    3.020    0.353    0.367   60.448
  298.750    3.159    0.344    0.351   66.980
  299.000    3.385    0.340    0.341   70.331
  299.250    3.500    0.332    0.347   68.037
  299.500    3.808    0.323    0.357   70.339
  299.750    4.005    0.317    0.358   76.258
  300.000    4.293    0.312    0.345   79.365
  300.250    4.566    0.307    0.334   81.119
  300.500    4.757    0.303    0.320   79.436
  300.750    4.872    0.299    0.309   74.323
  301.000    4.725    0.295    0.301   67.368
  301.250    4.371    0.292    0.313   71.514
  301.500    3.938    0.296    0.333   74.372
  301.750    3.562    0.305    0.342   65.272
  302.000    3.364    0.297    0.342   59.421
  302.250    3.312    0.288    0.337   60.926
  302.500    3.386    0.277    0.332   64.090
  302.750    3.521    0.263    0.338   63.450
  303.000    3.710    0.240    0.359   62.449
  303.250    3.984    0.234    0.374   70.885
  303.500    4.237    0.221    0.376   81.159
  303.750    4.414    0.212    0.384   91.436
  304.000    4.539    0.205    0.401  110.847
  304.250    4.587    0.194    0.414  116.768
  304.500    4.560    0.189    0.405  118.215
  304.750    4.405    0.183    0.396  117.820
  305.000    4.167    0.185    0.389  117.429
  305.250    4.143    0.182    0.389  115.995
  305.500    4.017    0.174    0.403  119.954
  305.750    3.978    0.169    0.414  124.282
  306.000    3.902    0.166    0.416  122.235
  306.250    3.720    0.170    0.433  114.422
  306.500    3.494    0.189    0.443  111.326
  306.750    3.275    0.205    0.439  110.568
  307.000    3.081    0.222    0.453  112.754
  307.250    3.216    0.235    0.460  119.288
  307.500    3.473    0.241    0.433  123.002
  307.750    3.729    0.248    0.410  122.733
  308.000    4.080    0.254    0.391  121.360
  308.250    4.499    0.256    0.371  116.610
  308.500    4.904    0.256    0.380  112.355
  308.750    5.206    0.252    0.397  108.899
  309.000    5.424    0.249    0.410  105.378
  309.250    5.566    0.256    0.393  102.227
  309.500    5.637    0.269    0.374  103.611
  309.750    5.634    0.274    0.364   98.069
  310.000    5.443    0.240    0.375   91.239
  310.250    5.151    0.210    0.392   94.769
  310.500    4.939    0.189    0.410  101.056
  310.750    4.718    0.175    0.430  104.037
  311.000    4.915    0.188    0.415  108.609
  311.250    5.288    0.207    0.404  114.104
  311.500    5.807    0.227    0.378  118.801
  311.750    6.259    0.249    0.354  110.377
  312.000    6.521    0.270    0.337   98.762
  312.250    6.859    0.285    0.327   88.682
  312.500    7.065    0.293    0.319   80.869
  312.750    7.169    0.281    0.315   76.309
  313.000    6.848    0.275    0.329   73.831
  313.250    6.252    0.283    0.336   71.720
  313.500    5.773    0.294    0.339   68.385
  313.750    5.411    0.304    0.343   68.974
  314.000    5.218    0.312    0.349   74.708
  314.250    5.118    0.296    0.353   79.653
  314.500    5.154    0.261    0.353   84.963
  314.750    5.420    0.244    0.350   91.065
  315.000    5.647    0.236    0.348   95.506
  315.250    5.817    0.228    0.354   96.598
  315.500    5.958    0.222    0.378   98.044
  315.750    5.989    0.217    0.396   99.614
  316.000    5.952    0.215    0.389  100.017
  316.250    5.882    0.213    0.378  102.444
  316.500    5.769    0.211    0.367  109.159
  316.750    5.733    0.211    0.360  113.124
  317.000    5.752    0.214    0.371  115.982
  317.250    5.815    0.221    0.382  118.774
  317.500    5.911    0.230    0.389  121.692
  317.750    5.975    0.243    0.395  116.395
  318.000    6.040    0.253    0.388  108.584
  318.250    6.164    0.244    0.379  102.735
  318.500    6.325    0.234    0.376  104.794
  318.750    6.418    0.222    0.377  109.181
  319.000    6.379    0.208    0.369  113.449
  319.250    6.081    0.200    0.363  117.042
  319.500    5.615    0.196    0.362  119.286
  319.750    5.165    0.195    0.407  115.767
  320.000    4.707    0.195    0.428  121.256
  320.250    4.471    0.197    0.438  126.567
  320.500    4.352    0.208    0.423  130.713
  320.750    4.408    0.217    0.399  122.226
  321.000    4.688    0.229    0.379  113.800
  321.250    5.043    0.239    0.366  105.071
  321.500    5.264    0.234    0.358   95.665
  321.750    5.392    0.234    0.384   85.216
  322.000    5.544    0.273    0.427   78.202
  322.250    5.594    0.298    0.397   85.593
  322.500    5.476    0.312    0.360   94.215
  322.750    5.311    0.307    0.344   99.647
  323.000    5.140    0.301    0.337   97.473
  323.250    5.089    0.296    0.343   89.296
  323.500    5.135    0.289    0.357   87.677
  323.750    5.360    0.275    0.370   92.556
  324.000    5.853    0.260    0.381   95.043
  324.250    6.333    0.247    0.369   89.011
  324.500    6.955    0.218    0.364   80.340
  324.750    7.370    0.173    0.338   75.473
  325.000    7.664    0.150    0.296   77.778
  325.250    7.791    0.138    0.266   77.384
  325.500    7.787    0.152    0.259   76.563
  325.750    7.273    0.193    0.304   81.748
  326.000    6.466    0.219    0.371   86.444
  326.250    5.870    0.235    0.389   90.526
  326.500    5.523    0.244    0.387   93.323
  326.750    5.326    0.243    0.379   97.160
  327.000    5.086    0.241    0.376   97.565
  327.250    5.047    0.244    0.386   92.635
  327.500    4.969    0.255    0.408   88.747
  327.750    4.901    0.261    0.420   86.391
  328.000    4.870    0.253    0.419   87.102
  328.250    4.841    0.245    0.409   91.366
