~VERSION INFORMATION
 VERS.                 2.0:   CWLS LOG ASCII STANDARD -VERSION 2.0
 WRAP.                  NO:   ONE LINE PER DEPTH STEP
~WELL INFORMATION BLOCK
#MNEM.UNIT           DATA                    DESCRIPTION OF MNEMONIC
#---------    -------------------            -------------------------------
# Generated from Intellog Unique Number	CW_79_81/WELL/2486
WELL.         11-26-080-24W4                 : Well_name    - WELL
LOC .         00/11-26-080-24W4/0            : Location     - LOCATION
UWI .         00/11-26-080-24W4/0            : Uwi          - UNIQUE WELL ID
ENTR.         MAX                            : Entered      - ENTERED BY
SRVC.         COMPUTALOG                     : Scn          - SERVICE COMPANY
STRT.M        225                            : top_depth    - START DEPTH
STOP.M        450                            : bot_depth    - STOP DEPTH
STEP.M        0.25                           : increment    - STEP LENGTH
 NULL. -999.2500:NULL Value
~CURVE INFORMATION BLOCK
#MNEM UNIT       ERCB CURVE CODE    CURVE DESCRIPTION
#-----------   ------------------   ----------------------------------
DEPT.M        00 001 00 00         : DEPTH        - DEPTH
ILD .OHMM     00 120 00 00         : RESD         - DEEP RESISTIVITY (DIL)
NPHI.V/V      00 330 00 00         : PHIN         - NEUTRON POROSITY (SANDSTONE)
DPHI.V/V      00 890 00 00         : PHID         - DENSITY POROSITY (SANDSTONE)
GR  .API      00 310 00 00         : GR           - GAMMA RAY
CALI.MM       00 280 01 00         : CAL          - CALIPER
~PARAMETER INFORMATION
#MNEM.UNIT           DATA             DESCRIPTION OF MNEMONIC
#---------         -----------     ------------------------------
GL  .M        568.3                : gl           - GROUND LEVEL ELEVATION
EREF.M        572.95               : kb           - ELEVATION OF DEPTH REFERENCE
DATM.M        568.3                : datum        - DATUM ELEVATION
TDD .M        450                  : tdd          - TOTAL DEPTH DRILLER
RUN .         ONE                  : Run          - RUN NUMBER
ENG .         BILL                 : Engineer     - RECORDING ENGINEER
WIT .         JIM                  : Witness      - WITNESSED BY
MUD .         GEL                  : Mud_type     - MUD TYPE
MATR.         SANDSTONE            : Logunit      - NEUTRON MATRIX
TMAX.C        34                   : BHT          - MAXIMUM RECORDED TEMPERATURE
BHTD.M        450                  : BHTDEP       - MAXIMUM RECORDED TEMPERATURE
MATR.         1                    : LOGUNIT      - NEUTRON MATRIX
RMT .C        15.5                 : MDTP         - TEMPERATURE OF MUD
NEUT.         1                    : NEUTRON      - NEUTRON TYPE
RESI.         0                    : RESIST       - RESISTIVITY TYPE
RMC .OHMM     1.9                  : RMC          - RESISTIVITY OF MUD CAKE
RMF .OHMM     4.5                  : RMF          - RESISTIVITY OF MUD FILTRATE
SUFT.C        -20                  : SUFT         - SURFACE TEMPERATURE
~A  DEPTH     RESD     PHIN     PHID       GR      CAL
# ...
  298.000    9.428    0.454    0.300   67.075  228.584
  298.250    8.867    0.476    0.301   66.645  228.567
  298.500    8.466    0.482    0.295   68.135  228.551
  298.750    8.094    0.476    0.282   71.009  228.537
  299.000    7.784    0.465    0.274   72.802  228.521
  299.250    7.556    0.461    0.269   72.193  228.306
  299.500    7.417    0.466    0.266   69.722  227.993
  299.750    7.407    0.475    0.265   67.939  227.974
  300.000    7.641    0.473    0.260   68.680  227.960
  300.250    8.046    0.463    0.258   71.075  227.945
  300.500    8.383    0.455    0.260   72.208  227.929
  300.750    8.605    0.453    0.262   72.799  227.914
  301.000    8.686    0.455    0.263   73.211  228.099
  301.250    8.608    0.451    0.260   73.390  228.964
  301.500    8.541    0.445    0.256   73.130  229.367
  301.750    8.414    0.451    0.251   75.041  229.754
  302.000    8.196    0.459    0.251   75.513  230.139
  302.250    7.895    0.464    0.251   75.625  230.723
  302.500    7.566    0.468    0.248   76.158  231.408
  302.750    7.233    0.478    0.239   77.938  231.958
  303.000    6.959    0.477    0.224   79.680  232.778
  303.250    6.653    0.469    0.224   78.950  232.761
  303.500    6.434    0.465    0.227   78.761  232.748
  303.750    6.293    0.465    0.227   79.474  232.732
  304.000    6.234    0.471    0.228   81.026  232.715
  304.250    6.281    0.493    0.246   82.735  232.448
  304.500    6.280    0.505    0.253   81.726  231.180
  304.750    6.280    0.511    0.261   79.795  229.564
  305.000    6.280    0.511    0.267   77.504  228.550
  305.250    6.280    0.513    0.264   74.973  228.136
  305.500    6.303    0.524    0.256   72.563  228.121
  305.750    6.446    0.540    0.254   70.970  228.183
  306.000    6.701    0.530    0.258   71.460  228.588
  306.250    7.109    0.508    0.267   74.334  228.574
  306.500    7.502    0.492    0.269   74.866  228.258
  306.750    7.846    0.479    0.273   74.257  227.842
  307.000    8.173    0.468    0.281   73.108  227.526
  307.250    8.704    0.449    0.289   71.064  227.511
  307.500    9.191    0.437    0.293   69.305  227.496
  307.750    9.259    0.450    0.298   67.612  227.880
  308.000    9.225    0.449    0.303   67.183  227.959
  308.250    9.156    0.446    0.309   67.295  228.145
  308.500    9.071    0.448    0.316   67.406  228.436
  308.750    8.923    0.458    0.325   67.206  228.419
  309.000    8.853    0.466    0.332   67.445  228.403
  309.250    8.853    0.477    0.325   67.438  228.789
  309.500    8.803    0.484    0.322   67.789  228.872
  309.750    8.770    0.485    0.321   68.381  228.856
  310.000    8.770    0.479    0.320   68.733  228.742
  310.250    8.742    0.458    0.316   68.001  228.240
  310.500    8.608    0.441    0.310   67.991  227.810
  310.750    8.229    0.442    0.289   70.145  227.396
  311.000    7.824    0.459    0.274   75.001  227.281
  311.250    7.455    0.470    0.261   78.715  227.465
  311.500    7.185    0.467    0.251   79.966  227.949
  311.750    7.090    0.457    0.247   79.756  228.818
  312.000    7.145    0.453    0.248   78.746  229.217
  312.250    7.198    0.442    0.249   76.095  229.604
  312.500    7.211    0.434    0.237   76.686  229.987
  312.750    7.318    0.432    0.227   78.959  229.771
  313.000    7.539    0.436    0.228   80.871  229.057
  313.250    7.815    0.440    0.237   79.650  228.722
  313.500    8.061    0.440    0.235   78.391  229.123
  313.750    7.882    0.441    0.226   80.303  229.511
  314.000    7.664    0.439    0.221   83.117  230.195
  314.250    7.496    0.433    0.219   84.790  230.580
  314.500    7.413    0.430    0.219   85.081  230.566
  314.750    7.458    0.443    0.216   85.549  230.547
  315.000    7.693    0.476    0.218   85.542  230.534
  315.250    8.161    0.490    0.218   81.449  229.715
  315.500    8.941    0.490    0.217   76.815  228.299
  315.750   10.358    0.477    0.222   75.005  227.286
  316.000   12.637    0.442    0.228   75.957  226.972
  316.250   15.975    0.351    0.208   75.084  226.786
  316.500   21.795    0.278    0.183   69.571  225.937
  316.750   22.450    0.216    0.137   65.239  225.923
  317.000   20.148    0.221    0.165   63.427  226.807
  317.250   17.071    0.284    0.196   63.418  227.993
  317.500   14.338    0.364    0.205   65.091  229.081
  317.750   11.750    0.391    0.209   70.075  230.031
  318.000   10.164    0.427    0.210   75.820  230.850
  318.250    9.146    0.443    0.215   75.572  230.834
  318.500    8.922    0.437    0.234   74.242  230.218
  318.750    8.922    0.423    0.242   74.353  229.403
  319.000    9.003    0.413    0.233   75.905  228.588
  319.250    9.445    0.416    0.224   76.373  227.435
  319.500    9.974    0.435    0.229   76.364  225.749
  319.750   10.349    0.437    0.243   76.356  225.336
  320.000   10.389    0.426    0.246   74.366  225.221
  320.250   10.235    0.414    0.243   72.435  225.207
  320.500   10.009    0.406    0.238   72.186  225.192
  320.750    9.742    0.405    0.237   74.717  225.174
  321.000    9.518    0.404    0.237   74.209  225.160
  321.250    9.447    0.404    0.237   72.516  224.743
  321.500    9.482    0.421    0.239   72.268  224.628
  321.750    9.658    0.440    0.244   72.620  224.414
  322.000    9.968    0.449    0.250   72.610  224.099
  322.250   10.363    0.436    0.248   71.058  223.997
  322.500   10.443    0.432    0.237   70.549  223.560
  322.750   10.288    0.429    0.231   71.742  223.549
  323.000   10.022    0.430    0.238   73.473  223.535
  323.250    9.838    0.431    0.243   74.665  223.520
  323.500    9.820    0.434    0.240   74.897  223.504
  323.750   10.012    0.435    0.232   74.807  223.485
  324.000   10.248    0.428    0.229   76.798  223.472
  324.250   10.556    0.419    0.229   78.472  223.458
  324.500   11.114    0.420    0.236   76.721  223.443
  324.750   11.542    0.425    0.244   73.469  223.628
  325.000   11.471    0.428    0.250   70.818  224.113
  325.250   10.615    0.427    0.246   71.599  225.064
  325.500   10.057    0.430    0.236   74.341  225.882
  325.750    9.760    0.427    0.229   76.253  226.265
  326.000    9.743    0.433    0.229   77.265  226.352
  326.250   10.068    0.434    0.231   77.858  225.937
  326.500   10.743    0.431    0.235   78.150  225.120
  326.750   11.843    0.443    0.249   76.348  224.219
  327.000   12.805    0.450    0.275   68.581  223.786
  327.250   13.985    0.449    0.286   62.807  223.769
  327.500   15.610    0.447    0.288   59.194  223.756
  327.750   17.584    0.445    0.285   56.182  223.743
  328.000   19.725    0.439    0.273   53.470  223.727
  328.250   21.684    0.412    0.248   52.068  223.624
  328.500   21.350    0.381    0.266   52.310  223.193
  328.750   22.155    0.405    0.293   54.461  222.378
  329.000   21.497    0.430    0.298   56.255  221.862
  329.250   19.850    0.431    0.289   57.808  221.845
  329.500   17.673    0.412    0.273   59.240  222.231
  329.750   15.128    0.411    0.261   61.321  222.614
  330.000   14.443    0.417    0.268   64.565  222.600
  330.250   14.877    0.416    0.274   65.997  222.586
  330.500   15.748    0.414    0.278   65.808  222.570
  330.750   16.838    0.408    0.274   64.478  222.555
  331.000   17.785    0.405    0.266   62.248  222.840
  331.250   17.672    0.417    0.267   59.565  224.188
  331.500   15.995    0.412    0.270   61.807  225.004
  331.750   13.641    0.402    0.235   66.123  225.395
  332.000   12.072    0.416    0.227   70.438  225.782
  332.250   11.229    0.432    0.237   74.632  225.966
  332.500   10.982    0.441    0.255   78.225  225.951
  332.750   11.248    0.437    0.265   80.728  225.932
  333.000   11.335    0.415    0.267   82.471  225.915
  333.250   10.919    0.403    0.274   82.703  225.902
  333.500   10.399    0.417    0.282   78.971  226.189
  333.750    9.871    0.434    0.292   75.117  226.573
  334.000    9.316    0.443    0.300   72.705  226.957
  334.250    8.640    0.446    0.305   70.763  227.508
