~VERSION INFORMATION
 VERS.                 2.0:   CWLS LOG ASCII STANDARD -VERSION 2.0
 WRAP.                  NO:   ONE LINE PER DEPTH STEP
~WELL INFORMATION BLOCK
#MNEM.UNIT           DATA                    DESCRIPTION OF MNEMONIC
#---------    -------------------            -------------------------------
# Generated from Intellog Unique Number	CS_73_76/WELL/3275
WELL.         CANADIAN WORLDWIDE ENERGY      : Well_name    - WELL
LOC .         00/13-17-076-04W4/0            : Location     - LOCATION
UWI .         00/13-17-076-04W4/0            : Uwi          - UNIQUE WELL ID
ENTR.         SP                             : Entered      - ENTERED BY
SRVC.         SCHLUMBERGER                   : Scn          - SERVICE COMPANY
STRT.M        150                            : top_depth    - START DEPTH
STOP.M        450                            : bot_depth    - STOP DEPTH
STEP.M        0.25                           : increment    - STEP LENGTH
 NULL. -999.2500:NULL Value
~CURVE INFORMATION BLOCK
#MNEM UNIT       ERCB CURVE CODE    CURVE DESCRIPTION
#-----------   ------------------   ----------------------------------
DEPT.M        00 001 00 00         : DEPTH        - DEPTH
ILD .OHMM     00 120 00 00         : RESD         - DEEP RESISTIVITY (DIL)
GR  .API      00 310 00 00         : GR           - GAMMA RAY
DPHI.V/V      00 890 00 00         : PHID         - DENSITY POROSITY (LIMESTONE)
NPHI.V/V      00 330 00 00         : PHIN         - NEUTRON POROSITY (LIMESTONE)
~PARAMETER INFORMATION
#MNEM.UNIT           DATA             DESCRIPTION OF MNEMONIC
#---------         -----------     ------------------------------
GL  .M        623.19               : gl           - GROUND LEVEL ELEVATION
EREF.M        626.29               : kb           - ELEVATION OF DEPTH REFERENCE
DATM.M        623.19               : datum        - DATUM ELEVATION
TDD .M        453                  : tdd          - TOTAL DEPTH DRILLER
RUN .         ONE                  : Run          - RUN NUMBER
ENG .         BILL                 : Engineer     - RECORDING ENGINEER
WIT .         JIM                  : Witness      - WITNESSED BY
MUD .         GEL                  : Mud_type     - MUD TYPE
MATR.         LIMESTONE            : Logunit      - NEUTRON MATRIX
TMAX.C        18                   : BHT          - MAXIMUM RECORDED TEMPERATURE
BHTD.M        453                  : BHTDEP       - MAXIMUM RECORDED TEMPERATURE
MATR.         1                    : LOGUNIT      - NEUTRON MATRIX
RMT .C        25                   : MDTP         - TEMPERATURE OF MUD
NEUT.         1                    : NEUTRON      - NEUTRON TYPE
RESI.         0                    : RESIST       - RESISTIVITY TYPE
RMC .OHMM     0.25                 : RMC          - RESISTIVITY OF MUD CAKE
RMF .OHMM     0.25                 : RMF          - RESISTIVITY OF MUD FILTRATE
SUFT.C        15                   : SUFT         - SURFACE TEMPERATURE
~A  DEPTH     RESD       GR     PHID     PHIN
# ...
  280.500   30.715   73.611    0.265    0.402
  280.750   30.249   73.621    0.262    0.397
  281.000   29.790   75.445    0.272    0.398
  281.250   29.335   66.342    0.291    0.419
  281.500   30.239   63.311    0.306    0.423
  281.750   32.132   66.356    0.313    0.407
  282.000   33.630   57.250    0.311    0.404
  282.250   37.404   52.397    0.316    0.407
  282.500   39.748   50.585    0.331    0.398
  282.750   44.887   50.587    0.340    0.389
  283.000   50.692   51.810    0.340    0.380
  283.250   56.383   51.209    0.332    0.401
  283.500   59.913   50.609    0.329    0.423
  283.750   60.827   52.435    0.336    0.412
  284.000   60.820   53.655    0.339    0.393
  284.250   55.504   56.090    0.324    0.373
  284.500   49.892   63.384    0.303    0.363
  284.750   43.503   71.285    0.289    0.385
  285.000   34.099   77.364    0.321    0.422
  285.250   32.082   63.403    0.333    0.458
  285.500   32.571   60.371    0.333    0.452
  285.750   39.090   61.594    0.332    0.428
  286.000   44.820   62.206    0.338    0.404
  286.250   49.852   61.604    0.340    0.409
  286.500   57.161   59.790    0.338    0.409
  286.750   59.826   58.580    0.335    0.406
  287.000   59.819   59.801    0.340    0.398
  287.250   58.019   63.453    0.340    0.384
  287.500   53.762   65.279    0.339    0.400
  287.750   50.580   66.501    0.342    0.418
  288.000   49.812   67.719    0.346    0.436
  288.250   49.056   62.261    0.345    0.431
  288.500   49.050   59.837    0.333    0.442
  288.750   50.560   56.199    0.319    0.459
  289.000   52.914   53.169    0.304    0.469
  289.250   56.228   56.212    0.265    0.325
  289.500   59.747   63.505    0.238    0.321
  289.750   60.658   72.622    0.292    0.356
  290.000   58.833   71.412    0.327    0.417
  290.250   55.353   67.168    0.328    0.445
  290.500   53.690   65.351    0.334    0.446
  290.750   50.514   66.572    0.345    0.443
  291.000   48.255   71.438    0.338    0.434
  291.250   45.399   69.622    0.329    0.437
  291.500   44.709   66.591    0.332    0.451
  291.750   44.702   62.953    0.331    0.448
  292.000   44.698   64.174    0.328    0.442
  292.250   45.379   67.216    0.334    0.449
  292.500   45.372   70.865    0.339    0.459
  292.750   45.368   78.768    0.339    0.468
  293.000   45.361   81.809    0.334    0.465
  293.250   44.673   80.602    0.325    0.453
  293.500   43.992   78.178    0.326    0.456
  293.750   43.324   75.147    0.321    0.470
  294.000   43.319   70.902    0.315    0.475
  294.250   42.660   70.302    0.310    0.465
  294.500   42.656   70.914    0.309    0.465
  294.750   43.304   69.706    0.322    0.468
  295.000   42.001   70.925    0.328    0.464
  295.250   41.998   74.576    0.327    0.453
  295.500   40.733   82.478    0.318    0.447
  295.750   39.509   90.378    0.305    0.452
  296.000   36.611   94.028    0.285    0.452
  296.250   33.412   95.249    0.240    0.451
  296.500   26.190   91.611    0.237    0.446
  296.750   22.152   92.831    0.241    0.442
  297.000   19.023   97.090    0.238    0.431
  297.250   17.627  101.347    0.232    0.424
  297.500   16.584  104.389    0.230    0.441
  297.750   16.086  100.752    0.231    0.456
  298.000   15.601   94.685    0.231    0.449
  298.250   15.599   86.795    0.228    0.456
  298.500   15.598   83.157    0.265    0.473
  298.750   15.596   89.843    0.282    0.438
  299.000   16.076   94.100    0.260    0.435
  299.250   17.345   87.427    0.273    0.460
  299.500   18.432   81.359    0.276    0.468
  299.750   18.999   89.868    0.272    0.468
  300.000   19.287   95.340    0.260    0.452
  300.250   18.994   97.168    0.249    0.437
  300.500   18.706  100.818    0.241    0.427
  300.750   16.814  103.860    0.233    0.425
  301.000   13.795  104.474    0.221    0.446
  301.250   12.213  103.874    0.237    0.473
  301.500   10.487  105.700    0.255    0.486
  301.750   10.328  101.455    0.249    0.484
  302.000   10.485   97.817    0.241    0.502
  302.250   10.973  100.859    0.241    0.535
  302.500   11.485   97.222    0.245    0.498
  302.750   12.581   89.941    0.262    0.485
  303.000   13.993   76.586    0.291    0.486
  303.250   16.045   76.592    0.308    0.462
  303.500   17.846   77.812    0.325    0.432
  303.750   20.154   76.603    0.331    0.440
  304.000   24.188   77.825    0.314    0.453
  304.250   29.031   76.009    0.299    0.446
  304.500   31.802   71.764    0.292    0.433
  304.750   34.836   70.557    0.291    0.442
  305.000   35.368   72.992    0.297    0.446
  305.250   34.304   74.819    0.300    0.442
  305.500   33.272   77.862    0.300    0.433
  305.750   31.304   82.118    0.298    0.429
  306.000   28.138   96.700    0.278    0.443
  306.250   24.164  100.349    0.254    0.457
  306.500   19.825  104.607    0.245    0.483
  306.750   16.768  107.044    0.239    0.518
  307.000   13.550  108.262    0.250    0.535
  307.250   11.287  104.019    0.273    0.557
  307.500   10.782   94.914    0.292    0.563
  307.750   11.114   74.272    0.323    0.563
  308.000   11.456   65.776    0.346    0.544
  308.250   12.742   63.352    0.357    0.522
  308.500   18.637   67.003    0.357    0.479
  308.750   22.031   64.580    0.354    0.446
  309.000   28.968   69.446    0.351    0.452
  309.250   38.090   71.272    0.347    0.435
  309.500   39.262   64.599    0.339    0.433
  309.750   39.255   62.174    0.335    0.438
  310.000   39.251   60.965    0.324    0.436
  310.250   38.654   59.758    0.326    0.429
  310.500   38.651   62.195    0.348    0.443
  310.750   40.449   64.022    0.353    0.442
  311.000   41.695   64.633    0.346    0.437
  311.250   42.331   63.425    0.349    0.453
  311.500   42.974   63.432    0.350    0.465
  311.750   42.970   64.651    0.352    0.439
  312.000   42.318   65.873    0.355    0.429
  312.250   41.042   69.525    0.350    0.420
  312.500   40.419   70.743    0.347    0.433
  312.750   41.035   72.572    0.345    0.442
  313.000   41.659   75.010    0.340    0.432
  313.250   41.653   75.013    0.336    0.418
  313.500   41.020   75.626    0.325    0.422
  313.750   39.787   74.417    0.301    0.428
  314.000   34.167   78.067    0.287    0.439
  314.250   25.979   82.324    0.277    0.444
  314.500   19.161   85.974    0.260    0.453
  314.750   17.223   89.018    0.257    0.457
  315.000   15.017   89.630    0.271    0.471
  315.250   13.915   90.243    0.263    0.513
  315.500   13.704   89.034    0.253    0.507
  315.750   14.126   87.218    0.275    0.507
  316.000   15.240   83.581    0.292    0.505
  316.250   15.950   80.550    0.304    0.482
  316.500   16.694   79.950    0.310    0.469
  316.750   18.286   78.741    0.318    0.460
  317.000   19.139   77.534    0.318    0.448
  317.250   20.031   77.538    0.310    0.461
  317.500   20.964   79.975    0.293    0.496
  317.750   19.724   82.411    0.301    0.487
  318.000   19.129   83.023    0.299    0.478
  318.250   18.839   79.992    0.285    0.470
  318.500   18.553   79.998    0.275    0.460
  318.750   18.551   81.826    0.280    0.453
  319.000   18.269   82.439    0.292    0.453
  319.250   17.990   80.016    0.303    0.477
  319.500   17.988   72.127    0.305    0.486
  319.750   17.715   69.704    0.315    0.472
  320.000   17.713   67.281    0.337    0.461
  320.250   17.982   65.465    0.341    0.456
  320.500   18.535   63.649    0.345    0.439
  320.750   19.106   62.440    0.349    0.421
  321.000   19.995   60.018    0.344    0.422
  321.250   20.611   58.201    0.292    0.432
  321.500   20.926   55.172    0.259    0.398
  321.750   21.570   50.925    0.237    0.354
  322.000   21.898   51.539    0.111    0.210
  322.250   21.565   56.404    0.259    0.267
  322.500   20.289   61.269    0.294    0.305
  322.750   20.286   63.705    0.296    0.369
  323.000   20.911   58.852    0.238    0.431
  323.250   22.560   50.962    0.189    0.327
  323.500   23.612   44.288    0.028    0.139
  323.750   24.339   41.865    0.000    0.119
