~VERSION INFORMATION
 VERS.                 2.0:   CWLS LOG ASCII STANDARD -VERSION 2.0
 WRAP.                  NO:   ONE LINE PER DEPTH STEP
~WELL INFORMATION BLOCK
#MNEM.UNIT           DATA                    DESCRIPTION OF MNEMONIC
#---------    -------------------            -------------------------------
# Generated from Intellog Unique Number	CW_76_78/WELL/2575
WELL.         10-09-078-26W4                 : Well_name    - WELL
LOC .         00/10-09-078-26W4/0            : Location     - LOCATION
UWI .         00/10-09-078-26W4/0            : Uwi          - UNIQUE WELL ID
ENTR.         MAX                            : Entered      - ENTERED BY
SRVC.         COMPUTALOG                     : Scn          - SERVICE COMPANY
STRT.M        300                            : top_depth    - START DEPTH
STOP.M        525                            : bot_depth    - STOP DEPTH
STEP.M        0.25                           : increment    - STEP LENGTH
 NULL. -999.2500:NULL Value
~CURVE INFORMATION BLOCK
#MNEM UNIT       ERCB CURVE CODE    CURVE DESCRIPTION
#-----------   ------------------   ----------------------------------
DEPT.M        00 001 00 00         : DEPTH        - DEPTH
ILD .OHMM     00 120 00 00         : RESD         - DEEP RESISTIVITY (DIL)
NPHI.V/V      00 330 00 00         : PHIN         - NEUTRON POROSITY (SANDSTONE)
DPHI.V/V      00 890 00 00         : PHID         - DENSITY POROSITY (SANDSTONE)
CALI.MM       00 280 01 00         : CAL          - CALIPER
GR  .API      00 310 00 00         : GR           - GAMMA RAY
~PARAMETER INFORMATION
#MNEM.UNIT           DATA             DESCRIPTION OF MNEMONIC
#---------         -----------     ------------------------------
GL  .M        595                  : gl           - GROUND LEVEL ELEVATION
EREF.M        598.9                : kb           - ELEVATION OF DEPTH REFERENCE
DATM.M        595                  : datum        - DATUM ELEVATION
TDD .M        524                  : tdd          - TOTAL DEPTH DRILLER
RUN .         ONE                  : Run          - RUN NUMBER
ENG .         BILL                 : Engineer     - RECORDING ENGINEER
WIT .         JIM                  : Witness      - WITNESSED BY
MUD .         GEL                  : Mud_type     - MUD TYPE
MATR.         SANDSTONE            : Logunit      - NEUTRON MATRIX
TMAX.C        18                   : BHT          - MAXIMUM RECORDED TEMPERATURE
BHTD.M        524                  : BHTDEP       - MAXIMUM RECORDED TEMPERATURE
RMT .C        15                   : MDTP         - TEMPERATURE OF MUD
MUDD.KG/M     1090                 : MWT          - MUD DENSITY
NEUT.         1                    : NEUTRON      - NEUTRON TYPE
RESI.         0                    : RESIST       - RESISTIVITY TYPE
RM  .OHMM     7                    : RM           - RESISTIVITY OF MUD
RMC .OHMM     0                    : RMC          - RESISTIVITY OF MUD CAKE
RMF .OHMM     8                    : RMF          - RESISTIVITY OF MUD FILTRATE
SUFT.C        -20                  : SUFT         - SURFACE TEMPERATURE
~A  DEPTH     RESD     PHIN     PHID      CAL       GR
  300.000    2.458    0.487    0.294  200.085   86.287
  300.250    2.570    0.494    0.290  200.064   84.788
  300.500    2.664    0.466    0.283  199.548   88.049
  300.750    2.736    0.454    0.283  199.033   90.120
  301.000    2.736    0.441    0.277  199.016   96.654
  301.250    2.759    0.415    0.281  198.498   97.534
  301.500    2.808    0.397    0.286  198.476  102.879
  301.750    2.808    0.410    0.283  198.952  101.677
  302.000    2.806    0.445    0.273  198.932   91.845
  302.250    2.857    0.440    0.254  198.913   90.642
  302.500    2.908    0.467    0.242  198.397   90.037
  302.750    2.907    0.473    0.238  198.871   90.618
  303.000    2.906    0.505    0.229  198.852   95.071
  303.250    2.879    0.492    0.219  199.328   93.867
  303.500    2.878    0.480    0.215  199.809   94.750
  303.750    2.930    0.444    0.232  201.273   96.521
  304.000    3.120    0.453    0.217  202.247   93.535
  304.250    3.667    0.442    0.201  202.726   89.359
  304.500    4.047    0.365    0.181  201.712   80.123
  304.750    4.347    0.333    0.171  200.205   77.432
  305.000    4.755    0.335    0.169  200.186   82.478
  305.250    5.539    0.389    0.186  200.664   87.825
  305.500    5.638    0.439    0.184  201.136   89.596
  305.750    5.790    0.385    0.189  200.127   86.610
  306.000    6.055    0.321    0.197  199.612   89.871
  306.250    5.787    0.288    0.202  199.096   94.023
  306.500    5.288    0.296    0.210  197.091   95.797
  306.750    4.661    0.302    0.223  196.573   99.058
  307.000    4.336    0.326    0.232  196.556   96.668
  307.250    4.182    0.347    0.237  196.536   90.407
  307.500    4.334    0.351    0.240  196.514   87.120
  307.750    4.372    0.383    0.244  196.497   88.004
  308.000    4.178    0.403    0.251  196.477   89.776
  308.250    3.887    0.411    0.260  196.460   89.168
  308.500    3.488    0.435    0.267  196.441   87.374
  308.750    3.130    0.457    0.281  196.419   87.063
  309.000    3.102    0.494    0.279  195.901   89.729
  309.250    3.186    0.525    0.276  195.385   90.907
  309.500    3.952    0.535    0.272  194.870   87.920
  309.750    5.869    0.511    0.271  194.352   84.040
  310.000    7.615    0.458    0.272  193.842   76.293
  310.250    9.882    0.453    0.272  193.324   63.784
  310.500   12.371    0.452    0.253  192.806   52.762
  310.750   13.900    0.395    0.222  192.791   47.395
  311.000   15.481    0.404    0.228  192.769   45.598
  311.250   16.482    0.386    0.246  192.254   47.669
  311.500   15.611    0.403    0.265  191.741   51.228
  311.750    9.431    0.416    0.296  190.729   53.593
  312.000    6.821    0.392    0.302  190.707   55.071
  312.250    5.905    0.380    0.301  191.184   58.631
  312.500    5.299    0.382    0.264  193.145   62.190
  312.750    5.442    0.411    0.265  194.616   65.153
  313.000    6.513    0.461    0.248  195.090   66.330
  313.250    8.153    0.455    0.264  195.070   66.021
  313.500   11.166    0.476    0.277  195.051   64.818
  313.750   12.325    0.485    0.281  194.535   62.725
  314.000   15.428    0.488    0.292  194.020   59.739
  314.250   18.297    0.494    0.309  193.009   55.261
  314.500   19.833    0.412    0.320  191.997   54.357
  314.750   20.370    0.385    0.320  190.988   54.347
  315.000   20.182    0.401    0.319  190.470   53.143
  315.250   19.640    0.438    0.317  190.451   50.455
  315.500   18.939    0.447    0.308  190.434   47.766
  315.750   18.597    0.419    0.296  190.910   46.266
  316.000   17.773    0.410    0.292  191.379   48.633
  316.250   17.773    0.368    0.291  192.850   49.514
  316.500   17.445    0.380    0.305  194.320   49.802
  316.750   17.286    0.377    0.312  194.797   50.087
  317.000   17.278    0.365    0.310  193.290   50.968
  317.250   17.432    0.386    0.303  191.780   50.658
  317.500   18.727    0.402    0.295  192.254   51.540
  317.750   25.649    0.414    0.282  193.228   50.335
  318.000   28.308    0.416    0.182  194.203   50.026
  318.250   33.272    0.223    0.154  194.677   48.230
  318.500   32.965    0.175    0.106  194.658   46.432
  318.750   25.618    0.174    0.120  194.638   46.420
  319.000   20.639    0.191    0.175  195.114   47.303
  319.250   17.237    0.230    0.211  195.591   50.562
  319.500   14.011    0.359    0.252  195.574   53.228
  319.750   13.152    0.383    0.272  194.061   53.514
  320.000   12.235    0.393    0.286  194.538   52.611
  320.250   11.589    0.389    0.290  196.998   51.109
  320.500   11.176    0.416    0.290  197.970   49.613
  320.750   10.876    0.424    0.290  196.959   49.004
  321.000   10.302    0.429    0.290  195.451   51.075
  321.250    9.498    0.439    0.296  193.446   52.551
  321.500    7.861    0.451    0.302  192.439   54.622
  321.750    6.991    0.454    0.307  192.417   54.312
  322.000    6.682    0.485    0.304  191.406   59.062
  322.250    6.801    0.505    0.290  190.888   64.702
  322.500    7.112    0.505    0.276  190.874   64.988
  322.750    7.779    0.474    0.256  191.347   63.488
  323.000    7.990    0.463    0.254  191.824   60.500
  323.250    8.060    0.461    0.263  191.807   59.003
  323.500    8.056    0.461    0.276  191.785   58.693
  323.750    8.128    0.456    0.286  191.763   58.980
  324.000    8.576    0.431    0.291  192.735   57.479
  324.250    9.049    0.421    0.292  193.710   55.386
  324.500    8.965    0.414    0.295  194.680   54.184
  324.750    8.803    0.399    0.298  192.679   56.255
  325.000    8.722    0.396    0.294  191.667   59.814
  325.250    8.798    0.403    0.280  191.648   58.312
  325.500    9.283    0.413    0.256  191.628   56.515
  325.750    9.973    0.420    0.253  192.100   55.314
  326.000   10.908    0.414    0.265  192.581   53.812
  326.250   11.407    0.411    0.280  194.049   53.801
  326.500   11.928    0.419    0.290  196.011   55.574
  326.750   12.361    0.443    0.297  196.490   57.945
  327.000   12.469    0.456    0.300  194.978   59.719
  327.250   12.466    0.470    0.300  193.969   59.112
  327.500   12.022    0.436    0.286  194.445   56.422
  327.750   11.490    0.345    0.205  195.911   55.814
  328.000   10.883    0.317    0.212  195.894   55.804
  328.250   10.216    0.331    0.241  195.872   55.197
  328.500   10.031    0.391    0.271  194.860   54.888
  328.750   10.211    0.414    0.282  193.849   54.871
  329.000   11.068    0.401    0.284  193.331   54.565
  329.250   13.366    0.441    0.273  193.331   55.446
  329.500   14.488    0.454    0.260  192.298   56.028
  329.750   15.991    0.377    0.233  191.289   52.447
  330.000   16.423    0.253    0.156  191.274   46.485
  330.250   15.416    0.230    0.172  191.252   42.605
  330.500   14.213    0.225    0.232  191.726   45.569
  330.750   12.987    0.269    0.260  191.213   51.209
  331.000   11.655    0.329    0.279  190.698   53.577
  331.250   10.842    0.365    0.303  190.676   55.052
  331.500   10.270    0.353    0.288  191.150   60.695
  331.750    9.816    0.347    0.264  192.127   67.824
  332.000    9.813    0.341    0.240  192.601   76.441
  332.250    9.988    0.342    0.237  194.069   83.268
  332.500   10.351    0.349    0.243  195.041   85.044
  332.750   10.727    0.367    0.248  195.021   90.689
  333.000   11.017    0.367    0.248  195.996   91.567
  333.250   11.114    0.360    0.239  199.448   89.773
  333.500   11.211    0.362    0.242  198.930   81.728
  333.750   11.410    0.379    0.255  194.946   73.978
  334.000   11.407    0.368    0.267  193.436   61.768
  334.250   11.302    0.380    0.278  193.414   54.615
  334.500   11.197    0.391    0.285  192.403   48.950
  334.750   11.094    0.407    0.296  192.403   48.340
  335.000   11.091    0.390    0.295  191.860   53.684
  335.250   10.891    0.337    0.282  191.851   55.461
  335.500   10.408    0.349    0.249  191.829   66.755
  335.750   10.037    0.363    0.237  191.809   73.885
  336.000    9.422    0.399    0.230  191.792   80.419
  336.250    8.084    0.404    0.218  191.770   86.358
