~VERSION INFORMATION
 VERS.                 2.0:   CWLS LOG ASCII STANDARD -VERSION 2.0
 WRAP.                  NO:   ONE LINE PER DEPTH STEP
~WELL INFORMATION BLOCK
#MNEM.UNIT           DATA                    DESCRIPTION OF MNEMONIC
#---------    -------------------            -------------------------------
# Generated from Intellog Unique Number	CC_80_83/WELL/920
WELL.         PARAMOUNT RES.                 : Well_name    - WELL
LOC .         00/14-20-081-06W4/0            : Location     - LOCATION
UWI .         00/14-20-081-06W4/0            : Uwi          - UNIQUE WELL ID
ENTR.         TIM                            : Entered      - ENTERED BY
SRVC.         SCHLUMBERGER                   : Scn          - SERVICE COMPANY
STRT.M        65                             : top_depth    - START DEPTH
STOP.M        280                            : bot_depth    - STOP DEPTH
STEP.M        0.25                           : increment    - STEP LENGTH
 NULL. -999.2500:NULL Value
~CURVE INFORMATION BLOCK
#MNEM UNIT       ERCB CURVE CODE    CURVE DESCRIPTION
#-----------   ------------------   ----------------------------------
DEPT.M        00 001 00 00         : DEPTH        - DEPTH
GR  .API      00 310 00 00         : GR           - GAMMA RAY
NPHI.V/V      00 330 00 00         : PHIN         - NEUTRON POROSITY (SANDSTONE)
DPHI.V/V      00 890 00 00         : PHID         - DENSITY POROSITY (SANDSTONE)
ILD .OHMM     00 120 00 00         : RESD         - DEEP RESISTIVITY (DIL)
~PARAMETER INFORMATION
#MNEM.UNIT           DATA             DESCRIPTION OF MNEMONIC
#---------         -----------     ------------------------------
GL  .M        500.9                : gl           - GROUND LEVEL ELEVATION
EREF.M        504                  : kb           - ELEVATION OF DEPTH REFERENCE
DATM.M        504                  : datum        - DATUM ELEVATION
TDD .M        278                  : tdd          - TOTAL DEPTH DRILLER
RUN .         ONE                  : Run          - RUN NUMBER
ENG .         BILL                 : Engineer     - RECORDING ENGINEER
WIT .         JIM                  : Witness      - WITNESSED BY
MUD .         GEL                  : Mud_type     - MUD TYPE
MATR.         SANDSTONE            : Logunit      - NEUTRON MATRIX
TMAX.C        18                   : BHT          - MAXIMUM RECORDED TEMPERATURE
BHTD.M        278                  : BHTDEP       - MAXIMUM RECORDED TEMPERATURE
MATR.         1                    : LOGUNIT      - NEUTRON MATRIX
RMT .C        11                   : MDTP         - TEMPERATURE OF MUD
NEUT.         1                    : NEUTRON      - NEUTRON TYPE
RESI.         6                    : RESIST       - RESISTIVITY TYPE
RMC .OHMM     7                    : RMC          - RESISTIVITY OF MUD CAKE
RMF .OHMM     5                    : RMF          - RESISTIVITY OF MUD FILTRATE
SUFT.C        4                    : SUFT         - SURFACE TEMPERATURE
~A  DEPTH       GR     PHIN     PHID     RESD
# ...
  108.500  109.235    0.460    0.243    9.075
  108.750  112.167    0.466    0.236    8.726
  109.000  113.285    0.462    0.227    8.394
  109.250  114.403    0.441    0.211    8.380
  109.500  116.104    0.436    0.204    8.365
  109.750  115.431    0.426    0.232    8.511
  110.000  109.899    0.417    0.242    9.150
  110.250  106.180    0.409    0.254   10.396
  110.500  103.625    0.406    0.256   11.386
  110.750  104.744    0.405    0.251   12.022
  111.000  105.862    0.405    0.245   12.454
  111.250  108.189    0.408    0.243   12.433
  111.500  110.494    0.413    0.236   12.179
  111.750  112.262    0.417    0.234   11.721
  112.000  114.590    0.413    0.233   11.068
  112.250  114.476    0.408    0.243   10.251
  112.500  111.967    0.405    0.246   10.050
  112.750  109.480    0.432    0.256   10.220
  113.000  104.530    0.454    0.267   10.786
  113.250  102.625    0.454    0.277   11.384
  113.500  101.302    0.442    0.284   12.239
  113.750   99.375    0.429    0.292   12.685
  114.000   97.493    0.399    0.294   13.887
  114.250   94.356    0.396    0.293   14.393
  114.500   93.102    0.402    0.290   15.461
  114.750   87.547    0.407    0.285   16.031
  115.000   83.224    0.413    0.278   17.236
  115.250   79.483    0.414    0.259   17.521
  115.500   93.947    0.413    0.252   16.538
  115.750  108.366    0.410    0.232   15.330
  116.000  110.089    0.412    0.226   13.950
  116.250  103.952    0.416    0.219   12.936
  116.500   89.910    0.424    0.223   13.150
  116.750   85.005    0.427    0.248   13.873
  117.000   72.195    0.426    0.273   14.378
  117.250   66.013    0.420    0.280   15.181
  117.500   70.782    0.413    0.322   15.181
  117.750   84.014    0.408    0.331   18.535
  118.000   91.201    0.400    0.334   16.259
  118.250   99.552    0.400    0.332   15.634
  118.500  104.320    0.405    0.326   15.052
  118.750  107.275    0.414    0.319   13.187
  119.000  111.416    0.422    0.308   12.004
  119.250  109.511    0.425    0.297   10.517
  119.500  103.934    0.419    0.282   10.126
  119.750   93.542    0.417    0.258    9.740
  120.000   91.056    0.421    0.260    9.194
  120.250   74.595    0.427    0.285    9.707
  120.500   62.995    0.433    0.296   11.235
  120.750   59.904    0.442    0.315   12.310
  121.000   54.371    0.443    0.346   15.068
  121.250   48.212    0.436    0.352   17.127
  121.500   45.703    0.426    0.342   19.830
  121.750   44.380    0.409    0.337   22.529
  122.000   43.661    0.406    0.343   23.767
  122.250   44.221    0.402    0.349   23.747
  122.500   45.316    0.398    0.353   24.150
  122.750   45.852    0.395    0.353   25.019
  123.000   45.761    0.392    0.352   25.433
  123.250   43.857    0.391    0.349   25.390
  123.500   42.534    0.390    0.357   25.831
  123.750   44.234    0.390    0.376   25.776
  124.000   45.957    0.389    0.383   26.225
  124.250   48.889    0.389    0.384   26.158
  124.500   49.425    0.391    0.375   26.114
  124.750   50.544    0.393    0.363   26.081
  125.000   50.430    0.396    0.354   26.047
  125.250   50.384    0.396    0.355   25.981
  125.500   49.666    0.395    0.356   25.948
  125.750   48.366    0.393    0.359   25.881
  126.000   47.020    0.391    0.360   25.859
  126.250   46.952    0.391    0.358   25.815
  126.500   48.093    0.392    0.354   25.761
  126.750   50.398    0.394    0.351   25.706
  127.000   52.748    0.395    0.349   25.684
  127.250   53.866    0.396    0.348   25.640
  127.500   52.566    0.397    0.348   25.597
  127.750   51.266    0.397    0.346   25.553
  128.000   53.571    0.396    0.339   25.510
  128.250   55.294    0.396    0.334   25.466
  128.500   55.807    0.394    0.324   25.412
  128.750   55.716    0.393    0.324   24.882
  129.000   55.021    0.390    0.330   24.850
  129.250   55.512    0.391    0.334   24.352
  129.500   55.466    0.396    0.338   24.321
  129.750   55.980    0.402    0.342   24.269
  130.000   55.261    0.413    0.343   24.228
  130.250   54.589    0.411    0.343   24.197
  130.500   54.452    0.410    0.343   23.692
  130.750   54.384    0.409    0.344   23.672
  131.000   54.248    0.415    0.343   23.198
  131.250   54.179    0.420    0.342   23.148
  131.500   54.670    0.423    0.341   22.694
  131.750   54.602    0.423    0.340   22.646
  132.000   55.093    0.423    0.337   22.588
  132.250   55.025    0.423    0.335   22.569
  132.500   55.539    0.422    0.331   22.521
  132.750   56.657    0.421    0.327   22.483
  133.000   57.798    0.420    0.327   22.435
  133.250   59.498    0.419    0.327   22.416
  133.500   60.616    0.418    0.328   22.777
  133.750   60.548    0.418    0.327   22.758
  134.000   57.389    0.417    0.324   23.577
  134.250   56.134    0.415    0.300   25.348
  134.500   55.438    0.407    0.285   29.349
  134.750   54.116    0.382    0.218   32.145
  135.000   51.002    0.328    0.200   34.559
  135.250   49.097    0.311    0.137   36.473
  135.500   48.401    0.287    0.098   37.786
  135.750   51.311    0.255    0.068   36.349
  136.000   54.266    0.291    0.221   33.694
  136.250   58.989    0.325    0.271   30.084
  136.500   60.129    0.367    0.300   28.952
  136.750   61.225    0.395    0.310   25.375
  137.000   60.529    0.406    0.316   22.666
  137.250   59.834    0.414    0.318   20.625
  137.500   59.743    0.424    0.317   19.119
  137.750   60.839    0.439    0.319   17.397
  138.000   62.584    0.444    0.324   15.533
  138.250   65.539    0.442    0.327   14.386
  138.500   69.680    0.444    0.329   13.597
  138.750   73.844    0.446    0.323   12.134
  139.000   78.567    0.449    0.317   11.683
  139.250   79.708    0.453    0.309   10.431
  139.500   82.012    0.455    0.293    9.313
  139.750   85.572    0.463    0.278    8.637
  140.000   90.899    0.468    0.268    7.856
  140.250   92.668    0.473    0.261    7.285
  140.500   96.204    0.484    0.252    6.629
  140.750  100.345    0.494    0.250    6.260
  141.000  103.859    0.499    0.254    6.247
  141.250  106.209    0.500    0.265    6.966
  141.500  100.677    0.500    0.286    7.493
  141.750   93.308    0.497    0.293    8.520
  142.000   88.985    0.487    0.313    9.865
  142.250   82.849    0.474    0.319   12.075
  142.500   74.271    0.466    0.327   13.725
  142.750   69.948    0.457    0.331   15.885
  143.000   68.020    0.446    0.336   16.771
  143.250   69.766    0.440    0.336   16.736
  143.500   82.976    0.442    0.331   15.235
  143.750   87.744    0.450    0.318   10.301
  144.000   99.140    0.474    0.296    7.504
  144.250  105.095    0.511    0.278    4.711
  144.500  107.445    0.538    0.266    3.908
  144.750  108.564    0.527    0.259    3.687
  145.000  109.636    0.516    0.257    3.616
  145.250  109.568    0.514    0.257    3.544
  145.500  110.686    0.515    0.257    3.536
  145.750  111.200    0.523    0.258    3.662
  146.000  109.900    0.529    0.257    3.792
  146.250  107.368    0.539    0.256    3.860
  146.500  106.091    0.548    0.256    3.999
  146.750  104.790    0.547    0.263    4.141
  147.000  105.281    0.532    0.272    4.213
  147.250  106.981    0.523    0.280    4.361
  147.500  108.122    0.512    0.278    4.275
  147.750  109.868    0.515    0.276    4.191
  148.000  112.150    0.526    0.270    4.029
  148.250  112.709    0.528    0.262    3.950
  148.500  111.991    0.530    0.255    3.872
  148.750  110.063    0.530    0.249    3.862
  149.000  108.809    0.524    0.240    3.857
  149.250  105.627    0.510    0.230    3.921
  149.500  106.186    0.502    0.226    3.918
  149.750  106.677    0.516    0.228    3.911
  150.000  107.190    0.518    0.237    3.901
  150.250  107.727    0.502    0.239    3.895
  150.500  107.636    0.488    0.246    3.890
  150.750  107.545    0.474    0.253    3.881
  151.000  106.199    0.463    0.251    3.876
  151.250  105.527    0.457    0.246    3.868
  151.500  104.854    0.480    0.240    3.863
  151.750  104.740    0.503    0.233    3.855
