~VERSION INFORMATION
VERS.                2.00:   CWLS LOG ASCII STANDARD -VERSION 2.0
WRAP.                  NO:
~WELL INFORMATION BLOCK
#MNEM.UNIT           DATA                    DESCRIPTION OF MNEMONIC
#---------    -------------------            -------------------------------
# Generated from Intellog Unique Number	CN_91_93/WELL/2737
LOC .         11-07-093-18W4                 : Location     - LOCATION          
UWI .         00/11-07-093-18W400            : Uwi          - UNIQUE WELL ID    
ENTR.         JOETTE                         : Entered      - ENTERED BY        
STRT.M            70.0000:
STOP.M           250.0000:
STEP.M             0.2500:
NULL.           -999.2500:
COMP.     :COMPANY
WELL.  PETRO-CANADA INC. :WELL
FLD.      :FIELD
LOC.      :LOCATION
CTRY.     :COUNTRY
PROV.     :PROVINCE
SRVC.  SCHLUMBERGER  :SERVICE COMPANY
DATE.  03/23/92  :LOG DATE
UWI.      :UNIQUE WELL ID
~Curve Information Block
#MNEM UNIT       ERCB CURVE CODE    CURVE DESCRIPTION
#MNEM.UNIT        API CODE    Curve Description
#---------    ------------    -------------------------------------------
DEPT.M                    :   DEPTH
CALI.MM       00 280 01 00:   CAL          - CALIPER
DPHI.V/V      00 890 00 00:   PHID         - DENSITY POROSITY (SANDSTONE)
GR  .API      00 310 00 00:   GR           - GAMMA RAY
ILD .OHMM     00 120 00 00:   RESD         - DEEP RESISTIVITY (DIL)
NPHI.V/V      00 330 00 00:   PHIN         - NEUTRON POROSITY (SANDSTONE)
~PARAMETER INFORMATION       
#MNEM.UNIT           DATA             DESCRIPTION OF MNEMONIC
#---------         -----------     ------------------------------
GL  .M        512.3                : gl           - GROUND LEVEL ELEVATION      
EREF.M        515.6                : kb           - ELEVATION OF DEPTH REFERENCE
DATM.M        515.6                : datum        - DATUM ELEVATION             
TDD .M        250.8                : tdd          - TOTAL DEPTH DRILLER         
RUN .         ONE                  : Run          - RUN NUMBER                  
ENG .         BILL                 : Engineer     - RECORDING ENGINEER          
WIT .         JIM                  : Witness      - WITNESSED BY                
MUD .         GEL                  : Mud_type     - MUD TYPE                    
MATR.         SANDSTONE            : Logunit      - NEUTRON MATRIX              
TMAX.C        18                   : BHT          - MAXIMUM RECORDED TEMPERATURE
BHTD.M        250.8                : BHTDEP       - MAXIMUM RECORDED TEMPERATURE
RMT .C        15                   : MDTP         - TEMPERATURE OF MUD          
MUDD.KG/M     1150                 : MWT          - MUD DENSITY                 
NEUT.         1                    : NEUTRON      - NEUTRON TYPE                
RESI.         0                    : RESIST       - RESISTIVITY TYPE            
RM  .OHMM     2.66                 : RM           - RESISTIVITY OF MUD          
RMC .OHMM     2.66                 : RMC          - RESISTIVITY OF MUD CAKE     
RMF .OHMM     2.66                 : RMF          - RESISTIVITY OF MUD FILTRATE 
SUFT.C        4                    : SUFT         - SURFACE TEMPERATURE         
~A  Depth           CALI        DPHI          GR         ILD        NPHI
# ...
180.0000        162.8080      0.1950     88.4110      9.7176      0.3700
180.2500        166.7490      0.2160     91.3790      9.0887      0.3800
180.5000        167.6760      0.2240     92.5380      9.1806      0.4000
180.7500        166.5750      0.2340     87.6460      9.6887      0.3900
181.0000        163.4830      0.2430     85.8140     10.2317      0.3730
181.2500        161.3970      0.2350     84.5510      9.7411      0.3600
181.5000        163.3480      0.2330     86.9150      7.8777      0.3590
181.7500        174.3220      0.2390     88.6890      6.0161      0.3670
182.0000        182.2810      0.2480     91.6450      4.1458      0.4030
182.2500        185.1980      0.2640     95.8180      4.4835      0.4610
182.5000        181.1220      0.2230     90.9610      5.9366      0.4880
182.7500        173.9930      0.2080     78.8470      8.0094      0.4980
183.0000        165.8780      0.1370     72.1700     10.5785      0.4810
183.2500        163.7720      0.0440     81.7680     11.6933      0.4760
183.5000        165.7230      0.1150     94.3800     11.9912      0.3570
183.7500        168.6600      0.1490    101.5790     10.4759      0.3670
184.0000        170.5920      0.2070     95.4930      9.6684      0.4330
184.2500        172.5230      0.2240     94.8430      9.3950      0.4260
184.5000        174.4170      0.2170     94.7970      9.2621      0.4350
184.7500        175.3440      0.2140     93.5450      9.1806      0.4520
185.0000        175.3050      0.2170     92.2930      9.5954      0.4450
185.2500        172.2140      0.2020     90.4380     11.5336      0.4510
185.5000        165.1040      0.1380     87.3780     13.2275      0.3950
185.7500        159.9840      0.0410     81.9060     14.8476      0.2640
186.0000        158.9020      0.0580     74.6150     16.8247      0.2770
186.2500        156.7960      0.1440     81.1990     17.8499      0.3360
186.5000        155.7140      0.2050     87.1920     18.3968      0.3570
186.7500        156.6410      0.2240     90.1590     16.0970      0.3680
187.0000        157.5680      0.2170     93.1270     14.8531      0.3610
187.2500        158.4960      0.1980     95.4800     14.3805      0.3630
187.5000        158.4180      0.1840     96.0360     14.2177      0.3810
187.7500        158.3410      0.1900     96.0010     14.0822      0.3950
188.0000        156.2730      0.1960     97.1610     14.4607      0.3710
188.2500        157.1620      0.1870     98.8990     14.7284      0.3520
188.5000        160.1180      0.1600     97.6590     14.8666      0.3340
188.7500        163.0350      0.1590     97.6120     14.8705      0.3370
189.0000        161.9920      0.1620     95.1550     14.8689      0.3530
189.2500        158.9000      0.1520     91.4920     14.8670      0.3590
189.5000        156.7940      0.1550     94.4590     14.8650      0.3590
189.7500        156.6780      0.1780     96.8010     15.2416      0.3640
190.0000        156.6390      0.1980     96.7660     15.6610      0.3700
190.2500        156.5430      0.2080     94.3080     16.7383      0.3670
190.5000        156.4650      0.2060     87.0400     17.7177      0.3520
190.7500        155.4020      0.2110     89.9960     18.8376      0.3610
191.0000        155.3250      0.2080     86.9470     20.0693      0.3580
191.2500        155.2480      0.2110     81.4640     20.8748      0.3400
191.5000        155.2480      0.2150     81.4180     22.1452      0.3110
191.7500        159.0920      0.2340     80.1540     22.0013      0.2980
192.0000        157.0050      0.2550     79.5050     20.8512      0.3310
192.2500        156.9090      0.2360     82.4840     19.8903      0.3530
192.5000        156.8700      0.2250     84.2460     19.8384      0.3590
192.7500        157.7580      0.2190     74.5550     22.1256      0.3680
193.0000        158.7240      0.2100     69.6860     24.3191      0.3590
193.2500        159.6320      0.1790     63.5890     26.1567      0.3450
193.5000        160.5790      0.1240     61.1420     30.5669      0.2940
193.7500        161.5060      0.0530     57.4680     37.1956      0.2520
194.0000        163.4190      0.0420     55.0100     41.9002      0.2060
194.2500        162.3360      0.0520     52.5530     42.9751      0.2660
194.5000        161.2540      0.0260     54.3260     38.4710      0.2860
194.7500        161.1960     -0.0010     58.4990     30.7214      0.2630
195.0000        162.1240      0.0800     69.9060     24.3132      0.1760
195.2500        164.0360      0.1170     78.2870     18.7099      0.2710
195.5000        166.9920      0.2260     77.0460     16.0851      0.3120
195.7500        169.9280      0.2380     75.7940     14.3277      0.3630
196.0000        171.8600      0.2410     75.1450     13.0257      0.3530
196.2500        168.7300      0.1720     82.3320     11.9621      0.3490
196.5000        164.6540      0.1380     87.0960     11.1854      0.3780
196.7500        158.5100      0.0720     85.2530      9.9528      0.4090
197.0000        156.4620      0.0900     86.4120      9.8116      0.4100
197.2500        158.3740      0.1550     92.9960     10.3555      0.4090
197.5000        164.3250      0.1690     97.1570     10.8410      0.4130
197.7500        168.2460      0.1640     94.7120     10.8674      0.4240
198.0000        169.2120      0.1750     91.6510     10.8678      0.4180
198.2500        172.1490      0.1940     91.6050     10.8665      0.4250
198.5000        174.0810      0.1810     98.7920     10.8651      0.4380
198.7500        173.9650      0.1270     92.7170     10.9657      0.4500
199.0000        172.9210      0.0730     86.0400     11.1677      0.4530
199.2500        171.8200      0.0650     82.3770     11.1699      0.4350
199.5000        169.7330      0.0600     84.7420     11.1685      0.4100
199.7500        164.6130      0.0610     87.7090     11.0685      0.4010
200.0000        163.5510      0.1030     92.4850     10.8690      0.3990
200.2500        162.4100      0.1560     97.2610     10.4820      0.4060
200.5000        161.3480      0.1690    102.6400     10.0980      0.4080
200.7500        160.2850      0.1760    102.5930      9.8128      0.4100
201.0000        161.2320      0.1810    101.3410      9.7078      0.4190
201.2500        164.1490      0.1800     94.6640      9.5342      0.4320
201.5000        165.0950      0.1790     91.5920      9.6791      0.4290
201.7500        165.9840      0.1790     90.9430      9.7855      0.3950
202.0000        165.9450      0.1800     95.7190      9.9655      0.3930
202.2500        163.8390      0.1850    100.4830     10.1491      0.4140
202.5000        160.7480      0.1920     99.2190     10.6114      0.4240
202.7500        160.6700      0.1940     98.5930     11.1998      0.4040
203.0000        164.6110      0.1890    100.3440     12.0237      0.3830
203.2500        167.5480      0.1770     97.8860     12.7198      0.3690
203.5000        169.4800      0.1540     99.6480     13.0534      0.3470
203.7500        168.4170      0.1450    105.0380     12.4895      0.3360
204.0000        169.3250      0.1580    104.9800     11.8114      0.3610
204.2500        170.2720      0.1680    105.5360     11.2672      0.3990
204.5000        170.1940      0.1700    107.2980     10.6544      0.4180
204.7500        170.0970      0.1730    108.4570      9.6180      0.4070
205.0000        171.0250      0.1740    108.3990      8.7481      0.4080
205.2500        171.9710      0.1770    108.3760      8.1101      0.4130
205.5000        173.8450      0.1770    105.9180      7.4507      0.4190
205.7500        173.8060      0.1790    105.8720      7.0268      0.4260
206.0000        173.6900      0.1650    107.6340      6.7818      0.4200
206.2500        173.6520      0.1410    103.9710      6.8404      0.4150
206.5000        173.5740      0.1230    108.1440      7.0622      0.4150
206.7500        171.4680      0.1320    108.7000      7.4147      0.4170
207.0000        170.3860      0.1450     95.3810      9.2044      0.4270
207.2500        166.2900      0.1660     65.1840     10.6228      0.4080
