~VERSION INFORMATION
 VERS.                 2.0:   CWLS LOG ASCII STANDARD -VERSION 2.0
 WRAP.                  NO:   ONE LINE PER DEPTH STEP
~WELL INFORMATION BLOCK
#MNEM.UNIT           DATA                    DESCRIPTION OF MNEMONIC
#---------    -------------------            -------------------------------
# Generated from Intellog Unique Number	CS_77_79/WELL/1012
WELL.         ICGR CHARD                     : Well_name    - WELL
LOC .         00/11-36-078-06W4/0            : Location     - LOCATION
UWI .         00/11-36-078-06W4/0            : Uwi          - UNIQUE WELL ID
ENTR.         JHS                            : Entered      - ENTERED BY
SRVC.         SCHLUMBERGER                   : Scn          - SERVICE COMPANY
STRT.M        100                            : top_depth    - START DEPTH
STOP.M        375                            : bot_depth    - STOP DEPTH
STEP.M        0.25                           : increment    - STEP LENGTH
 NULL. -999.2500:NULL Value
~CURVE INFORMATION BLOCK
#MNEM UNIT       ERCB CURVE CODE    CURVE DESCRIPTION
#-----------   ------------------   ----------------------------------
DEPT.M        00 001 00 00         : DEPTH        - DEPTH
DPHI.V/V      00 890 00 00         : PHID         - DENSITY POROSITY (LIMESTONE)
NPHI.V/V      00 330 00 00         : PHIN         - NEUTRON POROSITY (LIMESTONE)
GR  .API      00 310 00 00         : GR           - GAMMA RAY
ILD .OHMM     00 120 00 00         : RESD         - DEEP RESISTIVITY (DIL)
~PARAMETER INFORMATION
#MNEM.UNIT           DATA             DESCRIPTION OF MNEMONIC
#---------         -----------     ------------------------------
GL  .M        533.73               : gl           - GROUND LEVEL ELEVATION
EREF.M        537.26               : kb           - ELEVATION OF DEPTH REFERENCE
DATM.M        537.26               : datum        - DATUM ELEVATION
TDD .M        381                  : tdd          - TOTAL DEPTH DRILLER
RUN .         ONE                  : Run          - RUN NUMBER
ENG .         BILL                 : Engineer     - RECORDING ENGINEER
WIT .         JIM                  : Witness      - WITNESSED BY
MUD .         GEL                  : Mud_type     - MUD TYPE
MATR.         LIMESTONE            : Logunit      - NEUTRON MATRIX
TMAX.C        20                   : BHT          - MAXIMUM RECORDED TEMPERATURE
BHTD.M        381                  : BHTDEP       - MAXIMUM RECORDED TEMPERATURE
MATR.         1                    : LOGUNIT      - NEUTRON MATRIX
RMT .C        25                   : MDTP         - TEMPERATURE OF MUD
NEUT.         1                    : NEUTRON      - NEUTRON TYPE
RESI.         0                    : RESIST       - RESISTIVITY TYPE
RMC .OHMM     0.25                 : RMC          - RESISTIVITY OF MUD CAKE
RMF .OHMM     0.25                 : RMF          - RESISTIVITY OF MUD FILTRATE
SUFT.C        15                   : SUFT         - SURFACE TEMPERATURE
~A  DEPTH     PHID     PHIN       GR     RESD
# ...
  143.500    0.343    0.442   72.857   21.422
  143.750    0.404    0.443   79.592   17.744
  144.000    0.439    0.449   87.551   12.392
  144.250    0.314    0.485   94.898    8.990
  144.500    0.202    0.432   95.510    7.171
  144.750    0.138    0.409   97.347    6.174
  145.000    0.111    0.437  101.020    5.842
  145.250    0.152    0.457  105.306    5.740
  145.500    0.225    0.453  108.367    5.535
  145.750    0.202    0.439  110.816    5.237
  146.000    0.224    0.454  110.204    4.863
  146.250    0.235    0.460  110.204    4.601
  146.500    0.228    0.452  112.041    4.522
  146.750    0.251    0.451  115.102    4.703
  147.000    0.294    0.462  113.265    5.083
  147.250    0.325    0.473  104.694    5.704
  147.500    0.267    0.476  104.082    6.165
  147.750    0.230    0.474  109.592    6.539
  148.000    0.240    0.467  108.980    6.544
  148.250    0.250    0.465  104.694    6.431
  148.500    0.246    0.500  101.020    6.205
  148.750    0.248    0.480   99.184    6.094
  149.000    0.230    0.470   96.735    6.108
  149.250    0.203    0.478   97.347    6.114
  149.500    0.195    0.491   96.735    6.362
  149.750    0.241    0.455   93.674    7.278
  150.000    0.267    0.444   89.388    8.011
  150.250    0.294    0.449   72.245    9.340
  150.500    0.304    0.431   59.388   10.488
  150.750    0.282    0.405   74.694   10.701
  151.000    0.276    0.405   83.877   10.515
  151.250    0.289    0.426   86.326   10.141
  151.500    0.305    0.422   79.592    9.597
  151.750    0.306    0.407   72.857    9.260
  152.000    0.295    0.412   75.918    9.268
  152.250    0.277    0.430   79.592    9.641
  152.500    0.264    0.432   76.531   10.415
  152.750    0.298    0.430   68.571   11.690
  153.000    0.345    0.418   61.224   12.405
  153.250    0.316    0.414   55.102   12.420
  153.500    0.279    0.430   65.510   12.432
  153.750    0.283    0.432   70.408   13.436
  154.000    0.327    0.448   57.551   14.802
  154.250    0.348    0.430   46.531   15.399
  154.500    0.348    0.415   42.245   15.713
  154.750    0.312    0.409   63.061   15.148
  155.000    0.293    0.423   72.245   13.801
  155.250    0.308    0.436   67.347   12.578
  155.500    0.288    0.449   62.449   11.458
  155.750    0.279    0.457   68.571   11.047
  156.000    0.287    0.425   77.143   11.273
  156.250    0.290    0.407   85.714   12.659
  156.500    0.296    0.422   80.816   13.412
  156.750    0.316    0.458   64.286   16.243
  157.000    0.340    0.480   49.592   18.579
  157.250    0.340    0.423   42.857   21.660
  157.500    0.332    0.400   38.571   24.771
  157.750    0.344    0.390   41.633   26.269
  158.000    0.348    0.395   48.367   24.390
  158.250    0.346    0.428   52.653   20.206
  158.500    0.315    0.426   58.776   16.421
  158.750    0.293    0.410   62.449   13.611
  159.000    0.320    0.438   63.061   14.157
  159.250    0.347    0.428   50.204   16.503
  159.500    0.357    0.393   41.633   20.362
  159.750    0.340    0.368   44.082   25.130
  160.000    0.356    0.360   42.857   28.204
  160.250    0.370    0.384   37.959   29.909
  160.500    0.364    0.390   43.469   27.243
  160.750    0.320    0.406   56.939   21.317
  161.000    0.290    0.421   66.123   17.665
  161.250    0.295    0.438   64.286   17.029
  161.500    0.344    0.445   53.265   18.064
  161.750    0.364    0.409   41.020   19.516
  162.000    0.379    0.389   34.898   21.082
  162.250    0.385    0.380   38.571   22.349
  162.500    0.362    0.412   55.102   22.391
  162.750    0.349    0.453   56.939   21.595
  163.000    0.353    0.422   47.143   22.042
  163.250    0.379    0.393   41.633   21.658
  163.500    0.362    0.370   43.469   20.884
  163.750    0.335    0.370   48.980   19.026
  164.000    0.311    0.422   58.163   15.177
  164.250    0.311    0.410   63.061   13.568
  164.500    0.312    0.412   67.347   13.585
  164.750    0.342    0.489   62.449   14.687
  165.000    0.358    0.487   48.367   15.271
  165.250    0.349    0.436   40.408   14.736
  165.500    0.357    0.428   43.469   14.204
  165.750    0.353    0.428   58.776   12.697
  166.000    0.250    0.452   82.041   11.786
  166.250    0.219    0.468   95.510   10.145
  166.500    0.211    0.479   97.959    9.415
  166.750    0.242    0.500  105.918    8.576
  167.000    0.218    0.510  103.469    7.965
  167.250    0.200    0.491   99.796    7.827
  167.500    0.214    0.468  101.020    8.141
  167.750    0.250    0.458   99.796    9.313
  168.000    0.263    0.439   97.347   11.065
  168.250    0.270    0.422   94.898   11.960
  168.500    0.272    0.399   92.449   12.210
  168.750    0.275    0.395   92.449   11.989
  169.000    0.269    0.396  102.857   11.351
  169.250    0.240    0.402  109.592   10.738
  169.500    0.232    0.433  112.041    9.971
  169.750    0.242    0.454  113.265    9.611
  170.000    0.252    0.459  116.327    9.093
  170.250    0.251    0.443  116.327    8.607
  170.500    0.241    0.454  113.265    8.465
  170.750    0.240    0.474  108.980    8.469
  171.000    0.248    0.463  102.245    9.508
  171.250    0.270    0.484   93.674   10.674
  171.500    0.289    0.498   86.326   11.981
  171.750    0.304    0.469   83.265   12.455
  172.000    0.314    0.453   84.490   13.209
  172.250    0.288    0.440   91.837   13.741
  172.500    0.279    0.434   96.735   14.030
  172.750    0.282    0.437   97.347   14.321
  173.000    0.291    0.436   88.775   14.341
  173.250    0.284    0.433   88.775   13.829
  173.500    0.246    0.438   95.510   13.343
  173.750    0.190    0.468   97.959   13.614
  174.000    0.190    0.468   94.286   14.711
  174.250    0.248    0.433   83.877   16.202
  174.500    0.327    0.418   72.245   16.846
  174.750    0.337    0.411   61.224   18.212
  175.000    0.342    0.423   56.327   18.952
  175.250    0.352    0.454   58.776   19.334
  175.500    0.351    0.448   58.776   19.371
  175.750    0.339    0.432   56.327   19.024
  176.000    0.334    0.415   55.714   18.009
  176.250    0.325    0.401   60.000   16.724
  176.500    0.309    0.421   66.123   15.814
  176.750    0.285    0.427   72.245   13.874
  177.000    0.242    0.405   78.367   12.399
  177.250    0.217    0.396   84.490   10.873
  177.500    0.198    0.442   82.653    9.721
  177.750    0.169    0.455   75.306    8.854
  178.000    0.156    0.432   76.531    7.617
  178.250    0.178    0.422   86.326    6.682
  178.500    0.232    0.454   95.510    6.087
  178.750    0.269    0.492   94.286    6.095
  179.000    0.272    0.472   91.225    7.813
  179.250    0.270    0.466   87.551   10.604
  179.500    0.305    0.472   85.714   12.358
  179.750    0.344    0.458   80.204   14.969
  180.000    0.355    0.455   78.367   16.481
  180.250    0.363    0.437   80.816   17.482
  180.500    0.330    0.421   86.939   16.851
  180.750    0.288    0.428   90.612   14.502
  181.000    0.267    0.439   93.061   12.476
  181.250    0.258    0.448   93.061   10.941
  181.500    0.262    0.475   82.041   11.171
  181.750    0.281    0.437   66.123   13.024
  182.000    0.290    0.410   66.123   15.471
  182.250    0.309    0.408   62.449   17.032
  182.500    0.337    0.415   54.490   19.119
  182.750    0.353    0.429   50.204   20.274
  183.000    0.360    0.423   53.265   21.092
  183.250    0.364    0.412   52.041   21.130
  183.500    0.365    0.418   49.592   21.152
  183.750    0.366    0.433   47.143   20.795
  184.000    0.370    0.419   52.653   20.059
  184.250    0.369    0.429   58.163   19.715
  184.500    0.359    0.444   61.837   19.005
  184.750    0.358    0.435   62.449   18.667
  185.000    0.364    0.433   61.224   18.357
  185.250    0.365    0.443   58.776   18.047
  185.500    0.363    0.443   58.776   18.067
  185.750    0.363    0.432   58.163   18.433
  186.000    0.362    0.438   56.327   19.183
  186.250    0.363    0.440   56.327   19.961
  186.500    0.368    0.431   55.714   20.775
  186.750    0.371    0.434   52.653   21.198
