~VERSION INFORMATION
 VERS.                 2.0:   CWLS LOG ASCII STANDARD -VERSION 2.0
 WRAP.                  NO:   ONE LINE PER DEPTH STEP
~WELL INFORMATION BLOCK
#MNEM.UNIT           DATA                    DESCRIPTION OF MNEMONIC
#---------    -------------------            -------------------------------
# Generated from Intellog Unique Number	CX_WELLS/WELL/2793
WELL.         TRITON ATCOR HANGST            : Well_name    - WELL
LOC .         00/11-13-081-11W4/0            : Location     - LOCATION
UWI .         00/11-13-081-11W400            : Uwi          - UNIQUE WELL ID
ENTR.         T                              : Entered      - ENTERED BY
SRVC.         SCHLUMBERGER                   : Scn          - SERVICE COMPANY
STRT.M        260                            : top_depth    - START DEPTH
STOP.M        480                            : bot_depth    - STOP DEPTH
STEP.M        0.25                           : increment    - STEP LENGTH
 NULL. -999.2500:NULL Value
~CURVE INFORMATION BLOCK
#MNEM UNIT       ERCB CURVE CODE    CURVE DESCRIPTION
#-----------   ------------------   ----------------------------------
DEPT.M        00 001 00 00         : DEPTH        - DEPTH
GR  .API      00 310 00 00         : GR           - GAMMA RAY
NPHI.V/V      00 330 00 00         : PHIN         - NEUTRON POROSITY (SANDSTONE)
DPHI.V/V      00 890 00 00         : PHID         - DENSITY POROSITY (SANDSTONE)
ILD .OHMM     00 120 00 00         : RESD         - DEEP RESISTIVITY (OTHER)
~PARAMETER INFORMATION
#MNEM.UNIT           DATA             DESCRIPTION OF MNEMONIC
#---------         -----------     ------------------------------
GL  .M        696                  : gl           - GROUND LEVEL ELEVATION
EREF.M        698                  : kb           - ELEVATION OF DEPTH REFERENCE
DATM.M        698                  : datum        - DATUM ELEVATION
TDD .M        488                  : tdd          - TOTAL DEPTH DRILLER
RUN .         ONE                  : Run          - RUN NUMBER
ENG .         BILL                 : Engineer     - RECORDING ENGINEER
WIT .         JIM                  : Witness      - WITNESSED BY
MUD .         GEL                  : Mud_type     - MUD TYPE
MATR.         SANDSTONE            : Logunit      - NEUTRON MATRIX
TMAX.C        22                   : BHT          - MAXIMUM RECORDED TEMPERATURE
BHTD.M        488                  : BHTDEP       - MAXIMUM RECORDED TEMPERATURE
MATR.         1                    : LOGUNIT      - NEUTRON MATRIX
RMT .C        18                   : MDTP         - TEMPERATURE OF MUD
NEUT.         1                    : NEUTRON      - NEUTRON TYPE
RESI.         9.7                  : RESIST       - RESISTIVITY TYPE
RMC .OHMM     0.25                 : RMC          - RESISTIVITY OF MUD CAKE
RMF .OHMM     7                    : RMF          - RESISTIVITY OF MUD FILTRATE
SUFT.C        4                    : SUFT         - SURFACE TEMPERATURE
~A  DEPTH       GR     PHIN     PHID     RESD
  260.000  107.692    0.515    0.286    4.274
  260.250  107.179    0.500    0.287    4.282
  260.500  106.665    0.502    0.293    4.452
  260.750  106.124    0.507    0.293    4.540
  261.000  105.029    0.512    0.292    4.629
  261.250  103.893    0.505    0.295    4.554
  261.500  102.216    0.484    0.296    4.171
  261.750  101.093    0.480    0.284    3.954
  262.000   99.416    0.487    0.252    3.490
  262.250   96.548    0.497    0.255    3.310
  262.500   92.530    0.500    0.255    3.906
  262.750   85.022    0.472    0.258    5.136
  263.000   76.932    0.470    0.290    5.740
  263.250   67.678    0.455    0.309    6.771
  263.500   62.511    0.449    0.342   10.675
  263.750   68.383    0.446    0.355   12.597
  264.000   71.332    0.439    0.355   14.604
  264.250   71.969    0.430    0.352   14.885
  264.500   72.023    0.427    0.347   15.192
  264.750   76.745    0.424    0.322   15.213
  265.000   79.127    0.423    0.313   14.447
  265.250   79.195    0.423    0.309   13.701
  265.500   79.249    0.421    0.306   12.777
  265.750   78.736    0.420    0.308   12.559
  266.000   78.763    0.419    0.316   12.356
  266.250   79.995    0.417    0.316   11.938
  266.500   83.553    0.415    0.288   11.965
  266.750   85.921    0.421    0.276   11.347
  267.000   87.735    0.450    0.295    9.482
  267.250   89.534    0.474    0.339    6.259
  267.500   94.825    0.470    0.387    5.724
  267.750  102.442    0.483    0.383    4.960
  268.000  120.544    0.510    0.364    7.152
  268.250  126.998    0.458    0.343    8.128
  268.500  141.610    0.481    0.443    9.771
  268.750  146.900    0.503    0.501    8.614
  269.000  133.575    0.558    0.426    5.102
  269.250  121.412    0.531    0.370    4.110
  269.500  110.982    0.480    0.327    4.270
  269.750   98.265    0.412    0.310    6.151
  270.000   87.239    0.414    0.311    7.124
  270.250   85.534    0.405    0.306    8.252
  270.500   79.190    0.393    0.302   12.559
  270.750   70.518    0.385    0.301   13.279
  271.000   63.010    0.382    0.304   14.305
  271.250   58.992    0.402    0.318   14.861
  271.500   62.537    0.408    0.324   14.634
  271.750   65.500    0.416    0.292   14.132
  272.000   67.882    0.424    0.276   13.408
  272.250   72.036    0.429    0.280   12.498
  272.500   73.240    0.439    0.309   12.296
  272.750   73.876    0.441    0.338   12.319
  273.000   69.859    0.435    0.362   12.567
  273.250   62.350    0.431    0.370   12.815
  273.500   59.496    0.427    0.367   13.811
  273.750   62.459    0.415    0.359   14.341
  274.000   63.677    0.414    0.354   15.463
  274.250   63.164    0.417    0.348   16.056
  274.500   64.963    0.422    0.342   16.680
  274.750   67.927    0.424    0.334   16.418
  275.000   73.799    0.424    0.326   15.584
  275.250   79.089    0.424    0.320   15.042
  275.500   84.407    0.430    0.318   14.278
  275.750   86.788    0.439    0.315   14.041
  276.000   87.424    0.437    0.311   13.572
  276.250   87.493    0.437    0.306   12.883
  276.500   89.279    0.436    0.301   12.663
  276.750   92.242    0.437    0.302   12.464
  277.000   90.565    0.443    0.326   11.623
  277.250   88.861    0.463    0.330   11.425
  277.500   85.424    0.471    0.341   11.240
  277.750   81.988    0.471    0.371   12.335
  278.000   77.389    0.458    0.374   13.288
  278.250   73.358    0.446    0.371   14.576
  278.500   72.858    0.440    0.364   15.702
  278.750   72.898    0.436    0.353   16.618
  279.000   72.953    0.436    0.346   16.946
  279.250   71.858    0.436    0.342   17.311
  279.500   70.749    0.436    0.338   17.327
  279.750   71.385    0.436    0.330   17.351
  280.000   73.766    0.436    0.330   18.042
  280.250   74.984    0.440    0.336   18.406
  280.500   75.052    0.438    0.338   18.431
  280.750   75.675    0.435    0.339   17.189
  281.000   76.907    0.440    0.335   17.204
  281.250   77.529    0.446    0.332   16.630
  281.500   78.761    0.449    0.331   16.675
  281.750   79.965    0.451    0.329   16.691
  282.000   82.374    0.448    0.320   16.729
  282.250   83.579    0.439    0.326   16.744
  282.500   86.542    0.421    0.329   16.783
  282.750   90.100    0.421    0.331   16.512
  283.000   90.723    0.421    0.330   16.542
  283.250   93.105    0.422    0.323   16.289
  283.500   94.336    0.430    0.310   16.312
  283.750   96.136    0.441    0.301   16.041
  284.000   98.531    0.448    0.299   15.789
  284.250   99.736    0.458    0.290   15.526
  284.500  102.699    0.460    0.284   15.289
  284.750  103.362    0.430    0.281   15.028
  285.000   98.154    0.420    0.282   14.258
  285.250   91.823    0.409    0.282   12.829
  285.500   93.623    0.411    0.279   12.383
  285.750  100.090    0.418    0.249   11.336
  286.000  103.621    0.427    0.176   10.750
  286.250  107.762    0.451    0.140    9.668
  286.500  110.725    0.459    0.170    9.169
  286.750  113.106    0.472    0.171    8.539
  287.000  115.502    0.446    0.181    7.676
  287.250  117.315    0.448    0.198    7.023
  287.500  118.506    0.458    0.215    6.544
  287.750  119.724    0.469    0.230    5.987
  288.000  122.728    0.486    0.231    5.581
  288.250  123.337    0.518    0.231    5.290
  288.500  122.810    0.529    0.236    4.841
  288.750  121.701    0.545    0.243    4.351
  289.000  122.337    0.548    0.250    4.052
  289.250  122.973    0.496    0.261    3.708
  289.500  121.891    0.475    0.267    3.394
  289.750  119.592    0.464    0.273    3.524
  290.000  116.737    0.453    0.288    5.168
  290.250  110.974    0.444    0.311    8.453
  290.500  106.957    0.442    0.321   11.325
  290.750  100.612    0.433    0.320   12.656
  291.000   96.594    0.427    0.307   13.389
  291.250   94.917    0.417    0.298   13.665
  291.500   94.972    0.420    0.298   14.189
  291.750   96.203    0.429    0.301   14.754
  292.000   96.826    0.439    0.307   14.768
  292.250   97.462    0.425    0.309   14.808
  292.500   95.799    0.425    0.305   14.822
  292.750   96.408    0.430    0.297   14.849
  293.000  101.698    0.435    0.272   13.593
  293.250  108.152    0.444    0.258   12.665
  293.500  112.874    0.450    0.229   11.583
  293.750  116.419    0.459    0.209   10.037
  294.000  119.396    0.461    0.182    8.088
  294.250  122.359    0.452    0.204    6.286
  294.500  121.236    0.435    0.226    6.895
  294.750  112.565    0.431    0.271    8.282
  295.000  106.802    0.430    0.273    9.420
  295.250  104.529    0.429    0.279   11.116
  295.500  102.838    0.427    0.284   11.975
  295.750   99.430    0.426    0.297   12.440
  296.000   97.130    0.422    0.320   12.935
  296.250   90.203    0.417    0.327   12.947
  296.500   87.363    0.410    0.293   13.226
  296.750   91.476    0.394    0.281   13.481
  297.000   97.943    0.383    0.276   13.759
  297.250  103.815    0.390    0.276   14.300
  297.500  110.864    0.397    0.281   14.313
  297.750   95.198    0.408    0.285   14.883
  298.000   82.440    0.411    0.291   15.176
  298.250   73.782    0.402    0.292   15.211
  298.500   76.745    0.397    0.290   14.696
  298.750   82.618    0.394    0.287   14.696
  299.000   90.248    0.388    0.284   13.724
  299.250   99.611    0.394    0.277   14.245
  299.500  102.588    0.403    0.271   13.045
  299.750  103.806    0.411    0.264   12.592
  300.000  103.847    0.405    0.255   11.111
  300.250  104.483    0.404    0.242    9.988
  300.500  105.119    0.412    0.233   10.007
  300.750  105.783    0.422    0.226    9.849
  301.000  106.405    0.425    0.218    9.681
  301.250  108.205    0.419    0.213    8.866
  301.500  108.841    0.427    0.205    8.404
  301.750  109.505    0.450    0.203    7.551
  302.000  110.128    0.462    0.232    6.310
  302.250  110.750    0.467    0.259    6.441
  302.500  109.073    0.435    0.282    6.810
  302.750  106.205    0.409    0.275    8.040
  303.000  102.769    0.404    0.267    8.815
  303.250   98.183    0.408    0.265    9.851
