~VERSION INFORMATION
 VERS.                 2.0:   CWLS LOG ASCII STANDARD -VERSION 2.0
 WRAP.                  NO:   ONE LINE PER DEPTH STEP
~WELL INFORMATION BLOCK
#MNEM.UNIT           DATA                    DESCRIPTION OF MNEMONIC
#---------    -------------------            -------------------------------
# Generated from Intellog Unique Number	CW_76_78/WELL/2580
WELL.         10-33-078-21W4                 : Well_name    - WELL
LOC .         00/10-33-078-21W4/0            : Location     - LOCATION
UWI .         00/10-33-078-21W4/0            : Uwi          - UNIQUE WELL ID
ENTR.         MAX                            : Entered      - ENTERED BY
SRVC.         SCHLUMBERGER                   : Scn          - SERVICE COMPANY
STRT.M        220                            : top_depth    - START DEPTH
STOP.M        435                            : bot_depth    - STOP DEPTH
STEP.M        0.25                           : increment    - STEP LENGTH
 NULL. -999.2500:NULL Value
~CURVE INFORMATION BLOCK
#MNEM UNIT       ERCB CURVE CODE    CURVE DESCRIPTION
#-----------   ------------------   ----------------------------------
DEPT.M        00 001 00 00         : DEPTH        - DEPTH
ILD .OHMM     00 120 00 00         : RESD         - DEEP RESISTIVITY (DIL)
NPHI.V/V      00 330 00 00         : PHIN         - NEUTRON POROSITY (SANDSTONE)
DPHI.V/V      00 890 00 00         : PHID         - DENSITY POROSITY (SANDSTONE)
CALI.MM       00 280 01 00         : CAL          - CALIPER
GR  .API      00 310 00 00         : GR           - GAMMA RAY
~PARAMETER INFORMATION
#MNEM.UNIT           DATA             DESCRIPTION OF MNEMONIC
#---------         -----------     ------------------------------
GL  .M        566.16               : gl           - GROUND LEVEL ELEVATION
EREF.M        570.12               : kb           - ELEVATION OF DEPTH REFERENCE
DATM.M        566.16               : datum        - DATUM ELEVATION
TDD .M        435.5                : tdd          - TOTAL DEPTH DRILLER
RUN .         ONE                  : Run          - RUN NUMBER
ENG .         BILL                 : Engineer     - RECORDING ENGINEER
WIT .         JIM                  : Witness      - WITNESSED BY
MUD .         GEL                  : Mud_type     - MUD TYPE
MATR.         SANDSTONE            : Logunit      - NEUTRON MATRIX
TMAX.C        22                   : BHT          - MAXIMUM RECORDED TEMPERATURE
BHTD.M        435.5                : BHTDEP       - MAXIMUM RECORDED TEMPERATURE
RMT .C        13                   : MDTP         - TEMPERATURE OF MUD
MUDD.KG/M     1128                 : MWT          - MUD DENSITY
NEUT.         1                    : NEUTRON      - NEUTRON TYPE
RESI.         0                    : RESIST       - RESISTIVITY TYPE
RM  .OHMM     3.18                 : RM           - RESISTIVITY OF MUD
RMC .OHMM     0                    : RMC          - RESISTIVITY OF MUD CAKE
RMF .OHMM     1.6                  : RMF          - RESISTIVITY OF MUD FILTRATE
SUFT.C        -20                  : SUFT         - SURFACE TEMPERATURE
~A  DEPTH     RESD     PHIN     PHID      CAL       GR
# ...
  329.500   10.373    0.458    0.263  161.088  100.723
  329.750   10.290    0.443    0.238  160.149  101.353
  330.000    9.929    0.465    0.225  163.682   99.308
  330.250    9.493    0.472    0.186  170.663  101.122
  330.500    9.076    0.478    0.210  168.746  104.716
  330.750    8.522    0.482    0.208  168.297  105.940
  331.000    8.223    0.493    0.211  168.349  105.678
  331.250    8.157    0.507    0.205  169.385  105.115
  331.500    8.318    0.502    0.209  168.949  105.444
  331.750    8.641    0.488    0.212  164.054  105.768
  332.000    9.057    0.471    0.209  161.616  105.502
  332.250    9.409    0.470    0.200  159.700  105.537
  332.500    9.595    0.473    0.190  159.745  105.866
  332.750    9.693    0.469    0.202  159.804  105.604
  333.000    9.888    0.461    0.210  159.850  103.254
  333.250    9.989    0.463    0.221  159.902  101.803
  333.500   10.093    0.467    0.213  160.469  101.232
  333.750   10.297    0.468    0.204  160.508  100.681
  334.000   10.498    0.473    0.210  161.062  100.704
  334.250   10.510    0.471    0.220  161.115  102.519
  334.500   10.524    0.467    0.209  161.662  104.928
  334.750   10.436    0.473    0.198  162.203   99.906
  335.000   10.261    0.475    0.209  162.764   99.343
  335.250   10.084    0.474    0.223  163.298  103.539
  335.500    9.913    0.478    0.206  163.859  105.061
  335.750    9.833    0.479    0.193  164.393  104.196
  336.000    9.936    0.475    0.184  165.436  101.553
  336.250   10.131    0.475    0.181  165.495  100.102
  336.500   10.428    0.471    0.178  165.547   99.238
  336.750   10.536    0.466    0.170  165.104   97.490
  337.000   10.745    0.442    0.160  164.667   92.465
  337.250   10.959    0.424    0.151  163.735   90.415
  337.500   10.970    0.412    0.148  162.784   91.338
  337.750   10.983    0.435    0.207  162.347   96.125
  338.000   10.895    0.452    0.208  162.895  104.787
  338.250   10.515    0.481    0.226  164.426  103.031
  338.500   10.056    0.474    0.223  166.460  102.765
  338.750    9.702    0.475    0.205  164.042  102.793
  339.000    9.361    0.477    0.200  164.100  102.234
  339.250    8.710    0.488    0.188  167.620  101.968
  339.500    8.252    0.498    0.228  170.644  102.593
  339.750    7.534    0.512    0.207  167.725  102.918
  340.000    6.943    0.538    0.180  166.291  104.439
  340.250    6.224    0.536    0.167  166.343  107.740
  340.500    6.006    0.533    0.215  167.379  113.121
  340.750    6.069    0.538    0.231  167.438  117.020
  341.000    6.246    0.539    0.218  166.995  116.754
  341.250    6.490    0.534    0.210  164.577  112.034
  341.500    6.866    0.509    0.249  161.650  109.688
  341.750    7.330    0.487    0.234  159.721  106.148
  342.000    8.120    0.473    0.209  158.789  100.537
  342.250    9.247    0.465    0.185  157.850  101.456
  342.500    9.695    0.450    0.151  156.905  100.603
  342.750   10.257    0.415    0.137  156.462   98.847
  343.000   11.258    0.395    0.126  156.521   96.497
  343.250   13.180    0.384    0.117  156.580   91.476
  343.500   14.602    0.387    0.143  156.638   90.021
  343.750   15.033    0.423    0.155  156.677   93.916
  344.000   14.374    0.456    0.185  156.730  103.462
  344.250   12.765    0.472    0.210  156.782  102.602
  344.500   11.764    0.468    0.201  156.345  101.151
  344.750   11.352    0.470    0.203  155.902  101.773
  345.000   11.366    0.463    0.200  154.970  102.406
  345.250   11.486    0.460    0.203  154.514  101.538
  345.500   11.499    0.462    0.203  154.566  100.083
  345.750   11.405    0.461    0.201  154.136  100.115
  346.000   11.316    0.461    0.194  154.188  102.524
  346.250   11.227    0.461    0.204  154.240  104.937
  346.500   11.240    0.459    0.204  154.286  106.751
  346.750   11.240    0.462    0.203  154.345  107.084
  347.000   11.271    0.464    0.202  154.390  107.119
  347.250   11.279    0.467    0.193  154.944  106.552
  347.500   11.291    0.465    0.199  155.498  105.691
  347.750   11.204    0.470    0.196  156.046  104.827
  348.000   11.215    0.461    0.189  156.593  103.971
  348.250   11.330    0.450    0.194  157.141   97.757
  348.500   11.881    0.421    0.172  156.196   90.061
  348.750   13.039    0.373    0.146  154.762   87.120
  349.000   13.925    0.378    0.143  152.350  103.502
  349.250   12.831    0.430    0.207  150.904  107.991
  349.500   11.611    0.439    0.218  150.956  107.432
  349.750   11.309    0.444    0.214  151.021  106.274
  350.000   11.019    0.467    0.211  153.326  103.141
  350.250   10.925    0.473    0.208  153.373  102.875
  350.500   10.932    0.467    0.205  153.410  102.893
  350.750   10.940    0.472    0.200  153.451  102.623
  351.000   11.047    0.470    0.191  153.503   98.476
  351.250   11.055    0.457    0.202  153.535   98.206
  351.500   10.859    0.465    0.219  154.570  100.612
  351.750   10.771    0.478    0.203  155.605  104.214
  352.000   10.480    0.480    0.211  157.148  105.434
  352.250   10.480    0.467    0.202  158.183  107.847
  352.500   10.395    0.470    0.200  158.716  109.061
  352.750   10.213    0.465    0.193  160.259  111.769
  353.000   10.218    0.464    0.211  161.283  114.479
  353.250   10.417    0.464    0.205  164.311  114.209
  353.500   10.518    0.478    0.176  166.340  110.655
  353.750   10.623    0.491    0.167  167.872  107.407
  354.000   10.437    0.484    0.192  171.888  106.830
  354.250   10.251    0.483    0.204  171.940  107.451
  354.500   10.163    0.467    0.190  168.007  107.181
  354.750   10.076    0.456    0.189  164.572  108.100
  355.000    9.990    0.475    0.205  163.128  109.917
  355.250    9.997    0.466    0.208  163.662  108.448
  355.500   10.096    0.461    0.200  163.698  108.772
  355.750   10.292    0.458    0.177  163.766  111.780
  356.000   10.489    0.448    0.193  163.792  112.110
  356.250   10.691    0.437    0.199  163.828  110.340
  356.500   10.897    0.440    0.192  162.877  110.067
  356.750   10.804    0.437    0.182  162.427  109.794
  357.000   10.612    0.431    0.165  161.470  107.733
  357.250    9.956    0.424    0.145  161.025  103.287
  357.500    9.338    0.448    0.170  162.055  102.126
  357.750    8.599    0.474    0.184  170.045  109.003
  358.000    8.370    0.485    0.187  181.016  112.307
  358.250    8.532    0.470    0.177  180.566  107.563
  358.500    9.108    0.446    0.154  167.692  102.819
  358.750    9.368    0.436    0.170  160.287  103.142
  359.000    9.727    0.442    0.166  160.329  106.154
  359.250   10.007    0.450    0.187  161.364  108.566
  359.500   10.105    0.460    0.197  160.904  108.287
  359.750   10.395    0.448    0.190  159.952  104.437
  360.000   10.695    0.434    0.194  159.005  100.290
  360.250   11.522    0.442    0.207  158.556   96.142
  360.500   12.644    0.443    0.216  157.604   92.888
  360.750   13.620    0.426    0.197  156.160   87.250
  361.000   13.755    0.400    0.173  156.197   84.596
  361.250   13.639    0.382    0.167  155.742   85.518
  361.500   13.274    0.365    0.195  155.282   88.226
  361.750   12.919    0.382    0.202  154.340   89.145
  362.000   12.231    0.396    0.229  154.879   92.150
  362.250   11.368    0.438    0.193  155.914   96.944
  362.500   10.762    0.434    0.173  156.944   96.075
  362.750   10.573    0.430    0.169  156.996   95.212
  363.000   11.081    0.446    0.194  156.996   93.443
  363.250   11.935    0.453    0.220  156.588   87.805
  363.500   15.899    0.432    0.205  157.116   82.167
  363.750   19.854    0.367    0.182  157.163   72.058
  364.000   22.399    0.285    0.156  158.193   63.141
  364.250   25.272    0.272    0.081  159.741   59.291
  364.500   28.247    0.279    0.100  159.275   56.931
  364.750   29.881    0.253    0.104  158.820   53.678
  365.000   28.547    0.215    0.059  159.364   51.620
  365.250   26.045    0.224    0.072  161.398   52.834
  365.500   19.759    0.268    0.102  160.938   57.035
  365.750   14.990    0.305    0.130  159.003   64.213
