~VERSION INFORMATION
 VERS.                 2.0:   CWLS LOG ASCII STANDARD -VERSION 2.0
 WRAP.                  NO:   ONE LINE PER DEPTH STEP
~WELL INFORMATION BLOCK
#MNEM.UNIT           DATA                    DESCRIPTION OF MNEMONIC
#---------    -------------------            -------------------------------
# Generated from Intellog Unique Number	CS_67_68/WELL/850
LOC .         00/11-32-068-16W4/0            : Location     - LOCATION
UWI .         00/11-32-068-16W4/0            : Uwi          - UNIQUE WELL ID
ENTR.         SP                             : Entered      - ENTERED BY
SRVC.         SCHLUMBERGER                   : Scn          - SERVICE COMPANY
STRT.M        243.84                         : top_depth    - START DEPTH
STOP.M        487.34                         : bot_depth    - STOP DEPTH
STEP.M        0.25                           : increment    - STEP LENGTH
 NULL. -999.2500:NULL Value
~CURVE INFORMATION BLOCK
#MNEM UNIT       ERCB CURVE CODE    CURVE DESCRIPTION
#-----------   ------------------   ----------------------------------
DEPT.M        00 001 00 00         : DEPTH        - DEPTH
GR  .API      00 310 00 00         : GR           - GAMMA RAY
DPHI.V/V      00 890 00 00         : PHID         - DENSITY POROSITY (SANDSTONE)
NPHI.V/V      00 330 00 00         : PHIN         - NEUTRON POROSITY (SANDSTONE)
ILD .OHMM     00 120 00 00         : RESD         - DEEP RESISTIVITY (DIL)
~PARAMETER INFORMATION
#MNEM.UNIT           DATA             DESCRIPTION OF MNEMONIC
#---------         -----------     ------------------------------
GL  .M        558.576              : gl           - GROUND LEVEL ELEVATION
EREF.M        562.234              : kb           - ELEVATION OF DEPTH REFERENCE
DATM.M        558.576              : datum        - DATUM ELEVATION
TDD .M        494.995              : tdd          - TOTAL DEPTH DRILLER
RUN .         ONE                  : Run          - RUN NUMBER
ENG .         BILL                 : Engineer     - RECORDING ENGINEER
WIT .         JIM                  : Witness      - WITNESSED BY
MUD .         GEL                  : Mud_type     - MUD TYPE
MATR.         SANDSTONE            : Logunit      - NEUTRON MATRIX
TMAX.C        23.8889              : BHT          - MAXIMUM RECORDED TEMPERATURE
BHTD.M        494.995              : BHTDEP       - MAXIMUM RECORDED TEMPERATURE
MATR.         1                    : LOGUNIT      - NEUTRON MATRIX
RMT .C        25                   : MDTP         - TEMPERATURE OF MUD
NEUT.         1                    : NEUTRON      - NEUTRON TYPE
RESI.         0                    : RESIST       - RESISTIVITY TYPE
RMC .OHMM     0.25                 : RMC          - RESISTIVITY OF MUD CAKE
RMF .OHMM     0.25                 : RMF          - RESISTIVITY OF MUD FILTRATE
SUFT.C        15                   : SUFT         - SURFACE TEMPERATURE
~A  DEPTH       GR     PHID     PHIN     RESD
# ...
  330.840   91.242    0.280    0.445    3.759
  331.090   91.320    0.267    0.446    3.569
  331.340   92.324    0.276    0.446    3.371
  331.590   92.770    0.295    0.454    3.156
  331.840   90.722    0.304    0.464    2.935
  332.090   89.315    0.308    0.467    2.672
  332.340   88.106    0.311    0.470    2.494
  332.590   88.232    0.303    0.464    2.387
  332.840   89.027    0.296    0.474    2.335
  333.090   89.999    0.284    0.486    2.363
  333.340   91.279    0.273    0.494    2.457
  333.590   92.900    0.267    0.494    2.558
  333.840   94.810    0.277    0.490    2.663
  334.090   97.191    0.280    0.471    2.788
  334.340  100.026    0.256    0.457    2.928
  334.590  102.840    0.242    0.475    3.071
  334.840  104.415    0.237    0.476    3.187
  335.090  105.192    0.235    0.480    3.272
  335.340  106.680    0.234    0.497    3.370
  335.590  109.099    0.243    0.502    3.474
  335.840  111.769    0.244    0.492    3.535
  336.090  113.425    0.239    0.477    3.585
  336.340  110.630    0.259    0.470    3.623
  336.590  105.942    0.270    0.463    3.559
  336.840  102.454    0.272    0.454    3.472
  337.090  105.450    0.262    0.470    3.348
  337.340  110.559    0.235    0.488    3.213
  337.590  114.045    0.217    0.503    3.106
  337.840  114.342    0.221    0.503    3.020
  338.090  113.711    0.228    0.496    2.931
  338.340  114.122    0.236    0.509    2.899
  338.590  115.112    0.228    0.522    2.883
  338.840  115.712    0.246    0.529    2.908
  339.090  116.985    0.237    0.510    3.186
  339.340  119.737    0.232    0.489    3.539
  339.590  121.302    0.239    0.472    3.787
  339.840  119.534    0.248    0.453    4.017
  340.090  116.471    0.236    0.442    4.098
  340.340  115.975    0.240    0.437    4.220
  340.590  117.407    0.227    0.426    4.338
  340.840  118.396    0.213    0.415    4.327
  341.090  118.290    0.198    0.407    4.216
  341.340  117.434    0.201    0.410    3.941
  341.590  116.531    0.222    0.425    3.660
  341.840  115.034    0.241    0.443    3.459
  342.090  112.717    0.251    0.442    3.267
  342.340  108.056    0.261    0.423    3.146
  342.590  103.108    0.272    0.415    3.130
  342.840   99.859    0.266    0.428    3.143
  343.090  101.306    0.254    0.440    3.145
  343.340  102.432    0.262    0.443    3.099
  343.590   99.483    0.259    0.444    2.921
  343.840   89.421    0.269    0.445    2.658
  344.090   85.121    0.295    0.438    2.441
  344.340   80.744    0.315    0.433    2.272
  344.590   79.310    0.328    0.434    2.161
  344.840   78.761    0.325    0.449    2.074
  345.090   80.502    0.319    0.456    2.006
  345.340   78.022    0.310    0.456    1.978
  345.590   75.276    0.305    0.459    1.988
  345.840   73.581    0.315    0.462    1.984
  346.090   72.049    0.322    0.464    2.016
  346.340   72.511    0.324    0.469    2.039
  346.590   74.757    0.322    0.473    2.067
  346.840   77.585    0.324    0.475    2.102
  347.090   81.238    0.322    0.467    2.147
  347.340   83.563    0.308    0.463    2.259
  347.590   85.142    0.302    0.465    2.397
  347.840   86.178    0.305    0.472    2.490
  348.090   86.663    0.303    0.485    2.453
  348.340   85.147    0.302    0.475    2.409
  348.590   81.797    0.304    0.459    2.344
  348.840   78.607    0.310    0.447    2.214
  349.090   76.875    0.315    0.440    2.110
  349.340   75.481    0.327    0.442    2.043
  349.590   74.494    0.330    0.443    2.017
  349.840   73.202    0.322    0.440    2.005
  350.090   72.379    0.324    0.439    1.993
  350.340   71.776    0.331    0.439    1.988
  350.590   71.328    0.332    0.442    1.976
  350.840   72.570    0.331    0.443    1.972
  351.090   74.426    0.328    0.443    2.000
  351.340   76.292    0.336    0.448    2.043
  351.590   77.911    0.331    0.452    2.110
  351.840   79.219    0.324    0.453    2.311
  352.090   81.552    0.325    0.453    2.617
  352.340   88.428    0.288    0.451    2.949
  352.590   97.896    0.240    0.444    3.272
  352.840  102.851    0.220    0.435    3.527
  353.090  107.239    0.217    0.436    3.774
  353.340  110.280    0.232    0.439    3.792
  353.590  111.566    0.229    0.440    3.869
  353.840  112.201    0.224    0.435    3.972
  354.090  114.264    0.231    0.429    3.759
  354.340  116.520    0.229    0.424    3.700
  354.590  118.874    0.232    0.441    3.711
  354.840  119.235    0.222    0.454    3.713
  355.090  117.017    0.227    0.449    3.727
  355.340  117.329    0.229    0.440    3.737
  355.590  121.161    0.220    0.439    3.701
  355.840  123.426    0.230    0.431    3.668
  356.090  123.947    0.212    0.421    3.653
  356.340  121.585    0.194    0.415    3.693
  356.590  119.207    0.194    0.421    3.732
  356.840  110.189    0.208    0.431    3.718
  357.090  104.992    0.219    0.445    3.634
  357.340  102.969    0.235    0.463    3.503
  357.590  107.869    0.235    0.474    3.337
  357.840  110.510    0.219    0.492    3.095
  358.090  107.496    0.208    0.507    2.927
  358.340  101.205    0.235    0.484    2.800
  358.590   95.586    0.277    0.456    2.670
  358.840   90.934    0.292    0.442    2.556
  359.090   88.568    0.301    0.438    2.450
  359.340   90.850    0.305    0.441    2.353
  359.590   93.097    0.300    0.439    2.379
  359.840   95.395    0.300    0.434    2.455
  360.090   95.666    0.299    0.429    2.539
  360.340   90.376    0.284    0.441    2.650
  360.590   86.159    0.274    0.450    2.699
  360.840   84.526    0.267    0.455    2.749
  361.090   84.911    0.261    0.445    2.789
  361.340   85.680    0.258    0.431    2.817
  361.590   86.374    0.265    0.430    2.832
  361.840   86.130    0.265    0.448    2.810
  362.090   84.233    0.280    0.460    2.746
  362.340   82.194    0.287    0.470    2.663
  362.590   80.868    0.281    0.467    2.611
  362.840   81.321    0.287    0.454    2.563
  363.090   83.584    0.295    0.448    2.558
  363.340   85.467    0.289    0.443    2.580
  363.590   86.879    0.281    0.446    2.605
  363.840   91.612    0.281    0.459    2.648
  364.090   99.337    0.293    0.464    2.705
  364.340  106.222    0.280    0.452    2.761
  364.590  110.897    0.258    0.447    2.780
  364.840  108.757    0.279    0.462    2.794
  365.090  102.503    0.314    0.475    2.789
  365.340   99.496    0.326    0.469    2.679
  365.590   98.886    0.312    0.456    2.588
  365.840   96.103    0.293    0.447    2.441
  366.090   90.654    0.300    0.449    2.321
  366.340   87.540    0.318    0.466    2.197
  366.590   85.190    0.309    0.478    2.135
  366.840   84.266    0.306    0.488    2.163
  367.090   80.299    0.302    0.486    2.262
  367.340   76.367    0.285    0.468    2.350
  367.590   74.060    0.253    0.444    2.398
  367.840   72.037    0.228    0.411    2.437
  368.090   75.959    0.207    0.401    2.387
  368.340   80.611    0.264    0.438    2.315
  368.590   84.202    0.301    0.455    2.266
  368.840   85.463    0.305    0.459    2.282
  369.090   84.644    0.299    0.465    2.373
  369.340   82.204    0.314    0.473    2.492
  369.590   78.652    0.324    0.483    2.649
  369.840   75.886    0.312    0.480    2.831
  370.090   75.135    0.317    0.467    2.985
  370.340   77.814    0.322    0.460    3.157
  370.590   79.369    0.318    0.492    3.236
  370.840   81.058    0.323    0.523    3.116
  371.090   82.153    0.345    0.520    2.950
  371.340   80.623    0.337    0.498    2.703
  371.590   80.380    0.332    0.483    2.516
  371.840   82.102    0.329    0.477    2.336
  372.090   83.224    0.322    0.481    2.292
  372.340   83.131    0.311    0.485    2.312
  372.590   86.029    0.312    0.479    2.342
  372.840   90.503    0.300    0.454    2.528
  373.090   93.499    0.272    0.437    2.722
  373.340   90.543    0.264    0.454    2.861
  373.590   90.135    0.291    0.464    2.988
  373.840   92.667    0.306    0.472    3.067
  374.090   93.900    0.305    0.473    3.093
