~VERSION INFORMATION
 VERS.                 2.0:   CWLS LOG ASCII STANDARD -VERSION 2.0
 WRAP.                  NO:   ONE LINE PER DEPTH STEP
~WELL INFORMATION BLOCK
#MNEM.UNIT           DATA                    DESCRIPTION OF MNEMONIC
#---------    -------------------            -------------------------------
# Generated from Intellog Unique Number	CS_71_72/WELL/925
WELL.         ET AL IPIATIK                  : Well_name    - WELL
LOC .         00/14-16-071-09W4/0            : Location     - LOCATION
UWI .         00/14-16-071-09W4/0            : Uwi          - UNIQUE WELL ID
ENTR.         SP                             : Entered      - ENTERED BY
SRVC.         SCHLUMBERGER                   : Scn          - SERVICE COMPANY
STRT.M        300                            : top_depth    - START DEPTH
STOP.M        500                            : bot_depth    - STOP DEPTH
STEP.M        0.25                           : increment    - STEP LENGTH
 NULL. -999.2500:NULL Value
~CURVE INFORMATION BLOCK
#MNEM UNIT       ERCB CURVE CODE    CURVE DESCRIPTION
#-----------   ------------------   ----------------------------------
DEPT.M        00 001 00 00         : DEPTH        - DEPTH
ILD .OHMM     00 120 00 00         : RESD         - DEEP RESISTIVITY (DIL)
DPHI.V/V      00 890 00 00         : PHID         - DENSITY POROSITY (LIMESTONE)
NPHI.V/V      00 330 00 00         : PHIN         - NEUTRON POROSITY (LIMESTONE)
GR  .API      00 310 00 00         : GR           - GAMMA RAY
~PARAMETER INFORMATION
#MNEM.UNIT           DATA             DESCRIPTION OF MNEMONIC
#---------         -----------     ------------------------------
GL  .M        662.6                : gl           - GROUND LEVEL ELEVATION
EREF.M        666.21               : kb           - ELEVATION OF DEPTH REFERENCE
DATM.M        662.6                : datum        - DATUM ELEVATION
TDD .M        504                  : tdd          - TOTAL DEPTH DRILLER
RUN .         ONE                  : Run          - RUN NUMBER
ENG .         BILL                 : Engineer     - RECORDING ENGINEER
WIT .         JIM                  : Witness      - WITNESSED BY
MUD .         GEL                  : Mud_type     - MUD TYPE
MATR.         LIMESTONE            : Logunit      - NEUTRON MATRIX
TMAX.C        24                   : BHT          - MAXIMUM RECORDED TEMPERATURE
BHTD.M        504                  : BHTDEP       - MAXIMUM RECORDED TEMPERATURE
MATR.         1                    : LOGUNIT      - NEUTRON MATRIX
RMT .C        25                   : MDTP         - TEMPERATURE OF MUD
NEUT.         1                    : NEUTRON      - NEUTRON TYPE
RESI.         0                    : RESIST       - RESISTIVITY TYPE
RMC .OHMM     0.25                 : RMC          - RESISTIVITY OF MUD CAKE
RMF .OHMM     0.25                 : RMF          - RESISTIVITY OF MUD FILTRATE
SUFT.C        15                   : SUFT         - SURFACE TEMPERATURE
~A  DEPTH     RESD     PHID     PHIN       GR
# ...
  343.500   11.753    0.303    0.422   84.465
  343.750   13.107    0.294    0.406   86.613
  344.000   15.377    0.200    0.320   83.667
  344.250   17.904    0.055    0.266   79.187
  344.500   20.692    0.035    0.202   75.996
  344.750   23.823    0.021    0.175   74.032
  345.000   26.320    0.012    0.166   72.866
  345.250   27.130    0.008    0.172   72.068
  345.500   25.556    0.042    0.206   71.700
  345.750   19.882    0.080    0.255   76.487
  346.000   16.149    0.132    0.283   83.975
  346.250   12.011    0.258    0.369   89.130
  346.500    9.719    0.283    0.431   93.672
  346.750    8.243    0.279    0.473   98.091
  347.000    7.493    0.268    0.479  102.142
  347.250    7.287    0.261    0.462  105.579
  347.500    7.469    0.262    0.459  106.316
  347.750    7.859    0.265    0.470  101.958
  348.000    8.238    0.277    0.476   97.601
  348.250    8.491    0.298    0.445   98.215
  348.500    8.574    0.308    0.450   98.521
  348.750    8.433    0.309    0.471   97.846
  349.000    8.185    0.308    0.480   99.074
  349.250    7.931    0.295    0.476  100.854
  349.500    7.727    0.282    0.464  102.204
  349.750    7.744    0.288    0.432  104.475
  350.000    7.775    0.291    0.432  104.782
  350.250    7.763    0.281    0.430  101.468
  350.500    7.721    0.269    0.443   99.688
  350.750    7.330    0.267    0.445  103.002
  351.000    7.275    0.268    0.431  105.642
  351.250    7.155    0.258    0.447  108.649
  351.500    7.334    0.251    0.419  109.202
  351.750    7.616    0.248    0.415  101.714
  352.000    7.836    0.262    0.447   94.410
  352.250    8.046    0.271    0.472   91.833
  352.500    8.216    0.277    0.455   91.833
  352.750    8.374    0.269    0.467   91.219
  353.000    8.503    0.265    0.485   90.912
  353.250    8.617    0.275    0.435   88.826
  353.500    8.701    0.277    0.439   87.291
  353.750    8.720    0.266    0.437   88.826
  354.000    8.657    0.271    0.441   91.710
  354.250    8.309    0.282    0.459   96.068
  354.500    7.682    0.274    0.472   98.891
  354.750    6.956    0.272    0.491   95.946
  355.000    6.183    0.266    0.508  105.766
  355.250    5.825    0.253    0.437  112.578
  355.500    5.590    0.239    0.425  115.095
  355.750    5.560    0.232    0.453  110.921
  356.000    5.928    0.243    0.452  105.459
  356.250    6.416    0.261    0.452  100.856
  356.500    7.169    0.285    0.462   98.033
  356.750    7.890    0.311    0.461   93.921
  357.000    8.701    0.309    0.457   90.116
  357.250    9.740    0.304    0.474   82.874
  357.500   10.882    0.322    0.454   73.422
  357.750   12.159    0.328    0.423   65.811
  358.000   12.533    0.331    0.410   63.418
  358.250   11.161    0.333    0.413   60.718
  358.500   10.532    0.313    0.414   67.285
  358.750    9.450    0.299    0.417   76.430
  359.000    9.190    0.298    0.437   80.296
  359.250    8.837    0.290    0.416   79.499
  359.500    8.741    0.275    0.395   75.264
  359.750    8.776    0.257    0.388   76.184
  360.000    8.827    0.259    0.412   78.824
  360.250    9.014    0.263    0.412   83.059
  360.500    9.291    0.265    0.399   80.542
  360.750    9.594    0.269    0.406   82.015
  361.000   10.134    0.277    0.423   85.452
  361.250   10.723    0.283    0.446   84.593
  361.500   11.157    0.287    0.423   84.164
  361.750   11.608    0.282    0.396   87.048
  362.000   11.920    0.275    0.393   89.565
  362.250   11.991    0.279    0.410   89.995
  362.500   12.336    0.284    0.418   88.829
  362.750   12.156    0.279    0.402   88.951
  363.000   11.978    0.268    0.410   93.432
  363.250   11.626    0.260    0.415   96.439
  363.500   10.952    0.256    0.422   99.017
  363.750   10.259    0.250    0.435   99.324
  364.000    9.664    0.244    0.422   96.501
  364.250    9.667    0.250    0.404   92.573
  364.500    9.926    0.257    0.424   89.688
  364.750    9.892    0.257    0.419   96.071
  365.000    9.266    0.239    0.396  102.025
  365.250    8.679    0.228    0.390  109.206
  365.500    8.222    0.220    0.398  113.318
  365.750    7.907    0.214    0.425  115.098
  366.000    7.504    0.225    0.425   98.527
  366.250    7.203    0.253    0.435   89.750
  366.500    7.151    0.270    0.451   85.945
  366.750    7.398    0.280    0.464   83.736
  367.000    8.598    0.277    0.477   80.176
  367.250    9.863    0.282    0.489   75.941
  367.500   11.144    0.303    0.412   72.873
  367.750   12.664    0.315    0.404   76.494
  368.000   13.886    0.323    0.395   71.400
  368.250   14.421    0.329    0.383   66.183
  368.500   14.426    0.336    0.396   61.150
  368.750   14.188    0.341    0.405   57.284
  369.000   14.033    0.332    0.403   56.793
  369.250   13.957    0.323    0.391   59.187
  369.500   13.961    0.314    0.384   61.826
  369.750   13.836    0.316    0.390   62.931
  370.000   13.454    0.315    0.387   70.296
  370.250   11.914    0.303    0.382   82.571
  370.500   10.668    0.288    0.378   96.135
  370.750    9.271    0.270    0.390  109.146
  371.000    8.380    0.248    0.420  114.854
  371.250    7.835    0.233    0.451  117.861
  371.500    7.492    0.226    0.415  116.818
  371.750    7.341    0.221    0.409  110.865
  372.000    7.234    0.225    0.421  104.543
  372.250    7.249    0.220    0.421  101.045
  372.500    7.334    0.212    0.414  103.930
  372.750    7.432    0.223    0.407  106.078
  373.000    7.747    0.238    0.419  104.114
  373.250    8.213    0.251    0.408   97.363
  373.500    8.872    0.267    0.395   87.850
  373.750    9.747    0.282    0.422   79.135
  374.000   10.768    0.292    0.438   70.788
  374.250   11.987    0.307    0.436   65.141
  374.500   13.168    0.321    0.422   60.600
  374.750   14.576    0.331    0.409   56.856
  375.000   15.716    0.331    0.394   58.329
  375.250   16.755    0.326    0.385   57.715
  375.500   17.832    0.324    0.397   56.795
  375.750   18.138    0.323    0.412   60.661
  376.000   18.246    0.318    0.408   59.189
  376.250   18.217    0.317    0.385   55.752
  376.500   18.223    0.324    0.381   55.383
  376.750   18.262    0.327    0.389   59.434
  377.000   18.368    0.322    0.394   60.907
  377.250   18.828    0.322    0.409   59.434
  377.500   19.082    0.327    0.404   58.698
  377.750   19.229    0.331    0.394   58.514
  378.000   19.307    0.333    0.397   59.005
  378.250   19.239    0.333    0.387   60.601
  378.500   18.923    0.337    0.386   62.197
  378.750   18.680    0.338    0.404   61.092
  379.000   18.373    0.338    0.420   59.619
  379.250   18.138    0.339    0.435   60.049
  379.500   17.907    0.343    0.450   60.663
  379.750   17.777    0.347    0.426   60.908
  380.000   17.550    0.350    0.416   60.970
  380.250   17.232    0.350    0.419   61.584
  380.500   17.137    0.352    0.443   62.259
  380.750   16.951    0.352    0.470   61.584
  381.000   16.735    0.351    0.458   62.688
  381.250   16.643    0.348    0.468   63.364
  381.500   16.370    0.345    0.470   62.873
  381.750   16.251    0.346    0.450   61.707
  382.000   16.103    0.348    0.434   59.190
  382.250   16.047    0.341    0.425   56.858
  382.500   15.962    0.338    0.429   55.692
  382.750   15.936    0.337    0.421   55.999
  383.000   15.911    0.339    0.428   56.981
  383.250   15.855    0.342    0.428   57.657
  383.500   15.770    0.342    0.418   58.516
  383.750   15.715    0.342    0.414   58.946
  384.000   15.690    0.344    0.413   59.068
  384.250   15.636    0.346    0.412   58.516
  384.500   15.640    0.351    0.410   57.105
  384.750   15.645    0.358    0.429   57.227
  385.000   15.620    0.366    0.448   59.928
  385.250   15.624    0.374    0.443   61.769
  385.500   15.599    0.381    0.424   60.296
  385.750   15.602    0.387    0.422   58.026
  386.000   15.961    0.386    0.443   56.982
  386.250   16.025    0.379    0.452   57.657
  386.500   16.151    0.380    0.453   59.867
  386.750   16.277    0.384    0.453   60.235
