~VERSION INFORMATION
 VERS.                 2.0:   CWLS LOG ASCII STANDARD -VERSION 2.0
 WRAP.                  NO:   ONE LINE PER DEPTH STEP
~WELL INFORMATION BLOCK
#MNEM.UNIT           DATA                    DESCRIPTION OF MNEMONIC
#---------    -------------------            -------------------------------
# Generated from Intellog Unique Number	CS_73_76/WELL/2194
WELL.         DOME PETROLEUM LIMITED         : Well_name    - WELL
LOC .         00/11-02-074-06W4/0            : Location     - LOCATION
UWI .         00/11-02-074-06W4/0            : Uwi          - UNIQUE WELL ID
ENTR.         SP                             : Entered      - ENTERED BY
SRVC.         SCHLUMBERGER                   : Scn          - SERVICE COMPANY
STRT.M        255                            : top_depth    - START DEPTH
STOP.M        475                            : bot_depth    - STOP DEPTH
STEP.M        0.25                           : increment    - STEP LENGTH
 NULL. -999.2500:NULL Value
~CURVE INFORMATION BLOCK
#MNEM UNIT       ERCB CURVE CODE    CURVE DESCRIPTION
#-----------   ------------------   ----------------------------------
DEPT.M        00 001 00 00         : DEPTH        - DEPTH
ILD .OHMM     00 120 00 00         : RESD         - DEEP RESISTIVITY (DIL)
DPHI.V/V      00 890 00 00         : PHID         - DENSITY POROSITY (LIMESTONE)
NPHI.V/V      00 330 00 00         : PHIN         - NEUTRON POROSITY (LIMESTONE)
GR  .API      00 310 00 00         : GR           - GAMMA RAY
~PARAMETER INFORMATION
#MNEM.UNIT           DATA             DESCRIPTION OF MNEMONIC
#---------         -----------     ------------------------------
GL  .M        646.01               : gl           - GROUND LEVEL ELEVATION
EREF.M        649.91               : kb           - ELEVATION OF DEPTH REFERENCE
DATM.M        646.01               : datum        - DATUM ELEVATION
TDD .M        484                  : tdd          - TOTAL DEPTH DRILLER
RUN .         ONE                  : Run          - RUN NUMBER
ENG .         BILL                 : Engineer     - RECORDING ENGINEER
WIT .         JIM                  : Witness      - WITNESSED BY
MUD .         GEL                  : Mud_type     - MUD TYPE
MATR.         LIMESTONE            : Logunit      - NEUTRON MATRIX
TMAX.C        21                   : BHT          - MAXIMUM RECORDED TEMPERATURE
BHTD.M        484                  : BHTDEP       - MAXIMUM RECORDED TEMPERATURE
MATR.         1                    : LOGUNIT      - NEUTRON MATRIX
RMT .C        25                   : MDTP         - TEMPERATURE OF MUD
NEUT.         1                    : NEUTRON      - NEUTRON TYPE
RESI.         0                    : RESIST       - RESISTIVITY TYPE
RMC .OHMM     0.25                 : RMC          - RESISTIVITY OF MUD CAKE
RMF .OHMM     0.25                 : RMF          - RESISTIVITY OF MUD FILTRATE
SUFT.C        15                   : SUFT         - SURFACE TEMPERATURE
~A  DEPTH     RESD     PHID     PHIN       GR
# ...
  342.000    1.491    0.286    0.439   77.982
  342.250    1.520    0.273    0.446   84.722
  342.500    1.550    0.281    0.458   85.338
  342.750    1.580    0.315    0.447   82.281
  343.000    1.611    0.305    0.471   81.060
  343.250    1.612    0.266    0.494   88.412
  343.500    1.583    0.281    0.522   91.477
  343.750    1.555    0.305    0.477   79.848
  344.000    1.471    0.328    0.448   66.382
  344.250    1.417    0.322    0.441   62.714
  344.500    1.392    0.309    0.450   64.554
  344.750    1.342    0.300    0.454   68.233
  345.000    1.342    0.317    0.454   70.685
  345.250    1.318    0.320    0.461   68.240
  345.500    1.295    0.323    0.458   66.408
  345.750    1.295    0.309    0.456   65.188
  346.000    1.272    0.304    0.467   66.417
  346.250    1.274    0.301    0.461   68.872
  346.500    1.251    0.308    0.449   69.487
  346.750    1.251    0.316    0.445   70.105
  347.000    1.252    0.317    0.459   70.719
  347.250    1.253    0.310    0.445   70.723
  347.500    1.277    0.315    0.433   65.829
  347.750    1.302    0.324    0.428   66.446
  348.000    1.379    0.321    0.428   65.837
  348.250    1.515    0.305    0.429   66.454
  348.500    1.762    0.312    0.418   72.582
  348.750    1.937    0.274    0.415   76.258
  349.000    2.252    0.248    0.460   82.385
  349.250    2.429    0.263    0.501   86.674
  349.500    2.620    0.288    0.505   88.516
  349.750    2.774    0.258    0.456   86.071
  350.000    2.828    0.237    0.418   87.299
  350.250    2.884    0.225    0.439   89.754
  350.500    2.886    0.228    0.467   90.981
  350.750    2.889    0.237    0.488   93.437
  351.000    2.890    0.229    0.494   95.275
  351.250    2.891    0.231    0.526   99.565
  351.500    2.894    0.242    0.539  102.020
  351.750    2.895    0.252    0.532  105.696
  352.000    2.897    0.238    0.528  109.986
  352.250    2.955    0.248    0.537  107.542
  352.500    3.012    0.256    0.524  102.648
  352.750    3.071    0.265    0.537   97.141
  353.000    3.191    0.264    0.546   90.410
  353.250    3.442    0.245    0.548   94.089
  353.500    3.643    0.233    0.530   96.542
  353.750    4.081    0.243    0.496   96.546
  354.000    4.485    0.259    0.473   94.714
  354.250    4.748    0.237    0.453   93.494
  354.500    5.026    0.230    0.441   92.274
  354.750    5.124    0.227    0.447   91.664
  355.000    5.225    0.230    0.455   89.831
  355.250    5.131    0.227    0.440   89.225
  355.500    4.854    0.226    0.425   89.840
  355.750    4.506    0.216    0.422   92.294
  356.000    4.424    0.204    0.446   96.584
  356.250    4.511    0.198    0.480   99.649
  356.500    4.600    0.203    0.494  101.490
  356.750    4.690    0.206    0.486  100.882
  357.000    4.782    0.194    0.478   96.601
  357.250    4.877    0.204    0.470   95.992
  357.500    4.790    0.217    0.459   97.222
  357.750    4.615    0.211    0.467   99.061
  358.000    4.051    0.215    0.474   99.678
  358.250    3.621    0.201    0.468   99.070
  358.500    3.425    0.190    0.458  100.298
  358.750    3.062    0.194    0.482  101.527
  359.000    2.896    0.199    0.524  102.144
  359.250    2.792    0.211    0.528   99.088
  359.500    2.793    0.226    0.529   99.091
  359.750    2.850    0.229    0.546  101.544
  360.000    2.905    0.234    0.553  105.836
  360.250    2.962    0.214    0.550  107.063
  360.500    3.019    0.207    0.543  107.680
  360.750    3.021    0.207    0.532  107.683
  361.000    3.081    0.215    0.537  106.463
  361.250    3.083    0.239    0.532  104.018
  361.500    3.203    0.239    0.529  104.023
  361.750    3.327    0.234    0.558  103.414
  362.000    3.589    0.245    0.582  100.357
  362.250    4.020    0.257    0.602   96.688
  362.500    4.255    0.259    0.530   94.855
  362.750    4.858    0.244    0.515   93.023
  363.000    5.141    0.251    0.503   90.579
  363.250    5.442    0.272    0.491   89.357
  363.500    5.983    0.284    0.481   85.688
  363.750    6.215    0.277    0.466   80.794
  364.000    6.336    0.292    0.455   77.736
  364.250    6.460    0.295    0.444   77.129
  364.500    6.588    0.269    0.438   77.745
  364.750    6.470    0.241    0.419   83.872
  365.000    6.236    0.227    0.426   85.101
  365.250    6.124    0.244    0.448   86.942
  365.500    6.013    0.249    0.445   90.619
  365.750    6.248    0.261    0.453   88.788
  366.000    6.369    0.274    0.461   86.955
  366.250    6.745    0.286    0.471   86.347
  366.500    6.876    0.288    0.473   86.350
  366.750    7.010    0.291    0.465   86.968
  367.000    7.149    0.289    0.473   86.972
  367.250    7.289    0.282    0.454   86.363
  367.500    7.293    0.272    0.443   83.919
  367.750    7.300    0.283    0.459   82.086
  368.000    7.304    0.299    0.473   80.253
  368.250    7.307    0.307    0.467   79.033
  368.500    7.312    0.312    0.451   77.812
  368.750    7.456    0.311    0.444   76.591
  369.000    7.893    0.292    0.451   77.820
  369.250    8.677    0.279    0.457   79.661
  369.500    9.182    0.257    0.449   75.993
  369.750   10.480    0.241    0.426   73.547
  370.000   11.739    0.184    0.388   66.816
  370.250   12.196    0.105    0.308   60.085
  370.500   12.432    0.092    0.268   60.702
  370.750   12.440    0.071    0.258   64.993
  371.000   11.333    0.050    0.225   66.220
  371.250    8.887    0.076    0.220   72.349
  371.500    7.653    0.136    0.295   75.413
  371.750    6.972    0.176    0.326   83.378
  372.000    6.721    0.213    0.369   87.054
  372.250    6.599    0.238    0.440   93.181
  372.500    6.604    0.227    0.456   96.247
  372.750    6.608    0.216    0.467   99.925
  373.000    6.737    0.227    0.468  100.541
  373.250    7.001    0.240    0.458   99.932
  373.500    7.136    0.232    0.461   97.487
  373.750    7.142    0.221    0.461  100.553
  374.000    7.014    0.225    0.438   98.720
  374.250    6.887    0.232    0.425   91.989
  374.500    6.638    0.230    0.418   92.608
  374.750    6.163    0.220    0.419   93.835
  375.000    5.938    0.231    0.428   92.614
  375.250    5.116    0.232    0.463   92.621
  375.500    4.837    0.224    0.479   93.235
  375.750    4.326    0.219    0.481   93.240
  376.000    3.941    0.224    0.483   93.856
  376.250    3.727    0.233    0.506   98.147
  376.500    3.660    0.214    0.517   99.986
  376.750    4.023    0.231    0.524  100.603
  377.000    4.591    0.254    0.514   99.994
  377.250    4.951    0.258    0.490   93.265
  377.500    5.243    0.276    0.456   90.208
  377.750    4.866    0.282    0.442   88.375
  378.000    3.961    0.266    0.441   87.154
  378.250    3.164    0.281    0.452   87.770
  378.500    2.777    0.254    0.515   93.286
  378.750    2.483    0.247    0.556   95.127
  379.000    2.393    0.265    0.559   95.130
  379.250    2.306    0.250    0.577   94.523
  379.500    2.441    0.262    0.588   95.751
  379.750    3.061    0.262    0.581   94.530
  380.000    3.363    0.271    0.556   87.188
  380.250    4.061    0.298    0.524   79.232
  380.500    4.380    0.324    0.506   73.115
  380.750    4.814    0.325    0.479   70.670
  381.000    5.001    0.328    0.485   68.225
  381.250    5.295    0.338    0.471   66.393
  381.500    5.399    0.341    0.465   65.783
  381.750    5.402    0.347    0.464   64.564
  382.000    5.405    0.345    0.452   64.568
  382.250    5.412    0.328    0.441   63.959
  382.500    5.415    0.332    0.435   65.189
  382.750    5.521    0.325    0.446   67.029
  383.000    5.736    0.323    0.447   70.708
  383.250    5.849    0.317    0.446   69.486
  383.500    5.852    0.323    0.460   67.041
  383.750    5.966    0.320    0.460   67.658
  384.000    5.859    0.340    0.464   67.662
  384.250    5.862    0.331    0.471   70.116
  384.500    5.865    0.338    0.485   73.180
  384.750    5.869    0.328    0.475   71.960
  385.000    5.874    0.316    0.463   69.515
  385.250    5.878    0.315    0.464   68.909
