~VERSION INFORMATION
 VERS.                 2.0:   CWLS LOG ASCII STANDARD -VERSION 2.0
 WRAP.                  NO:   ONE LINE PER DEPTH STEP
~WELL INFORMATION BLOCK
#MNEM.UNIT           DATA                    DESCRIPTION OF MNEMONIC
#---------    -------------------            -------------------------------
# Generated from Intellog Unique Number	CS_73_76/WELL/3259
WELL.         T0TAL ET AL DEVENISH           : Well_name    - WELL
LOC .         00/11-08-075-08W4/0            : Location     - LOCATION
UWI .         00/11-08-075-08W4/0            : Uwi          - UNIQUE WELL ID
ENTR.         SP                             : Entered      - ENTERED BY
SRVC.         SCHLUMBERGER                   : Scn          - SERVICE COMPANY
STRT.M        275                            : top_depth    - START DEPTH
STOP.M        500                            : bot_depth    - STOP DEPTH
STEP.M        0.25                           : increment    - STEP LENGTH
 NULL. -999.2500:NULL Value
~CURVE INFORMATION BLOCK
#MNEM UNIT       ERCB CURVE CODE    CURVE DESCRIPTION
#-----------   ------------------   ----------------------------------
DEPT.M        00 001 00 00         : DEPTH        - DEPTH
ILD .OHMM     00 120 00 00         : RESD         - DEEP RESISTIVITY (DIL)
DPHI.V/V      00 890 00 00         : PHID         - DENSITY POROSITY (LIMESTONE)
NPHI.V/V      00 330 00 00         : PHIN         - NEUTRON POROSITY (LIMESTONE)
GR  .API      00 310 00 00         : GR           - GAMMA RAY
~PARAMETER INFORMATION
#MNEM.UNIT           DATA             DESCRIPTION OF MNEMONIC
#---------         -----------     ------------------------------
GL  .M        665.61               : gl           - GROUND LEVEL ELEVATION
EREF.M        669                  : kb           - ELEVATION OF DEPTH REFERENCE
DATM.M        665.61               : datum        - DATUM ELEVATION
TDD .M        514                  : tdd          - TOTAL DEPTH DRILLER
RUN .         ONE                  : Run          - RUN NUMBER
ENG .         BILL                 : Engineer     - RECORDING ENGINEER
WIT .         JIM                  : Witness      - WITNESSED BY
MUD .         GEL                  : Mud_type     - MUD TYPE
MATR.         LIMESTONE            : Logunit      - NEUTRON MATRIX
TMAX.C        23.8                 : BHT          - MAXIMUM RECORDED TEMPERATURE
BHTD.M        514                  : BHTDEP       - MAXIMUM RECORDED TEMPERATURE
MATR.         1                    : LOGUNIT      - NEUTRON MATRIX
RMT .C        25                   : MDTP         - TEMPERATURE OF MUD
NEUT.         1                    : NEUTRON      - NEUTRON TYPE
RESI.         0                    : RESIST       - RESISTIVITY TYPE
RMC .OHMM     0.25                 : RMC          - RESISTIVITY OF MUD CAKE
RMF .OHMM     0.25                 : RMF          - RESISTIVITY OF MUD FILTRATE
SUFT.C        15                   : SUFT         - SURFACE TEMPERATURE
~A  DEPTH     RESD     PHID     PHIN       GR
# ...
  318.500   11.856    0.210    0.405  106.412
  318.750   10.593    0.199    0.422  110.060
  319.000    9.465    0.198    0.443  108.215
  319.250    7.700    0.211    0.463  106.985
  319.500    7.143    0.214    0.482  105.140
  319.750    6.626    0.216    0.496  102.075
  320.000    6.262    0.220    0.510  100.848
  320.250    6.379    0.244    0.519   99.011
  320.500    6.872    0.260    0.482   95.944
  320.750    7.267    0.261    0.465   95.326
  321.000    8.129    0.255    0.455   94.705
  321.250    8.924    0.257    0.464   96.521
  321.500    9.614    0.254    0.462   98.340
  321.750    9.793    0.258    0.438   97.715
  322.000    9.975    0.250    0.422   94.657
  322.250   10.547    0.236    0.413   90.375
  322.500   10.946    0.228    0.407   87.315
  322.750   11.361    0.231    0.397   84.864
  323.000   11.789    0.240    0.402   83.025
  323.250   11.787    0.230    0.397   83.620
  323.500   11.783    0.221    0.397   87.877
  323.750   11.345    0.221    0.416   90.914
  324.000   11.132    0.226    0.431   89.680
  324.250   10.719    0.215    0.450   88.444
  324.500   10.323    0.218    0.469   89.046
  324.750    9.757    0.218    0.466   92.084
  325.000    8.717    0.205    0.461   93.902
  325.250    8.086    0.202    0.474   92.668
  325.500    7.361    0.235    0.484   85.946
  325.750    6.828    0.281    0.486   80.447
  326.000    6.826    0.316    0.439   73.731
  326.250    7.779    0.328    0.378   59.696
  326.500   10.298    0.311    0.363   45.047
  326.750   13.890    0.295    0.371   38.940
  327.000   19.448    0.294    0.380   38.928
  327.250   23.445    0.286    0.380   41.964
  327.500   25.261    0.266    0.373   46.829
  327.750   26.708    0.251    0.373   46.819
  328.000   27.205    0.273    0.372   43.758
  328.250   26.694    0.295    0.366   43.743
  328.500   24.756    0.299    0.375   46.779
  328.750   23.841    0.306    0.396   49.819
  329.000   21.704    0.315    0.412   54.684
  329.250   19.759    0.307    0.417   61.988
  329.500   17.327    0.289    0.397   72.336
  329.750   15.482    0.263    0.394   76.595
  330.000   13.325    0.227    0.398   79.632
  330.250   11.255    0.218    0.396   80.841
  330.500   10.057    0.224    0.407   78.388
  330.750    9.155    0.230    0.412   77.160
  331.000    9.152    0.235    0.420   77.146
  331.250    9.322    0.242    0.420   77.133
  331.500    9.675    0.260    0.415   76.512
  331.750   10.620    0.255    0.412   78.329
  332.000   11.231    0.248    0.426   75.877
  332.250   12.328    0.265    0.431   68.547
  332.500   12.796    0.275    0.417   64.879
  332.750   13.785    0.286    0.425   69.740
  333.000   14.575    0.288    0.431   72.171
  333.250   14.847    0.297    0.431   73.379
  333.500   15.124    0.302    0.415   73.362
  333.750   15.695    0.301    0.416   74.573
  334.000   16.289    0.303    0.426   69.070
  334.250   16.905    0.313    0.433   66.013
  334.500   17.221    0.318    0.430   67.830
  334.750   15.677    0.302    0.425   75.136
  335.000   14.541    0.286    0.419   69.633
  335.250   14.000    0.277    0.425   64.744
  335.500   14.531    0.280    0.434   65.344
  335.750   16.872    0.295    0.430   63.501
  336.000   18.181    0.313    0.428   57.392
  336.250   20.720    0.324    0.426   52.502
  336.500   22.746    0.334    0.409   53.097
  336.750   24.505    0.333    0.406   54.306
  337.000   26.401    0.333    0.428   51.245
  337.250   27.403    0.341    0.422   48.178
  337.500   27.913    0.340    0.408   47.560
  337.750   28.432    0.338    0.401   47.547
  338.000   28.419    0.335    0.403   48.757
  338.250   28.411    0.344    0.396   51.182
  338.500   27.875    0.333    0.411   53.002
  338.750   27.865    0.330    0.424   52.990
  339.000   27.860    0.333    0.423   48.098
  339.250   27.848    0.335    0.419   45.648
  339.500   27.327    0.333    0.428   44.416
  339.750   27.319    0.328    0.441   46.234
  340.000   26.799    0.333    0.445   46.221
  340.250   26.297    0.345    0.439   45.599
  340.500   26.287    0.355    0.435   49.854
  340.750   26.281    0.355    0.441   51.672
  341.000   25.783    0.347    0.438   49.218
  341.250   25.776    0.338    0.428   47.991
  341.500   25.770    0.337    0.432   49.198
  341.750   25.281    0.337    0.439   51.623
  342.000   24.807    0.343    0.445   50.999
  342.250   24.796    0.347    0.438   50.989
  342.500   24.330    0.339    0.445   51.585
  342.750   23.874    0.337    0.442   50.965
  343.000   23.863    0.341    0.431   50.344
  343.250   23.859    0.341    0.430   50.938
  343.500   23.851    0.341    0.438   52.149
  343.750   24.291    0.344    0.431   53.966
  344.000   24.746    0.350    0.420   53.340
  344.250   25.201    0.341    0.406   50.890
  344.500   25.195    0.341    0.397   49.046
  344.750   25.190    0.343    0.397   47.818
  345.000   25.178    0.342    0.411   47.805
  345.250   25.174    0.343    0.414   48.405
  345.500   24.700    0.346    0.408   53.266
  345.750   23.785    0.342    0.429   56.913
  346.000   23.336    0.343    0.447   58.125
  346.250   22.894    0.342    0.443   56.894
  346.500   22.889    0.331    0.441   53.829
  346.750   22.881    0.324    0.463   54.427
  347.000   22.875    0.321    0.456   52.585
  347.250   22.867    0.337    0.435   54.405
  347.500   23.290    0.347    0.420   58.658
  347.750   23.286    0.353    0.420   56.817
  348.000   23.276    0.350    0.435   53.759
  348.250   23.710    0.351    0.445   54.357
  348.500   23.704    0.350    0.450   55.564
  348.750   23.693    0.341    0.448   52.500
  349.000   23.687    0.336    0.444   50.658
  349.250   23.682    0.346    0.446   50.040
  349.500   23.673    0.355    0.455   50.633
  349.750   23.665    0.357    0.462   50.623
  350.000   23.218    0.347    0.462   51.221
  350.250   23.210    0.341    0.447   52.430
  350.500   23.205    0.339    0.439   52.418
  350.750   23.196    0.349    0.445   53.013
  351.000   22.761    0.354    0.439   53.612
  351.250   22.750    0.352    0.430   52.376
  351.500   22.745    0.350    0.433   52.369
  351.750   22.740    0.355    0.422   51.742
  352.000   22.311    0.357    0.429   51.733
  352.250   21.889    0.355    0.437   52.328
  352.500   21.479    0.344    0.437   52.930
  352.750   21.069    0.332    0.438   54.747
  353.000   21.065    0.332    0.444   54.735
  353.250   21.059    0.342    0.451   54.113
  353.500   20.662    0.348    0.429   54.101
  353.750   20.273    0.351    0.440   55.306
  354.000   19.523    0.348    0.450   55.906
  354.250   17.443    0.337    0.448   59.551
  354.500   15.585    0.327    0.436   65.023
  354.750   13.665    0.318    0.440   66.844
  355.000   13.161    0.309    0.441   67.441
  355.250   12.673    0.321    0.447   70.478
  355.500   12.433    0.322    0.459   74.122
  355.750   11.751    0.321    0.468   75.942
  356.000   10.697    0.317    0.481   73.490
  356.250    9.739    0.311    0.466   70.430
  356.500    8.702    0.303    0.449   71.638
  356.750    7.775    0.294    0.463   76.499
  357.000    6.818    0.286    0.474   78.319
  357.250    6.206    0.283    0.488   76.479
  357.500    5.866    0.282    0.498   74.028
  357.750    5.649    0.267    0.517   77.672
  358.000    5.338    0.256    0.500   81.928
  358.250    5.045    0.283    0.519   83.744
  358.500    4.858    0.283    0.533   86.174
  358.750    4.678    0.267    0.520   88.598
  359.000    4.505    0.251    0.516   88.585
  359.250    4.338    0.242    0.495   89.791
  359.500    4.100    0.228    0.479   91.611
  359.750    3.663    0.243    0.470   90.378
  360.000    3.527    0.249    0.496   88.538
  360.250    3.461    0.253    0.519   87.911
  360.500    3.591    0.247    0.533   87.906
  360.750    3.658    0.237    0.537   84.235
  361.000    3.869    0.249    0.535   79.954
  361.250    4.015    0.270    0.534   79.941
  361.500    4.089    0.254    0.528   89.073
  361.750    3.865    0.241    0.520   92.722
