~VERSION INFORMATION
 VERS.                 2.0:   CWLS LOG ASCII STANDARD -VERSION 2.0
 WRAP.                  NO:   ONE LINE PER DEPTH STEP
~WELL INFORMATION BLOCK
#MNEM.UNIT           DATA                    DESCRIPTION OF MNEMONIC
#---------    -------------------            -------------------------------
# Generated from Intellog Unique Number	CW_79_81/WELL/2468
WELL.         10-18-080-20W4                 : Well_name    - WELL
LOC .         00/10-18-080-20W4/0            : Location     - LOCATION
UWI .         00/10-18-080-20W4/0            : Uwi          - UNIQUE WELL ID
ENTR.         MAX                            : Entered      - ENTERED BY
SRVC.         SCHLUMBERGER                   : Scn          - SERVICE COMPANY
STRT.M        152.4                          : top_depth    - START DEPTH
STOP.M        408.15                         : bot_depth    - STOP DEPTH
STEP.M        0.25                           : increment    - STEP LENGTH
 NULL. -999.2500:NULL Value
~CURVE INFORMATION BLOCK
#MNEM UNIT       ERCB CURVE CODE    CURVE DESCRIPTION
#-----------   ------------------   ----------------------------------
DEPT.M        00 001 00 00         : DEPTH        - DEPTH
ILD .OHMM     00 120 00 00         : RESD         - DEEP RESISTIVITY (DIL)
NPHI.V/V      00 330 00 00         : PHIN         - NEUTRON POROSITY (SANDSTONE)
DPHI.V/V      00 890 00 00         : PHID         - DENSITY POROSITY (SANDSTONE)
GR  .API      00 310 00 00         : GR           - GAMMA RAY
CALI.MM       00 280 01 00         : CAL          - CALIPER
~PARAMETER INFORMATION
#MNEM.UNIT           DATA             DESCRIPTION OF MNEMONIC
#---------         -----------     ------------------------------
GL  .M        579.272              : gl           - GROUND LEVEL ELEVATION
EREF.M        582.778              : kb           - ELEVATION OF DEPTH REFERENCE
DATM.M        579.272              : datum        - DATUM ELEVATION
TDD .M        411.48               : tdd          - TOTAL DEPTH DRILLER
RUN .         ONE                  : Run          - RUN NUMBER
ENG .         BILL                 : Engineer     - RECORDING ENGINEER
WIT .         JIM                  : Witness      - WITNESSED BY
MUD .         GEL                  : Mud_type     - MUD TYPE
MATR.         SANDSTONE            : Logunit      - NEUTRON MATRIX
TMAX.C        23.3333              : BHT          - MAXIMUM RECORDED TEMPERATURE
BHTD.M        411.48               : BHTDEP       - MAXIMUM RECORDED TEMPERATURE
MATR.         1                    : LOGUNIT      - NEUTRON MATRIX
RMT .C        10                   : MDTP         - TEMPERATURE OF MUD
NEUT.         1                    : NEUTRON      - NEUTRON TYPE
RESI.         0                    : RESIST       - RESISTIVITY TYPE
RMC .OHMM     7.01                 : RMC          - RESISTIVITY OF MUD CAKE
RMF .OHMM     3.48                 : RMF          - RESISTIVITY OF MUD FILTRATE
SUFT.C        -15                  : SUFT         - SURFACE TEMPERATURE
~A  DEPTH     RESD     PHIN     PHID       GR      CAL
# ...
  188.900    2.077    0.578    0.275  110.450  220.705
  189.150    2.094    0.575    0.258  109.032  220.742
  189.400    2.162    0.567    0.233  109.831  219.158
  189.650    2.316    0.566    0.193  110.195  213.759
  189.900    2.427    0.573    0.140  110.718  212.940
  190.150    2.447    0.565    0.213  113.858  213.798
  190.400    2.454    0.565    0.257  116.639  214.342
  190.650    2.456    0.567    0.274  119.180  214.581
  190.900    2.458    0.571    0.271  121.002  214.616
  191.150    2.461    0.581    0.264  120.774  214.654
  191.400    2.462    0.579    0.262  119.548  214.693
  191.650    2.483    0.574    0.265  119.091  214.325
  191.900    2.531    0.578    0.260  119.355  214.258
  192.150    2.589    0.585    0.248  118.896  214.296
  192.400    2.640    0.588    0.240  117.896  214.233
  192.650    2.670    0.575    0.249  118.764  213.869
  192.900    2.713    0.582    0.246  121.785  213.908
  193.150    2.796    0.589    0.236  117.726  213.540
  193.400    2.866    0.579    0.233  111.331  213.168
  193.650    2.910    0.561    0.225  110.035  212.596
  193.900    2.913    0.549    0.225  114.914  212.839
  194.150    2.853    0.555    0.270  120.692  216.122
  194.400    2.779    0.569    0.261  119.823  217.180
  194.650    2.739    0.566    0.259  118.342  217.223
  194.900    2.718    0.567    0.256  119.502  217.257
  195.150    2.710    0.571    0.253  120.365  217.089
  195.400    2.723    0.577    0.252  119.549  216.822
  195.650    2.774    0.581    0.253  117.034  216.867
  195.900    2.819    0.574    0.253  117.555  216.902
  196.150    2.884    0.570    0.249  114.459  216.537
  196.400    2.951    0.571    0.250  109.384  216.474
  196.650    2.997    0.564    0.255  106.049  216.508
  196.900    3.016    0.547    0.259  105.651  216.438
  197.150    3.010    0.533    0.258  106.277  216.078
  197.400    2.967    0.533    0.259  103.300  216.121
  197.650    2.884    0.513    0.265   99.722  215.753
  197.900    2.742    0.523    0.272   97.407  215.686
  198.150    2.637    0.546    0.284   95.630  217.548
  198.400    2.638    0.564    0.299   93.430  220.324
  198.650    2.950    0.555    0.314   88.170  218.592
  198.900    3.819    0.504    0.329   80.948  209.747
  199.150    5.198    0.491    0.324   69.940  204.501
  199.400    7.363    0.495    0.331   67.921  201.695
  199.650   11.704    0.501    0.336   67.101  200.719
  199.900   22.797    0.504    0.337   64.785  200.860
  200.150   43.513    0.501    0.338   63.423  201.139
  200.400   45.255    0.504    0.328   63.698  200.332
  200.650   45.623    0.503    0.326   63.480  199.561
  200.900   45.500    0.506    0.331   63.979  198.781
  201.150   44.708    0.503    0.335   65.438  198.610
  201.400   43.374    0.490    0.336   66.959  199.356
  201.650   41.870    0.472    0.334   66.354  201.026
  201.900   41.909    0.464    0.334   65.630  201.065
  202.150   42.247    0.482    0.332   65.168  201.102
  202.400   42.132    0.488    0.327   64.170  201.140
  202.650   41.559    0.480    0.319   61.915  200.974
  202.900   40.543    0.464    0.309   59.539  200.707
  203.150   38.642    0.455    0.300   59.992  200.754
  203.400   36.403    0.457    0.295   59.767  200.801
  203.650   33.346    0.454    0.310   59.068  200.011
  203.900   30.559    0.456    0.319   59.810  198.931
  204.150   28.562    0.459    0.323   60.552  198.361
  204.400   27.218    0.461    0.325   60.693  198.397
  204.650   25.924    0.464    0.328   60.479  198.350
  204.900   25.170    0.468    0.330   60.500  197.967
  205.150   24.285    0.466    0.337   61.002  198.008
  205.400   23.431    0.478    0.349   63.304  198.046
  205.650   22.782    0.487    0.359   65.004  198.488
  205.900   22.351    0.491    0.360   65.623  199.131
  206.150   21.910    0.504    0.346   66.659  199.174
  206.400   21.275    0.517    0.335   66.932  199.217
  206.650   21.137    0.528    0.368   63.838  199.250
  206.900   20.887    0.518    0.371   62.720  199.284
  207.150   20.528    0.510    0.365   62.380  199.320
  207.400   20.101    0.509    0.362   62.521  199.357
  207.650   19.595    0.506    0.359   63.946  199.404
  207.900   19.172    0.504    0.352   64.966  199.447
  208.150   19.047    0.501    0.344   65.470  199.481
  208.400   19.029    0.491    0.350   65.613  199.819
  208.650   19.185    0.486    0.354   65.514  200.060
  208.900   19.451    0.488    0.349   65.355  200.201
  209.150   19.587    0.496    0.344   65.481  200.648
  209.400   19.457    0.496    0.341   66.001  200.687
  209.650   19.188    0.492    0.338   66.505  200.721
  209.900   18.716    0.492    0.335   67.907  200.758
  210.150   17.783    0.498    0.333   69.727  200.999
  210.400   16.318    0.504    0.328   71.726  201.441
  210.650   13.837    0.497    0.310   74.010  201.975
  210.900   11.409    0.490    0.289   74.537  202.445
  211.150    9.693    0.474    0.273   71.917  202.073
  211.400    9.451    0.458    0.281   66.603  201.701
  211.650    9.976    0.448    0.300   63.267  201.535
  211.900   11.264    0.442    0.315   63.288  201.575
  212.150   14.260    0.434    0.311   66.602  201.619
  212.400   15.653    0.430    0.310   75.866  201.651
  212.650   14.019    0.442    0.280   87.162  203.316
  212.900   12.061    0.459    0.262   96.481  206.198
  213.150   10.403    0.470    0.249  100.101  207.858
  213.400    9.186    0.472    0.241   97.601  207.587
  213.650    8.370    0.468    0.252   91.864  206.403
  213.900    8.080    0.485    0.259   82.298  205.942
  214.150    8.148    0.489    0.292   76.575  203.862
  214.400    8.482    0.496    0.312   73.467  202.865
  214.650    9.060    0.484    0.322   71.211  202.295
  214.900    9.897    0.457    0.320   69.315  202.031
  215.150   11.267    0.444    0.305   67.619  202.075
  215.400   12.365    0.442    0.299   68.644  202.106
  215.650   12.742    0.454    0.295   68.664  202.144
  215.900   12.428    0.466    0.283   69.585  202.184
  216.150   11.815    0.472    0.269   73.805  202.224
  216.400   11.113    0.471    0.260   80.785  202.259
  216.650   10.152    0.461    0.261   87.799  202.297
  216.900    9.282    0.451    0.271   91.567  202.336
  217.150    8.251    0.461    0.262   93.506  203.592
  217.400    7.511    0.485    0.258   94.905  206.070
  217.650    7.100    0.504    0.254   93.968  208.751
  217.900    7.003    0.513    0.256   90.933  210.210
  218.150    7.306    0.516    0.278   88.177  207.774
  218.400    7.774    0.504    0.312   88.700  203.586
  218.650    8.425    0.485    0.300   91.360  204.034
  218.900    9.230    0.485    0.282   94.022  204.775
  219.150    9.740    0.487    0.265   97.642  207.653
  219.400    9.600    0.486    0.251  102.819  211.857
  219.650    8.693    0.485    0.235  110.002  214.434
  219.900    7.888    0.475    0.224  111.026  217.011
  220.150    6.552    0.487    0.235  110.809  219.493
  220.400    6.016    0.499    0.239  111.129  219.829
  220.650    5.915    0.498    0.241  112.228  220.472
  220.900    6.156    0.484    0.241  112.848  220.918
  221.150    6.932    0.464    0.231  108.588  217.121
  221.400    7.788    0.457    0.231  100.364  214.195
  221.650    8.747    0.448    0.234   92.949  219.509
  221.900    9.530    0.448    0.244   86.974  218.124
  222.150   10.048    0.442    0.257   82.320  213.086
  222.400   10.300    0.431    0.272   81.025  207.845
  222.650   10.385    0.425    0.290   88.684  206.090
  222.900   10.395    0.421    0.277   95.703  205.287
  223.150   10.105    0.433    0.258   95.965  206.543
  223.400    9.660    0.437    0.248   95.865  207.799
  223.650    9.290    0.435    0.240   97.686  208.442
  223.900    8.995    0.429    0.236  103.164  208.374
  224.150    8.568    0.421    0.237  113.654  208.105
  224.400    8.319    0.427    0.215  114.427  208.563
  224.650    8.085    0.433    0.219  114.931  209.007
  224.900    7.815    0.440    0.226  116.329  209.753
  225.150    7.542    0.453    0.223  118.868  210.600
