~VERSION INFORMATION
 VERS.                 2.0:   CWLS LOG ASCII STANDARD -VERSION 2.0
 WRAP.                  NO:   ONE LINE PER DEPTH STEP
~WELL INFORMATION BLOCK
#MNEM.UNIT           DATA                    DESCRIPTION OF MNEMONIC
#---------    -------------------            -------------------------------
# Generated from Intellog Unique Number	CS_73_76/WELL/2188
WELL.         PEX-MARGIS                     : Well_name    - WELL
LOC .         00/10-14-074-09W4/0            : Location     - LOCATION
UWI .         00/10-14-074-09W4/0            : Uwi          - UNIQUE WELL ID
ENTR.         SP                             : Entered      - ENTERED BY
SRVC.         SCHLUMBERGER                   : Scn          - SERVICE COMPANY
STRT.M        285                            : top_depth    - START DEPTH
STOP.M        493                            : bot_depth    - STOP DEPTH
STEP.M        0.25                           : increment    - STEP LENGTH
 NULL. -999.2500:NULL Value
~CURVE INFORMATION BLOCK
#MNEM UNIT       ERCB CURVE CODE    CURVE DESCRIPTION
#-----------   ------------------   ----------------------------------
DEPT.M        00 001 00 00         : DEPTH        - DEPTH
ILD .OHMM     00 120 00 00         : RESD         - DEEP RESISTIVITY (DIL)
NPHI.V/V      00 330 00 00         : PHIN         - NEUTRON POROSITY (LIMESTONE)
GR  .API      00 310 00 00         : GR           - GAMMA RAY
DPHI.V/V      00 890 00 00         : PHID         - DENSITY POROSITY (LIMESTONE)
~PARAMETER INFORMATION
#MNEM.UNIT           DATA             DESCRIPTION OF MNEMONIC
#---------         -----------     ------------------------------
GL  .M        654.68               : gl           - GROUND LEVEL ELEVATION
EREF.M        658.64               : kb           - ELEVATION OF DEPTH REFERENCE
DATM.M        654.68               : datum        - DATUM ELEVATION
TDD .M        503.51               : tdd          - TOTAL DEPTH DRILLER
RUN .         ONE                  : Run          - RUN NUMBER
ENG .         BILL                 : Engineer     - RECORDING ENGINEER
WIT .         JIM                  : Witness      - WITNESSED BY
MUD .         GEL                  : Mud_type     - MUD TYPE
MATR.         LIMESTONE            : Logunit      - NEUTRON MATRIX
TMAX.C        34                   : BHT          - MAXIMUM RECORDED TEMPERATURE
BHTD.M        503.51               : BHTDEP       - MAXIMUM RECORDED TEMPERATURE
MATR.         1                    : LOGUNIT      - NEUTRON MATRIX
RMT .C        25                   : MDTP         - TEMPERATURE OF MUD
NEUT.         1                    : NEUTRON      - NEUTRON TYPE
RESI.         0                    : RESIST       - RESISTIVITY TYPE
RMC .OHMM     0.25                 : RMC          - RESISTIVITY OF MUD CAKE
RMF .OHMM     0.25                 : RMF          - RESISTIVITY OF MUD FILTRATE
SUFT.C        15                   : SUFT         - SURFACE TEMPERATURE
~A  DEPTH     RESD     PHIN       GR     PHID
# ...
  328.500   11.589    0.368  101.062    0.225
  328.750   11.811    0.373  100.437    0.237
  329.000   12.982    0.374   97.323    0.229
  329.250   13.741    0.384   92.963    0.184
  329.500   14.543    0.381   91.094    0.075
  329.750   14.821    0.363   87.980    0.075
  330.000   15.104    0.381   88.600    0.146
  330.250   14.544    0.387   92.332    0.188
  330.500   14.272    0.384   94.197    0.210
  330.750   14.545    0.392   91.706    0.200
  331.000   15.106    0.410   91.081    0.221
  331.250   15.395    0.406   89.211    0.227
  331.500   15.989    0.383   85.475    0.209
  331.750   16.294    0.388   78.004    0.210
  332.000   16.605    0.384   68.043    0.280
  332.250   16.606    0.374   63.062    0.324
  332.500   16.606    0.383   58.703    0.333
  332.750   16.296    0.392   58.700    0.336
  333.000   16.296    0.388   62.432    0.323
  333.250   15.991    0.381   64.296    0.318
  333.500   15.109    0.374   66.161    0.337
  333.750   14.276    0.381   68.027    0.339
  334.000   13.236    0.384   74.871    0.319
  334.250   12.507    0.395   82.960    0.271
  334.500   11.378    0.393   89.183    0.251
  334.750   10.158    0.379   92.914    0.221
  335.000    8.899    0.383   93.535    0.207
  335.250    7.092    0.378   91.042    0.202
  335.500    5.546    0.392   91.663    0.277
  335.750    4.859    0.400   97.884    0.367
  336.000    4.591    0.400  100.372    0.403
  336.250    4.768    0.414  101.614    0.421
  336.500    5.143    0.424  100.368    0.343
  336.750    5.761    0.405   93.519    0.313
  337.000    6.453    0.399   87.915    0.251
  337.250    6.960    0.383   87.290    0.195
  337.500    7.508    0.383   90.400    0.178
  337.750    8.252    0.398   92.265    0.192
  338.000    9.600    0.397   89.150    0.197
  338.250   10.553    0.382   91.016    0.191
  338.500   11.169    0.371   92.258    0.191
  338.750   11.383    0.367   89.766    0.201
  339.000   11.383    0.367   87.275    0.208
  339.250   11.601    0.383   86.027    0.230
  339.500   11.601    0.391   86.647    0.241
  339.750   11.601    0.383   86.645    0.250
  340.000   11.601    0.398   86.021    0.237
  340.250   11.384    0.393   83.529    0.220
  340.500   11.171    0.389   84.149    0.199
  340.750   11.385    0.396   85.392    0.191
  341.000   12.050    0.391   86.012    0.206
  341.250   12.753    0.398   82.275    0.210
  341.500   14.018    0.402   74.181    0.217
  341.750   15.409    0.403   69.200    0.232
  342.000   16.620    0.391   65.464    0.269
  342.250   17.927    0.388   62.972    0.304
  342.500   18.270    0.392   66.082    0.284
  342.750   18.975    0.380   66.080    0.321
  343.000   19.337    0.373   64.209    0.334
  343.250   19.338    0.370   65.452    0.326
  343.500   18.976    0.373   66.695    0.319
  343.750   18.621    0.373   65.448    0.326
  344.000   18.621    0.367   66.069    0.312
  344.250   18.273    0.380   64.821    0.308
  344.500   18.273    0.385   63.574    0.296
  344.750   18.273    0.387   62.327    0.285
  345.000   18.274    0.381   64.192    0.311
  345.250   18.274    0.388   66.678    0.317
  345.500   17.932    0.394   68.544    0.319
  345.750   16.315    0.401   72.276    0.313
  346.000   15.709    0.420   76.631    0.305
  346.250   14.565    0.406   79.740    0.300
  346.500   13.762    0.392   82.850    0.289
  346.750   13.252    0.394   85.338    0.284
  347.000   13.252    0.391   85.335    0.292
  347.250   13.252    0.396   82.222    0.297
  347.500   13.505    0.393   82.219    0.307
  347.750   14.027    0.383   85.951    0.258
  348.000   14.295    0.376   83.460    0.252
  348.250   14.295    0.380   77.855    0.268
  348.500   14.027    0.361   75.986    0.295
  348.750   13.507    0.358   74.117    0.306
  349.000   13.006    0.369   72.870    0.275
  349.250   12.059    0.361   72.868    0.248
  349.500   11.611    0.370   74.110    0.247
  349.750   10.971    0.377   78.465    0.238
  350.000   10.564    0.386   84.687    0.218
  350.250   10.367    0.396   85.929    0.227
  350.500   10.367    0.406   85.305    0.233
  350.750    9.795    0.407   84.057    0.223
  351.000    8.420    0.403   87.167    0.232
  351.250    7.517    0.408   90.277    0.240
  351.500    6.341    0.416   92.142    0.266
  351.750    5.769    0.427   93.385    0.308
  352.000    5.348    0.414   91.515    0.303
  352.250    5.150    0.401   93.380    0.295
  352.500    4.866    0.396   96.490    0.302
  352.750    4.866    0.396   97.110    0.282
  353.000    4.959    0.406   98.352    0.289
  353.250    5.451    0.416   98.973    0.305
  353.500    5.880    0.424   94.613    0.326
  353.750    6.342    0.435   90.877    0.337
  354.000    6.840    0.411   88.385    0.290
  354.250    7.240    0.401   87.138    0.282
  354.500    7.809    0.401   85.890    0.273
  354.750    7.958    0.408   85.267    0.271
  355.000    8.111    0.403   80.907    0.283
  355.250    8.748    0.403   80.283    0.283
  355.500    9.085    0.401   84.637    0.253
  355.750    9.086    0.385   85.257    0.238
  356.000    9.259    0.379   80.276    0.246
  356.250    9.086    0.389   80.274    0.262
  356.500    8.585    0.393   82.138    0.263
  356.750    8.112    0.403   84.626    0.272
  357.000    7.242    0.397   86.491    0.262
  357.250    6.588    0.398   88.356    0.251
  357.500    5.994    0.406   92.087    0.240
  357.750    5.664    0.419   93.331    0.230
  358.000    5.664    0.432   97.685    0.215
  358.250    5.882    0.428  101.417    0.203
  358.500    6.109    0.428  102.038    0.204
  358.750    6.345    0.434   97.678    0.225
  359.000    6.589    0.443   90.830    0.234
  359.250    6.466    0.439   90.206    0.256
  359.500    6.110    0.439   93.315    0.273
  359.750    5.883    0.432   95.180    0.249
  360.000    5.252    0.429   94.555    0.222
  360.250    4.869    0.412   93.931    0.274
  360.500    4.515    0.411   95.173    0.302
  360.750    3.955    0.437   98.905    0.330
  361.000    3.531    0.447   99.526    0.300
  361.250    3.093    0.424  100.146    0.279
  361.500    2.814    0.429  103.878    0.243
  361.750    2.710    0.438  104.498    0.238
  362.000    2.710    0.418  101.384    0.252
  362.250    2.868    0.423  102.627    0.244
  362.500    3.093    0.440  100.134    0.248
  362.750    3.738    0.438   98.265    0.262
  363.000    4.031    0.431  101.375    0.265
  363.250    4.780    0.429   97.638    0.270
  363.500    5.059    0.420   90.790    0.281
  363.750    5.885    0.423   87.053    0.298
  364.000    6.469    0.431   86.428    0.311
  364.250    6.718    0.427   87.671    0.322
  364.500    6.719    0.418   89.536    0.291
  364.750    6.469    0.413   91.401    0.271
  365.000    6.229    0.410   92.644    0.244
  365.250    6.113    0.410   94.508    0.228
  365.500    6.113    0.401   95.128    0.234
  365.750    6.349    0.396   95.748    0.238
  366.000    6.594    0.399   93.879    0.233
  366.250    6.848    0.392   90.764    0.238
  366.500    7.248    0.389   90.763    0.233
  366.750    7.528    0.397   92.005    0.227
  367.000    7.818    0.401   92.625    0.219
  367.250    7.967    0.397   92.622    0.211
  367.500    7.672    0.395   91.999    0.224
  367.750    6.595    0.389   87.639    0.243
  368.000    5.157    0.378   85.770    0.262
  368.250    3.958    0.397   94.481    0.271
  368.500    3.467    0.418  101.947    0.288
  368.750    3.215    0.428  106.302    0.255
  369.000    3.037    0.441  107.545    0.241
  369.250    3.037    0.436  104.431    0.235
  369.500    3.037    0.432  108.163    0.223
  369.750    3.096    0.443  110.649    0.198
  370.000    3.038    0.453  111.271    0.243
  370.250    2.981    0.460  108.779    0.263
  370.500    2.870    0.463  108.154    0.283
  370.750    2.870    0.444  108.152    0.271
  371.000    3.038    0.436  108.149    0.288
  371.250    3.468    0.427  106.280    0.304
  371.500    4.035    0.437  100.054    0.244
  371.750    4.783    0.426   95.695    0.233
