~VERSION INFORMATION
 VERS.                 2.0:   CWLS LOG ASCII STANDARD -VERSION 2.0
 WRAP.                  NO:   ONE LINE PER DEPTH STEP
~WELL INFORMATION BLOCK
#MNEM.UNIT           DATA                    DESCRIPTION OF MNEMONIC
#---------    -------------------            -------------------------------
# Generated from Intellog Unique Number	CW_73_75/WELL/2979
WELL.         ANR ET AL FRANCIS 15-09        : Well_name    - WELL
LOC .         00/15-09-073-21W4/0            : Location     - LOCATION
UWI .         00/15-09-073-21W4/0            : Uwi          - UNIQUE WELL ID
ENTR.         JAYE                           : Entered      - ENTERED BY
SRVC.         WESTERN ATLAS                  : Scn          - SERVICE COMPANY
DATE.         30 JAN 81                      : Date         - LOG DATE
STRT.M        360                            : top_depth    - START DEPTH
STOP.M        560                            : bot_depth    - STOP DEPTH
STEP.M        0.25                           : increment    - STEP LENGTH
 NULL. -999.2500:NULL Value
~CURVE INFORMATION BLOCK
#MNEM UNIT       ERCB CURVE CODE    CURVE DESCRIPTION
#-----------   ------------------   ----------------------------------
DEPT.M        00 001 00 00         : DEPTH        - DEPTH
NPHI.V/V      00 330 00 00         : PHIN         - NEUTRON POROSITY (SANDSTONE)
ILD .OHMM     00 120 00 00         : RESD         - DEEP RESISTIVITY (DIL)
CALI.MM       00 280 01 00         : CAL          - CALIPER
GR  .API      00 310 00 00         : GR           - GAMMA RAY
DPHI.V/V      00 890 00 00         : PHID         - DENSITY POROSITY (SANDSTONE)
~PARAMETER INFORMATION
#MNEM.UNIT           DATA             DESCRIPTION OF MNEMONIC
#---------         -----------     ------------------------------
GL  .M        657.4                : gl           - GROUND LEVEL ELEVATION
EREF.M        660.4                : kb           - ELEVATION OF DEPTH REFERENCE
DATM.M        657.4                : datum        - DATUM ELEVATION
TDD .M        560                  : tdd          - TOTAL DEPTH DRILLER
RUN .         ONE                  : Run          - RUN NUMBER
ENG .         VINCENT              : Engineer     - RECORDING ENGINEER
WIT .         FARMER               : Witness      - WITNESSED BY
BASE.         EDM                  : Branch       - HOME BASE OF LOGGING UNIT
MUD .         GEL CHEM             : Mud_type     - MUD TYPE
MATR.         SANDSTONE            : Logunit      - NEUTRON MATRIX
TMAX.C        19                   : BHT          - MAXIMUM RECORDED TEMPERATURE
BHTD.M        559.1                : BHTDEP       - MAXIMUM RECORDED TEMPERATURE
RMT .C        18                   : MDTP         - TEMPERATURE OF MUD
MUDD.KG/M     1000                 : MWT          - MUD DENSITY
NEUT.         1                    : NEUTRON      - NEUTRON TYPE
RESI.         0                    : RESIST       - RESISTIVITY TYPE
RM  .OHMM     4.25                 : RM           - RESISTIVITY OF MUD
RMC .OHMM     4.9                  : RMC          - RESISTIVITY OF MUD CAKE
RMF .OHMM     4                    : RMF          - RESISTIVITY OF MUD FILTRATE
SUFT.C        0                    : SUFT         - SURFACE TEMPERATURE
~A  DEPTH     PHIN     RESD      CAL       GR     PHID
# ...
  506.000    0.306    5.145  156.600   85.248    0.257
  506.250    0.307    4.774  156.222   88.380    0.250
  506.500    0.311    4.386  156.358   82.612    0.247
  506.750    0.312    4.155  157.846   82.198    0.248
  507.000    0.318    4.158  159.442   85.767    0.239
  507.250    0.323    4.197  160.093   94.314    0.236
  507.500    0.318    4.237  160.132   97.261    0.238
  507.750    0.319    4.189  160.684  100.706    0.231
  508.000    0.326    4.101  160.925  104.149    0.227
  508.250    0.335    3.959  161.065  104.917    0.226
  508.500    0.335    3.789  161.200  110.602    0.219
  508.750    0.333    3.633  161.443  113.113    0.217
  509.000    0.335    3.430  161.477  113.133    0.216
  509.250    0.341    3.145  162.138  116.515    0.215
  509.500    0.343    2.924  162.169  117.345    0.214
  509.750    0.339    2.828  162.209  112.512    0.213
  510.000    0.329    2.964  161.931  107.242    0.205
  510.250    0.321    3.199  161.968  107.014    0.209
  510.500    0.315    3.452  162.107  103.174    0.208
  510.750    0.319    3.783  161.722  101.143    0.198
  511.000    0.310    4.298  161.860  101.474    0.188
  511.250    0.315    4.752  161.688   95.706    0.190
  511.500    0.313    5.015  161.411   98.404    0.201
  511.750    0.312    5.221  161.137   97.304    0.197
  512.000    0.306    5.297  160.757   99.566    0.197
  512.250    0.306    5.221  160.477  104.379    0.192
  512.500    0.325    5.118  160.512  102.785    0.185
  512.750    0.336    4.984  160.338  105.417    0.200
  513.000    0.324    4.894  160.063  108.675    0.211
  513.250    0.310    4.857  159.686  109.692    0.199
  513.500    0.316    4.778  159.510  110.458    0.180
  513.750    0.309    4.692  159.128  108.612    0.175
  514.000    0.310    4.656  159.371  105.645    0.182
  514.250    0.311    4.652  159.615  110.397    0.188
  514.500    0.312    4.752  159.962  110.230    0.171
  514.750    0.324    4.863  159.997  111.621    0.169
  515.000    0.321    4.925  160.032  105.169    0.171
  515.250    0.327    4.963  160.378  109.733    0.179
  515.500    0.307    5.035  161.240  110.875    0.198
  515.750    0.323    5.066  162.000  111.890    0.191
  516.000    0.331    5.078  161.311  115.273    0.184
  516.250    0.321    5.047  159.373  114.111    0.175
  516.500    0.313    4.966  158.062  110.025    0.169
  516.750    0.309    4.911  157.586  112.659    0.164
  517.000    0.305    4.898  157.199  108.883    0.156
  517.250    0.298    4.893  156.918  101.373    0.168
  517.500    0.291    4.914  156.745  105.937    0.178
  517.750    0.292    5.011  156.784  122.514    0.176
  518.000    0.301    5.137  156.611  148.303    0.152
  518.250    0.296    5.053  156.440  164.570    0.150
  518.500    0.293    5.136  156.577  160.109    0.174
  518.750    0.293    5.229  156.924  136.851    0.188
  519.000    0.293    5.351  157.265  120.814    0.192
  519.250    0.289    5.467  157.723  109.133    0.174
  519.500    0.289    5.604  157.853  102.431    0.173
  519.750    0.294    5.667  158.097   99.030    0.178
  520.000    0.300    5.632  158.555   98.054    0.179
  520.250    0.305    5.588  158.789  106.043    0.178
  520.500    0.314    5.451  159.031  110.669    0.179
  520.750    0.317    5.289  159.170  111.810    0.189
  521.000    0.305    5.063  159.101  116.748    0.180
  521.250    0.309    4.838  159.138  118.388    0.177
  521.500    0.290    4.735  158.861  121.085    0.177
  521.750    0.281    4.804  158.896  119.302    0.172
  522.000    0.256    5.070  158.720  111.540    0.149
  522.250    0.252    5.406  158.445  102.474    0.081
  522.500    0.264    5.785  158.484   89.424    0.158
  522.750    0.262    6.297  158.414  104.694    0.175
  523.000    0.252    6.937  158.243   97.619    0.144
  523.250    0.236    7.748  157.650   89.861    0.086
  523.500    0.213    8.909  157.381   83.035    0.059
  523.750    0.191   10.087  157.412   74.653    0.035
  524.000    0.179   11.800  157.240   67.329    0.023
  524.250    0.168   14.532  157.166   63.616    0.036
  524.500    0.168   17.352  156.888   63.449    0.026
  524.750    0.181   18.567  156.927   65.026    0.024
  525.000    0.204   17.560  156.960   68.471    0.025
  525.250    0.250   11.990  157.200   76.707    0.103
  525.500    0.285    9.199  157.444   96.645    0.126
  525.750    0.284    7.379  157.278  107.185    0.145
  526.000    0.279    6.297  157.304  105.526    0.150
  526.250    0.278    5.854  157.445  109.966    0.148
  526.500    0.288    5.405  157.377  106.564    0.153
  526.750    0.295    5.281  157.617  105.651    0.163
  527.000    0.289    5.368  157.965  108.410    0.159
  527.250    0.282    5.607  158.420  108.679    0.143
  527.500    0.281    5.767  158.659  104.655    0.143
  527.750    0.289    5.782  158.488  103.555    0.148
  528.000    0.287    5.826  158.625  106.563    0.160
  528.250    0.279    5.851  158.448  108.079    0.134
  528.500    0.274    5.906  158.481  104.364    0.125
  528.750    0.289    6.003  158.309  106.752    0.144
  529.000    0.301    6.080  158.346  105.900    0.154
  529.250    0.300    6.148  158.385  107.103    0.163
  529.500    0.289    6.173  157.905  108.307    0.161
  529.750    0.281    6.221  157.726  108.639    0.144
  530.000    0.265    6.312  157.552  109.968    0.129
  530.250    0.262    6.404  157.381  102.646    0.101
  530.500    0.267    6.431  157.520  102.789    0.121
  530.750    0.266    6.414  157.445  108.162    0.145
  531.000    0.262    6.321  157.378  112.540    0.168
  531.250    0.259    6.134  157.726  114.802    0.181
  531.500    0.261    5.921  157.760  114.324    0.172
  531.750    0.268    5.736  157.170  111.233    0.189
  532.000    0.271    5.643  157.207  107.023    0.195
  532.250    0.267    5.677  157.449  105.362    0.164
  532.500    0.266    5.839  157.795  106.192    0.159
  532.750    0.273    6.121  157.931  111.317    0.160
  533.000    0.265    6.394  158.179  105.673    0.115
  533.250    0.268    6.399  158.110  101.213    0.077
  533.500    0.291    5.739  158.243  103.910    0.143
  533.750    0.312    4.821  157.969  109.035    0.176
  534.000    0.329    3.796  157.589  109.865    0.203
  534.250    0.343    2.988  156.376  118.725    0.218
  534.500    0.351    2.485  155.690  116.691    0.215
  534.750    0.348    2.217  156.864  116.898    0.214
  535.000    0.358    2.090  158.036  115.054    0.205
  535.250    0.347    2.077  158.391  121.548    0.210
  535.500    0.329    2.162  158.626  121.567    0.203
  535.750    0.311    2.302  158.663  116.734    0.191
  536.000    0.296    2.619  158.800  110.717    0.172
  536.250    0.285    3.231  158.940  105.075    0.125
  536.500    0.289    3.722  158.664  106.526    0.143
  536.750    0.295    4.207  158.592  111.215    0.156
  537.000    0.281    4.805  158.003  116.776    0.163
  537.250    0.256    5.240  157.002  121.153    0.171
  537.500    0.227    5.520  156.517  119.058    0.138
  537.750    0.195    5.999  156.452  102.895    0.008
  538.000    0.210    6.711  156.589   81.318    0.010
  538.250    0.250    7.368  156.627   68.454    0.033
  538.500    0.285    7.736  156.659   84.596    0.116
  538.750    0.293    7.329  156.695  100.240    0.139
  539.000    0.303    6.340  156.829  105.800    0.139
  539.250    0.301    5.814  156.765  107.565    0.119
  539.500    0.310    5.574  156.588  108.581    0.135
  539.750    0.307    5.521  156.105  106.611    0.142
  540.000    0.304    5.451  155.726  106.135    0.134
  540.250    0.300    5.446  155.656  106.215    0.127
  540.500    0.306    5.478  155.897  104.369    0.133
  540.750    0.303    5.473  156.141  106.694    0.142
  541.000    0.298    5.468  156.280  112.006    0.138
  541.250    0.301    5.342  156.312  111.838    0.143
  541.500    0.320    5.175  156.764  113.603    0.153
  541.750    0.314    4.996  156.902  113.810    0.153
  542.000    0.320    4.790  157.143  112.151    0.145
  542.250    0.312    4.633  157.178  112.918    0.138
