~VERSION INFORMATION
 VERS.                 2.0:   CWLS LOG ASCII STANDARD -VERSION 2.0
 WRAP.                  NO:   ONE LINE PER DEPTH STEP
~WELL INFORMATION BLOCK
#MNEM.UNIT           DATA                    DESCRIPTION OF MNEMONIC
#---------    -------------------            -------------------------------
# Generated from Intellog Unique Number	CW_70_72/WELL/1069
NULL.         -999.25                        : NULL_VALUE
WELL.         NORCEN ET AL BLANCHE 14-35     : Well_name    - WELL              
LOC .         14-35-072-02W5                 : Location     - LOCATION          
UWI .         00/14-35-072-02W5/0            : Uwi          - UNIQUE WELL ID    
ENTR.         JAYE                           : Entered      - ENTERED BY        
SRVC.         COMPUTALOG                     : Scn          - SERVICE COMPANY   
DATE.         6 JAN 86                       : Date         - LOG DATE          
STRT.M        375                            : top_depth    - START DEPTH       
STOP.M        615                            : bot_depth    - STOP DEPTH        
STEP.M        0.25                           : increment    - STEP LENGTH       
~CURVE INFORMATION BLOCK
#MNEM UNIT       ERCB CURVE CODE    CURVE DESCRIPTION
#-----------   ------------------   ----------------------------------
DEPT.M        00 001 00 00         : DEPTH        - DEPTH                       
DPHI.V/V      00 890 00 00         : PHID         - DENSITY POROSITY (SANDSTONE)
NPHI.V/V      00 330 00 00         : PHIN         - NEUTRON POROSITY (SANDSTONE)
CALI.MM       00 280 01 00         : CAL          - CALIPER                     
GR  .API      00 310 00 00         : GR           - GAMMA RAY                   
ILD .OHMM     00 120 00 00         : RESD         - DEEP RESISTIVITY (DIL)      
~PARAMETER INFORMATION       
#MNEM.UNIT           DATA             DESCRIPTION OF MNEMONIC
#---------         -----------     ------------------------------
GL  .M        587.75               : gl           - GROUND LEVEL ELEVATION      
EREF.M        591.25               : kb           - ELEVATION OF DEPTH REFERENCE
DATM.M        587.75               : datum        - DATUM ELEVATION             
TDD .M        628                  : tdd          - TOTAL DEPTH DRILLER         
RUN .         ONE                  : Run          - RUN NUMBER                  
ENG .         CALDERWOOD           : Engineer     - RECORDING ENGINEER          
WIT .         HUGHES               : Witness      - WITNESSED BY                
BASE.         EDM                  : Branch       - HOME BASE OF LOGGING UNIT   
MUD .         GEL CHEM             : Mud_type     - MUD TYPE                    
MATR.         SANDSTONE            : Logunit      - NEUTRON MATRIX              
TMAX.C        50                   : BHT          - MAXIMUM RECORDED TEMPERATURE
BHTD.M        633.1                : BHTDEP       - MAXIMUM RECORDED TEMPERATURE
RMT .C        15.6                 : MDTP         - TEMPERATURE OF MUD          
MUDD.KG/M     1170                 : MWT          - MUD DENSITY                 
NEUT.         1                    : NEUTRON      - NEUTRON TYPE                
RESI.         0                    : RESIST       - RESISTIVITY TYPE            
RM  .OHMM     4                    : RM           - RESISTIVITY OF MUD          
RMC .OHMM     5                    : RMC          - RESISTIVITY OF MUD CAKE     
RMF .OHMM     4.8                  : RMF          - RESISTIVITY OF MUD FILTRATE 
SUFT.C        0                    : SUFT         - SURFACE TEMPERATURE         
~A  DEPTH     PHID     PHIN      CAL       GR     RESD
# ...
  557.500    0.103    0.382  207.939   81.049    7.796
  557.750    0.074    0.362  207.081   76.444    7.886
  558.000    0.090    0.347  206.942   74.522    7.859
  558.250    0.119    0.357  207.292   80.016    7.788
  558.500    0.135    0.362  207.354   82.049    7.715
  558.750    0.129    0.355  207.891   83.069    7.589
  559.000    0.121    0.350  208.532   83.956    7.488
  559.250    0.121    0.357  209.059   84.407    7.380
  559.500    0.125    0.350  209.351   85.544    7.311
  559.750    0.128    0.343  209.149   89.244    7.311
  560.000    0.129    0.340  209.023   86.177    7.314
  560.250    0.124    0.337  208.932   81.697    7.329
  560.500    0.117    0.336  208.994   84.886    7.305
  560.750    0.109    0.347  209.437   86.862    7.291
  561.000    0.105    0.357  209.764   86.985    7.290
  561.250    0.116    0.362  209.821   86.405    7.362
  561.500    0.117    0.357  209.608   84.805    7.531
  561.750    0.109    0.349  209.497   81.735    7.675
  562.000    0.094    0.335  209.404   82.368    7.721
  562.250    0.066    0.318  209.283   87.092    7.535
  562.500    0.043    0.313  209.703   88.241    7.031
  562.750    0.082    0.320  210.231   90.533    6.199
  563.000    0.116    0.339  211.169   95.570    5.023
  563.250    0.136    0.364  212.753   98.572    4.002
  563.500    0.157    0.408  214.881   90.517    3.242
  563.750    0.212    0.444  216.667   89.043    2.583
  564.000    0.253    0.486  219.110   90.767    2.101
  564.250    0.244    0.512  220.181   90.439    1.842
  564.500    0.244    0.493  218.665   91.011    1.752
  564.750    0.241    0.489  215.790   93.948    1.752
  565.000    0.227    0.499  212.806   94.577    1.817
  565.250    0.210    0.505  211.191   93.997    1.897
  565.500    0.189    0.507  210.545   96.423    2.045
  565.750    0.166    0.497  210.546   99.992    2.234
  566.000    0.139    0.459  210.761  102.416    2.497
  566.250    0.112    0.414  210.856   97.492    2.724
  566.500    0.095    0.400  210.633   91.036    2.892
  566.750    0.100    0.389  210.737   91.288    3.245
  567.000    0.100    0.374  210.411   92.499    3.681
  567.250    0.089    0.372  210.085   92.049    4.106
  567.500    0.073    0.381  210.060   89.102    4.411
  567.750    0.072    0.381  210.070   83.351    4.650
  568.000    0.079    0.372  209.855   88.838    4.977
  568.250    0.089    0.382  209.752   92.475    5.510
  568.500    0.101    0.389  210.039   93.245    5.974
  568.750    0.086    0.370  210.767   93.361    6.816
  569.000    0.062    0.348  210.990   92.973    7.719
  569.250    0.079    0.333  210.869   90.990    7.986
  569.500    0.077    0.335  210.216   85.744    7.766
  569.750    0.039    0.332  208.724   80.567    7.126
  570.000    0.021    0.326  207.759   74.562    6.609
  570.250    0.077    0.328  207.755   73.407    6.166
  570.500    0.101    0.337  207.740   81.702    5.950
  570.750    0.106    0.352  207.733   91.343    6.012
  571.000    0.106    0.366  207.936   91.852    6.194
  571.250    0.107    0.377  208.142   89.419    6.395
  571.500    0.109    0.364  207.924   87.178    6.705
  571.750    0.110    0.366  207.489   83.532    7.030
  572.000    0.104    0.360  207.158   83.017    7.286
  572.250    0.097    0.348  206.849   88.952    7.385
  572.500    0.090    0.348  206.614   90.608    7.301
  572.750    0.082    0.351  206.500   91.123    7.047
  573.000    0.074    0.343  206.290   93.093    6.852
  573.250    0.069    0.342  205.944   94.812    6.754
  573.500    0.106    0.352  204.979   96.022    6.804
  573.750    0.129    0.355  203.267   94.805    7.096
  574.000    0.168    0.352  199.428   81.192    7.408
  574.250    0.213    0.346  195.813   63.114    7.930
  574.500    0.230    0.342  194.202   52.571    8.310
  574.750    0.241    0.336  193.775   46.885    8.766
  575.000    0.228    0.330  193.656   43.808    9.031
  575.250    0.190    0.320  193.221   42.914    9.290
  575.500    0.173    0.307  193.315   47.064    9.486
  575.750    0.163    0.302  193.323   52.165    9.579
  576.000    0.174    0.310  193.754   58.356    9.419
  576.250    0.184    0.319  193.935   61.735    9.124
  576.500    0.181    0.327  193.616   62.369    8.708
  576.750    0.182    0.330  193.705   61.277    8.264
  577.000    0.186    0.332  193.589   59.360    7.886
  577.250    0.185    0.323  193.490   60.312    7.610
  577.500    0.178    0.317  193.594   61.780    7.332
  577.750    0.175    0.319  193.785   61.969    7.129
  578.000    0.176    0.327  194.090   61.516    6.972
  578.250    0.181    0.323  194.733   62.721    6.867
  578.500    0.180    0.329  195.144   67.633    6.804
  578.750    0.173    0.339  195.142   65.651    6.784
  579.000    0.158    0.333  195.353   63.919    6.781
  579.250    0.139    0.326  195.437   67.876    6.720
  579.500    0.131    0.332  195.868   71.322    6.620
  579.750    0.133    0.342  195.955   71.890    6.425
  580.000    0.131    0.354  198.291   72.336    6.143
  580.250    0.127    0.378  205.625   77.566    5.731
  580.500    0.121    0.423  210.302   94.103    5.036
  580.750    0.120    0.454  206.249  105.662    4.751
  581.000    0.143    0.343  199.653   99.396    5.076
  581.250    0.174    0.216  198.146   71.609    6.162
  581.500    0.096    0.165  198.785   44.967    7.258
  581.750    0.044    0.125  200.584   33.849    8.389
  582.000    0.031    0.101  201.534   29.503    9.304
  582.250    0.054    0.124  199.298   28.159    9.754
  582.500    0.106    0.153  196.106   27.965    9.016
  582.750    0.145    0.182  194.590   28.722    8.412
  583.000    0.131    0.216  192.690   32.305    8.134
  583.250    0.127    0.250  192.551   36.514    8.243
  583.500    0.154    0.267  194.568   41.929    8.774
  583.750    0.170    0.279  197.869   48.248    9.460
  584.000    0.140    0.269  203.174   45.435   10.258
  584.250    0.116    0.257  206.997   49.968   11.167
  584.500    0.102    0.263  205.820   57.883   11.995
  584.750    0.108    0.277  205.610   62.600   12.982
  585.000    0.132    0.288  205.380   67.009   13.508
  585.250    0.148    0.310  204.848   69.809   13.210
  585.500    0.166    0.340  204.722   74.407   11.540
  585.750    0.158    0.368  206.423   84.365    9.510
  586.000    0.127    0.393  208.974   92.919    7.393
  586.250    0.159    0.417  211.510   99.816    6.291
  586.500    0.224    0.437  212.997   96.807    5.641
  586.750    0.261    0.460  204.298   93.035    5.403
  587.000    0.183    0.457  205.424   97.113    5.838
  587.250    0.146    0.360  206.914  105.733    6.367
  587.500    0.121    0.327  206.684   94.550    7.129
  587.750    0.109    0.299  205.306   82.283    7.966
  588.000    0.099    0.275  204.648   70.592    9.139
  588.250    0.103    0.252  204.114   53.919   10.118
  588.500    0.145    0.236  203.360   44.712    9.230
  588.750    0.206    0.246  202.818   34.105    7.606
  589.000    0.235    0.270  202.289   31.865    6.424
  589.250    0.227    0.307  202.062   41.954    5.740
  589.500    0.303    0.359  201.201   59.959    5.550
  589.750    0.331    0.409  198.954   71.196    5.459
  590.000    0.300    0.370  197.040   70.681    5.367
  590.250    0.224    0.327  195.338   55.605    5.328
  590.500    0.209    0.298  194.994   38.992    5.340
  590.750    0.194    0.283  194.348   27.428    5.461
  591.000    0.176    0.271  194.029   22.439    5.672
  591.250    0.147    0.266  194.450   26.847    6.232
  591.500    0.298    0.276  195.282   38.337    7.084
  591.750    0.374    0.324  197.841   49.252    8.536
  592.000    0.498    0.471  199.746   73.645    9.574
  592.250    0.532    0.473  200.689   85.011   10.267
  592.500    0.239    0.376  200.152   81.177   10.620
  592.750    0.180    0.342  197.802   68.969   10.022
  593.000    0.206    0.305  195.239   53.316    8.029
  593.250    0.239    0.286  193.849   45.776    6.398
  593.500    0.265    0.297  193.733   49.221    5.631
  593.750    0.286    0.343  195.430   38.741    4.956
