~VERSION INFORMATION
 VERS.                 2.0:   CWLS LOG ASCII STANDARD -VERSION 2.0
 WRAP.                  NO:   ONE LINE PER DEPTH STEP
~WELL INFORMATION BLOCK
#MNEM.UNIT           DATA                    DESCRIPTION OF MNEMONIC
#---------    -------------------            -------------------------------
# Generated from Intellog Unique Number	CW_82_90/WELL/702
WELL.         10-14-082-19W4                 : Well_name    - WELL
LOC .         00/10-14-082-19W4/0            : Location     - LOCATION
UWI .         00/10-14-082-19W400            : Uwi          - UNIQUE WELL ID
ENTR.         JAYE                           : Entered      - ENTERED BY
SRVC.         COMPUTALOG                     : Scn          - SERVICE COMPANY
DATE.         FEB 13 77                      : Date         - LOG DATE
STRT.M        155.448                        : top_depth    - START DEPTH
STOP.M        344.448                        : bot_depth    - STOP DEPTH
STEP.M        0.25                           : increment    - STEP LENGTH
 NULL. -999.2500:NULL Value
~CURVE INFORMATION BLOCK
#MNEM UNIT       ERCB CURVE CODE    CURVE DESCRIPTION
#-----------   ------------------   ----------------------------------
DEPT.M        00 001 00 00         : DEPTH        - DEPTH
CALI.MM       00 280 01 00         : CAL          - CALIPER
GR  .API      00 310 00 00         : GR           - GAMMA RAY
NPHI.V/V      00 330 00 00         : PHIN         - NEUTRON POROSITY (SANDSTONE)
DPHI.V/V      00 890 00 00         : PHID         - DENSITY POROSITY (SANDSTONE)
COND.MMHO                          : COND         - DEEP CONDUCTIVITY (DIL)
ILD .OHMM     00 120 00 00         : RESD         - DEEP RESISTIVITY (DIL)
~PARAMETER INFORMATION
#MNEM.UNIT           DATA             DESCRIPTION OF MNEMONIC
#---------         -----------     ------------------------------
GL  .M        573.024              : gl           - GROUND LEVEL ELEVATION
EREF.M        576.682              : kb           - ELEVATION OF DEPTH REFERENCE
DATM.M        573.024              : datum        - DATUM ELEVATION
TDD .M        347.472              : tdd          - TOTAL DEPTH DRILLER
RUN .         ONE                  : Run          - RUN NUMBER
ENG .         KING                 : Engineer     - RECORDING ENGINEER
WIT .         CARS                 : Witness      - WITNESSED BY
BASE.         MEDICINE HAT         : Branch       - HOME BASE OF LOGGING UNIT
MUD .         GEL                  : Mud_type     - MUD TYPE
MATR.         SANDSTONE            : Logunit      - NEUTRON MATRIX
TMAX.C        17.7778              : BHT          - MAXIMUM RECORDED TEMPERATURE
BHTD.M        347.472              : BHTDEP       - MAXIMUM RECORDED TEMPERATURE
RMT .C        17.7778              : MDTP         - TEMPERATURE OF MUD
MUDD.KG/M     9100                 : MWT          - MUD DENSITY
NEUT.         0                    : NEUTRON      - NEUTRON TYPE
RESI.         0                    : RESIST       - RESISTIVITY TYPE
RM  .OHMM     9.5                  : RM           - RESISTIVITY OF MUD
RMC .OHMM     0                    : RMC          - RESISTIVITY OF MUD CAKE
RMF .OHMM     0                    : RMF          - RESISTIVITY OF MUD FILTRATE
SUFT.C        4                    : SUFT         - SURFACE TEMPERATURE
~A  DEPTH      CAL       GR     PHIN     PHID     COND     RESD
# ...
  186.698  172.417  164.313    0.534    0.197  594.108    5.164
  186.948  171.311  160.959    0.490    0.195  596.975    5.284
  187.198  170.303  156.869    0.476    0.165  597.537    5.365
  187.448  169.919  166.561    0.568    0.151  597.603    5.174
  187.698  169.944  164.309    0.598    0.194  600.467    4.828
  187.948  168.629  169.958    0.581    0.191  606.042    4.444
  188.198  166.906  166.971    0.567    0.184  616.717    4.176
  188.448  165.796  167.660    0.576    0.182  624.291    4.023
  188.698  165.000  159.895    0.576    0.265  632.565    4.144
  188.948  163.997  149.987    0.548    0.280  635.431    4.729
  189.198  163.609  143.693    0.491    0.267  628.786    5.703
  189.448  165.386  140.461    0.461    0.256  614.333    7.104
  189.698  167.677  144.762    0.475    0.245  597.780    8.389
  189.948  171.514  150.840    0.503    0.243  570.311    8.275
  190.198  174.835  150.426    0.536    0.241  561.866    7.968
  190.448  176.506  145.787    0.509    0.236  561.229    7.739
  190.698  175.811  150.087    0.492    0.233  562.993    7.470
  190.948  175.836  149.365    0.470    0.231  565.860    7.280
  191.198  174.008  145.766    0.468    0.233  568.427    7.399
  191.448  171.872  144.679    0.483    0.253  568.491    8.218
  191.698  169.424  123.193    0.444    0.296  566.552    9.852
  191.948  166.463  116.226    0.441    0.327  560.007   12.301
  192.198  164.530  101.113    0.442    0.366  551.764   13.935
  192.448  163.016   99.901    0.446    0.364  542.317   15.918
  192.698  162.013   96.853    0.460    0.365  532.468   25.073
  192.948  161.108   96.989    0.455    0.369  523.822   25.503
  193.198  160.203   98.232    0.450    0.372  518.480   26.320
  193.448  159.717   96.590    0.454    0.376  515.438   27.534
  193.698  159.533   96.360    0.468    0.378  514.298   29.139
  193.948  159.251   94.412    0.440    0.375  515.165   30.739
  194.198  159.381   94.488    0.421    0.372  513.823   32.732
  194.448  160.023   95.175    0.429    0.372  512.889   34.337
  194.698  161.182   92.068    0.411    0.373  511.855   35.942
  194.948  162.545   93.979    0.409    0.371  510.616   37.151
  195.198  164.424   94.790    0.392    0.369  509.281   38.751
  195.448  166.306   96.336    0.396    0.366  508.243   39.965
  195.698  166.946   97.880    0.437    0.367  507.407   43.136
  195.948  165.119   97.099    0.443    0.378  507.461   45.524
  196.198  164.320   97.725    0.456    0.384  507.629   45.559
  196.448  163.933   99.148    0.448    0.383  507.398   42.856
  196.698  163.242  103.084    0.448    0.379  507.360   41.711
  196.948  162.440   94.399    0.424    0.374  507.716   42.141
  197.198  161.544   88.962    0.454    0.373  508.091   43.741
  197.448  160.947   93.141    0.445    0.374  507.853   46.530
  197.698  160.661   85.440    0.416    0.373  507.219   48.514
  197.948  160.279   83.983    0.413    0.371  506.779   52.468
  198.198  159.995   86.876    0.424    0.373  506.741   54.465
  198.448  159.815   88.177    0.435    0.377  506.809   49.800
  198.698  159.426   86.599    0.447    0.374  506.965   44.743
  198.948  159.450   87.775    0.476    0.368  507.032   40.865
  199.198  159.682   86.749    0.483    0.369  507.400   38.949
  199.448  160.122   86.579    0.480    0.353  507.767   38.592
  199.698  160.454   85.613    0.445    0.365  508.528   40.193
  199.948  160.484   86.423    0.418    0.358  508.694   42.972
  200.198  160.816   83.866    0.409    0.372  509.055   45.352
  200.448  161.151   84.553    0.433    0.377  509.318   47.353
  200.698  161.486   84.814    0.464    0.379  509.683   46.995
  200.948  161.614   86.726    0.416    0.381  510.551   44.688
  201.198  161.435   90.353    0.399    0.377  511.615   42.373
  201.448  161.662   80.505    0.397    0.378  512.382   38.491
  201.698  160.966   86.890    0.410    0.381  513.845   34.996
  201.948  160.374   87.394    0.432    0.382  515.713   29.160
  202.198  159.987   89.919    0.453    0.376  517.679   25.278
  202.448  159.817   92.261    0.458    0.367  520.746   21.013
  202.698  159.729   92.582    0.464    0.367  524.116   17.223
  202.948  159.351   92.535    0.479    0.368  528.284   15.324
  203.198  159.065   91.939    0.485    0.366  532.445   14.318
  203.448  159.087   89.930    0.526    0.363  535.213   13.662
  203.698  159.215   85.718    0.500    0.365  536.983   13.549
  203.948  159.238   83.772    0.490    0.358  538.352   13.436
  204.198  159.472   83.173    0.496    0.366  539.417   13.129
  204.448  159.706   85.271    0.503    0.368  539.579   12.705
  204.698  159.632   89.817    0.491    0.372  540.038   12.437
  204.948  159.546   89.524    0.491    0.371  540.102   12.129
  205.198  159.781   90.824    0.478    0.364  540.374   12.249
  205.448  160.015   94.332    0.478    0.361  540.331   12.757
  205.698  160.244   95.388    0.443    0.359  539.800   12.800
  205.948  160.378   97.606    0.444    0.341  540.965   11.678
  206.198  160.399   93.883    0.437    0.288  544.934   11.098
  206.448  160.531   87.772    0.395    0.222  550.299   10.481
  206.698  160.861   77.864    0.295    0.146  551.468    9.786
  206.948  160.990   75.736    0.169    0.107  554.233    8.935
  207.198  161.223   89.775    0.220    0.243  558.604    8.123
  207.448  161.453   92.422    0.415    0.275  564.775    7.311
  207.698  161.585   84.597    0.346    0.247  570.547    6.384
  207.948  161.605   80.201    0.202    0.125  578.716    5.727
  208.198  161.635   83.093    0.195    0.182  588.295    5.187
  208.448  161.448   97.318    0.318    0.238  603.978    4.802
  208.698  161.068  124.529    0.544    0.300  612.249    4.689
  208.948  160.681  125.828    0.565    0.303  613.214    4.731
  209.198  160.290  114.020    0.537    0.313  605.567    5.123
  209.448  160.010  108.277    0.521    0.311  595.623    5.902
  209.698  159.825  104.309    0.501    0.312  581.967    6.954
  209.948  159.648   96.852    0.512    0.327  574.625    7.578
  210.198  162.769   83.820    0.478    0.365  571.886    8.048
  210.448  160.005   74.830    0.462    0.391  559.836    8.673
  210.698  159.622   62.227    0.497    0.425  555.296    9.297
  210.948  159.644   45.154    0.547    0.492  552.250   10.232
  211.198  159.977   56.070    0.668    0.443  548.515   10.973
  211.448  160.106   65.333    0.597    0.325  542.572   11.791
  211.698  160.348   71.656    0.411    0.318  537.021   13.037
  211.948  160.993   76.937    0.378    0.337  536.090   13.700
  212.198  161.734   77.686    0.383    0.360  536.255   13.976
  212.448  161.857   76.476    0.395    0.359  535.416   14.135
  212.698  161.577   72.386    0.442    0.369  534.979   14.215
  212.948  161.495   74.974    0.463    0.377  535.043   14.296
  213.198  161.834   74.619    0.443    0.375  534.002   14.339
  213.448  162.164   73.285    0.434    0.372  533.068   14.498
  213.698  161.985   76.179    0.467    0.372  532.436   14.656
  213.948  162.219   79.133    0.456    0.375  531.896   14.854
  214.198  162.550   84.476    0.459    0.374  531.658   15.130
  214.448  161.649   84.796    0.454    0.366  531.213   15.288
  214.698  161.059   79.298    0.434    0.366  530.984   15.486
  214.948  161.086   79.557    0.425    0.368  530.950   15.605
  215.198  161.011   80.185    0.429    0.369  530.811   15.764
  215.448  160.720   79.403    0.434    0.369  530.677   15.961
  215.698  159.823   77.579    0.423    0.365  530.744   16.159
  215.948  159.948   72.570    0.389    0.363  530.805   16.395
  216.198  159.974   67.013    0.386    0.362  530.971   16.593
  216.448  159.897   67.272    0.389    0.361  530.629   16.673
  216.698  160.744   68.448    0.392    0.365  530.598   16.600
  216.948  160.055   70.240    0.397    0.370  530.157   16.486
  217.198  159.676   72.397    0.397    0.372  529.720   16.335
  217.448  159.587   75.963    0.393    0.375  529.478   16.222
  217.698  159.723   79.040    0.441    0.377  529.647   16.186
