~VERSION INFORMATION
 VERS.                 2.0:   CWLS LOG ASCII STANDARD -VERSION 2.0
 WRAP.                  NO:   ONE LINE PER DEPTH STEP
~WELL INFORMATION BLOCK
#MNEM.UNIT           DATA                    DESCRIPTION OF MNEMONIC
#---------    -------------------            -------------------------------
# Generated from Intellog Unique Number	CW_70_72/WELL/3035
NULL.         -999.25                        : NULL_VALUE
WELL.         PALOMA MITSUE 11-33            : Well_name    - WELL              
LOC .         11-33-070-03W5                 : Location     - LOCATION          
UWI .         00/11-33-070-03W5/0            : Uwi          - UNIQUE WELL ID    
ENTR.         JAYE                           : Entered      - ENTERED BY        
SRVC.         SCHLUMBERGER                   : Scn          - SERVICE COMPANY   
DATE.         7 AUG 84                       : Date         - LOG DATE          
STRT.M        495                            : top_depth    - START DEPTH       
STOP.M        700                            : bot_depth    - STOP DEPTH        
STEP.M        0.25                           : increment    - STEP LENGTH       
~CURVE INFORMATION BLOCK
#MNEM UNIT       ERCB CURVE CODE    CURVE DESCRIPTION
#-----------   ------------------   ----------------------------------
DEPT.M        00 001 00 00         : DEPTH        - DEPTH                       
ILD .OHMM     00 120 00 00         : RESD         - DEEP RESISTIVITY (DIL)      
CALI.MM       00 280 01 00         : CAL          - CALIPER                     
GR  .API      00 310 00 00         : GR           - GAMMA RAY                   
NPHI.V/V      00 330 00 00         : PHIN         - NEUTRON POROSITY (SANDSTONE)
DPHI.V/V      00 890 00 00         : PHID         - DENSITY POROSITY (SANDSTONE)
~PARAMETER INFORMATION       
#MNEM.UNIT           DATA             DESCRIPTION OF MNEMONIC
#---------         -----------     ------------------------------
GL  .M        654.6                : gl           - GROUND LEVEL ELEVATION      
EREF.M        660.3                : kb           - ELEVATION OF DEPTH REFERENCE
DATM.M        654.6                : datum        - DATUM ELEVATION             
TDD .M        1723                 : tdd          - TOTAL DEPTH DRILLER         
RUN .         ONE                  : Run          - RUN NUMBER                  
ENG .         CSIKOS/CORNISH       : Engineer     - RECORDING ENGINEER          
WIT .         KELLY                : Witness      - WITNESSED BY                
BASE.         EDM                  : Branch       - HOME BASE OF LOGGING UNIT   
MUD .         GEL                  : Mud_type     - MUD TYPE                    
MATR.         SANDSTONE            : Logunit      - NEUTRON MATRIX              
TMAX.C        50                   : BHT          - MAXIMUM RECORDED TEMPERATURE
BHTD.M        1725.7               : BHTDEP       - MAXIMUM RECORDED TEMPERATURE
RMT .C        22.7                 : MDTP         - TEMPERATURE OF MUD          
MUDD.KG/M     1100                 : MWT          - MUD DENSITY                 
NEUT.         1                    : NEUTRON      - NEUTRON TYPE                
RESI.         0                    : RESIST       - RESISTIVITY TYPE            
RM  .OHMM     1.17                 : RM           - RESISTIVITY OF MUD          
RMC .OHMM     0.25                 : RMC          - RESISTIVITY OF MUD CAKE     
RMF .OHMM     0.89                 : RMF          - RESISTIVITY OF MUD FILTRATE 
SUFT.C        0                    : SUFT         - SURFACE TEMPERATURE         
~A  DEPTH     RESD      CAL       GR     PHIN     PHID
# ...
  604.500    2.722  192.461   66.106    0.385    0.279
  604.750    2.917  192.392   64.137    0.368    0.259
  605.000    3.150  192.833   63.473    0.386    0.275
  605.250    3.433  193.174   61.937    0.446    0.281
  605.500    3.645  194.248   60.214    0.427    0.268
  605.750    3.688  195.212   61.602    0.408    0.257
  606.000    3.583  196.077   62.064    0.376    0.277
  606.250    3.322  196.536   64.380    0.364    0.307
  606.500    2.935  196.674   63.904    0.361    0.313
  606.750    2.598  196.708   64.546    0.398    0.307
  607.000    2.432  196.630   66.306    0.420    0.305
  607.250    2.209  196.658   67.015    0.421    0.300
  607.500    2.091  196.691   66.100    0.414    0.292
  607.750    2.027  196.619   65.682    0.406    0.298
  608.000    2.036  196.761   65.951    0.414    0.307
  608.250    2.041  197.103   66.163    0.443    0.307
  608.500    2.077  197.034   67.609    0.436    0.296
  608.750    2.113  197.169   71.487    0.417    0.296
  609.000    2.138  196.892   69.143    0.403    0.291
  609.250    2.180  197.345   66.923    0.417    0.284
  609.500    2.222  198.309   69.934    0.429    0.275
  609.750    2.316  198.450   75.364    0.418    0.259
  610.000    2.455  198.688   77.561    0.403    0.248
  610.250    2.583  198.513   76.524    0.404    0.239
  610.500    2.687  198.026   76.357    0.413    0.245
  610.750    2.891  198.371   78.369    0.428    0.266
  611.000    3.127  198.308   71.421    0.386    0.242
  611.250    3.389  198.344   65.904    0.330    0.184
  611.500    3.728  197.955   60.263    0.282    0.145
  611.750    4.040  197.158   56.052    0.304    0.157
  612.000    4.314  196.883   52.710    0.381    0.238
  612.250    4.293  196.925   53.600    0.410    0.222
  612.500    3.929  196.945   61.149    0.291    0.154
  612.750    3.577  196.668   66.521    0.270    0.123
  613.000    3.347  195.988   65.299    0.326    0.129
  613.250    3.110  196.020   65.751    0.364    0.207
  613.500    2.965  196.566   73.737    0.389    0.229
  613.750    2.775  196.700   76.619    0.407    0.243
  614.000    2.641  196.430   74.897    0.416    0.263
  614.250    2.575  196.048   74.481    0.401    0.291
  614.500    2.534  195.452   76.493    0.400    0.242
  614.750    2.540  195.071   81.427    0.419    0.216
  615.000    2.575  195.314   84.310    0.407    0.226
  615.250    2.600  196.276   77.175    0.400    0.276
  615.500    2.617  197.351   73.150    0.408    0.260
  615.750    2.643  198.629   76.655    0.395    0.236
  616.000    2.684  198.973   75.682    0.404    0.218
  616.250    2.741  199.014   71.716    0.395    0.224
  616.500    2.815  199.253   69.249    0.398    0.240
  616.750    2.907  199.593   76.423    0.421    0.227
  617.000    3.076  199.836   81.235    0.438    0.225
  617.250    3.229  200.073   77.771    0.427    0.229
  617.500    3.442  200.525   70.885    0.361    0.229
  617.750    3.601  200.970   73.768    0.350    0.218
  618.000    3.789  202.869   80.942    0.358    0.198
  618.250    3.848  207.049   84.696    0.360    0.177
  618.500    3.829  212.682   86.644    0.363    0.162
  618.750    3.817  215.311   85.731    0.363    0.176
  619.000    3.812  214.407   83.946    0.365    0.189
  619.250    3.836  215.379   83.095    0.377    0.165
  619.500    3.853  220.905   77.330    0.415    0.181
  619.750    3.869  226.641   81.082    0.454    0.256
  620.000    3.922  226.992   86.642    0.468    0.251
  620.250    3.947  222.459   87.780    0.457    0.231
  620.500    3.877  212.850   82.514    0.472    0.229
  620.750    3.815  210.398   85.088    0.444    0.221
  621.000    3.754  211.046   89.396    0.409    0.204
  621.250    3.681  213.363   92.776    0.395    0.193
  621.500    3.655  216.196   89.001    0.409    0.189
  621.750    3.637  218.406   85.848    0.387    0.189
  622.000    3.613  220.521   89.727    0.396    0.182
  622.250    3.628  220.862   95.718    0.420    0.176
  622.500    3.685  218.507   98.849    0.426    0.190
  622.750    3.743  215.640   94.389    0.405    0.194
  623.000    3.773  215.258   87.877    0.392    0.183
  623.250    3.810  216.952   89.265    0.380    0.176
  623.500    3.848  219.480   91.280    0.378    0.174
  623.750    3.872  221.373   92.480    0.386    0.183
  624.000    3.882  221.510   93.869    0.395    0.163
  624.250    3.877  219.992   95.692    0.404    0.152
  624.500    3.879  219.294   97.580    0.405    0.158
  624.750    3.853  217.877   97.848    0.416    0.173
  625.000    3.806  216.871   95.881    0.397    0.183
  625.250    3.773  215.767   93.221    0.368    0.176
  625.500    3.754  214.449   86.959    0.392    0.172
  625.750    3.764  211.374   88.036    0.396    0.174
  626.000    3.787  209.855   90.046    0.389    0.179
  626.250    3.846  210.201   91.435    0.376    0.177
  626.500    3.935  211.059   93.010    0.408    0.180
  626.750    3.923  212.547   91.478    0.442    0.166
  627.000    3.846  214.137   87.888    0.405    0.153
  627.250    3.689  216.039   90.831    0.362    0.159
  627.500    3.676  217.318   96.949    0.364    0.185
  627.750    3.631  218.696  102.631    0.386    0.171
  628.000    3.567  219.763  104.206    0.397    0.161
  628.250    3.529  220.113  100.309    0.406    0.162
  628.500    3.531  220.141   97.528    0.401    0.170
  628.750    3.593  219.969   95.062    0.382    0.172
  629.000    3.766  219.173   93.150    0.357    0.162
  629.250    3.868  217.339   91.678    0.391    0.157
  629.500    3.868  213.643   92.009    0.371    0.173
  629.750    3.873  211.907   92.280    0.388    0.186
  630.000    3.804  211.321   90.555    0.408    0.202
  630.250    3.681  212.492   88.397    0.409    0.212
  630.500    3.490  215.222   86.863    0.388    0.194
  630.750    3.346  219.617   88.623    0.371    0.121
  631.000    3.238  222.861   91.508    0.376    0.125
  631.250    3.289  226.523   91.961    0.401    0.144
  631.500    3.410  229.568   92.794    0.426    0.133
  631.750    3.547  231.777   94.058    0.442    0.137
  632.000    3.669  230.671   94.075    0.420    0.170
  632.250    3.700  226.864   93.724    0.403    0.179
  632.500    3.674  230.942   92.689    0.416    0.135
  632.750    3.609  241.865   92.211    0.413    0.161
  633.000    3.571  260.462   90.984    0.406    0.195
  633.250    3.547  276.047   89.011    0.397    0.215
  633.500    3.547  246.320   85.610    0.431    0.229
  633.750    3.429  243.866   83.762    0.445    0.230
  634.000    3.424  251.262   86.085    0.438    0.225
  634.250    3.426  236.780   86.728    0.423    0.179
  634.500    3.201  226.335   86.312    0.413    0.206
  634.750    3.024  241.407   87.391    0.449    0.304
  635.000    2.981  271.825   90.522    0.461    0.439
  635.250    2.933  255.369   85.502    0.456    0.393
  635.500    2.886  205.629   76.127    0.440    0.253
  635.750    2.904  192.701   65.382    0.417    0.258
  636.000    2.827  188.688   59.182    0.418    0.276
  636.250    2.756  188.002   56.713    0.433    0.287
  636.500    2.623  188.339   54.367    0.418    0.289
  636.750    2.562  188.488   53.578    0.399    0.283
  637.000    2.563  188.731   57.396    0.391    0.272
  637.250    2.542  189.169   55.549    0.389    0.255
  637.500    2.529  189.644   54.760    0.389    0.266
  637.750    2.535  189.876   55.712    0.387    0.280
  638.000    2.589  189.999   56.355    0.397    0.277
  638.250    2.659  190.451   55.694    0.393    0.268
  638.500    2.715  190.590   54.216    0.380    0.252
  638.750    2.762  190.424   51.748    0.371    0.261
  639.000    2.864  190.959   53.952    0.364    0.276
  639.250    2.958  190.990   55.584    0.362    0.272
  639.500    3.095  191.542   56.977    0.377    0.263
  639.750    3.177  194.066   56.930    0.387    0.255
  640.000    3.349  196.169   55.644    0.396    0.265
  640.250    3.478  198.490   54.858    0.367    0.271
  640.500    3.512  199.352   52.077    0.298    0.143
  640.750    3.300  197.622   51.103    0.279    0.116
