~VERSION INFORMATION
 VERS.                 2.0:   CWLS LOG ASCII STANDARD -VERSION 2.0
 WRAP.                  NO:   ONE LINE PER DEPTH STEP
~WELL INFORMATION BLOCK
#MNEM.UNIT           DATA                    DESCRIPTION OF MNEMONIC
#---------    -------------------            -------------------------------
# Generated from Intellog Unique Number	CW_76_78/WELL/1030
WELL.         PCP MARTIN HILLS 11-33         : Well_name    - WELL
LOC .         00/11-33-076-04W5/0            : Location     - LOCATION
UWI .         00/11-33-076-04W5/0            : Uwi          - UNIQUE WELL ID
ENTR.         JAYE                           : Entered      - ENTERED BY
SRVC.         SCHLUMBERGER                   : Scn          - SERVICE COMPANY
DATE.         11 FEB 74                      : Date         - LOG DATE
STRT.M        426.72                         : top_depth    - START DEPTH
STOP.M        670.47                         : bot_depth    - STOP DEPTH
STEP.M        0.25                           : increment    - STEP LENGTH
 NULL. -999.2500:NULL Value
~CURVE INFORMATION BLOCK
#MNEM UNIT       ERCB CURVE CODE    CURVE DESCRIPTION
#-----------   ------------------   ----------------------------------
DEPT.M        00 001 00 00         : DEPTH        - DEPTH
ILD .OHMM     00 120 00 00         : RESD         - DEEP RESISTIVITY (DIL)
NPHI.V/V      00 330 00 00         : PHIN         - NEUTRON POROSITY (SANDSTONE)
DPHI.V/V      00 890 00 00         : PHID         - DENSITY POROSITY (SANDSTONE)
GR  .API      00 310 00 00         : GR           - GAMMA RAY
CALI.MM       00 280 01 00         : CAL          - CALIPER
~PARAMETER INFORMATION
#MNEM.UNIT           DATA             DESCRIPTION OF MNEMONIC
#---------         -----------     ------------------------------
GL  .M        741.578              : gl           - GROUND LEVEL ELEVATION
EREF.M        745.541              : kb           - ELEVATION OF DEPTH REFERENCE
DATM.M        741.578              : datum        - DATUM ELEVATION
TDD .M        684.276              : tdd          - TOTAL DEPTH DRILLER
RUN .         ONE                  : Run          - RUN NUMBER
MATR.         SANDSTONE            : Logunit      - NEUTRON MATRIX
TMAX.C        26.6667              : BHT          - MAXIMUM RECORDED TEMPERATURE
BHTD.M        684.276              : BHTDEP       - MAXIMUM RECORDED TEMPERATURE
RMT .C        16.6667              : MDTP         - TEMPERATURE OF MUD
MUDD.KG/M     0                    : MWT          - MUD DENSITY
NEUT.         1                    : NEUTRON      - NEUTRON TYPE
RESI.         0                    : RESIST       - RESISTIVITY TYPE
RM  .OHMM     5.95                 : RM           - RESISTIVITY OF MUD
RMC .OHMM     0                    : RMC          - RESISTIVITY OF MUD CAKE
RMF .OHMM     4.61                 : RMF          - RESISTIVITY OF MUD FILTRATE
SUFT.C        -17.7778             : SUFT         - SURFACE TEMPERATURE
~A  DEPTH     RESD     PHIN     PHID       GR      CAL
# ...
  645.720    5.679    0.392    0.154   89.854  203.403
  645.970    6.103    0.378    0.155   87.649  203.047
  646.220    6.607    0.375    0.147   90.912  202.890
  646.470    6.945    0.377    0.167   90.511  202.728
  646.720    7.013    0.368    0.184   88.871  202.470
  646.970    7.069    0.363    0.166   87.722  202.223
  647.220    7.164    0.382    0.159   87.068  201.961
  647.470    7.180    0.388    0.176   86.233  202.105
  647.720    7.238    0.379    0.190   86.697  202.289
  647.970    7.320    0.370    0.153   86.732  202.542
  648.220    7.514    0.365    0.148   85.647  202.806
  648.470    7.657    0.379    0.130   84.932  202.863
  648.720    7.761    0.396    0.131   86.395  203.125
  648.970    7.865    0.399    0.129   87.482  203.395
  649.220    8.000    0.385    0.149   86.336  203.871
  649.470    8.167    0.373    0.141   84.256  204.036
  649.720    8.461    0.354    0.140   79.444  204.086
  649.970    9.075    0.327    0.171   65.620  203.829
  650.220   10.611    0.229    0.222   48.628  203.769
  650.470   13.573    0.167    0.329   35.365  203.721
  650.720   18.855    0.123    0.375   30.863  203.462
  650.970   33.608    0.129    0.370   28.970  203.110
  651.220   53.370    0.176    0.353   28.320  202.847
  651.470   61.268    0.210    0.322   27.544  202.887
  651.720   64.293    0.233    0.277   25.342  202.533
  651.970   68.094    0.224    0.230   23.571  202.582
  652.220   72.504    0.142    0.180   22.919  202.528
  652.470   80.089    0.098    0.107   22.766  202.900
  652.720   96.607    0.085    0.027   22.740  204.218
  652.970  111.310    0.075   -0.003   22.335  205.754
  653.220  119.189    0.068   -0.008   22.434  206.435
  653.470  124.841    0.064   -0.017   22.838  207.435
  653.720  126.516    0.064   -0.015   23.674  208.233
  653.970  119.367    0.067   -0.011   24.893  208.701
  654.220   91.555    0.077    0.004   25.855  208.868
  654.470   73.645    0.099    0.022   26.942  208.708
  654.720   59.676    0.171    0.091   28.030  203.923
  654.970   50.531    0.296    0.163   29.063  201.038
  655.220   38.405    0.325    0.258   29.338  200.673
  655.470   32.342    0.338    0.273   29.930  200.635
  655.720   27.893    0.337    0.277   31.084  200.372
  655.970   24.954    0.337    0.272   31.799  200.411
  656.220   22.697    0.327    0.272   32.453  200.174
  656.470   20.834    0.322    0.277   34.660  200.324
  656.720   19.620    0.333    0.286   36.184  200.378
  656.970   18.477    0.347    0.298   37.274  200.424
  657.220   16.684    0.354    0.288   38.486  200.278
  657.470   15.456    0.355    0.290   39.760  200.446
  657.720   14.291    0.350    0.298   41.410  200.489
  657.970   13.288    0.344    0.292   43.182  200.444
  658.220   12.559    0.355    0.267   44.828  200.173
  658.470   11.657    0.366    0.245   46.662  199.287
  658.720   11.262    0.364    0.250   48.873  198.816
  658.970   10.764    0.361    0.247   50.580  198.553
  659.220   10.381    0.356    0.237   50.615  198.299
  659.470    9.849    0.351    0.235   49.843  198.246
  659.720    9.141    0.348    0.241   51.738  198.196
  659.970    8.546    0.371    0.248   53.199  198.262
  660.220    8.227    0.367    0.255   54.971  198.413
  660.470    8.008    0.360    0.255   56.370  198.681
  660.720    7.795    0.353    0.248   57.644  198.851
  660.970    7.545    0.349    0.236   58.919  198.891
  661.220    7.278    0.366    0.213   60.507  198.945
  661.470    7.084    0.364    0.227   61.842  199.005
  661.720    6.972    0.362    0.230   62.995  198.952
  661.970    6.962    0.361    0.239   63.462  198.905
  662.220    6.966    0.358    0.232   63.931  198.866
  662.470    7.072    0.353    0.216   64.087  199.011
  662.720    7.207    0.335    0.217   61.446  199.174
  662.970    7.304    0.320    0.198   63.034  199.444
  663.220    7.294    0.316    0.183   70.770  200.021
  663.470    7.258    0.328    0.166   73.785  200.811
  663.720    7.182    0.341    0.184   75.994  201.919
  663.970    6.940    0.351    0.190   78.325  203.660
  664.220    6.681    0.360    0.176   80.655  204.974
  664.470    6.444    0.375    0.184   85.099  205.769
  664.720    6.102    0.395    0.180   89.915  206.347
  664.970    5.663    0.403    0.178   94.981  207.142
  665.220    5.275    0.390    0.169   97.064  207.514
  665.470    4.941    0.382    0.160   98.091  207.892
  665.720    4.594    0.395    0.160   98.123  207.517
  665.970    4.186    0.404    0.174   97.410  206.943
  666.220    3.928    0.256    0.175   81.911  205.424
  666.470    3.679    0.162    0.160   56.283  204.316
  666.720    3.997    0.121    0.266   27.923  202.900
  666.970    6.019    0.079    0.365   23.419  201.798
  667.220   10.098    0.112    0.355   24.015  201.010
  667.470   21.268    0.130    0.307   25.783  200.021
  667.720   40.646    0.151    0.266   28.736  199.547
  667.970   46.318    0.155    0.232   32.685  198.973
  668.220   51.922    0.150    0.206   35.202  198.611
  668.470   37.899    0.135    0.186   36.043  198.562
  668.720   34.156    0.130    0.171   36.513  198.924
  668.970   31.641    0.138    0.159   37.350  201.088
  669.220   27.897    0.146    0.142   38.253  202.301
  669.470   25.842    0.152    0.125   40.027  202.355
  669.720   24.248    0.159    0.094   42.113  202.092
  669.970   23.088    0.170    0.027   42.764  202.042
  670.220   22.268    0.181    0.033   43.667  202.101
  670.470   21.917    0.189    0.053   44.508  201.947
