~VERSION INFORMATION
 VERS.                 2.0:   CWLS LOG ASCII STANDARD -VERSION 2.0
 WRAP.                  NO:   ONE LINE PER DEPTH STEP
~WELL INFORMATION BLOCK
#MNEM.UNIT           DATA                    DESCRIPTION OF MNEMONIC
#---------    -------------------            -------------------------------
# Generated from Intellog Unique Number	CW_79_81/WELL/3695
WELL.         REPUBLIC RESOURCES LTD.        : Well_name    - WELL
LOC .         00/11-12-080-05W5/0            : Location     - LOCATION
UWI .         00/11-12-080-05W5/0            : Uwi          - UNIQUE WELL ID
ENTR.         JOETTE                         : Entered      - ENTERED BY
SRVC.         SCHLUMBERGER                   : Scn          - SERVICE COMPANY
DATE.         08-27-92                       : Date         - LOG DATE
STRT.M        350.52                         : top_depth    - START DEPTH
STOP.M        609.52                         : bot_depth    - STOP DEPTH
STEP.M        0.25                           : increment    - STEP LENGTH
 NULL. -999.2500:NULL Value
~CURVE INFORMATION BLOCK
#MNEM UNIT       ERCB CURVE CODE    CURVE DESCRIPTION
#-----------   ------------------   ----------------------------------
DEPT.M        00 001 00 00         : DEPTH        - DEPTH
GR  .API      00 310 00 00         : GR           - GAMMA RAY
ILD .OHMM     00 120 00 00         : RESD         - DEEP RESISTIVITY (DIL)
DELT.US/F     00 520 00 00         : DELT         - SONIC TRAVEL TIME
~PARAMETER INFORMATION
#MNEM.UNIT           DATA             DESCRIPTION OF MNEMONIC
#---------         -----------     ------------------------------
GL  .M        633.984              : gl           - GROUND LEVEL ELEVATION
EREF.M        637.642              : kb           - ELEVATION OF DEPTH REFERENCE
DATM.M        637.642              : datum        - DATUM ELEVATION
TDD .M        1791.92              : tdd          - TOTAL DEPTH DRILLER
RUN .         ONE                  : Run          - RUN NUMBER
ENG .         BILL                 : Engineer     - RECORDING ENGINEER
WIT .         JIM                  : Witness      - WITNESSED BY
MUD .         GEL                  : Mud_type     - MUD TYPE
MATR.         SANDSTONE            : Logunit      - NEUTRON MATRIX
TMAX.C        15.5556              : BHT          - MAXIMUM RECORDED TEMPERATURE
BHTD.M        1791.92              : BHTDEP       - MAXIMUM RECORDED TEMPERATURE
MATR.         1                    : LOGUNIT      - NEUTRON MATRIX
RMT .C        15.5556              : MDTP         - TEMPERATURE OF MUD
NEUT.         1                    : NEUTRON      - NEUTRON TYPE
RESI.         0                    : RESIST       - RESISTIVITY TYPE
RMC .OHMM     0.089                : RMC          - RESISTIVITY OF MUD CAKE
RMF .OHMM     0.089                : RMF          - RESISTIVITY OF MUD FILTRATE
SUFT.C        5                    : SUFT         - SURFACE TEMPERATURE
~A  DEPTH       GR     RESD     DELT
# ...
  513.270   85.591    3.648  371.386
  513.520   85.611    3.579  368.695
  513.770   85.625    3.579  365.327
  514.020   86.245    3.578  365.985
  514.270   86.255    3.646  369.328
  514.520   85.064    3.646  375.350
  514.770   82.668    3.645  382.714
  515.020   81.476    3.715  376.667
  515.270   85.101    3.858  373.299
  515.520   86.323    4.161  369.261
  515.770   85.132    4.404  362.547
  516.020   86.953    4.488  353.148
  516.270   88.774    4.573  347.098
  516.520   90.592    4.660  355.135
  516.770   88.798    4.660  350.429
  517.020   87.607    4.486  345.053
  517.270   90.031    4.003  345.040
  517.520   87.638    3.641  344.358
  517.770   87.049    3.249  375.188
  518.020   83.452    2.955  399.313
  518.270   78.646    3.248  416.062
  518.520   82.278    3.780  399.288
  518.770   84.698    5.022  342.282
  519.020   87.720    5.417  342.269
  519.270   88.336    5.734  312.756
  519.520   84.133    5.954  274.526
  519.770   78.122    5.732  268.479
  520.020   76.931    5.624  350.933
  520.270   79.960    5.518  352.935
  520.520   81.782    5.731  358.958
  520.770   81.189    6.299  365.650
  521.020   82.411    6.795  358.262
  521.270   85.437    6.924  346.181
  521.520   83.644    6.923  338.794
  521.770   79.440    6.296  344.813
  522.020   75.843    6.062  349.497
  522.270   78.266    5.409  360.212
  522.520   81.292    5.110  371.598
  522.770   81.309    4.736  368.895
  523.020   81.316    4.560  370.897
  523.270   79.526    4.390  371.555
  523.520   77.733    4.146  368.864
  523.770   75.336    4.068  372.872
  524.020   77.157    4.067  375.541
  524.270   78.978    4.067  371.509
  524.520   80.800    4.067  366.803
  524.770   82.018    4.144  368.799
  525.020   80.221    4.144  368.117
  525.270   76.018    4.223  368.778
  525.520   74.231    4.385  364.743
  525.770   74.844    4.554  362.049
  526.020   76.062    4.641  363.377
  526.270   76.079    5.006  360.012
  526.520   75.487    5.399  353.292
  526.770   75.504    5.935  347.916
  527.020   77.326    6.649  347.233
  527.270   78.544    7.450  349.229
  527.520   79.759    8.505  351.229
  527.770   78.568    9.350  350.549
  528.020   75.570   10.675  331.763
  528.270   70.165   12.902  319.682
  528.520   63.548   16.195  284.802
  528.770   61.156   18.845  269.368
  529.020   58.760   24.107  233.150
  529.270   56.360   29.133  218.387
  529.520   53.964   31.425  268.661
  529.770   58.195   33.260  339.049
  530.020   71.466   25.027  353.790
  530.270   76.901   11.949  363.165
  530.520   78.127    5.705  361.138
  530.770   77.535    5.189  362.467
  531.020   78.154    5.492  356.417
  531.270   78.764    5.812  354.396
  531.520   80.588    5.812  365.112
  531.770   79.999    5.811  369.793
  532.020   78.812    5.594  364.417
  532.270   78.219    5.594  357.029
  532.520   78.836    5.488  355.002
  532.770   80.051    5.384  355.664
  533.020   80.674    5.592  294.634
  533.270   75.865    5.807  249.700
  533.520   65.034    7.018  230.914
  533.770   61.437    9.325  251.687
  534.020   63.864   13.366  283.187
  534.270   68.091   15.261  311.335
  534.520   70.511    7.015  311.323
  534.770   69.926    6.380  316.004
  535.020   70.539    5.802  354.209
  535.270   72.360    5.378  355.537
  535.520   75.385    5.080  350.161
  535.770   75.403    5.177  344.785
  536.020   73.609    5.584  363.543
  536.270   74.828    4.984  353.477
  536.520   79.058    4.201  344.748
  536.770   81.482    4.122  343.395
  537.020   81.499    4.446  364.168
  537.270   81.513    4.617  374.213
  537.520   80.322    4.445  380.905
  537.770   79.134    4.043  368.154
  538.020   80.955    3.819  362.777
  538.270   82.167    3.966  362.092
  538.520   83.385    3.891  379.512
  538.770   82.194    3.818  379.500
  539.020   80.400    3.539  382.837
  539.270   78.004    3.472  388.862
  539.520   72.596    3.606  375.440
  539.770   72.610    3.744  372.075
  540.020   70.214    3.605  374.074
  540.270   64.806    3.604  361.323
  540.520   62.410    3.743  368.686
  540.770   66.644    3.887  386.106
  541.020   70.878    3.742  392.128
  541.270   73.298    3.155  373.342
  541.520   72.709    2.763  409.536
  541.770   72.124    3.215  426.286
  542.020   75.150    3.214  410.852
  542.270   77.570    3.095  401.453
  542.520   82.403    2.979  381.997
  542.770   84.834    3.401  331.692
  543.020   85.443    3.532  324.308
  543.270   86.059    4.110  302.170
  543.520   87.281    4.874  306.180
  543.770   89.102    5.258  330.305
  544.020   90.923    4.966  338.339
  544.270   90.940    4.691  333.633
  544.520   89.749    4.872  328.257
  544.770   87.353    4.965  337.631
  545.020   84.358    4.347  400.644
  545.270   82.558    3.150  432.815
  545.520   80.162    2.864  444.201
  545.770   78.970    2.864  440.836
  546.020   80.791    3.031  434.790
  546.270   83.821    3.270  411.981
  546.520   85.642    3.332  414.651
  546.770   82.037    3.395  410.615
  547.020   74.219    3.460  351.598
  547.270   57.365    3.732  308.004
  547.520   48.944   11.417  318.049
  547.770   43.536   16.364  326.082
  548.020   41.746   17.651  330.763
  548.270   41.760   18.681  330.081
  548.520   39.364   19.401  326.713
  548.770   36.968   19.399  323.348
  549.020   35.177   19.398  320.651
  549.270   35.184   19.395  320.639
  549.520   36.410   19.393  323.305
  549.770   36.427   19.391  324.640
  550.020   36.434   19.025  325.298
  550.270   35.242   19.023  322.601
  550.520   34.657   19.020  320.577
  550.770   35.277   19.382  321.906
  551.020   35.889   19.750  326.590
  551.270   37.108   20.127  333.282
  551.520   38.323   21.301  334.611
  551.770   38.939   22.122  331.917
  552.020   38.953   22.544  326.538
  552.270   37.762   23.412  323.846
  552.520   37.173   22.537  321.149
  552.770   37.789   22.113  323.148
  553.020   39.611   21.694  329.838
  553.270   43.242   22.530  329.825
  553.520   37.834   21.282  325.120
  553.770   34.839   19.726  323.766
  554.020   34.853   17.604  322.413
  554.270   35.465   16.947  323.742
  554.520   35.486   15.414  323.062
  554.770   35.493   14.287  320.365
  555.020   35.507   12.510  323.708
  555.270   33.720   12.044  329.730
  555.520   33.124   10.953  326.365
  555.770   33.138   10.152  321.654
  556.020   35.561    9.410  321.647
  556.270   37.382    8.558  321.632
  556.520   37.999    8.239  321.617
  556.770   35.602    7.783  322.275
  557.020   35.620    7.636  326.959
  557.270   37.441    7.492  328.285
  557.520   39.262    7.350  324.923
  557.770   40.484    7.211  321.558
  558.020   40.501    7.075  318.864
  558.270   39.905    6.811  318.852
  558.520   39.922    6.434  321.521
  558.770   39.330    6.078  324.858
  559.020   39.347    5.741  326.857
  559.270   38.759    5.322  324.837
  559.520   38.769    4.572  307.392
  559.770   39.385    4.004  378.451
  560.020   46.026    3.440  411.292
  560.270   54.477    2.900  411.950
  560.520   58.711    2.445  384.448
  560.770   57.524    2.688  372.367
  561.020   56.928    2.955  305.974
  561.270   57.544    3.438  306.629
  561.520   58.763    3.438  307.284
  561.770   59.981    3.247  309.290
  562.020   61.803    3.186  313.297
  562.270   64.832    3.309  305.242
  562.520   63.641    3.637  295.843
  562.770   64.260    3.850  343.435
  563.020   64.870    3.998  346.775
  563.270   64.883    3.997  353.468
  563.520   67.916    3.705  344.739
  563.770   65.520    3.567  374.228
  564.020   62.522    3.996  391.648
  564.270   66.146    4.393  404.375
  564.520   72.787    4.738  431.852
  564.770   78.226    4.562  472.069
  565.020   83.658    4.149  475.409
  565.270   80.058    2.734  445.896
  565.520   74.047    2.486  403.643
  565.770   65.024    2.839  358.035
  566.020   56.603    3.367  361.375
  566.270   62.039    3.241  259.449
  566.520   75.909    2.948  251.388
  566.770   74.119    2.947  257.410
  567.020   72.325    3.842  237.954
  567.270   74.146    4.471  251.351
