~VERSION INFORMATION
VERS.                2.00:   CWLS LOG ASCII STANDARD -VERSION 2.0
WRAP.                  NO:
~WELL INFORMATION BLOCK
#MNEM.UNIT           DATA                    DESCRIPTION OF MNEMONIC
#---------    -------------------            -------------------------------
# Generated from Intellog Unique Number	CC_80_83/WELL/2471
LOC .         00/10-22-083-08W4/0            : Location     - LOCATION
UWI .         00/10-22-083-08W4/0            : Uwi          - UNIQUE WELL ID
ENTR.         DW                             : Entered      - ENTERED BY
STRT.M             259.08:
STOP.M             511.83:
STEP.M               0.25:
NULL.             -999.25:
COMP.  :COMPANY
WELL.  ARC0 ET AL SURMONT:WELL
FLD.   :FIELD
LOC.   :LOCATION
CTRY.  :COUNTRY
PROV.  :PROVINCE
SRVC.  SCHLUMBERGER:SERVICE COMPANY
DATE.  :LOG DATE
UWI.   :UNIQUE WELL ID
~PARAMETER INFORMATION
#MNEM.UNIT           DATA             DESCRIPTION OF MNEMONIC
#---------         -----------     ------------------------------
GL  .M        732.13               : gl           - GROUND LEVEL ELEVATION
EREF.M        735.178              : kb           - ELEVATION OF DEPTH REFERENCE
DATM.M        735.178              : datum        - DATUM ELEVATION
TDD .M        515.722              : tdd          - TOTAL DEPTH DRILLER
RUN .         ONE                  : Run          - RUN NUMBER
ENG .         BILL                 : Engineer     - RECORDING ENGINEER
WIT .         JIM                  : Witness      - WITNESSED BY
MUD .         GEL                  : Mud_type     - MUD TYPE
MATR.         SANDSTONE            : Logunit      - NEUTRON MATRIX
TMAX.C        20                   : BHT          - MAXIMUM RECORDED TEMPERATURE
BHTD.M        515.722              : BHTDEP       - MAXIMUM RECORDED TEMPERATURE
MATR.         1                    : LOGUNIT      - NEUTRON MATRIX
RMT .C        25                   : MDTP         - TEMPERATURE OF MUD
NEUT.         1                    : NEUTRON      - NEUTRON TYPE
RESI.         0                    : RESIST       - RESISTIVITY TYPE
RMC .OHMM     0.25                 : RMC          - RESISTIVITY OF MUD CAKE
RMF .OHMM     0.25                 : RMF          - RESISTIVITY OF MUD FILTRATE
SUFT.C        15                   : SUFT         - SURFACE TEMPERATURE
~Curve Information Block
#MNEM UNIT       ERCB CURVE CODE    CURVE DESCRIPTION
#MNEM.UNIT         API CODE    Curve Description
#----------    ------------    --------------------
DEPT.M                     :   DEPTH
DPHI.V/V                   :   DPHI
DT  .us/m                  :   DT
GR  .API       00 310 00 00:   GR
ILD .Ohmm      00 120 00 00:   ILD
NPHI.V/V       00 330 00 00:   NPHI
RHOB.gm/c3                 :   RHOB
~A  Depth           DPHI          DT          GR         ILD        NPHI        RHOB
# ...
377.83           -999.25     -999.25       48.81       10.80        0.38     -999.25
378.08           -999.25     -999.25       50.99       11.78        0.37     -999.25
378.33           -999.25     -999.25       52.12       13.30        0.36     -999.25
378.58           -999.25     -999.25       51.79       15.60        0.34     -999.25
378.83           -999.25     -999.25       49.21       20.59        0.32     -999.25
379.08           -999.25     -999.25       47.38       22.73        0.20     -999.25
379.33           -999.25     -999.25       46.31       23.15        0.08     -999.25
379.58           -999.25     -999.25       45.38       22.21        0.06     -999.25
379.83           -999.25     -999.25       45.19       19.00        0.09     -999.25
380.08           -999.25     -999.25       46.30       15.46        0.13     -999.25
380.33           -999.25     -999.25       47.43       13.58        0.23     -999.25
380.58           -999.25     -999.25       47.65       11.87        0.23     -999.25
380.83           -999.25     -999.25       47.70       10.59        0.21     -999.25
381.08           -999.25     -999.25       49.84        9.87        0.24     -999.25
381.33           -999.25     -999.25       51.82        9.15        0.30     -999.25
381.58           -999.25     -999.25       48.04        9.01        0.34     -999.25
381.83           -999.25     -999.25       47.28        9.11        0.35     -999.25
382.08           -999.25     -999.25       50.88        9.44        0.36     -999.25
382.33           -999.25     -999.25       54.19        9.97        0.37     -999.25
382.58           -999.25     -999.25       54.12       10.34        0.37     -999.25
382.83           -999.25     -999.25       50.76       10.30        0.37     -999.25
383.08              0.31     -999.25       45.95       10.14        0.36     -999.25
383.33              0.30     -999.25       48.88       10.09        0.35     -999.25
383.58              0.30     -999.25       52.88       10.92        0.35     -999.25
383.83              0.29     -999.25       53.07       12.57        0.35     -999.25
384.08              0.28     -999.25       52.48       14.47        0.36     -999.25
384.33              0.28     -999.25       51.03       16.43        0.35     -999.25
384.58              0.27     -999.25       47.24       17.24        0.33     -999.25
384.83              0.29     -999.25       46.53       16.92        0.32     -999.25
385.08              0.30     -999.25       48.57       16.36        0.25     -999.25
385.33              0.31     -999.25       50.60       15.79        0.22     -999.25
385.58              0.32     -999.25       51.96       14.49        0.33     -999.25
385.83              0.32     -999.25       50.61       12.37        0.39     -999.25
386.08              0.32     -999.25       48.15       11.13        0.38     -999.25
386.33              0.32     -999.25       47.98       10.75        0.38     -999.25
386.58              0.30     -999.25       49.19       10.72        0.39     -999.25
386.83              0.28     -999.25       48.68       10.68        0.39     -999.25
387.08              0.26     -999.25       47.59       10.33        0.37     -999.25
387.33              0.27     -999.25       50.22       10.13        0.34     -999.25
387.58              0.30     -999.25       53.03       10.13        0.34     -999.25
387.83              0.31     -999.25       48.63       10.04        0.36     -999.25
388.08              0.34     -999.25       43.84        9.90        0.38     -999.25
388.33              0.34     -999.25       48.51        9.92        0.40     -999.25
388.58              0.33     -999.25       52.18        9.93        0.37     -999.25
388.83              0.32     -999.25       54.03        9.92        0.37     -999.25
389.08              0.31     -999.25       54.85        9.94        0.38     -999.25
389.33              0.31     -999.25       55.21        9.87        0.38     -999.25
389.58              0.30     -999.25       55.85        9.72        0.37     -999.25
389.83              0.30     -999.25       56.35        9.73        0.36     -999.25
390.08              0.29     -999.25       54.51        9.89        0.34     -999.25
390.33              0.28     -999.25       52.32        9.94        0.34     -999.25
390.58              0.27     -999.25       50.43        9.92        0.35     -999.25
390.83              0.26     -999.25       49.45        9.93        0.36     -999.25
391.08              0.27     -999.25       50.25        9.93        0.37     -999.25
391.33              0.29     -999.25       51.80        9.93        0.34     -999.25
391.58              0.30     -999.25       53.11        9.93        0.33     -999.25
391.83              0.30     -999.25       55.73        9.92        0.35     -999.25
392.08              0.29     -999.25       56.83        9.94        0.37     -999.25
392.33              0.29     -999.25       53.65        9.90        0.37     -999.25
392.58              0.27     -999.25       50.77        9.74        0.36     -999.25
392.83              0.20     -999.25       54.89        9.89        0.35     -999.25
393.08              0.18     -999.25       59.79        9.95        0.35     -999.25
393.33              0.18     -999.25       60.19        9.91        0.35     -999.25
393.58              0.19     -999.25       57.13        9.95        0.36     -999.25
393.83              0.22     -999.25       54.29       10.15        0.36     -999.25
394.08              0.24     -999.25       52.82       10.48        0.36     -999.25
394.33              0.25     -999.25       51.53       10.68        0.35     -999.25
394.58              0.27     -999.25       52.23       10.76        0.37     -999.25
394.83              0.29     -999.25       55.65       10.61        0.39     -999.25
395.08              0.31     -999.25       58.47       10.23        0.39     -999.25
395.33              0.33     -999.25       56.98        9.93        0.36     -999.25
395.58              0.34     -999.25       53.34        9.81        0.35     -999.25
395.83              0.34     -999.25       51.60        9.27        0.38     -999.25
396.08              0.33     -999.25       53.68        8.89        0.38     -999.25
396.33              0.33     -999.25       56.39        8.84        0.35     -999.25
396.58              0.33     -999.25       57.06        8.88        0.34     -999.25
396.83              0.33     -999.25       57.59        9.18        0.35     -999.25
397.08              0.33     -999.25       57.27        9.38        0.34     -999.25
397.33              0.33     -999.25       56.18       10.37        0.32     -999.25
397.58              0.31     -999.25       53.89       12.34        0.31     -999.25
397.83              0.28     -999.25       50.63       14.00        0.27     -999.25
398.08              0.27     -999.25       46.36       14.25        0.16     -999.25
398.33              0.28     -999.25       41.17       13.85        0.11     -999.25
398.58              0.29     -999.25       44.87       13.00        0.12     -999.25
398.83              0.30     -999.25       55.84       11.60        0.22     -999.25
399.08              0.31     -999.25       63.86       10.36        0.32     -999.25
399.33              0.32     -999.25       65.08        9.63        0.35     -999.25
399.58              0.32     -999.25       64.04        8.89        0.33     -999.25
399.83              0.31     -999.25       58.94        8.80        0.32     -999.25
400.08              0.30     -999.25       56.48        9.03        0.32     -999.25
400.33              0.30     -999.25       58.28        8.85        0.32     -999.25
400.58              0.29     -999.25       64.07        7.57        0.33     -999.25
400.83              0.28     -999.25       72.90        5.76        0.34     -999.25
401.08              0.28     -999.25       78.68        5.15        0.32     -999.25
401.33              0.28     -999.25       80.79        4.82        0.31     -999.25
