~VERSION INFORMATION
 VERS.                 2.0:   CWLS LOG ASCII STANDARD -VERSION 2.0
 WRAP.                  NO:   ONE LINE PER DEPTH STEP
~WELL INFORMATION BLOCK
#MNEM.UNIT           DATA                    DESCRIPTION OF MNEMONIC
#---------    -------------------            -------------------------------
# Generated from Intellog Unique Number	CW_70_72/WELL/1072
NULL.         -999.25                        : NULL_VALUE
WELL.         CABRE ET AL MITSUE 16-07       : Well_name    - WELL              
LOC .         16-07-072-03W5                 : Location     - LOCATION          
UWI .         00/16-07-072-03W5/0            : Uwi          - UNIQUE WELL ID    
ENTR.         JAYE                           : Entered      - ENTERED BY        
SRVC.         COMPUTALOG                     : Scn          - SERVICE COMPANY   
DATE.         21 DEC 84                      : Date         - LOG DATE          
STRT.M        500                            : top_depth    - START DEPTH       
STOP.M        710                            : bot_depth    - STOP DEPTH        
STEP.M        0.25                           : increment    - STEP LENGTH       
~CURVE INFORMATION BLOCK
#MNEM UNIT       ERCB CURVE CODE    CURVE DESCRIPTION
#-----------   ------------------   ----------------------------------
DEPT.M        00 001 00 00         : DEPTH        - DEPTH                       
DPHI.V/V      00 890 00 00         : PHID         - DENSITY POROSITY (SANDSTONE)
NPHI.V/V      00 330 00 00         : PHIN         - NEUTRON POROSITY (SANDSTONE)
GR  .API      00 310 00 00         : GR           - GAMMA RAY                   
CALI.MM       00 280 01 00         : CAL          - CALIPER                     
ILD .OHMM     00 120 00 00         : RESD         - DEEP RESISTIVITY (DIL)      
~PARAMETER INFORMATION       
#MNEM.UNIT           DATA             DESCRIPTION OF MNEMONIC
#---------         -----------     ------------------------------
GL  .M        694.7                : gl           - GROUND LEVEL ELEVATION      
EREF.M        699.4                : kb           - ELEVATION OF DEPTH REFERENCE
DATM.M        694.7                : datum        - DATUM ELEVATION             
TDD .M        724                  : tdd          - TOTAL DEPTH DRILLER         
RUN .         ONE                  : Run          - RUN NUMBER                  
BASE.         EDM                  : Branch       - HOME BASE OF LOGGING UNIT   
MUD .         GEL CHEN             : Mud_type     - MUD TYPE                    
MATR.         SANDSTONE            : Logunit      - NEUTRON MATRIX              
TMAX.C        32                   : BHT          - MAXIMUM RECORDED TEMPERATURE
BHTD.M        720.7                : BHTDEP       - MAXIMUM RECORDED TEMPERATURE
RMT .C        20                   : MDTP         - TEMPERATURE OF MUD          
MUDD.KG/M     1100                 : MWT          - MUD DENSITY                 
NEUT.         1                    : NEUTRON      - NEUTRON TYPE                
RESI.         0                    : RESIST       - RESISTIVITY TYPE            
RM  .OHMM     5                    : RM           - RESISTIVITY OF MUD          
RMC .OHMM     3.4                  : RMC          - RESISTIVITY OF MUD CAKE     
RMF .OHMM     6.7                  : RMF          - RESISTIVITY OF MUD FILTRATE 
SUFT.C        0                    : SUFT         - SURFACE TEMPERATURE         
~A  DEPTH     PHID     PHIN       GR      CAL     RESD
# ...
  609.500    0.307    0.393   72.274  146.631    2.452
  609.750    0.306    0.381   74.739  147.288    2.455
  610.000    0.306    0.387   76.512  147.728    2.445
  610.250    0.303    0.384   77.846  148.381    2.467
  610.500    0.294    0.391   77.734  148.819    2.547
  610.750    0.287    0.402   77.372  149.471    2.666
  611.000    0.289    0.412   77.259  150.130    2.838
  611.250    0.287    0.425   77.336  150.569    3.020
  611.500    0.276    0.436   79.361  151.010    3.240
  611.750    0.261    0.419   79.563  151.454    3.495
  612.000    0.243    0.378   78.448  152.103    3.948
  612.250    0.221    0.333   76.516  153.072    4.544
  612.500    0.194    0.286   74.268  153.722    4.021
  612.750    0.201    0.294   73.530  154.479    3.577
  613.000    0.224    0.320   73.102  154.815    3.238
  613.250    0.265    0.338   73.117  154.106    3.016
  613.500    0.265    0.341   71.560  153.399    2.869
  613.750    0.271    0.350   68.622  152.690    2.750
  614.000    0.284    0.366   65.183  152.398    2.661
  614.250    0.296    0.388   63.940  152.317    2.599
  614.500    0.308    0.379   66.781  151.713    2.525
  614.750    0.315    0.361   66.544  151.631    2.480
  615.000    0.315    0.361   62.538  151.658    2.470
  615.250    0.308    0.361   62.867  151.575    2.488
  615.500    0.303    0.364   64.703  151.598    2.506
  615.750    0.292    0.369   66.915  150.994    2.524
  616.000    0.283    0.376   68.123  149.346    2.556
  616.250    0.278    0.363   70.399  149.162    2.639
  616.500    0.282    0.332   70.035  149.288    2.757
  616.750    0.290    0.350   64.837  149.625    2.924
  617.000    0.276    0.366   61.899  149.440    3.214
  617.250    0.232    0.321   59.777  149.776    3.918
  617.500    0.164    0.268   57.782  150.218    5.671
  617.750    0.136    0.238   56.540  151.604    8.477
  618.000    0.106    0.217   54.795  153.827   11.855
  618.250    0.069    0.182   52.548  156.259   14.784
  618.500    0.027    0.142   52.436  158.899   13.719
  618.750    0.006    0.141   56.785  159.969   10.261
  619.000    0.023    0.168   61.324  158.320    7.616
  619.250    0.100    0.227   64.478  155.832    5.952
  619.500    0.154    0.299   67.444  153.865    4.669
  619.750    0.201    0.346   71.859  152.007    3.642
  620.000    0.244    0.375   74.508  151.403    3.149
  620.250    0.272    0.379   79.106  151.116    2.911
  620.500    0.268    0.359   83.580  151.036    2.882
  620.750    0.260    0.369   85.103  150.747    2.982
  621.000    0.257    0.390   84.867  150.761    3.067
  621.250    0.255    0.403   84.570  150.792    3.160
  621.500    0.254    0.363   84.392  151.336    3.257
  621.750    0.258    0.344   84.157  151.671    3.324
  622.000    0.265    0.355   84.169  152.116    3.393
  622.250    0.265    0.363   84.309  152.457    3.457
  622.500    0.253    0.357   84.825  152.791    3.475
  622.750    0.239    0.348   86.599  153.128    3.467
  623.000    0.232    0.353   88.059  153.154    3.439
  623.250    0.233    0.370   82.923  152.971    3.392
  623.500    0.239    0.377   79.794  152.893    3.378
  623.750    0.253    0.362   81.884  153.229    3.339
  624.000    0.258    0.354   84.284  153.352    3.311
  624.250    0.252    0.386   86.496  153.374    3.272
  624.500    0.244    0.394   89.025  152.980    3.216
  624.750    0.236    0.360   91.550  152.375    3.226
  625.000    0.262    0.346   87.795  151.562    3.261
  625.250    0.271    0.362   82.032  151.166    3.323
  625.500    0.257    0.367   83.490  151.399    3.417
  625.750    0.242    0.355   87.524  152.051    3.694
  626.000    0.213    0.319   83.582  153.124    3.925
  626.250    0.084    0.266   74.990  154.927    3.969
  626.500    0.062    0.226   65.080  156.521    3.937
  626.750    0.063    0.223   66.037  156.648    3.882
  627.000    0.143    0.264   77.734  155.415    3.829
  627.250    0.192    0.307   84.971  153.555    3.827
  627.500    0.232    0.339   89.697  152.221    3.906
  627.750    0.228    0.346   90.216  152.140    4.135
  628.000    0.225    0.350   89.916  152.581    4.229
  628.250    0.224    0.372   90.369  153.023    4.251
  628.500    0.224    0.393   91.074  153.569    4.233
  628.750    0.222    0.364   92.721  154.013    4.215
  629.000    0.224    0.342   93.865  154.141    4.229
  629.250    0.227    0.345   84.332  153.431    4.276
  629.500    0.221    0.335   77.249  152.620    4.381
  629.750    0.214    0.319   81.660  152.014    4.584
  630.000    0.202    0.305   87.142  151.619    4.825
  630.250    0.191    0.332   90.106  151.022    5.116
  630.500    0.188    0.347   93.386  150.521    5.364
  630.750    0.192    0.347   97.044  150.545    5.507
  631.000    0.191    0.351   98.062  150.981    5.676
  631.250    0.184    0.352   94.874  152.892    5.748
  631.500    0.178    0.327   94.700  154.589    5.802
  631.750    0.176    0.340   95.656  156.289    5.889
  632.000    0.180    0.370   93.284  157.043    6.010
  632.250    0.184    0.389   90.597  155.497    6.265
  632.500    0.189    0.388   87.344  153.113    6.359
  632.750    0.179    0.346   84.344  151.358    6.130
  633.000    0.160    0.308   89.508  149.604    5.875
  633.250    0.178    0.295   95.679  148.896    5.568
  633.500    0.192    0.348   98.393  149.334    5.316
  633.750    0.183    0.388  100.481  151.246    5.114
  634.000    0.178    0.380   99.994  152.523    4.939
  634.250    0.178    0.367   97.809  153.492    4.843
  634.500    0.178    0.355   95.625  153.620    4.851
  634.750    0.178    0.344   93.819  153.643    4.867
  635.000    0.177    0.348   90.692  153.561    4.968
  635.250    0.175    0.347   86.747  154.321    5.299
  635.500    0.169    0.339   91.412  155.911    5.449
  635.750    0.166    0.331   99.339  157.507    5.184
  636.000    0.172    0.339  103.751  157.950    4.894
  636.250    0.176    0.385   97.169  157.555    4.681
  636.500    0.178    0.388   97.310  156.845    4.487
  636.750    0.185    0.379  101.657  156.030    4.358
  637.000    0.191    0.357  107.891  155.111    4.266
  637.250    0.195    0.345  103.319  154.612    4.232
  637.500    0.200    0.361  100.758  154.222    4.213
  637.750    0.208    0.402  100.333  154.140    4.204
  638.000    0.207    0.424  100.287  154.055    4.218
  638.250    0.201    0.440   99.986  153.975    4.281
  638.500    0.195    0.434   99.622  153.162    4.354
  638.750    0.202    0.418   97.313  152.034    4.427
  639.000    0.198    0.406   95.694  151.955    4.520
  639.250    0.186    0.405  101.047  152.814    4.577
  639.500    0.171    0.379  103.323  154.723    4.673
  639.750    0.158    0.373  102.775  156.631    4.723
  640.000    0.159    0.368  102.031  157.806    4.785
  640.250    0.172    0.359  101.608  157.724    4.820
  640.500    0.184    0.367  102.563  156.282    4.836
  640.750    0.192    0.379  102.891  152.435    4.843
  641.000    0.179    0.394  101.838  151.203    4.831
  641.250    0.177    0.387  100.469  151.960    4.803
  641.500    0.184    0.378  103.687  153.761    4.781
  641.750    0.191    0.368  107.032  155.773    4.771
  642.000    0.190    0.375  109.369  157.997    4.777
  642.250    0.185    0.373  109.322  159.486    4.803
  642.500    0.180    0.371  104.750  158.571    4.846
  642.750    0.189    0.388   97.728  156.396    4.835
  643.000    0.204    0.378   89.201  154.326    4.807
  643.250    0.211    0.356   88.273  153.195    4.785
  643.500    0.202    0.341   95.825  153.323    4.755
  643.750    0.188    0.327  101.806  155.440    4.690
  644.000    0.169    0.358  105.464  158.291    4.566
  644.250    0.163    0.380  110.817  160.305    4.468
  644.500    0.168    0.394  111.021  160.855    4.348
  644.750    0.173    0.392  106.134  161.296    4.224
  645.000    0.173    0.392  103.826  161.321    4.198
  645.250    0.172    0.400  101.391  160.924    4.284
  645.500    0.170    0.409   98.828  159.795    4.552
  645.750    0.177    0.418   95.199  158.040    5.025
