~VERSION INFORMATION
 VERS.                 2.0:   CWLS LOG ASCII STANDARD -VERSION 2.0
 WRAP.                  NO:   ONE LINE PER DEPTH STEP
~WELL INFORMATION BLOCK
#MNEM.UNIT           DATA                    DESCRIPTION OF MNEMONIC
#---------    -------------------            -------------------------------
# Generated from Intellog Unique Number	CS_67_68/WELL/2190
WELL.         10-03-067-08W4                 : Well_name    - WELL
LOC .         00/10-03-067-08W4/0            : Location     - LOCATION
UWI .         00/10-03-067-08W4/0            : Uwi          - UNIQUE WELL ID
ENTR.         SP                             : Entered      - ENTERED BY
SRVC.         SCHLUMBERGER                   : Scn          - SERVICE COMPANY
STRT.M        305                            : top_depth    - START DEPTH
STOP.M        545                            : bot_depth    - STOP DEPTH
STEP.M        0.25                           : increment    - STEP LENGTH
 NULL. -999.2500:NULL Value
~CURVE INFORMATION BLOCK
#MNEM UNIT       ERCB CURVE CODE    CURVE DESCRIPTION
#-----------   ------------------   ----------------------------------
DEPT.M        00 001 00 00         : DEPTH        - DEPTH
ILD .OHMM     00 120 00 00         : RESD         - DEEP RESISTIVITY (DIL)
DPHI.V/V      00 890 00 00         : PHID         - DENSITY POROSITY (LIMESTONE)
NPHI.V/V      00 330 00 00         : PHIN         - NEUTRON POROSITY (LIMESTONE)
GR  .API      00 310 00 00         : GR           - GAMMA RAY
CALI.MM       00 280 01 00         : CAL          - CALIPER
~PARAMETER INFORMATION
#MNEM.UNIT           DATA             DESCRIPTION OF MNEMONIC
#---------         -----------     ------------------------------
GL  .M        609.7                : gl           - GROUND LEVEL ELEVATION
EREF.M        613.4                : kb           - ELEVATION OF DEPTH REFERENCE
DATM.M        613.4                : datum        - DATUM ELEVATION
TDD .M        550                  : tdd          - TOTAL DEPTH DRILLER
RUN .         ONE                  : Run          - RUN NUMBER
ENG .         BILL                 : Engineer     - RECORDING ENGINEER
WIT .         JIM                  : Witness      - WITNESSED BY
MUD .         GEL                  : Mud_type     - MUD TYPE
MATR.         LIMESTONE            : Logunit      - NEUTRON MATRIX
TMAX.C        25                   : BHT          - MAXIMUM RECORDED TEMPERATURE
BHTD.M        554.5                : BHTDEP       - MAXIMUM RECORDED TEMPERATURE
MATR.         1                    : LOGUNIT      - NEUTRON MATRIX
RMT .C        25                   : MDTP         - TEMPERATURE OF MUD
NEUT.         1                    : NEUTRON      - NEUTRON TYPE
RESI.         0                    : RESIST       - RESISTIVITY TYPE
RMC .OHMM     0.25                 : RMC          - RESISTIVITY OF MUD CAKE
RMF .OHMM     0.25                 : RMF          - RESISTIVITY OF MUD FILTRATE
SUFT.C        15                   : SUFT         - SURFACE TEMPERATURE
~A  DEPTH     RESD     PHID     PHIN       GR      CAL
# ...
  341.500    5.172    0.271    0.434   73.772  155.462
  341.750    5.182    0.273    0.441   73.032  154.652
  342.000    5.182    0.276    0.447   71.414  154.048
  342.250    5.191    0.278    0.441   70.549  153.342
  342.500    5.240    0.279    0.443   71.636  153.159
  342.750    5.220    0.282    0.451   75.176  152.453
  343.000    5.132    0.283    0.444   76.641  151.856
  343.250    5.035    0.281    0.449   76.407  151.255
  343.500    4.875    0.274    0.461   75.670  150.967
  343.750    4.775    0.269    0.470   76.692  150.785
  344.000    4.676    0.267    0.476   81.303  150.608
  344.250    4.623    0.268    0.472   83.333  150.632
  344.500    4.597    0.270    0.476   84.230  150.661
  344.750    4.579    0.271    0.481   84.818  150.587
  345.000    4.596    0.262    0.465   85.084  150.716
  345.250    4.622    0.244    0.465   85.288  150.640
  345.500    4.657    0.248    0.476   84.048  150.773
  345.750    4.710    0.252    0.481   82.302  150.593
  346.000    4.781    0.243    0.465   81.375  150.411
  346.250    4.873    0.242    0.448   84.664  150.438
  346.500    4.900    0.249    0.447   84.429  150.466
  346.750    4.881    0.257    0.446   83.251  151.652
  347.000    4.817    0.271    0.440   84.086  154.094
  347.250    4.744    0.262    0.448   85.865  156.215
  347.500    4.628    0.238    0.471   87.520  162.535
  347.750    4.490    0.241    0.492   89.296  182.383
  348.000    4.414    0.261    0.501   91.137  200.240
  348.250    4.266    0.301    0.488   89.961  209.182
  348.500    4.146    0.343    0.496   87.523  214.348
  348.750    4.217    0.382    0.513   88.106  208.714
  349.000    4.363    0.369    0.534   91.206  194.479
  349.250    4.438    0.293    0.532   91.349  179.092
  349.500    4.557    0.271    0.500   90.552  168.424
  349.750    4.653    0.294    0.510   89.243  167.823
  350.000    4.750    0.316    0.534   86.366  168.483
  350.250    4.896    0.303    0.476   79.904  166.310
  350.500    4.999    0.287    0.447   75.767  161.829
  350.750    5.094    0.285    0.435   72.890  160.281
  351.000    5.211    0.277    0.438   75.172  159.575
  351.250    5.402    0.268    0.450   75.505  159.081
  351.500    5.546    0.280    0.459   74.576  158.901
  351.750    5.652    0.283    0.444   76.671  158.613
  352.000    5.815    0.261    0.425   78.008  158.328
  352.250    5.948    0.251    0.438   78.654  157.935
  352.500    6.212    0.237    0.451   78.860  157.544
  352.750    6.476    0.205    0.431   77.240  158.622
  353.000    6.701    0.180    0.399   77.511  160.225
  353.250    6.751    0.193    0.394   81.553  162.354
  353.500    6.562    0.226    0.441   85.661  163.635
  353.750    6.282    0.212    0.468   87.880  166.389
  354.000    6.002    0.215    0.480   89.847  168.830
  354.250    5.834    0.224    0.460   91.059  170.745
  354.500    5.692    0.209    0.485   91.643  170.878
  354.750    5.617    0.212    0.503   90.213  169.019
  355.000    5.616    0.235    0.517   85.825  164.853
  355.250    5.563    0.261    0.491   79.928  160.897
  355.500    5.417    0.262    0.468   74.535  158.617
  355.750    5.500    0.272    0.447   70.524  157.284
  356.000    5.406    0.296    0.440   67.016  156.892
  356.250    5.205    0.314    0.446   62.945  156.502
  356.500    4.880    0.323    0.436   56.418  156.528
  356.750    4.654    0.326    0.421   49.513  156.557
  357.000    4.372    0.319    0.402   44.308  156.692
  357.250    4.194    0.323    0.428   41.055  156.931
  357.500    4.107    0.326    0.438   39.562  156.746
  357.750    4.083    0.325    0.412   39.954  156.986
  358.000    4.122    0.336    0.395   43.496  157.014
  358.250    4.193    0.339    0.395   45.840  157.253
  358.500    4.273    0.335    0.400   48.688  157.281
  358.750    4.354    0.329    0.403   49.147  157.098
  359.000    4.471    0.330    0.402   49.288  157.231
  359.250    4.565    0.325    0.391   51.068  157.261
  359.500    4.660    0.316    0.381   53.098  157.183
  359.750    4.758    0.312    0.392   53.305  157.107
  360.000    4.803    0.318    0.422   52.380  156.611
  360.250    4.849    0.315    0.438   51.264  156.429
  360.500    4.848    0.310    0.446   49.517  156.352
  360.750    4.721    0.311    0.433   50.352  156.277
  361.000    4.615    0.315    0.419   57.541  156.305
  361.250    4.563    0.316    0.417   63.852  156.228
  361.500    4.511    0.315    0.417   66.888  156.048
  361.750    4.485    0.310    0.414   69.107  155.971
  362.000    4.485    0.313    0.408   70.446  155.685
  362.250    4.493    0.316    0.404   71.469  155.608
  362.500    4.501    0.312    0.417   73.248  155.429
  362.750    4.518    0.307    0.425   75.152  155.561
  363.000    4.578    0.300    0.405   77.623  155.594
  363.250    4.719    0.287    0.381   80.662  155.721
  363.500    4.929    0.278    0.396   81.621  156.170
  363.750    5.080    0.280    0.411   80.883  156.301
  364.000    5.138    0.281    0.424   80.145  156.749
  364.250    5.128    0.278    0.435   79.534  156.779
  364.500    5.098    0.284    0.439   79.046  156.597
  364.750    5.117    0.278    0.444   77.175  156.626
  365.000    5.137    0.275    0.445   78.765  156.762
  365.250    5.185    0.280    0.427   81.741  156.999
  365.500    5.244    0.284    0.421   84.023  157.447
  365.750    5.324    0.263    0.437   86.557  158.310
  366.000    5.395    0.243    0.426   88.586  159.388
  366.250    5.487    0.244    0.413   88.163  160.677
  366.500    5.709    0.244    0.407   85.600  162.276
  366.750    5.874    0.242    0.406   85.618  165.555
  367.000    6.100    0.252    0.405   87.460  170.827
  367.250    6.193    0.268    0.448   87.476  183.648
  367.500    6.287    0.381    0.478   87.495  202.868
  367.750    6.358    0.430    0.489   88.705  217.263
  368.000    6.431    0.404    0.469   91.113  213.202
  368.250    6.479    0.342    0.454   92.326  196.766
  368.500    6.504    0.316    0.463   92.406  181.903
  368.750    6.491    0.301    0.445   90.032  173.962
  369.000    6.321    0.291    0.421   86.527  168.013
  369.250    6.085    0.276    0.404   83.522  165.003
  369.500    5.706    0.255    0.420   80.267  163.351
  369.750    5.401    0.230    0.444   77.327  161.804
  370.000    5.092    0.263    0.451   73.570  160.366
  370.250    4.921    0.290    0.435   68.930  159.135
  370.500    4.729    0.294    0.417   61.271  158.225
  370.750    4.588    0.282    0.402   55.184  157.729
  371.000    4.579    0.285    0.390   51.804  158.283
  371.250    4.622    0.293    0.395   60.818  158.515
  371.500    4.719    0.297    0.383   69.267  158.648
  371.750    4.791    0.280    0.375   74.380  158.572
  372.000    4.948    0.264    0.374   77.353  158.599
  372.250    5.109    0.248    0.387   73.661  158.314
  372.500    5.266    0.255    0.401   71.663  158.131
  372.750    5.356    0.263    0.410   70.609  157.951
  373.000    5.438    0.264    0.400   72.011  157.879
  373.250    5.479    0.261    0.394   73.034  157.902
  373.500    5.499    0.245    0.400   70.787  158.248
  373.750    5.489    0.230    0.406   68.224  158.273
  374.000    5.488    0.236    0.407   71.010  158.514
  374.250    5.551    0.244    0.402   74.990  158.645
  374.500    5.721    0.237    0.395   77.398  158.885
  374.750    5.819    0.227    0.387   77.671  158.913
  375.000    5.930    0.222    0.383   76.551  159.673
  375.250    6.055    0.224    0.381   75.438  160.540
  375.500    6.135    0.218    0.373   75.138  160.884
  375.750    6.193    0.230    0.367   74.905  160.912
  376.000    6.216    0.235    0.363   74.608  160.944
  376.250    6.169    0.239    0.359   75.126  161.182
  376.500    6.169    0.228    0.355   77.094  161.312
  376.750    6.133    0.219    0.362   79.061  161.865
  377.000    6.052    0.225    0.371   79.079  162.311
  377.250    5.972    0.236    0.384   78.027  162.558
  377.500    5.927    0.238    0.387   75.841  162.474
  377.750    5.860    0.236    0.384   74.095  161.667
