~VERSION INFORMATION
 VERS.                 2.0:   CWLS LOG ASCII STANDARD -VERSION 2.0
 WRAP.                  NO:   ONE LINE PER DEPTH STEP
~WELL INFORMATION BLOCK
#MNEM.UNIT           DATA                    DESCRIPTION OF MNEMONIC
#---------    -------------------            -------------------------------
# Generated from Intellog Unique Number	CS_67_68/WELL/2204
WELL.         11-05-067-07W4                 : Well_name    - WELL
LOC .         00/11-05-067-07W4/0            : Location     - LOCATION
UWI .         00/11-05-067-07W4/0            : Uwi          - UNIQUE WELL ID
ENTR.         SP                             : Entered      - ENTERED BY
SRVC.         SCHLUMBERGER                   : Scn          - SERVICE COMPANY
STRT.M        315                            : top_depth    - START DEPTH
STOP.M        540                            : bot_depth    - STOP DEPTH
STEP.M        0.25                           : increment    - STEP LENGTH
 NULL. -999.2500:NULL Value
~CURVE INFORMATION BLOCK
#MNEM UNIT       ERCB CURVE CODE    CURVE DESCRIPTION
#-----------   ------------------   ----------------------------------
DEPT.M        00 001 00 00         : DEPTH        - DEPTH
ILD .OHMM     00 120 00 00         : RESD         - DEEP RESISTIVITY (DIL)
DPHI.V/V      00 890 00 00         : PHID         - DENSITY POROSITY (LIMESTONE)
NPHI.V/V      00 330 00 00         : PHIN         - NEUTRON POROSITY (LIMESTONE)
GR  .API      00 310 00 00         : GR           - GAMMA RAY
CALI.MM       00 280 01 00         : CAL          - CALIPER
~PARAMETER INFORMATION
#MNEM.UNIT           DATA             DESCRIPTION OF MNEMONIC
#---------         -----------     ------------------------------
GL  .M        621.33               : gl           - GROUND LEVEL ELEVATION
EREF.M        625.23               : kb           - ELEVATION OF DEPTH REFERENCE
DATM.M        625.23               : datum        - DATUM ELEVATION
TDD .M        550                  : tdd          - TOTAL DEPTH DRILLER
RUN .         ONE                  : Run          - RUN NUMBER
ENG .         BILL                 : Engineer     - RECORDING ENGINEER
WIT .         JIM                  : Witness      - WITNESSED BY
MUD .         GEL                  : Mud_type     - MUD TYPE
MATR.         LIMESTONE            : Logunit      - NEUTRON MATRIX
TMAX.C        25                   : BHT          - MAXIMUM RECORDED TEMPERATURE
BHTD.M        549.5                : BHTDEP       - MAXIMUM RECORDED TEMPERATURE
MATR.         1                    : LOGUNIT      - NEUTRON MATRIX
RMT .C        25                   : MDTP         - TEMPERATURE OF MUD
NEUT.         1                    : NEUTRON      - NEUTRON TYPE
RESI.         0                    : RESIST       - RESISTIVITY TYPE
RMC .OHMM     0.25                 : RMC          - RESISTIVITY OF MUD CAKE
RMF .OHMM     0.25                 : RMF          - RESISTIVITY OF MUD FILTRATE
SUFT.C        15                   : SUFT         - SURFACE TEMPERATURE
~A  DEPTH     RESD     PHID     PHIN       GR      CAL
# ...
  351.500    4.565    0.258    0.485   86.319  160.455
  351.750    4.550    0.252    0.497   87.630  161.027
  352.000    4.657    0.246    0.472   86.685  161.485
  352.250    4.895    0.232    0.456   82.561  162.041
  352.500    4.972    0.218    0.475   83.143  162.290
  352.750    4.939    0.221    0.488   83.293  162.445
  353.000    4.895    0.241    0.482   81.918  162.395
  353.250    4.825    0.255    0.476   82.189  162.137
  353.500    4.773    0.263    0.490   86.001  162.192
  353.750    4.722    0.264    0.472   87.994  163.158
  354.000    4.602    0.260    0.454   89.674  164.426
  354.250    4.368    0.253    0.445   89.701  165.688
  354.500    4.208    0.244    0.449   88.206  166.360
  354.750    4.172    0.235    0.470   87.012  184.617
  355.000    4.214    0.273    0.492   87.717  195.665
  355.250    4.257    0.304    0.493   90.189  207.220
  355.500    4.316    0.346    0.484   94.122  219.789
  355.750    4.327    0.405    0.480   97.760  233.073
  356.000    4.329    0.444    0.521  102.308  208.387
  356.250    4.349    0.298    0.544   98.980  185.641
  356.500    4.392    0.248    0.543   90.703  175.920
  356.750    4.496    0.299    0.524   83.586  169.955
  357.000    4.576    0.307    0.496   79.344  167.568
  357.250    4.648    0.307    0.469   76.868  166.703
  357.500    4.678    0.300    0.445   76.168  166.136
  357.750    4.707    0.306    0.446   73.511  165.069
  358.000    4.864    0.313    0.459   76.223  163.895
  358.250    5.329    0.300    0.479   79.312  162.625
  358.500    6.306    0.287    0.499   83.248  162.068
  358.750    7.521    0.303    0.508   85.844  162.011
  359.000    8.319    0.315    0.501   87.157  162.671
  359.250    8.742    0.307    0.315   78.331  163.846
  359.500    8.981    0.155    0.249   71.644  165.517
  359.750    9.072    0.090    0.220   68.497  166.996
  360.000    8.892    0.072    0.199   70.541  168.062
  360.250    8.020    0.092    0.188   74.359  168.608
  360.500    7.206    0.152    0.295   77.076  168.874
  360.750    6.367    0.197    0.360   73.867  168.713
  361.000    5.985    0.192    0.405   70.173  168.668
  361.250    5.746    0.144    0.324   75.512  168.515
  361.500    5.568    0.180    0.406   79.820  168.570
  361.750    5.305    0.218    0.444   82.962  168.721
  362.000    5.044    0.236    0.462   84.461  170.290
  362.250    4.851    0.248    0.469   86.440  173.503
  362.500    4.800    0.230    0.478   88.429  180.270
  362.750    4.812    0.206    0.492   88.766  188.463
  363.000    4.806    0.243    0.516   88.551  198.590
  363.250    4.639    0.268    0.510   86.198  200.167
  363.500    4.428    0.270    0.495   81.158  184.136
  363.750    4.140    0.272    0.477   75.816  171.358
  364.000    3.937    0.293    0.463   70.226  165.303
  364.250    3.829    0.304    0.448   66.410  162.704
  364.500    3.839    0.312    0.437   63.142  162.144
  364.750    3.922    0.319    0.441   57.369  161.679
  365.000    3.992    0.327    0.424   60.453  161.322
  365.250    4.033    0.343    0.430   62.378  161.270
  365.500    4.043    0.350    0.444   59.412  161.225
  365.750    4.037    0.342    0.441   54.987  161.168
  366.000    4.024    0.338    0.448   58.315  161.428
  366.250    4.004    0.333    0.445   62.681  161.361
  366.500    3.984    0.330    0.431   64.541  161.619
  366.750    3.957    0.328    0.435   60.413  161.674
  367.000    3.914    0.326    0.452   58.007  161.515
  367.250    3.895    0.324    0.441   57.059  161.473
  367.500    3.905    0.326    0.436   60.325  161.415
  367.750    3.929    0.331    0.433   64.259  161.265
  368.000    3.984    0.334    0.424   68.931  161.007
  368.250    4.032    0.330    0.420   73.055  160.653
  368.500    4.089    0.326    0.429   76.080  160.599
  368.750    4.121    0.322    0.417   73.542  160.438
  369.000    4.156    0.310    0.411   65.696  160.185
  369.250    4.182    0.300    0.420   60.658  160.140
  369.500    4.232    0.309    0.427   59.831  159.875
  369.750    4.275    0.324    0.420   63.954  159.929
  370.000    4.351    0.336    0.419   68.686  159.983
  370.250    4.420    0.326    0.415   73.597  160.217
  370.500    4.498    0.313    0.409   76.806  160.475
  370.750    4.631    0.303    0.414   79.339  160.439
  371.000    4.748    0.307    0.423   77.964  160.675
  371.250    4.972    0.310    0.422   76.772  160.932
  371.500    5.108    0.307    0.422   78.567  161.385
  371.750    5.248    0.297    0.436   80.125  161.628
  372.000    5.444    0.289    0.456   81.195  161.695
  372.250    5.550    0.281    0.469   81.959  161.648
  372.500    5.627    0.278    0.451   83.571  161.590
  372.750    5.716    0.272    0.433   84.954  161.239
  373.000    5.796    0.272    0.433   88.277  161.182
  373.250    5.866    0.276    0.431   90.875  161.751
  373.500    5.880    0.271    0.427   89.745  163.428
  373.750    5.929    0.266    0.421   88.127  165.617
  374.000    6.000    0.277    0.437   88.767  168.205
  374.250    6.004    0.279    0.450   87.021  169.583
  374.500    6.065    0.280    0.452   86.934  170.952
  374.750    6.115    0.304    0.441   88.490  172.024
  375.000    6.107    0.349    0.439   91.511  187.750
  375.250    6.053    0.399    0.461   95.205  208.056
  375.500    5.899    0.347    0.486   98.716  191.301
  375.750    5.792    0.297    0.459  101.861  179.442
  376.000    5.818    0.286    0.449  102.382  171.461
  376.250    5.887    0.276    0.469   90.381  165.809
  376.500    5.880    0.278    0.476   80.517  163.617
  376.750    5.851    0.280    0.432   79.873  162.246
  377.000    5.767    0.269    0.391   84.118  161.175
  377.250    5.695    0.251    0.393   82.128  160.613
  377.500    5.645    0.234    0.405   76.911  160.151
  377.750    5.595    0.256    0.416   74.925  159.697
  378.000    5.505    0.263    0.426   78.374  159.441
  378.250    5.415    0.248    0.416   80.237  159.491
  378.500    5.307    0.234    0.405   81.182  159.337
  378.750    5.201    0.223    0.395   83.778  159.387
  379.000    5.204    0.215    0.407   85.330  159.846
  379.250    5.268    0.232    0.419   77.365  160.695
  379.500    5.310    0.230    0.406   72.570  161.163
  379.750    5.354    0.222    0.411   75.837  161.819
  380.000    5.408    0.240    0.405   79.348  162.485
  380.250    5.484    0.252    0.395   78.766  163.247
  380.500    5.497    0.246    0.389   85.332  163.501
  380.750    5.439    0.233    0.384   91.161  163.245
  381.000    5.300    0.221    0.377   95.704  162.586
  381.250    5.031    0.212    0.393   97.754  162.018
  381.500    4.757    0.209    0.404   98.093  161.854
  381.750    4.532    0.217    0.418   84.381  161.615
  382.000    4.317    0.223    0.414   71.460  161.356
  382.250    4.137    0.258    0.406   62.396  161.194
  382.500    4.047    0.286    0.398   52.349  161.255
  382.750    3.973    0.307    0.398   48.286  161.096
  383.000    3.946    0.312    0.401   47.521  161.040
  383.250    3.941    0.317    0.393   46.269  161.197
  383.500    3.914    0.329    0.390   44.340  161.149
  383.750    3.879    0.317    0.388   42.902  161.181
  384.000    3.845    0.306    0.384   42.575  161.243
  384.250    3.819    0.296    0.381   42.901  161.296
  384.500    3.807    0.289    0.382   43.119  161.646
  384.750    3.795    0.301    0.390   43.333  161.903
  385.000    3.804    0.311    0.406   43.183  162.055
  385.250    3.829    0.321    0.416   43.150  162.206
  385.500    3.845    0.326    0.403   46.539  162.254
  385.750    3.914    0.327    0.406   47.790  162.398
  386.000    4.013    0.332    0.396   42.934  162.354
  386.250    4.202    0.341    0.390   37.406  162.501
  386.500    4.450    0.345    0.404   39.392  162.657
  386.750    4.667    0.347    0.416   42.170  162.810
  387.000    4.980    0.349    0.409   48.978  163.065
  387.250    5.333    0.331    0.385   54.992  163.305
  387.500    5.357    0.268    0.368   60.398  163.673
  387.750    5.280    0.247    0.384   66.959  164.129
