~VERSION INFORMATION
 VERS.                 2.0:   CWLS LOG ASCII STANDARD -VERSION 2.0
 WRAP.                  NO:   ONE LINE PER DEPTH STEP
~WELL INFORMATION BLOCK
#MNEM.UNIT           DATA                    DESCRIPTION OF MNEMONIC
#---------    -------------------            -------------------------------
# Generated from Intellog Unique Number	CS_67_68/WELL/806
WELL.         BURNT LAKE                     : Well_name    - WELL
LOC .         00/10-26-068-04W4/0            : Location     - LOCATION
UWI .         00/10-26-068-04W4/0            : Uwi          - UNIQUE WELL ID
ENTR.         SP                             : Entered      - ENTERED BY
SRVC.         SCHLUMBERGER                   : Scn          - SERVICE COMPANY
STRT.M        365                            : top_depth    - START DEPTH
STOP.M        595                            : bot_depth    - STOP DEPTH
STEP.M        0.25                           : increment    - STEP LENGTH
 NULL. -999.2500:NULL Value
~CURVE INFORMATION BLOCK
#MNEM UNIT       ERCB CURVE CODE    CURVE DESCRIPTION
#-----------   ------------------   ----------------------------------
DEPT.M        00 001 00 00         : DEPTH        - DEPTH
GR  .API      00 310 00 00         : GR           - GAMMA RAY
NPHI.V/V      00 330 00 00         : PHIN         - NEUTRON POROSITY (LIMESTONE)
DPHI.V/V      00 890 00 00         : PHID         - DENSITY POROSITY (LIMESTONE)
ILD .OHMM     00 120 00 00         : RESD         - DEEP RESISTIVITY (DIL)
~PARAMETER INFORMATION
#MNEM.UNIT           DATA             DESCRIPTION OF MNEMONIC
#---------         -----------     ------------------------------
GL  .M        731.85               : gl           - GROUND LEVEL ELEVATION
EREF.M        735.7                : kb           - ELEVATION OF DEPTH REFERENCE
DATM.M        731.85               : datum        - DATUM ELEVATION
TDD .M        600.34               : tdd          - TOTAL DEPTH DRILLER
RUN .         ONE                  : Run          - RUN NUMBER
ENG .         BILL                 : Engineer     - RECORDING ENGINEER
WIT .         JIM                  : Witness      - WITNESSED BY
MUD .         GEL                  : Mud_type     - MUD TYPE
MATR.         LIMESTONE            : Logunit      - NEUTRON MATRIX
TMAX.C        20                   : BHT          - MAXIMUM RECORDED TEMPERATURE
BHTD.M        600.34               : BHTDEP       - MAXIMUM RECORDED TEMPERATURE
MATR.         1                    : LOGUNIT      - NEUTRON MATRIX
RMT .C        25                   : MDTP         - TEMPERATURE OF MUD
NEUT.         1                    : NEUTRON      - NEUTRON TYPE
RESI.         0                    : RESIST       - RESISTIVITY TYPE
RMC .OHMM     0.25                 : RMC          - RESISTIVITY OF MUD CAKE
RMF .OHMM     0.25                 : RMF          - RESISTIVITY OF MUD FILTRATE
SUFT.C        15                   : SUFT         - SURFACE TEMPERATURE
~A  DEPTH       GR     PHIN     PHID     RESD
# ...
  495.500   58.394    0.345    0.346   19.119
  495.750   58.317    0.413    0.336   17.907
  496.000   57.265    0.424    0.340   17.509
  496.250   56.583    0.414    0.346   17.443
  496.500   56.142    0.407    0.344   17.739
  496.750   58.191    0.404    0.345   18.416
  497.000   59.571    0.417    0.348   19.011
  497.250   58.946    0.414    0.354   18.799
  497.500   57.593    0.431    0.357   17.772
  497.750   57.151    0.451    0.315   19.847
  498.000   55.856    0.447    0.275   22.372
  498.250   52.501    0.162    0.034   27.900
  498.500   46.835    0.140    0.013   34.150
  498.750   43.355    0.126    0.013   33.579
  499.000   48.501    0.196    0.057   23.181
  499.250   54.744    0.368    0.168   18.587
  499.500   61.406    0.428    0.247   16.274
  499.750   64.611    0.450    0.314   15.016
  500.000   66.600    0.455    0.287   12.880
  500.250   67.067    0.409    0.240   11.319
  500.500   66.568    0.363    0.223    9.929
  500.750   66.065    0.371    0.238    8.775
  501.000   69.755    0.392    0.261    7.962
  501.250   73.080    0.405    0.283    7.373
  501.500   74.704    0.421    0.293    7.089
  501.750   74.991    0.431    0.281    6.919
  502.000   72.908    0.419    0.285    6.615
  502.250   74.957    0.418    0.293    6.480
  502.500   77.431    0.429    0.298    6.468
  502.750   77.659    0.437    0.285    6.602
  503.000   67.859    0.388    0.229    6.906
  503.250   63.227    0.335    0.178    7.332
  503.500   66.977    0.326    0.194    7.526
  503.750   71.333    0.363    0.246    7.400
  504.000   73.807    0.395    0.275    6.918
  504.250   74.945    0.427    0.287    6.336
  504.500   75.172    0.454    0.292    5.967
  504.750   74.244    0.466    0.296    5.694
  505.000   73.620    0.451    0.302    5.610
  505.250   75.304    0.448    0.297    5.547
  505.500   77.475    0.454    0.277    5.444
  505.750   78.978    0.442    0.261    5.434
  506.000   77.442    0.435    0.274    5.373
  506.250   76.817    0.449    0.282    5.323
  506.500   79.960    0.464    0.282    5.244
  506.750   82.495    0.478    0.278    5.185
  507.000   84.722    0.482    0.283    5.156
  507.250   85.379    0.462    0.289    5.147
  507.500   83.053    0.450    0.287    5.185
  507.750   79.756    0.445    0.282    5.403
  508.000   75.365    0.454    0.295    6.034
  508.250   70.670    0.469    0.306    6.751
  508.500   65.489    0.458    0.317    7.372
  508.750   61.099    0.446    0.324    8.064
  509.000   65.151    0.452    0.329    8.839
  509.250   67.323    0.465    0.325    9.159
  509.500   67.549    0.481    0.328    9.193
  509.750   69.537    0.482    0.321    9.210
  510.000   71.585    0.447    0.312    9.176
  510.250   72.724    0.424    0.304    9.039
  510.500   71.309    0.429    0.300    8.938
  510.750   68.256    0.445    0.310    8.972
  511.000   67.085    0.457    0.313    9.349
  511.250   65.003    0.451    0.311    9.982
  511.500   62.982    0.441    0.311   11.105
  511.750   65.335    0.434    0.323   12.149
  512.000   65.135    0.433    0.337   12.947
  512.250   63.357    0.424    0.338   13.901
  512.500   63.583    0.439    0.333   14.953
  512.750   64.174    0.457    0.331   16.146
  513.000   63.790    0.469    0.331   17.014
  513.250   62.681    0.466    0.338   18.064
  513.500   62.180    0.460    0.331   19.359
  513.750   63.683    0.453    0.314   20.515
  514.000   62.388    0.461    0.323   21.822
  514.250   60.854    0.463    0.339   22.697
  514.500   60.532    0.454    0.349   23.169
  514.750   60.941    0.452    0.352   23.212
  515.000   61.776    0.457    0.352   22.654
  515.250   62.608    0.473    0.355   20.746
  515.500   63.259    0.484    0.352   20.247
  515.750   63.550    0.474    0.346   20.902
  516.000   61.587    0.457    0.345   21.944
  516.250   60.296    0.449    0.346   23.124
  516.500   59.003    0.463    0.350   24.186
  516.750   61.111    0.477    0.354   24.921
  517.000   62.373    0.475    0.356   26.311
  517.250   61.080    0.474    0.355   27.934
  517.500   57.783    0.480    0.353   29.163
  517.750   55.154    0.469    0.351   30.275
  518.000   53.432    0.425    0.349   30.904
  518.250   54.209    0.407    0.345   30.674
  518.500   55.771    0.398    0.345   28.038
  518.750   56.607    0.421    0.358   25.295
  519.000   56.528    0.441    0.364   23.559
  519.250   57.120    0.454    0.357   22.231
  519.500   58.621    0.439    0.349   22.230
  519.750   60.124    0.441    0.344   22.992
  520.000   61.808    0.442    0.340   23.646
  520.250   62.156    0.440    0.337   24.138
  520.500   59.345    0.435    0.344   24.365
  520.750   57.141    0.450    0.354   23.957
  521.000   57.975    0.460    0.356   22.565
  521.250   60.996    0.464    0.364   21.372
  521.500   62.741    0.455    0.352   20.587
  521.750   63.028    0.454    0.346   20.395
  522.000   62.644    0.462    0.334   20.167
  522.250   62.022    0.447    0.322   20.017
  522.500   61.337    0.436    0.315   19.904
  522.750   60.836    0.430    0.322   19.904
  523.000   60.574    0.432    0.331   19.719
  523.250   61.408    0.445    0.340   18.747
  523.500   63.459    0.444    0.349   15.664
  523.750   67.088    0.439    0.347    6.168
  524.000   74.178    0.445    0.279    4.187
  524.250   80.968    0.455    0.256    3.198
  524.500   87.573    0.467    0.246    2.784
  524.750   89.258    0.479    0.257    2.627
  525.000   88.208    0.491    0.259    2.583
  525.250   87.034    0.516    0.255    2.588
  525.500   86.535    0.481    0.265    2.622
  525.750   87.427    0.484    0.272    2.712
  526.000   88.382    0.499    0.270    2.789
  526.250   89.823    0.505    0.255    2.874
  526.500   91.085    0.500    0.249    3.012
  526.750   91.251    0.497    0.252    3.144
  527.000   89.715    0.488    0.254    3.282
  527.250   89.700    0.471    0.255    3.433
  527.500   91.623    0.455    0.248    3.584
  527.750   93.433    0.453    0.236    3.658
  528.000   95.663    0.461    0.230    3.693
  528.250   96.134    0.465    0.239    3.665
  528.500   94.841    0.451    0.243    3.631
  528.750   94.577    0.447    0.238    3.714
  529.000   93.896    0.464    0.236    3.995
  529.250   86.345    0.478    0.247    4.597
  529.500   77.821    0.454    0.261    5.491
  529.750   73.372    0.400    0.266    6.733
  530.000   67.887    0.355    0.252    8.304
  530.250   63.192    0.331    0.055    9.754
  530.500   58.012    0.294    0.035   10.182
  530.750   66.257    0.250    0.085    9.845
  531.000   73.289    0.284    0.168    8.241
  531.250   78.315    0.341    0.224    7.704
  531.500   69.426    0.369    0.268    7.633
  531.750   65.279    0.343    0.312    7.806
  532.000   61.922    0.303    0.341    7.894
  532.250   59.474    0.280    0.368    7.806
  532.500   57.454    0.341    0.374    7.590
  532.750   58.106    0.372    0.352    7.393
  533.000   61.734    0.405    0.328    7.055
  533.250   64.451    0.409    0.315    6.247
  533.500   67.290    0.399    0.312    5.542
  533.750   70.247    0.395    0.318    5.181
  534.000   71.691    0.403    0.327    5.028
  534.250   69.245    0.409    0.331    5.028
  534.500   66.312    0.406    0.339    5.113
  534.750   71.638    0.404    0.333    5.152
  535.000   73.749    0.407    0.330    5.210
  535.250   74.829    0.427    0.326    5.298
  535.500   76.694    0.435    0.320    5.439
  535.750   81.356    0.414    0.310    5.583
  536.000   84.804    0.404    0.301    5.710
  536.250   87.521    0.409    0.293    5.807
  536.500   89.144    0.401    0.285    5.883
  536.750   88.216    0.397    0.276    6.039
  537.000   84.796    0.390    0.264    6.211
  537.250   85.328    0.380    0.251    6.340
  537.500   89.260    0.370    0.242    6.509
  537.750   81.345    0.361    0.239    6.770
  538.000   76.165    0.347    0.244    6.975
  538.250   77.907    0.335    0.249    7.080
  538.500   78.076    0.353    0.256    7.094
  538.750   77.025    0.364    0.263    7.001
