~VERSION INFORMATION
 VERS.                 2.0:   CWLS LOG ASCII STANDARD -VERSION 2.0
 WRAP.                  NO:   ONE LINE PER DEPTH STEP
~WELL INFORMATION BLOCK
#MNEM.UNIT           DATA                    DESCRIPTION OF MNEMONIC
#---------    -------------------            -------------------------------
# Generated from Intellog Unique Number	CW_70_72/WELL/1050
NULL.         -999.25                        : NULL_VALUE
WELL.         GULF FRANS 10-34               : Well_name    - WELL              
LOC .         10-34-071-21W4                 : Location     - LOCATION          
UWI .         00/10-34-071-21W4/0            : Uwi          - UNIQUE WELL ID    
ENTR.         JAYE                           : Entered      - ENTERED BY        
SRVC.         SCHLUMBERGER                   : Scn          - SERVICE COMPANY   
DATE.         7 MAR 86                       : Date         - LOG DATE          
STRT.M        320                            : top_depth    - START DEPTH       
STOP.M        505                            : bot_depth    - STOP DEPTH        
STEP.M        0.25                           : increment    - STEP LENGTH       
~CURVE INFORMATION BLOCK
#MNEM UNIT       ERCB CURVE CODE    CURVE DESCRIPTION
#-----------   ------------------   ----------------------------------
DEPT.M        00 001 00 00         : DEPTH        - DEPTH                       
DPHI.V/V      00 890 00 00         : PHID         - DENSITY POROSITY (SANDSTONE)
NPHI.V/V      00 330 00 00         : PHIN         - NEUTRON POROSITY (SANDSTONE)
GR  .API      00 310 00 00         : GR           - GAMMA RAY                   
CALI.MM       00 280 01 00         : CAL          - CALIPER                     
ILD .OHMM     00 120 00 00         : RESD         - DEEP RESISTIVITY (DIL)      
~PARAMETER INFORMATION       
#MNEM.UNIT           DATA             DESCRIPTION OF MNEMONIC
#---------         -----------     ------------------------------
GL  .M        593                  : gl           - GROUND LEVEL ELEVATION      
EREF.M        597.3                : kb           - ELEVATION OF DEPTH REFERENCE
DATM.M        593                  : datum        - DATUM ELEVATION             
TDD .M        524                  : tdd          - TOTAL DEPTH DRILLER         
RUN .         ONE                  : Run          - RUN NUMBER                  
ENG .         GEORGE               : Engineer     - RECORDING ENGINEER          
WIT .         CLAPHAM              : Witness      - WITNESSED BY                
BASE.         SL                   : Branch       - HOME BASE OF LOGGING UNIT   
MUD .         GEL CHEM             : Mud_type     - MUD TYPE                    
MATR.         SANDSTONE            : Logunit      - NEUTRON MATRIX              
TMAX.C        22                   : BHT          - MAXIMUM RECORDED TEMPERATURE
BHTD.M        525                  : BHTDEP       - MAXIMUM RECORDED TEMPERATURE
RMT .C        12.8                 : MDTP         - TEMPERATURE OF MUD          
MUDD.KG/M     1120                 : MWT          - MUD DENSITY                 
NEUT.         1                    : NEUTRON      - NEUTRON TYPE                
RESI.         0                    : RESIST       - RESISTIVITY TYPE            
RM  .OHMM     3.15                 : RM           - RESISTIVITY OF MUD          
RMC .OHMM     0                    : RMC          - RESISTIVITY OF MUD CAKE     
RMF .OHMM     3.2                  : RMF          - RESISTIVITY OF MUD FILTRATE 
SUFT.C        0                    : SUFT         - SURFACE TEMPERATURE         
~A  DEPTH     PHID     PHIN       GR      CAL     RESD
# ...
  393.000    0.241    0.431   66.133  206.116    5.154
  393.250    0.282    0.453   67.454  206.236    4.620
  393.500    0.321    0.472   64.034  206.463    4.310
  393.750    0.335    0.484   63.733  206.483    4.240
  394.000    0.325    0.447   64.990  206.602    4.234
  394.250    0.312    0.433   67.309  206.621    4.285
  394.500    0.309    0.449   70.126  206.431    4.371
  394.750    0.317    0.445   71.511  206.135    4.423
  395.000    0.315    0.431   71.582  206.049    4.459
  395.250    0.306    0.424   71.966  205.963    4.496
  395.500    0.299    0.439   70.168  205.875    4.525
  395.750    0.291    0.451   68.557  205.687    4.536
  396.000    0.288    0.438   69.628  205.390    4.556
  396.250    0.291    0.434   71.634  205.410    4.577
  396.500    0.294    0.451   71.395  205.425    4.571
  396.750    0.297    0.466   68.412  205.445    4.566
  397.000    0.299    0.449   67.674  205.772    4.543
  397.250    0.303    0.445   66.873  205.793    4.519
  397.500    0.308    0.493   64.577  205.704    4.446
  397.750    0.312    0.487   66.085  205.723    4.398
  398.000    0.305    0.448   68.901  205.634    4.326
  398.250    0.294    0.424   75.273  205.548    4.192
  398.500    0.284    0.411   79.338  205.153    4.053
  398.750    0.277    0.409   79.536  204.963    3.883
  399.000    0.263    0.443   77.737  204.875    3.776
  399.250    0.241    0.468   78.996  204.892    3.652
  399.500    0.241    0.453   81.688  204.703    3.579
  399.750    0.265    0.436   74.027  204.408    3.527
  400.000    0.286    0.424   64.744  204.115    3.476
  400.250    0.298    0.413   60.202  203.924    3.465
  400.500    0.313    0.400   60.960  203.840    3.541
  400.750    0.308    0.390   65.773  203.853    3.597
  401.000    0.302    0.391   66.096  203.767    3.620
  401.250    0.302    0.405   56.563  203.890    3.636
  401.500    0.313    0.419   51.086  203.702    3.645
  401.750    0.322    0.392   53.780  203.612    3.627
  402.000    0.321    0.413   57.844  203.527    3.602
  402.250    0.321    0.448   60.537  203.334    3.583
  402.500    0.319    0.461   61.856  203.356    3.565
  402.750    0.306    0.448   63.363  203.371    3.554
  403.000    0.318    0.421   66.306  203.389    3.543
  403.250    0.327    0.426   67.625  203.305    3.518
  403.500    0.327    0.455   67.450  203.214    3.474
  403.750    0.324    0.461   66.962  203.232    3.456
  404.000    0.317    0.461   66.412  202.942    3.465
  404.250    0.304    0.445   65.734  202.956    3.540
  404.500    0.305    0.438   64.871  202.766    3.750
  404.750    0.285    0.434   63.634  202.470    3.942
  405.000    0.198    0.368   61.961  202.281    4.256
  405.250    0.152    0.325   57.418  201.467    4.299
  405.500    0.247    0.333   60.734  200.133    4.253
  405.750    0.283    0.392   63.991  199.006    4.058
  406.000    0.311    0.441   65.621  198.609    3.715
  406.250    0.322    0.468   67.129  198.626    3.368
  406.500    0.326    0.467   68.324  198.540    3.160
  406.750    0.324    0.459   69.020  198.558    3.156
  407.000    0.317    0.450   69.842  198.680    3.224
  407.250    0.310    0.425   70.538  198.487    3.307
  407.500    0.296    0.412   72.046  198.506    3.417
  407.750    0.299    0.434   72.992  198.421    3.505
  408.000    0.291    0.440   74.811  198.437    3.663
  408.250    0.260    0.435   82.182  198.768    3.771
  408.500    0.243    0.437   86.496  199.302    3.890
  408.750    0.233    0.450   84.697  200.361    4.120
  409.000    0.218    0.456   79.282  201.208    4.365
  409.250    0.204    0.437   79.978  203.204    4.527
  409.500    0.206    0.430   80.987  205.611    4.688
  409.750    0.202    0.429   80.560  206.566    4.780
  410.000    0.191    0.407   79.636  205.855    4.820
  410.250    0.211    0.420   82.016  204.831    4.759
  410.500    0.275    0.442   88.762  203.083    4.593
  410.750    0.296    0.468   82.224  201.543    4.367
  411.000    0.297    0.483   68.014  200.517    4.136
  411.250    0.296    0.463   65.966  199.496    3.932
  411.500    0.298    0.449   66.039  198.789    3.817
  411.750    0.302    0.450   65.115  198.389    3.699
  412.000    0.308    0.458   67.370  198.301    3.652
  412.250    0.318    0.454   70.499  198.007    3.599
  412.500    0.326    0.448   69.886  197.922    3.574
  412.750    0.327    0.440   66.529  198.043    3.536
  413.000    0.320    0.432   63.982  197.646    3.511
  413.250    0.319    0.424   63.618  197.349    3.481
  413.500    0.322    0.417   62.194  197.055    3.443
  413.750    0.322    0.398   59.087  197.073    3.426
  414.000    0.316    0.397   58.224  197.090    3.383
  414.250    0.311    0.437   61.852  197.005    3.385
  414.500    0.310    0.440   65.604  197.025    3.387
  414.750    0.316    0.427   69.793  197.041    3.364
  415.000    0.319    0.428   70.739  197.892    3.366
  415.250    0.315    0.424   66.197  198.946    3.368
  415.500    0.304    0.405   67.143  200.003    3.370
  415.750    0.293    0.419   69.399  200.955    3.391
  416.000    0.278    0.446   73.277  201.804    3.419
  416.250    0.255    0.434   76.406  203.485    3.474
  416.500    0.228    0.444   80.596  205.373    3.576
  416.750    0.202    0.460   84.972  207.575    3.675
  417.000    0.206    0.474   89.348  208.215    3.790
  417.250    0.216    0.442   89.047  206.986    3.887
  417.500    0.227    0.432   84.754  205.030    3.994
  417.750    0.243    0.422   81.022  203.590    4.120
  418.000    0.270    0.432   77.229  202.776    4.234
  418.250    0.292    0.430   72.998  202.381    4.358
  418.500    0.305    0.416   68.829  202.293    4.530
  418.750    0.289    0.402   63.663  202.416    4.835
  419.000    0.226    0.317   59.183  202.537    5.390
  419.250    0.129    0.260   56.511  202.657    6.136
  419.500    0.115    0.265   56.647  202.779    7.078
  419.750    0.111    0.277   58.153  202.901    8.677
  420.000    0.105    0.278   55.233  202.813   10.595
  420.250    0.172    0.288   51.937  202.831   12.889
  420.500    0.105    0.301   47.894  202.536   14.700
  420.750    0.036    0.185   44.286  202.243   15.839
  421.000    0.013    0.169   44.609  201.741   14.690
  421.250    0.085    0.269   50.047  201.342    9.080
  421.500    0.158    0.349   55.420  201.360    7.502
  421.750    0.258    0.442   61.543  201.481    5.735
  422.000    0.290    0.459   67.354  201.396    4.358
  422.250    0.315    0.462   70.359  201.312    3.989
  422.500    0.305    0.466   70.556  201.328    3.772
  422.750    0.302    0.471   69.695  201.654    3.689
  423.000    0.319    0.483   68.271  200.737    3.587
  423.250    0.322    0.471   63.415  201.796    3.583
  423.500    0.312    0.454   63.365  201.708    3.612
  423.750    0.305    0.448   63.935  201.836    3.677
  424.000    0.314    0.455   63.759  201.950    3.714
  424.250    0.317    0.464   64.144  201.865    3.738
  424.500    0.314    0.466   66.337  202.197    3.791
  424.750    0.312    0.458   67.222  202.735    3.815
  425.000    0.312    0.468   65.173  203.377    3.846
  425.250    0.314    0.491   64.623  203.911    3.870
  425.500    0.310    0.478   65.257  204.139    3.917
  425.750    0.303    0.475   66.015  204.155    3.964
  426.000    0.296    0.467   67.524  204.279    4.012
  426.250    0.304    0.446   68.844  203.981    4.194
  426.500    0.304    0.447   70.289  203.480    4.467
  426.750    0.280    0.461   68.615  202.975    4.795
  427.000    0.246    0.427   63.324  202.684    5.031
  427.250    0.213    0.390   66.454  202.911    4.996
  427.500    0.230    0.437   70.270  203.239    4.924
  427.750    0.260    0.454   74.957  203.259    4.771
  428.000    0.280    0.425   76.090  202.961    4.519
  428.250    0.282    0.415   71.859  202.249    4.353
  428.500    0.279    0.412   71.433  201.852    4.226
  428.750    0.278    0.418   72.068  201.766    4.165
  429.000    0.274    0.437   72.640  201.781    4.191
  429.250    0.269    0.445   73.711  202.528    4.282
