~VERSION INFORMATION
 VERS.                 2.0:   CWLS LOG ASCII STANDARD -VERSION 2.0
 WRAP.                  NO:   ONE LINE PER DEPTH STEP
~WELL INFORMATION BLOCK
#MNEM.UNIT           DATA                    DESCRIPTION OF MNEMONIC
#---------    -------------------            -------------------------------
# Generated from Intellog Unique Number	CS_73_76/WELL/2023
WELL.         10-22-076-03W4                 : Well_name    - WELL
LOC .         00/10-22-076-03W4/0            : Location     - LOCATION
UWI .         00/10-22-076-03W4/0            : Uwi          - UNIQUE WELL ID
ENTR.         JO                             : Entered      - ENTERED BY
SRVC.         SCHLUMBERGER                   : Scn          - SERVICE COMPANY
DATE.         05/25/92                       : Date         - LOG DATE
STRT.M        259.08                         : top_depth    - START DEPTH
STOP.M        524.33                         : bot_depth    - STOP DEPTH
STEP.M        0.25                           : increment    - STEP LENGTH
 NULL. -999.2500:NULL Value
~CURVE INFORMATION BLOCK
#MNEM UNIT       ERCB CURVE CODE    CURVE DESCRIPTION
#-----------   ------------------   ----------------------------------
DEPT.M        00 001 00 00         : DEPTH        - DEPTH
GR  .API      00 310 00 00         : GR           - GAMMA RAY
DPHI.V/V      00 890 00 00         : PHID         - DENSITY POROSITY (SANDSTONE)
ILD .OHMM     00 120 00 00         : RESD         - DEEP RESISTIVITY (DIL)
~PARAMETER INFORMATION
#MNEM.UNIT           DATA             DESCRIPTION OF MNEMONIC
#---------         -----------     ------------------------------
GL  .M        632.155              : gl           - GROUND LEVEL ELEVATION
EREF.M        634.594              : kb           - ELEVATION OF DEPTH REFERENCE
DATM.M        634.594              : datum        - DATUM ELEVATION
TDD .M        526.694              : tdd          - TOTAL DEPTH DRILLER
RUN .         ONE                  : Run          - RUN NUMBER
ENG .         BILL                 : Engineer     - RECORDING ENGINEER
WIT .         JIM                  : Witness      - WITNESSED BY
MUD .         GEL                  : Mud_type     - MUD TYPE
MATR.         SANDSTONE            : Logunit      - NEUTRON MATRIX
TMAX.C        25                   : BHT          - MAXIMUM RECORDED TEMPERATURE
BHTD.M        526.694              : BHTDEP       - MAXIMUM RECORDED TEMPERATURE
MATR.         1                    : LOGUNIT      - NEUTRON MATRIX
RMT .C        15.5556              : MDTP         - TEMPERATURE OF MUD
NEUT.         1                    : NEUTRON      - NEUTRON TYPE
RESI.         0                    : RESIST       - RESISTIVITY TYPE
RMC .OHMM     4.66                 : RMC          - RESISTIVITY OF MUD CAKE
RMF .OHMM     5.44                 : RMF          - RESISTIVITY OF MUD FILTRATE
SUFT.C        15                   : SUFT         - SURFACE TEMPERATURE
~A  DEPTH       GR     PHID     RESD
# ...
  421.830   60.296    0.142    3.162
  422.080   61.438    0.147    3.099
  422.330   61.408    0.149    3.042
  422.580   61.378    0.149    2.981
  422.830   60.732    0.147    2.876
  423.080   60.086    0.140    2.771
  423.330   58.218    0.131    2.622
  423.580   56.975    0.122    2.619
  423.830   53.894    0.107    2.615
  424.080   50.207    0.100    2.704
  424.330   48.965    0.096    2.948
  424.580   47.703    0.095    3.052
  424.830   47.663    0.095    3.328
  425.080   47.633    0.095    3.506
  425.330   47.573    0.094    3.825
  425.580   48.129    0.093    4.171
  425.830   48.099    0.089    4.394
  426.080   48.655    0.083    4.627
  426.330   49.241    0.074    4.872
  426.580   49.201    0.056    5.038
  426.830   47.949    0.043    5.120
  427.080   49.101    0.027    5.297
  427.330   49.677    0.002    5.480
  427.580   49.637    0.023    5.770
  427.830   47.162    0.062    5.761
  428.080   48.334    0.112    5.555
  428.330   49.507    0.117    4.812
  428.580   49.467    0.118    4.398
  428.830   49.427    0.123    3.948
  429.080   51.801    0.128    3.607
  429.330   51.165    0.137    3.236
  429.580   48.094    0.140    3.120
  429.830   44.407    0.125    2.954
  430.080   41.326    0.113    2.949
  430.330   39.468    0.097    2.946
  430.580   38.226    0.089    3.046
  430.830   36.357    0.092    3.096
  431.080   38.742    0.095    3.204
  431.330   42.339    0.067    3.204
  431.580   43.521    0.063    3.676
  431.830   47.108    0.062    3.874
  432.080   49.502    0.061    3.478
  432.330   53.089    0.061    3.177
  432.580   56.696    0.061    3.174
  432.830   62.111    0.062    3.169
  433.080   64.496    0.064    3.456
  433.330   63.840    0.072    3.640
  433.580   61.961    0.081    4.417
  433.830   63.153    0.088    4.992
  434.080   67.346    0.092    5.348
  434.330   69.125    0.095    5.154
  434.580   68.488    0.096    4.969
  434.830   67.236    0.096    4.704
  435.080   65.964    0.096    4.696
  435.330   65.924    0.096    4.689
  435.580   67.096    0.096    4.681
  435.830   68.864    0.096    4.759
  436.080   69.430    0.097    4.752
  436.330   68.198    0.100    4.745
  436.580   63.905    0.110    4.736
  436.830   58.410    0.114    4.730
  437.080   52.914    0.117    4.730
  437.330   47.419    0.117    4.315
  437.580   37.670    0.114    4.790
  437.830   29.750    0.108    4.784
  438.080   21.214    0.095    4.530
  438.330   19.356    0.067    3.996
  438.580   21.740    0.062    3.401
  438.830   24.125    0.063    3.108
  439.080   27.702    0.073    2.839
  439.330   28.894    0.076    2.594
  439.580   29.460    0.078    2.455
  439.830   26.389    0.080    2.410
  440.080   23.299    0.080    2.323
  440.330   21.450    0.077    2.278
  440.580   20.804    0.072    2.275
  440.830   20.764    0.071    2.271
  441.080   20.724    0.076    2.267
  441.330   21.290    0.078    2.264
  441.580   21.240    0.076    2.259
  441.830   22.392    0.073    2.257
  442.080   22.392    0.071    2.254
  442.330   23.514    0.069    2.250
  442.580   25.303    0.072    2.245
  442.830   25.273    0.076    2.242
  443.080   25.243    0.077    2.280
  443.330   25.243    0.077    2.275
  443.580   24.536    0.076    2.271
  443.830   27.537    0.075    2.270
  444.080   28.103    0.074    2.265
  444.330   28.053    0.073    2.261
  444.580   27.417    0.076    2.258
  444.830   26.771    0.081    2.253
  445.080   25.518    0.086    2.252
  445.330   23.640    0.086    2.247
  445.580   22.994    0.086    2.244
  445.830   22.337    0.084    2.240
  446.080   22.317    0.083    2.237
  446.330   22.277    0.082    2.193
  446.580   22.227    0.082    2.192
  446.830   22.177    0.083    2.188
  447.080   22.137    0.086    2.185
  447.330   22.097    0.087    2.181
  447.580   22.663    0.087    2.177
  447.830   22.623    0.085    2.173
  448.080   22.583    0.084    2.170
  448.330   22.543    0.083    2.168
  448.580   23.099    0.081    2.202
  448.830   23.059    0.080    2.238
  449.080   23.625    0.080    2.236
  449.330   23.595    0.080    2.231
  449.580   24.151    0.079    2.229
  449.830   24.121    0.078    2.224
  450.080   24.677    0.076    2.222
  450.330   24.628    0.070    2.218
  450.580   24.587    0.067    2.214
  450.830   24.547    0.070    2.251
  451.080   24.507    0.074    2.248
  451.330   25.073    0.082    2.245
  451.580   25.650    0.085    2.240
  451.830   26.802    0.086    2.237
  452.080   26.782    0.086    2.233
  452.330   27.934    0.086    2.229
  452.580   29.702    0.085    2.227
  452.830   30.288    0.082    2.224
  453.080   31.451    0.081    2.219
  453.330   32.633    0.081    2.216
  453.580   27.744    0.082    2.213
  453.830   24.067    0.082    2.171
  454.080   20.360    0.083    2.167
  454.330   19.724    0.082    2.163
  454.580   19.684    0.076    2.161
  454.830   19.644    0.071    2.157
  455.080   20.220    0.067    2.152
  455.330   20.776    0.064    2.150
  455.580   21.332    0.061    2.147
  455.830   21.908    0.060    2.144
  456.080   23.080    0.060    2.139
  456.330   24.859    0.061    2.136
  456.580   26.031    0.063    2.134
  456.830   27.809    0.067    2.091
  457.080   29.578    0.071    2.090
  457.330   31.356    0.076    2.086
  457.580   33.125    0.077    2.082
  457.830   34.317    0.077    2.080
  458.080   34.257    0.075    2.114
  458.330   31.176    0.070    2.111
  458.580   29.944    0.065    2.144
  458.830   28.075    0.062    2.178
  459.080   26.207    0.062    2.294
  459.330   25.550    0.064    2.375
  459.580   24.924    0.066    2.683
  459.830   24.874    0.067    2.777
  460.080   24.824    0.068    2.820
  460.330   24.804    0.067    2.768
  460.580   24.764    0.066    2.483
  460.830   25.926    0.064    2.394
  461.080   27.089    0.063    2.308
  461.330   27.665    0.061    2.184
  461.580   28.827    0.062    2.144
  461.830   29.999    0.060    2.065
  462.080   31.768    0.060    2.026
  462.330   32.344    0.062    1.987
  462.580   33.526    0.063    1.984
  462.830   35.901    0.066    1.945
  463.080   37.689    0.067    1.944
  463.330   40.660    0.068    1.941
  463.580   42.448    0.068    1.972
  463.830   44.833    0.068    2.076
  464.080   41.146    0.070    2.264
  464.330   38.691    0.069    2.426
  464.580   34.994    0.071    2.511
  464.830   32.529    0.074    2.644
  465.080   30.661    0.080    2.688
  465.330   29.429    0.085    2.684
  465.580   26.944    0.087    2.586
  465.830   25.712    0.089    2.448
  466.080   18.994    0.090    2.277
  466.330   16.529    0.091    2.117
  466.580   15.257    0.091    2.077
  466.830   15.237    0.093    2.001
  467.080   15.197    0.094    1.964
  467.330   15.763    0.095    1.925
  467.580   16.319    0.095    1.924
  467.830   16.875    0.098    1.886
  468.080   18.037    0.098    1.884
  468.330   18.017    0.101    1.881
  468.580   18.573    0.102    1.878
  468.830   18.543    0.101    1.878
  469.080   18.503    0.100    1.805
  469.330   18.443    0.099    1.771
  469.580   18.413    0.099    1.770
  469.830   18.969    0.097    1.767
  470.080   18.929    0.098    1.796
  470.330   19.506    0.098    1.794
  470.580   20.072    0.099    1.790
  470.830   20.628    0.099    1.787
  471.080   21.800    0.098    1.784
  471.330   22.962    0.098    1.782
  471.580   24.134    0.098    1.778
  471.830   25.307    0.096    1.776
  472.080   26.489    0.093    1.774
  472.330   28.257    0.093    1.771
  472.580   30.632    0.091    1.800
  472.830   31.814    0.090    1.894
  473.080   34.795    0.091    1.960
  473.330   35.987    0.096    2.028
  473.580   39.564    0.102    2.025
  473.830   41.968    0.110    2.022
  474.080   45.565    0.105    2.018
  474.330   51.567    0.093    2.015
  474.580   49.708    0.081    2.011
  474.830   48.466    0.072    2.157
  475.080   47.214    0.070    2.395
  475.330   48.376    0.068    2.707
  475.580   50.750    0.069    3.059
  475.830   51.943    0.069    3.645
