~VERSION INFORMATION
 VERS.                 2.0:   CWLS LOG ASCII STANDARD -VERSION 2.0
 WRAP.                  NO:   ONE LINE PER DEPTH STEP
~WELL INFORMATION BLOCK
#MNEM.UNIT           DATA                    DESCRIPTION OF MNEMONIC
#---------    -------------------            -------------------------------
# Generated from Intellog Unique Number	CC_88_90/WELL/2317
WELL.         11-31-090-17W4                 : Well_name    - WELL
LOC .         00/11-31-090-17W4/0            : Location     - LOCATION
UWI .         00/11-31-090-17W400            : Uwi          - UNIQUE WELL ID
ENTR.         DW                             : Entered      - ENTERED BY
SRVC.         SCHLUMBERGER                   : Scn          - SERVICE COMPANY
STRT.M        110                            : top_depth    - START DEPTH
STOP.M        233.75                         : bot_depth    - STOP DEPTH
STEP.M        0.25                           : increment    - STEP LENGTH
 NULL. -999.2500:NULL Value
~CURVE INFORMATION BLOCK
#MNEM UNIT       ERCB CURVE CODE    CURVE DESCRIPTION
#-----------   ------------------   ----------------------------------
DEPT.M        00 001 00 00         : DEPTH        - DEPTH
GR  .API      00 310 00 00         : GR           - GAMMA RAY
DPHI.V/V      00 890 00 00         : PHID         - DENSITY POROSITY (SANDSTONE)
NPHI.V/V      00 330 00 00         : PHIN         - NEUTRON POROSITY (SANDSTONE)
ILD .OHMM     00 120 00 00         : RESD         - DEEP RESISTIVITY (DIL)
~PARAMETER INFORMATION
#MNEM.UNIT           DATA             DESCRIPTION OF MNEMONIC
#---------         -----------     ------------------------------
GL  .M        500.7                : gl           - GROUND LEVEL ELEVATION
EREF.M        503.15               : kb           - ELEVATION OF DEPTH REFERENCE
DATM.M        503.15               : datum        - DATUM ELEVATION
TDD .M        244                  : tdd          - TOTAL DEPTH DRILLER
RUN .         ONE                  : Run          - RUN NUMBER
ENG .         BILL                 : Engineer     - RECORDING ENGINEER
WIT .         JIM                  : Witness      - WITNESSED BY
MUD .         GEL                  : Mud_type     - MUD TYPE
MATR.         SANDSTONE            : Logunit      - NEUTRON MATRIX
TMAX.C        22                   : BHT          - MAXIMUM RECORDED TEMPERATURE
BHTD.M        244                  : BHTDEP       - MAXIMUM RECORDED TEMPERATURE
MATR.         1                    : LOGUNIT      - NEUTRON MATRIX
RMT .C        25                   : MDTP         - TEMPERATURE OF MUD
NEUT.         1                    : NEUTRON      - NEUTRON TYPE
RESI.         0                    : RESIST       - RESISTIVITY TYPE
RMC .OHMM     0.25                 : RMC          - RESISTIVITY OF MUD CAKE
RMF .OHMM     0.25                 : RMF          - RESISTIVITY OF MUD FILTRATE
SUFT.C        15                   : SUFT         - SURFACE TEMPERATURE
~A  DEPTH       GR     PHID     PHIN     RESD
# ...
  153.500   97.311    0.273    0.389   26.688
  153.750   94.344    0.276    0.386   27.171
  154.000   89.652    0.282    0.383   27.090
  154.250   86.892    0.289    0.386   27.741
  154.500   88.266    0.291    0.385   29.598
  154.750   89.791    0.273    0.394   31.216
  155.000   87.922    0.241    0.424   32.218
  155.250   86.907    0.232    0.405   35.788
  155.500   89.969    0.256    0.392   41.339
  155.750   84.842    0.233    0.420   46.801
  156.000   69.546    0.191    0.394   49.524
  156.250   61.257    0.199    0.310   48.458
  156.500   68.631    0.240    0.315   44.442
  156.750   71.231    0.312    0.372   38.379
  157.000   70.294    0.321    0.414   35.448
  157.250   72.082    0.298    0.432   35.735
  157.500   76.551    0.269    0.426   37.442
  157.750   75.272    0.238    0.398   39.000
  158.000   67.911    0.225    0.368   39.538
  158.250   73.419    0.224    0.354   39.851
  158.500   75.728    0.228    0.351   36.421
  158.750   72.778    0.242    0.361   32.463
  159.000   73.258    0.281    0.387   31.273
  159.250   77.942    0.300    0.408   31.307
  159.500   80.799    0.249    0.400   31.968
  159.750   82.468    0.225    0.387   37.116
  160.000   82.409    0.205    0.391   39.175
  160.250   78.419    0.190    0.384   43.804
  160.500   70.497    0.151    0.369   51.334
  160.750   63.846    0.094    0.339   57.969
  161.000   63.369    0.089    0.276   65.808
  161.250   64.562    0.110    0.252   72.668
  161.500   63.917    0.127    0.285   77.008
  161.750   65.467    0.119    0.310   78.819
  162.000   70.283    0.090    0.304   72.502
  162.250   70.396    0.080    0.284   54.378
  162.500   64.513    0.117    0.251   35.051
  162.750   70.234    0.165    0.243   29.222
  163.000   77.976    0.219    0.293   22.595
  163.250   94.234    0.244    0.354   17.526
  163.500   99.974    0.192    0.401   16.843
  163.750   91.202    0.144    0.425   16.984
  164.000   97.186    0.208    0.402   17.907
  164.250  100.837    0.240    0.376   20.350
  164.500  105.124    0.261    0.368   22.363
  164.750  103.596    0.197    0.381   23.651
  165.000   94.362    0.131    0.393   24.601
  165.250   91.139    0.156    0.385   24.569
  165.500  100.795    0.196    0.368   22.906
  165.750  102.520    0.231    0.362   21.039
  166.000   95.045    0.184    0.400   20.481
  166.250   95.782    0.158    0.417   20.060
  166.500  104.910    0.191    0.404   19.413
  166.750  109.754    0.222    0.408   19.252
  167.000  107.548    0.239    0.421   19.239
  167.250  103.040    0.242    0.420   18.633
  167.500  102.470    0.245    0.407   18.217
  167.750   98.715    0.179    0.396   18.139
  168.000   90.724    0.099    0.426   19.031
  168.250   86.031    0.091    0.465   20.558
  168.500   89.445    0.127    0.442   20.712
  168.750  100.658    0.185    0.421   19.201
  169.000  110.577    0.222    0.419   17.424
  169.250  114.857    0.246    0.447   15.898
  169.500  118.388    0.232    0.466   15.018
  169.750  110.811    0.185    0.455   15.443
  170.000   88.174    0.182    0.436   16.744
  170.250   96.839    0.216    0.396   17.059
  170.500  106.113    0.240    0.392   17.131
  170.750  108.601    0.247    0.391   16.704
  171.000  108.783    0.246    0.382   16.426
  171.250  107.898    0.237    0.395   16.760
  171.500  107.854    0.223    0.426   17.028
  171.750  103.298    0.224    0.433   18.092
  172.000   99.927    0.245    0.427   19.402
  172.250  103.264    0.252    0.417   20.283
  172.500  107.611    0.240    0.412   21.745
  172.750  107.662    0.242    0.403   23.835
  173.000  105.901    0.224    0.385   24.875
  173.250  100.758    0.110    0.396   25.351
  173.500   97.924    0.127    0.380   24.720
  173.750  108.735    0.193    0.349   22.168
  174.000  120.351    0.221    0.371   19.944
  174.250  118.460    0.236    0.422   19.196
  174.500  116.291    0.237    0.412   18.290
  174.750  123.236    0.235    0.389   18.572
  175.000  113.301    0.152    0.404   18.459
  175.250  104.599    0.137    0.415   17.974
  175.500  111.842    0.197    0.392   16.330
  175.750  122.748    0.230    0.381   13.443
  176.000  125.494    0.248    0.418   11.548
  176.250  120.308    0.245    0.438   11.370
  176.500  101.410    0.147    0.470   12.622
  176.750   93.683    0.139    0.451   13.710
  177.000  105.243    0.208    0.391   13.992
  177.250  119.692    0.229    0.371   13.490
  177.500  124.164    0.244    0.400   12.430
  177.750  116.140    0.247    0.413   12.219
  178.000  109.055    0.247    0.426   11.860
  178.250  105.800    0.179    0.471   11.741
  178.500  109.477    0.142    0.454   12.110
  178.750  116.952    0.205    0.372   12.452
  179.000  117.244    0.220    0.380   13.122
  179.250  113.345    0.156    0.440   15.355
  179.500  101.587    0.172    0.468   17.794
  179.750   87.035    0.241    0.461   20.772
  180.000   74.830    0.293    0.306   26.555
  180.250   54.417    0.321    0.088   45.140
  180.500   23.133    0.343    0.071   91.349
  180.750   15.877    0.377    0.081  155.723
  181.000   17.442    0.364    0.103  180.111
  181.250   19.030    0.349    0.121  171.346
  181.500   20.224    0.349    0.132  156.306
  181.750   20.511    0.346    0.146  150.405
  182.000   20.467    0.348    0.150  155.825
  182.250   20.384    0.354    0.151  149.663
  182.500   20.933    0.358    0.144  134.592
  182.750   20.753    0.363    0.135  110.287
  183.000   20.416    0.369    0.127   69.254
  183.250   20.215    0.376    0.145   31.199
  183.500   19.123    0.379    0.206   24.456
  183.750   19.563    0.353    0.253   20.636
  184.000   20.125    0.334    0.289   17.688
  184.250   20.704    0.332    0.315   16.102
  184.500   20.804    0.336    0.327   15.232
  184.750   20.177    0.335    0.327   15.150
  185.000   19.645    0.331    0.325   15.138
  185.250   18.602    0.326    0.326   15.094
  185.500   17.996    0.330    0.325   15.491
  185.750   19.790    0.338    0.327   15.989
  186.000   22.146    0.337    0.328   16.616
  186.250   22.658    0.332    0.323   17.392
  186.500   22.635    0.336    0.320   17.926
  186.750   23.581    0.341    0.325   18.532
  187.000   25.018    0.347    0.338   18.892
  187.250   26.827    0.354    0.350   20.692
  187.500   29.064    0.344    0.349   23.669
  187.750   30.813    0.355    0.355   26.133
  188.000   30.589    0.333    0.332   29.347
  188.250   28.869    0.045    0.153   38.376
  188.500   29.476    0.014    0.085   55.614
  188.750   32.523    0.115    0.141   66.379
  189.000   34.794    0.173    0.193   68.455
  189.250   34.705    0.238    0.236   71.279
  189.500   33.583    0.293    0.311   78.924
  189.750   31.972    0.321    0.332   94.834
  190.000   30.894    0.337    0.347  118.411
  190.250   29.410    0.340    0.338  136.307
  190.500   26.806    0.338    0.324  152.741
  190.750   24.552    0.337    0.337  172.198
  191.000   24.184    0.333    0.344  182.235
  191.250   24.521    0.333    0.347  183.283
  191.500   26.461    0.335    0.347  174.993
  191.750   27.749    0.338    0.348  170.967
  192.000   27.885    0.333    0.353  172.169
  192.250   27.719    0.325    0.357  171.725
  192.500   27.178    0.326    0.352  171.690
  192.750   27.986    0.333    0.351  169.960
  193.000   30.538    0.341    0.349  158.004
  193.250   32.267    0.345    0.367  148.769
  193.500   34.620    0.349    0.382  139.229
  193.750   38.124    0.354    0.371  119.737
  194.000   39.455    0.352    0.372   96.772
  194.250   40.862    0.337    0.403   72.089
  194.500   43.563    0.331    0.408   51.150
  194.750   47.247    0.325    0.387   42.906
  195.000   50.309    0.313    0.372   44.151
  195.250   52.053    0.302    0.371   47.645
  195.500   52.364    0.300    0.375   53.367
  195.750   49.714    0.308    0.392   58.304
  196.000   48.562    0.318    0.417   57.733
  196.250   48.788    0.323    0.424   54.610
  196.500   51.315    0.326    0.415   50.252
  196.750   56.326    0.332    0.406   42.020
