~VERSION INFORMATION
 VERS.                 2.0:   CWLS LOG ASCII STANDARD -VERSION 2.0
 WRAP.                  NO:   ONE LINE PER DEPTH STEP
~WELL INFORMATION BLOCK
#MNEM.UNIT           DATA                    DESCRIPTION OF MNEMONIC
#---------    -------------------            -------------------------------
# Generated from Intellog Unique Number	CW_82_90/WELL/3457
WELL.         TEXACO WOODEN                  : Well_name    - WELL
LOC .         00/16-29-088-23W4/0            : Location     - LOCATION
UWI .         00/16-29-088-23W4/0            : Uwi          - UNIQUE WELL ID
ENTR.         MAX                            : Entered      - ENTERED BY
SRVC.         WESTERN ATLAS                  : Scn          - SERVICE COMPANY
STRT.M        95                             : top_depth    - START DEPTH
STOP.M        270                            : bot_depth    - STOP DEPTH
STEP.M        0.25                           : increment    - STEP LENGTH
 NULL. -999.2500:NULL Value
~CURVE INFORMATION BLOCK
#MNEM UNIT       ERCB CURVE CODE    CURVE DESCRIPTION
#-----------   ------------------   ----------------------------------
DEPT.M        00 001 00 00         : DEPTH        - DEPTH
GR  .API      00 310 00 00         : GR           - GAMMA RAY
CALI.MM       00 280 01 00         : CAL          - CALIPER
DPHI.V/V      00 890 00 00         : PHID         - DENSITY POROSITY (SANDSTONE)
NPHI.V/V      00 330 00 00         : PHIN         - NEUTRON POROSITY (SANDSTONE)
ILD .OHMM     00 120 00 00         : RESD         - DEEP RESISTIVITY (DIL)
~PARAMETER INFORMATION
#MNEM.UNIT           DATA             DESCRIPTION OF MNEMONIC
#---------         -----------     ------------------------------
GL  .M        503                  : gl           - GROUND LEVEL ELEVATION
EREF.M        506                  : kb           - ELEVATION OF DEPTH REFERENCE
DATM.M        503                  : datum        - DATUM ELEVATION
TDD .M        272                  : tdd          - TOTAL DEPTH DRILLER
RUN .         ONE                  : Run          - RUN NUMBER
ENG .         BILL                 : Engineer     - RECORDING ENGINEER
WIT .         JIM                  : Witness      - WITNESSED BY
MUD .         GEL                  : Mud_type     - MUD TYPE
MATR.         SANDSTONE            : Logunit      - NEUTRON MATRIX
TMAX.C        21                   : BHT          - MAXIMUM RECORDED TEMPERATURE
BHTD.M        272                  : BHTDEP       - MAXIMUM RECORDED TEMPERATURE
MATR.         1                    : LOGUNIT      - NEUTRON MATRIX
RMT .C        18                   : MDTP         - TEMPERATURE OF MUD
NEUT.         1                    : NEUTRON      - NEUTRON TYPE
RESI.         0                    : RESIST       - RESISTIVITY TYPE
RMC .OHMM     3                    : RMC          - RESISTIVITY OF MUD CAKE
RMF .OHMM     3.7                  : RMF          - RESISTIVITY OF MUD FILTRATE
SUFT.C        1                    : SUFT         - SURFACE TEMPERATURE
~A  DEPTH       GR      CAL     PHID     PHIN     RESD
# ...
  168.000  115.718  249.546    0.204    0.343    7.786
  168.250  112.100  249.451    0.179    0.321    8.375
  168.500  107.887  248.888    0.162    0.305    9.174
  168.750  102.477  247.830    0.158    0.289   10.236
  169.000  102.122  247.257    0.163    0.272   11.008
  169.250  105.059  246.170    0.207    0.286   10.596
  169.500  111.557  246.113    0.243    0.380   10.205
  169.750  113.905  246.028    0.249    0.375    8.879
  170.000  115.353  247.440    0.250    0.367    7.511
  170.250  115.897  247.870    0.248    0.363    7.168
  170.500  117.638  248.290    0.245    0.363    6.836
  170.750  119.081  247.709    0.240    0.358    6.403
  171.000  119.327  247.127    0.233    0.368    5.942
  171.250  121.669  246.068    0.224    0.391    5.515
  171.500  128.179  245.477    0.224    0.405    4.978
  171.750  133.789  246.403    0.229    0.404    4.536
  172.000  135.227  247.319    0.231    0.400    4.094
  172.250  133.401  248.236    0.230    0.394    3.834
  172.500  131.260  248.169    0.231    0.386    3.658
  172.750  129.428  248.589    0.232    0.374    3.688
  173.000  126.411  249.496    0.237    0.366    3.966
  173.250  120.102  249.411    0.238    0.357    4.265
  173.500  121.253  249.841    0.238    0.375    4.260
  173.750  123.584  250.251    0.240    0.388    4.179
  174.000  126.515  250.671    0.248    0.394    4.059
  174.250  129.452  250.605    0.251    0.385    3.982
  174.500  127.615  250.529    0.256    0.385    3.942
  174.750  124.002  249.442    0.261    0.379    4.010
  175.000  117.402  248.374    0.264    0.371    4.235
  175.250  110.807  248.279    0.266    0.366    4.554
  175.500  107.481  248.222    0.267    0.371    5.035
  175.750  108.328  247.659    0.264    0.374    5.829
  176.000  110.367  247.583    0.260    0.371    6.873
  176.250  110.018  247.498    0.258    0.376    7.323
  176.500  108.781  248.404    0.258    0.403    7.591
  176.750  107.539  248.338    0.254    0.403    7.515
  177.000  107.803  248.758    0.253    0.412    7.303
  177.250  110.133  249.178    0.254    0.410    6.775
  177.500  112.469  249.093    0.256    0.406    6.117
  177.750  115.406  249.017    0.257    0.408    4.765
  178.000  121.017  248.951    0.257    0.414    4.504
  178.250  128.414  248.865    0.256    0.421    3.954
  178.500  127.767  248.302    0.256    0.421    3.346
  178.750  127.727  247.721    0.256    0.415    2.938
  179.000  126.777  247.139    0.255    0.410    2.652
  179.250  126.445  246.080    0.253    0.409    2.484
  179.500  130.562  245.499    0.250    0.416    2.392
  179.750  131.713  244.936    0.247    0.424    2.457
  180.000  131.954  244.851    0.241    0.426    2.691
  180.250  131.610  245.271    0.232    0.421    3.002
  180.500  130.677  249.164    0.224    0.411    3.606
  180.750  127.649  252.562    0.220    0.401    3.738
  181.000  126.716  252.991    0.220    0.394    4.531
  181.250  126.671  252.391    0.218    0.391    4.784
  181.500  125.119  249.357    0.215    0.387    5.289
  181.750  123.299  244.319    0.210    0.381    6.011
  182.000  120.271  241.753    0.201    0.374    6.586
  182.250  116.349  242.650    0.193    0.366    7.760
  182.500  114.220  242.584    0.194    0.357    7.902
  182.750  109.715  242.517    0.199    0.356    8.116
  183.000  108.180  241.936    0.239    0.364    7.959
  183.250  112.892  241.364    0.246    0.374    7.805
  183.500  118.503  240.791    0.245    0.378    7.377
  183.750  120.839  240.725    0.242    0.381    6.846
  184.000  120.490  241.145    0.238    0.385    6.296
  184.250  119.563  242.052    0.235    0.393    5.895
  184.500  118.619  243.455    0.234    0.392    5.783
  184.750  118.567  245.373    0.231    0.389    5.670
  185.000  119.111  246.776    0.229    0.390    5.665
  185.250  120.262  245.708    0.235    0.394    5.607
  185.500  121.705  246.138    0.250    0.397    5.399
  185.750  122.255  244.077    0.266    0.404    5.009
  186.000  123.103  241.015    0.273    0.417    4.736
  186.250  123.658  238.954    0.278    0.443    4.082
  186.500  124.506  237.380    0.281    0.452    3.618
  186.750  122.674  236.799    0.283    0.436    3.358
  187.000  120.241  236.742    0.285    0.424    3.203
  187.250  116.623  237.648    0.284    0.410    3.288
  187.500  110.320  238.069    0.282    0.395    3.473
  187.750  106.702  238.498    0.280    0.387    3.769
  188.000  107.836  239.386    0.274    0.385    4.167
  188.250  108.993  239.825    0.261    0.403    4.693
  188.500  110.727  240.732    0.244    0.401    5.689
  188.750  112.766  241.649    0.228    0.394    6.347
  189.000  114.512  242.565    0.215    0.380    6.111
  189.250  117.741  242.995    0.220    0.373    5.725
  189.500  120.060  242.900    0.228    0.393    5.073
  189.750  120.318  242.833    0.228    0.405    4.707
  190.000  120.284  242.271    0.229    0.408    4.450
  190.250  120.238  241.689    0.231    0.407    4.284
  190.500  121.086  241.613    0.232    0.403    4.086
  190.750  123.113  241.528    0.230    0.396    3.972
  191.000  123.359  241.461    0.228    0.398    3.754
  191.250  126.594  241.385    0.225    0.405    3.548
  191.500  129.537  241.300    0.224    0.405    3.385
  191.750  126.801  240.709    0.220    0.393    3.289
  192.000  124.671  240.137    0.212    0.375    3.378
  192.250  121.648  240.080    0.201    0.371    3.533
  192.500  118.626  240.490    0.186    0.370    3.697
  192.750  115.895  242.399    0.168    0.360    3.976
  193.000  114.069  244.289    0.166    0.351    4.436
  193.250  111.030  243.736    0.161    0.341    5.184
  193.500  110.400  242.181    0.157    0.331    5.946
  193.750  107.372  239.624    0.160    0.321    6.634
  194.000  105.843  238.537    0.172    0.307    7.135
  194.250  109.668  239.444    0.188    0.307    7.394
  194.500  121.828  239.883    0.196    0.339    7.319
  194.750  126.843  241.286    0.193    0.361    7.178
  195.000  125.607  243.691    0.188    0.361    6.601
  195.250  122.584  246.105    0.181    0.335    5.957
  195.500  121.045  247.002    0.169    0.312    6.120
  195.750  118.915  245.953    0.156    0.287    6.343
  196.000  114.398  243.893    0.140    0.257    7.689
  196.250  110.191  239.838    0.125    0.232    8.500
  196.500  104.185  236.785    0.123    0.219    9.312
  196.750   96.102  241.155    0.137    0.220   10.979
  197.000   95.759  244.572    0.154    0.233   10.668
  197.250  103.150  244.992    0.172    0.272   10.180
  197.500  109.362  242.931    0.229    0.313    8.303
  197.750  117.360  240.374    0.239    0.355    6.710
  198.000  122.375  237.312    0.246    0.364    6.520
  198.250  119.639  234.240    0.251    0.367    6.573
  198.500  116.027  235.175    0.257    0.368    6.751
  198.750  112.111  237.075    0.259    0.377    6.933
  199.000  108.184  237.495    0.256    0.373    7.055
  199.250  105.762  236.923    0.249    0.359    7.179
  199.500  103.633  236.847    0.234    0.353    7.373
  199.750  103.874  236.771    0.226    0.348    7.642
  200.000  100.728  238.904    0.248    0.314    7.837
  200.250   99.260  242.421    0.268    0.344    7.840
  200.500  101.665  241.955    0.262    0.349    7.772
  200.750  103.173  241.499    0.256    0.347    7.706
  201.000  102.599  241.038    0.271    0.354    7.499
  201.250   98.153  240.080    0.280    0.349    7.366
  201.500   96.089  239.619    0.277    0.341    7.507
  201.750   96.108  239.663    0.266    0.345    8.013
  202.000   96.427  238.706    0.255    0.339    8.167
  202.250   96.451  237.739    0.248    0.326    8.323
  202.500   97.369  236.786    0.234    0.316    8.966
  202.750   98.281  237.815    0.209    0.306    9.838
  203.000   97.111  238.352    0.183    0.281   10.996
  203.250   97.430  239.381    0.164    0.254   12.753
  203.500   95.965  241.403    0.185    0.257   15.778
  203.750   97.178  245.411    0.241    0.327   16.232
  204.000  100.474  245.939    0.243    0.352   15.223
  204.250  105.266  243.004    0.217    0.361   13.633
