~VERSION INFORMATION
 VERS.                 2.0:   CWLS LOG ASCII STANDARD -VERSION 2.0
 WRAP.                  NO:   ONE LINE PER DEPTH STEP
~WELL INFORMATION BLOCK
#MNEM.UNIT           DATA                    DESCRIPTION OF MNEMONIC
#---------    -------------------            -------------------------------
# Generated from Intellog Unique Number	CS_67_68/WELL/2197
WELL.         10-29-067-02W4                 : Well_name    - WELL
LOC .         00/10-29-067-02W4/0            : Location     - LOCATION
UWI .         00/10-29-067-02W4/0            : Uwi          - UNIQUE WELL ID
ENTR.         SP                             : Entered      - ENTERED BY
SRVC.         SCHLUMBERGER                   : Scn          - SERVICE COMPANY
STRT.M        375                            : top_depth    - START DEPTH
STOP.M        638                            : bot_depth    - STOP DEPTH
STEP.M        0.25                           : increment    - STEP LENGTH
 NULL. -999.2500:NULL Value
~CURVE INFORMATION BLOCK
#MNEM UNIT       ERCB CURVE CODE    CURVE DESCRIPTION
#-----------   ------------------   ----------------------------------
DEPT.M        00 001 00 00         : DEPTH        - DEPTH
ILD .OHMM     00 120 00 00         : RESD         - DEEP RESISTIVITY (DIL)
DPHI.V/V      00 890 00 00         : PHID         - DENSITY POROSITY (LIMESTONE)
NPHI.V/V      00 330 00 00         : PHIN         - NEUTRON POROSITY (LIMESTONE)
GR  .API      00 310 00 00         : GR           - GAMMA RAY
CALI.MM       00 280 01 00         : CAL          - CALIPER
~PARAMETER INFORMATION
#MNEM.UNIT           DATA             DESCRIPTION OF MNEMONIC
#---------         -----------     ------------------------------
GL  .M        707.5                : gl           - GROUND LEVEL ELEVATION
EREF.M        710.7                : kb           - ELEVATION OF DEPTH REFERENCE
DATM.M        710.7                : datum        - DATUM ELEVATION
TDD .M        645                  : tdd          - TOTAL DEPTH DRILLER
RUN .         ONE                  : Run          - RUN NUMBER
ENG .         BILL                 : Engineer     - RECORDING ENGINEER
WIT .         JIM                  : Witness      - WITNESSED BY
MUD .         GEL                  : Mud_type     - MUD TYPE
MATR.         LIMESTONE            : Logunit      - NEUTRON MATRIX
TMAX.C        20.5                 : BHT          - MAXIMUM RECORDED TEMPERATURE
BHTD.M        645                  : BHTDEP       - MAXIMUM RECORDED TEMPERATURE
MATR.         1                    : LOGUNIT      - NEUTRON MATRIX
RMT .C        25                   : MDTP         - TEMPERATURE OF MUD
NEUT.         1                    : NEUTRON      - NEUTRON TYPE
RESI.         0                    : RESIST       - RESISTIVITY TYPE
RMC .OHMM     0.25                 : RMC          - RESISTIVITY OF MUD CAKE
RMF .OHMM     0.25                 : RMF          - RESISTIVITY OF MUD FILTRATE
SUFT.C        15                   : SUFT         - SURFACE TEMPERATURE
~A  DEPTH     RESD     PHID     PHIN       GR      CAL
# ...
  594.000    8.778    0.183    0.352   79.345  153.448
  594.250    8.947    0.199    0.347   75.763  153.542
  594.500    8.881    0.196    0.341   77.371  154.552
  594.750    8.783    0.193    0.352   79.100  155.257
  595.000    8.540    0.182    0.368   80.402  155.554
  595.250    8.398    0.176    0.376   83.049  155.647
  595.500    8.274    0.173    0.407   85.328  155.943
  595.750    8.152    0.168    0.423   81.561  155.325
  596.000    8.078    0.171    0.397   82.622  153.991
  596.250    7.958    0.183    0.381   87.159  153.473
  596.500    7.856    0.185    0.400   92.249  154.585
  596.750    7.740    0.177    0.410   92.756  155.187
  597.000    7.654    0.175    0.418   91.676  155.791
  597.250    7.570    0.176    0.406   87.607  156.495
  597.500    7.444    0.174    0.397   77.553  156.079
  597.750    7.266    0.218    0.401   60.539  154.542
  598.000    6.779    0.256    0.401   47.128  152.800
  598.250    6.348    0.291    0.383   39.090  151.263
  598.500    5.934    0.308    0.372   33.737  150.235
  598.750    5.620    0.290    0.358   34.615  149.207
  599.000    5.373    0.290    0.366   34.084  148.485
  599.250    5.234    0.314    0.382   30.746  148.169
  599.500    5.167    0.325    0.394   27.164  148.772
  599.750    5.072    0.330    0.399   25.110  150.191
  600.000    5.010    0.333    0.393   23.912  151.201
  600.250    4.963    0.337    0.379   23.417  152.438
  600.500    4.899    0.336    0.368   23.350  151.717
  600.750    4.863    0.329    0.370   24.441  150.893
  601.000    4.836    0.323    0.374   24.680  150.781
  601.250    4.828    0.317    0.377   23.148  151.990
  601.500    4.847    0.327    0.378   22.348  153.707
  601.750    4.875    0.329    0.377   22.952  154.815
  602.000    4.913    0.317    0.367   27.277  155.109
  602.250    4.989    0.302    0.349   34.712  154.184
  602.500    5.037    0.290    0.336   41.782  153.562
  602.750    5.143    0.279    0.354   41.227  152.942
  603.000    5.252    0.307    0.369   33.961  153.440
  603.250    5.383    0.321    0.366   28.586  154.446
  603.500    5.404    0.326    0.364   24.615  155.656
  603.750    5.457    0.324    0.366   27.720  156.559
  604.000    5.509    0.307    0.369   48.210  156.448
  604.250    5.711    0.285    0.370   61.319  155.421
  604.500    6.022    0.246    0.369   70.523  154.392
  604.750    6.374    0.201    0.373   77.715  154.688
  605.000    6.720    0.175    0.377   85.150  155.389
  605.250    7.073    0.163    0.371   89.779  156.089
  605.500    7.444    0.176    0.388   89.651  156.788
  605.750    7.760    0.187    0.399   85.862  156.882
  606.000    7.895    0.194    0.396   83.539  156.565
  606.250    7.911    0.198    0.365   81.093  155.334
  606.500    7.867    0.192    0.372   73.278  154.308
  606.750    7.722    0.220    0.390   64.854  153.383
  607.000    7.325    0.245    0.395   56.673  152.149
  607.250    6.820    0.284    0.363   48.676  151.430
  607.500    6.630    0.267    0.344   50.195  151.012
  607.750    6.545    0.246    0.357   60.436  151.307
  608.000    6.460    0.231    0.383   55.549  152.720
  608.250    6.412    0.267    0.398   48.284  153.421
  608.500    6.164    0.286    0.411   43.032  153.512
  608.750    5.804    0.303    0.401   39.915  153.400
  609.000    5.632    0.304    0.378   45.886  152.779
  609.250    5.697    0.282    0.366   51.492  152.869
  609.500    5.840    0.260    0.374   54.291  152.859
  609.750    6.008    0.249    0.374   54.529  152.036
  610.000    6.217    0.248    0.370   54.217  151.006
  610.250    6.336    0.250    0.367   54.700  150.794
  610.500    6.458    0.243    0.366   55.303  150.579
  610.750    6.520    0.235    0.362   55.358  150.671
  611.000    6.533    0.241    0.359   52.422  151.168
  611.250    6.559    0.254    0.365   49.488  151.765
  611.500    6.523    0.257    0.373   46.859  152.266
  611.750    6.330    0.260    0.380   46.121  152.356
  612.000    6.213    0.253    0.383   46.847  152.143
  612.250    6.167    0.259    0.389   47.938  151.522
  612.500    6.215    0.265    0.378   65.744  150.698
  612.750    6.251    0.220    0.365  102.825  150.383
  613.000    6.194    0.185    0.402  115.447  150.779
  613.250    6.125    0.163    0.444  121.905  152.090
  613.500    5.989    0.152    0.466  120.557  153.198
  613.750    5.779    0.153    0.478  119.270  155.016
  614.000    5.618    0.157    0.481  118.043  156.225
  614.250    5.525    0.161    0.480  117.488  156.927
  614.500    5.371    0.165    0.485  117.909  157.526
  614.750    5.163    0.168    0.490  117.842  157.818
  615.000    4.992    0.163    0.486  115.578  158.115
  615.250    5.012    0.152    0.473  115.633  158.205
  615.500    5.166    0.143    0.457  119.713  158.195
  615.750    5.406    0.145    0.444  122.574  158.186
  616.000    5.562    0.156    0.444  121.287  158.172
  616.250    5.788    0.163    0.452  117.743  157.451
  616.500    6.092    0.160    0.449  112.185  156.424
  616.750    6.447    0.171    0.433   98.819  154.890
  617.000    6.980    0.185    0.411   88.260  153.250
  617.250    7.701    0.185    0.378   76.786  153.139
  617.500    8.243    0.161    0.356   86.784  154.552
  617.750    8.741    0.161    0.366   84.703  155.559
  618.000    9.096    0.184    0.356   77.560  155.853
  618.250    9.306    0.205    0.368   71.149  154.724
  618.500    9.503    0.216    0.373   73.886  153.391
  618.750    9.613    0.219    0.369   71.990  152.974
  619.000    9.470    0.220    0.361   70.946  152.760
  619.250    9.138    0.229    0.370   72.343  152.750
  619.500    8.735    0.238    0.385   64.102  152.637
  619.750    8.240    0.267    0.399   51.163  152.424
  620.000    7.700    0.330    0.379   40.299  152.616
  620.250    7.088    0.375    0.386   31.509  152.297
  620.500    6.598    0.418    0.447   35.040  152.187
  620.750    6.439    0.370    0.477   36.985  151.872
  621.000    6.576    0.347    0.442   36.370  151.659
  621.250    6.627    0.326    0.403   32.703  151.242
  621.500    6.565    0.313    0.400   29.829  150.519
  621.750    6.407    0.318    0.398   27.078  149.592
  622.000    6.021    0.314    0.389   25.303  148.972
  622.250    5.702    0.311    0.384   23.832  149.166
  622.500    5.554    0.314    0.378   25.778  150.475
  622.750    5.747    0.303    0.368   44.255  151.177
  623.000    6.094    0.281    0.356   79.934  151.775
  623.250    6.234    0.193    0.344  115.734  152.071
  623.500    6.295    0.169    0.391  125.426  152.467
  623.750    6.237    0.182    0.473  122.126  152.760
  624.000    5.939    0.211    0.532  118.887  153.564
  624.250    5.623    0.243    0.549  115.770  154.163
  624.500    5.593    0.257    0.563  120.582  154.864
  624.750    5.842    0.233    0.572  123.077  155.261
  625.000    6.241    0.208    0.500  114.713  155.555
  625.250    6.783    0.184    0.400  106.533  155.542
  625.500    7.112    0.164    0.362   98.596  154.719
  625.750    7.570    0.147    0.354   99.871  154.812
  626.000    7.892    0.155    0.355  107.978  155.716
  626.250    7.953    0.154    0.377  115.718  156.518
  626.500    7.432    0.143    0.397  121.690  157.017
  626.750    6.828    0.137    0.419  125.771  157.412
  627.000    6.405    0.142    0.443  125.887  157.504
  627.250    6.227    0.138    0.467  121.792  157.189
  627.500    6.020    0.120    0.455  116.175  156.363
  627.750    5.668    0.130    0.464  108.359  155.946
  628.000    5.247    0.172    0.555  105.670  155.530
  628.250    4.922    0.196    0.592  109.933  154.804
  628.500    4.714    0.216    0.597  118.955  154.794
  628.750    4.591    0.172    0.583  127.001  154.479
  629.000    4.489    0.155    0.579  131.875  154.774
  629.250    4.473    0.182    0.578  131.990  154.763
  629.500    4.708    0.205    0.586  128.324  154.752
  629.750    5.126    0.226    0.599  109.773  154.945
  630.000    5.394    0.215    0.587   90.796  155.035
  630.250    5.807    0.196    0.482   71.514  155.230
