~VERSION INFORMATION
 VERS.                 2.0:   CWLS LOG ASCII STANDARD -VERSION 2.0
 WRAP.                  NO:   ONE LINE PER DEPTH STEP
~WELL INFORMATION BLOCK
#MNEM.UNIT           DATA                    DESCRIPTION OF MNEMONIC
#---------    -------------------            -------------------------------
# Generated from Intellog Unique Number	CS_67_68/WELL/854
WELL.         AEC FISH CREEK                 : Well_name    - WELL
LOC .         00/13-30-068-08W4/0            : Location     - LOCATION
UWI .         00/13-30-068-08W4/0            : Uwi          - UNIQUE WELL ID
ENTR.         SP                             : Entered      - ENTERED BY
SRVC.         SCHLUMBERGER                   : Scn          - SERVICE COMPANY
STRT.M        405                            : top_depth    - START DEPTH
STOP.M        625                            : bot_depth    - STOP DEPTH
STEP.M        0.25                           : increment    - STEP LENGTH
 NULL. -999.2500:NULL Value
~CURVE INFORMATION BLOCK
#MNEM UNIT       ERCB CURVE CODE    CURVE DESCRIPTION
#-----------   ------------------   ----------------------------------
DEPT.M        00 001 00 00         : DEPTH        - DEPTH
ILD .OHMM     00 120 00 00         : RESD         - DEEP RESISTIVITY (DIL)
DPHI.V/V      00 890 00 00         : PHID         - DENSITY POROSITY (LIMESTONE)
NPHI.V/V      00 330 00 00         : PHIN         - NEUTRON POROSITY (LIMESTONE)
GR  .API      00 310 00 00         : GR           - GAMMA RAY
~PARAMETER INFORMATION
#MNEM.UNIT           DATA             DESCRIPTION OF MNEMONIC
#---------         -----------     ------------------------------
GL  .M        732.42               : gl           - GROUND LEVEL ELEVATION
EREF.M        731.68               : kb           - ELEVATION OF DEPTH REFERENCE
DATM.M        732.42               : datum        - DATUM ELEVATION
TDD .M        633                  : tdd          - TOTAL DEPTH DRILLER
RUN .         ONE                  : Run          - RUN NUMBER
ENG .         BILL                 : Engineer     - RECORDING ENGINEER
WIT .         JIM                  : Witness      - WITNESSED BY
MUD .         GEL                  : Mud_type     - MUD TYPE
MATR.         LIMESTONE            : Logunit      - NEUTRON MATRIX
TMAX.C        28                   : BHT          - MAXIMUM RECORDED TEMPERATURE
BHTD.M        625                  : BHTDEP       - MAXIMUM RECORDED TEMPERATURE
MATR.         1                    : LOGUNIT      - NEUTRON MATRIX
RMT .C        25                   : MDTP         - TEMPERATURE OF MUD
NEUT.         1                    : NEUTRON      - NEUTRON TYPE
RESI.         0                    : RESIST       - RESISTIVITY TYPE
RMC .OHMM     0.25                 : RMC          - RESISTIVITY OF MUD CAKE
RMF .OHMM     0.25                 : RMF          - RESISTIVITY OF MUD FILTRATE
SUFT.C        15                   : SUFT         - SURFACE TEMPERATURE
~A  DEPTH     RESD     PHID     PHIN       GR
# ...
  579.000   10.590    0.282    0.377   79.073
  579.250    9.658    0.279    0.366   65.726
  579.500    8.694    0.265    0.356   75.551
  579.750    7.636    0.277    0.352   83.850
  580.000    6.809    0.302    0.366   73.613
  580.250    6.199    0.321    0.348   55.754
  580.500    5.881    0.306    0.336   55.640
  580.750    5.538    0.294    0.353   62.597
  581.000    5.384    0.285    0.371   71.324
  581.250    5.156    0.285    0.384   77.489
  581.500    5.022    0.307    0.380   52.558
  581.750    4.901    0.326    0.373   42.382
  582.000    4.773    0.334    0.365   38.852
  582.250    4.667    0.334    0.362   39.774
  582.500    4.529    0.333    0.370   38.317
  582.750    4.436    0.327    0.376   38.264
  583.000    4.362    0.325    0.385   41.260
  583.250    4.256    0.335    0.390   43.399
  583.500    4.185    0.333    0.392   43.101
  583.750    4.115    0.325    0.386   38.719
  584.000    4.061    0.319    0.380   35.189
  584.250    4.008    0.329    0.376   35.623
  584.500    3.933    0.338    0.383   40.691
  584.750    3.896    0.344    0.376   41.124
  585.000    3.860    0.343    0.366   36.497
  585.250    3.816    0.342    0.360   32.724
  585.500    3.809    0.341    0.353   31.512
  585.750    3.824    0.340    0.349   34.567
  586.000    3.824    0.339    0.359   36.464
  586.250    3.845    0.343    0.367   40.984
  586.500    3.860    0.345    0.369   37.393
  586.750    3.867    0.332    0.371   36.181
  587.000    3.874    0.321    0.372   42.529
  587.250    3.881    0.323    0.370   47.474
  587.500    3.881    0.332    0.371   50.408
  587.750    3.874    0.343    0.373   46.391
  588.000    3.852    0.344    0.373   45.056
  588.250    3.802    0.337    0.389   45.917
  588.500    3.773    0.333    0.397   44.949
  588.750    3.745    0.339    0.385   43.248
  589.000    3.724    0.343    0.380   47.158
  589.250    3.710    0.339    0.371   55.520
  589.500    3.696    0.331    0.361   61.258
  589.750    3.710    0.326    0.355   67.179
  590.000    3.696    0.328    0.354   71.088
  590.250    3.696    0.320    0.362   73.351
  590.500    3.703    0.313    0.363   67.626
  590.750    3.703    0.323    0.369   72.755
  591.000    3.710    0.334    0.374   79.470
  591.250    3.696    0.339    0.376   84.782
  591.500    3.696    0.341    0.376   43.264
  591.750    3.710    0.344    0.376   41.746
  592.000    3.780    0.345    0.369   40.231
  592.250    3.925    0.336    0.355   39.565
  592.500    4.113    0.318    0.341   42.682
  592.750    4.476    0.298    0.330   60.250
  593.000    4.561    0.271    0.338   81.294
  593.250    4.799    0.245    0.347   98.740
  593.500    4.908    0.265    0.354   90.332
  593.750    4.798    0.275    0.358   85.095
  594.000    4.604    0.261    0.366   89.007
  594.250    4.401    0.262    0.372   92.304
  594.500    4.199    0.302    0.387   80.482
  594.750    4.113    0.329    0.392   63.355
  595.000    3.946    0.345    0.383   45.984
  595.250    3.844    0.345    0.377   55.504
  595.500    3.787    0.345    0.387   60.937
  595.750    3.851    0.345    0.396   65.334
  596.000    3.969    0.330    0.381   59.000
  596.250    4.074    0.305    0.368   68.336
  596.500    4.105    0.281    0.363   88.892
  596.750    4.097    0.279    0.363  102.131
  597.000    3.931    0.303    0.388  111.649
  597.250    3.674    0.333    0.407   70.498
  597.500    3.447    0.358    0.421   49.468
  597.750    3.301    0.370    0.409   39.597
  598.000    3.221    0.366    0.404   37.409
  598.250    3.167    0.360    0.405   36.136
  598.500    3.132    0.355    0.392   33.826
  598.750    3.079    0.350    0.382   31.211
  599.000    3.022    0.346    0.399   28.108
  599.250    2.993    0.356    0.410   28.176
  599.500    2.965    0.366    0.399   32.085
  599.750    2.954    0.373    0.396   34.714
  600.000    2.932    0.370    0.399   35.514
  600.250    2.905    0.368    0.391   35.155
  600.500    2.888    0.366    0.382   33.455
  600.750    2.877    0.366    0.375   31.755
  601.000    2.867    0.373    0.373   31.153
  601.250    2.851    0.377    0.373   31.342
  601.500    2.840    0.380    0.378   31.653
  601.750    2.840    0.378    0.380   32.270
  602.000    2.834    0.376    0.384   33.009
  602.250    2.824    0.374    0.392   32.589
  602.500    2.824    0.375    0.397   30.097
  602.750    2.824    0.375    0.405   28.335
  603.000    2.845    0.374    0.411   27.305
  603.250    2.872    0.373    0.402   30.483
  603.500    2.883    0.369    0.395   34.332
  603.750    2.883    0.362    0.391   39.828
  604.000    2.899    0.359    0.389   42.272
  604.250    2.910    0.359    0.385   39.413
  604.500    2.921    0.361    0.381   32.713
  604.750    2.948    0.357    0.376   35.952
  605.000    2.987    0.354    0.380   43.642
  605.250    3.166    0.352    0.374   52.978
  605.500    3.505    0.359    0.363   64.448
  605.750    3.743    0.367    0.354   81.528
  606.000    3.952    0.258    0.365   93.486
  606.250    4.253    0.266    0.371  102.213
  606.500    4.466    0.278    0.373   90.391
  606.750    4.611    0.263    0.366   77.593
  607.000    4.516    0.254    0.380   92.966
  607.250    4.309    0.314    0.400   58.094
  607.500    4.065    0.356    0.432   43.407
  607.750    3.871    0.382    0.415   38.170
  608.000    3.673    0.370    0.405   36.043
  608.250    3.426    0.362    0.400   40.441
  608.500    3.331    0.358    0.401   41.727
  608.750    3.208    0.366    0.402   41.247
  609.000    3.208    0.371    0.398   45.034
  609.250    3.244    0.352    0.388   56.260
  609.500    3.281    0.333    0.374   76.146
  609.750    3.312    0.317    0.374   94.811
  610.000    3.331    0.307    0.389  108.781
  610.250    3.312    0.311    0.404  105.800
  610.500    3.250    0.348    0.421   81.784
  610.750    3.124    0.383    0.414   52.156
  611.000    2.926    0.385    0.399   41.127
  611.250    2.823    0.382    0.392   34.670
  611.500    2.744    0.379    0.407   30.775
  611.750    2.698    0.375    0.401   27.550
  612.000    2.698    0.372    0.401   23.837
  612.250    2.693    0.370    0.410   28.358
  612.500    2.693    0.374    0.403   29.888
  612.750    2.693    0.379    0.394   27.517
  613.000    2.693    0.378    0.387   27.402
  613.250    2.698    0.376    0.383   29.239
  613.500    2.693    0.373    0.387   30.527
  613.750    2.688    0.372    0.391   30.350
  614.000    2.673    0.379    0.390   28.589
  614.250    2.658    0.383    0.388   27.133
  614.500    2.628    0.387    0.392   26.225
  614.750    2.613    0.387    0.399   24.892
  615.000    2.623    0.384    0.408   24.410
  615.250    2.613    0.382    0.413   26.917
  615.500    2.613    0.377    0.401   26.008
  615.750    2.623    0.374    0.387   23.760
  616.000    2.618    0.373    0.378   24.864
  616.250    2.623    0.374    0.389   27.980
  616.500    2.623    0.377    0.404   31.525
  616.750    2.623    0.379    0.415   34.336
  617.000    2.643    0.381    0.426   36.172
  617.250    2.653    0.381    0.435   34.533
  617.500    2.658    0.387    0.430   32.344
  617.750    2.663    0.387    0.418   32.840
  618.000    2.658    0.384    0.407   32.298
  618.250    2.658    0.377    0.405   30.231
  618.500    2.673    0.367    0.409   27.008
  618.750    2.698    0.360    0.410   25.673
  619.000    2.733    0.353    0.403   25.924
  619.250    2.780    0.348    0.392   27.211
  619.500    2.822    0.345    0.400   29.535
  619.750    2.865    0.343    0.395   32.225
  620.000    2.919    0.366    0.383   29.671
  620.250    2.975    0.374    0.374   29.495
  620.500    3.261    0.371    0.367   26.270
  620.750    4.731    0.361    0.357   27.498
  621.000    6.623    0.332    0.251   33.236
  621.250    8.221    0.140    0.221   42.084
  621.500    9.736    0.077    0.203   49.591
  621.750   11.486    0.028    0.187   58.074
  622.000   13.475   -0.008    0.188   61.800
  622.250   14.970   -0.008    0.191   64.368
