~VERSION INFORMATION
 VERS.                 2.0:   CWLS LOG ASCII STANDARD -VERSION 2.0
 WRAP.                  NO:   ONE LINE PER DEPTH STEP
~WELL INFORMATION BLOCK
#MNEM.UNIT           DATA                    DESCRIPTION OF MNEMONIC
#---------    -------------------            -------------------------------
# Generated from Intellog Unique Number	CS_73_76/WELL/3246
WELL.         STANDARD OIL COMPANY           : Well_name    - WELL
LOC .         00/10-27-076-11W4/0            : Location     - LOCATION
UWI .         00/10-27-076-11W4/0            : Uwi          - UNIQUE WELL ID
ENTR.         SP                             : Entered      - ENTERED BY
SRVC.         SCHLUMBERGER                   : Scn          - SERVICE COMPANY
STRT.M        268.224                        : top_depth    - START DEPTH
STOP.M        502.724                        : bot_depth    - STOP DEPTH
STEP.M        0.25                           : increment    - STEP LENGTH
 NULL. -999.2500:NULL Value
~CURVE INFORMATION BLOCK
#MNEM UNIT       ERCB CURVE CODE    CURVE DESCRIPTION
#-----------   ------------------   ----------------------------------
DEPT.M        00 001 00 00         : DEPTH        - DEPTH
GR  .API      00 310 00 00         : GR           - GAMMA RAY
DPHI.V/V      00 890 00 00         : PHID         - DENSITY POROSITY (SANDSTONE)
NPHI.V/V      00 330 00 00         : PHIN         - NEUTRON POROSITY (SANDSTONE)
ILD .OHMM     00 120 00 00         : RESD         - DEEP RESISTIVITY (DIL)
~PARAMETER INFORMATION
#MNEM.UNIT           DATA             DESCRIPTION OF MNEMONIC
#---------         -----------     ------------------------------
GL  .M        665.165              : gl           - GROUND LEVEL ELEVATION
EREF.M        668.426              : kb           - ELEVATION OF DEPTH REFERENCE
DATM.M        665.165              : datum        - DATUM ELEVATION
TDD .M        531.266              : tdd          - TOTAL DEPTH DRILLER
RUN .         ONE                  : Run          - RUN NUMBER
ENG .         BILL                 : Engineer     - RECORDING ENGINEER
WIT .         JIM                  : Witness      - WITNESSED BY
MUD .         GEL                  : Mud_type     - MUD TYPE
MATR.         SANDSTONE            : Logunit      - NEUTRON MATRIX
TMAX.C        22.7778              : BHT          - MAXIMUM RECORDED TEMPERATURE
BHTD.M        531.266              : BHTDEP       - MAXIMUM RECORDED TEMPERATURE
MATR.         1                    : LOGUNIT      - NEUTRON MATRIX
RMT .C        25                   : MDTP         - TEMPERATURE OF MUD
NEUT.         1                    : NEUTRON      - NEUTRON TYPE
RESI.         0                    : RESIST       - RESISTIVITY TYPE
RMC .OHMM     0.25                 : RMC          - RESISTIVITY OF MUD CAKE
RMF .OHMM     0.25                 : RMF          - RESISTIVITY OF MUD FILTRATE
SUFT.C        15                   : SUFT         - SURFACE TEMPERATURE
~A  DEPTH       GR     PHID     PHIN     RESD
# ...
  311.724   84.219    0.235    0.468   10.233
  311.974   87.976    0.259    0.481   10.325
  312.224   92.432    0.259    0.503   10.158
  312.474   89.270    0.240    0.478    9.945
  312.724   89.070    0.241    0.472    9.971
  312.974   85.580    0.246    0.489    9.558
  313.224   88.056    0.250    0.513    9.188
  313.474   95.277    0.209    0.530    8.782
  313.724  100.259    0.224    0.523    8.458
  313.974  105.220    0.220    0.526    7.972
  314.224  107.615    0.208    0.525    7.632
  314.474  108.515    0.201    0.520    7.233
  314.724  110.196    0.220    0.501    7.028
  314.974  110.481    0.235    0.502    6.809
  315.224  106.098    0.248    0.511    6.748
  315.474   98.567    0.241    0.522    6.670
  315.724   92.079    0.235    0.526    6.753
  315.974   85.375    0.247    0.526    7.020
  316.224   80.309    0.264    0.528    7.718
  316.474   72.524    0.289    0.551    8.266
  316.724   64.283    0.314    0.561    9.578
  316.974   55.573    0.344    0.515   11.649
  317.224   50.965    0.391    0.534   14.362
  317.474   57.217    0.433    0.596   17.658
  317.724   61.009    0.458    0.548   20.195
  317.974   64.674    0.368    0.463   21.918
  318.224   60.702    0.288    0.481   23.014
  318.474   57.327    0.292    0.474   23.313
  318.724   54.981    0.294    0.473   23.559
  318.974   56.160    0.302    0.473   23.874
  319.224   58.091    0.304    0.464   24.188
  319.474   59.645    0.313    0.462   24.428
  319.724   56.990    0.303    0.456   24.805
  319.974   52.816    0.313    0.464   25.076
  320.224   53.358    0.315    0.478   25.333
  320.474   53.753    0.318    0.476   25.761
  320.724   54.226    0.322    0.468   25.768
  320.974   53.131    0.324    0.467   25.802
  321.224   52.529    0.321    0.468   26.273
  321.474   53.318    0.310    0.463   26.267
  321.724   52.596    0.300    0.473   26.273
  321.974   53.786    0.294    0.460   26.793
  322.224   55.743    0.304    0.438   26.769
  322.474   55.055    0.314    0.436   26.774
  322.724   53.676    0.320    0.444   26.780
  322.974   53.377    0.313    0.453   26.789
  323.224   54.345    0.315    0.454   26.800
  323.474   56.092    0.327    0.449   26.854
  323.724   56.344    0.335    0.467   26.284
  323.974   56.421    0.328    0.482   26.336
  324.224   55.353    0.318    0.490   26.339
  324.474   55.040    0.324    0.483   26.346
  324.724   54.457    0.333    0.471   26.353
  324.974   54.697    0.342    0.465   26.362
  325.224   55.089    0.327    0.457   26.369
  325.474   57.156    0.321    0.453   26.379
  325.724   58.413    0.331    0.448   26.384
  325.974   59.843    0.338    0.454   26.393
  326.224   59.598    0.323    0.466   26.400
  326.474   57.210    0.321    0.475   26.407
  326.724   54.161    0.336    0.483   26.416
  326.974   52.658    0.345    0.473   26.426
  327.224   56.595    0.355    0.479   26.443
  327.474   58.065    0.359    0.466   26.049
  327.724   57.063    0.351    0.453   25.979
  327.974   55.764    0.335    0.452   25.971
  328.224   57.365    0.322    0.460   25.979
  328.474   59.179    0.313    0.453   25.987
  328.724   60.550    0.313    0.466   25.995
  328.974   59.227    0.314    0.477   26.002
  329.224   58.244    0.317    0.481   26.008
  329.474   59.687    0.307    0.480   26.025
  329.724   66.672    0.308    0.471   26.281
  329.974   83.815    0.290    0.464   26.494
  330.224   94.414    0.281    0.489   26.907
  330.474   97.582    0.265    0.504   27.740
  330.724   88.691    0.265    0.502   28.581
  330.974   80.420    0.267    0.486   28.981
  331.224   76.752    0.266    0.481   29.144
  331.474   73.189    0.271    0.491   28.590
  331.724   72.874    0.296    0.514   28.691
  331.974   71.658    0.303    0.526   28.219
  332.224   70.803    0.297    0.518   28.105
  332.474   70.597    0.295    0.509   28.388
  332.724   67.900    0.298    0.490   28.144
  332.974   64.917    0.304    0.482   27.724
  333.224   65.061    0.300    0.490   26.280
  333.474   66.822    0.292    0.496   26.107
  333.724   68.403    0.286    0.499   25.271
  333.974   67.244    0.286    0.488   25.261
  334.224   63.555    0.296    0.482   24.741
  334.474   61.543    0.309    0.497   24.773
  334.724   61.287    0.318    0.506   24.772
  334.974   61.277    0.333    0.516   24.778
  335.224   60.309    0.331    0.505   24.787
  335.474   58.292    0.323    0.498   24.792
  335.724   55.385    0.333    0.489   24.799
  335.974   55.539    0.325    0.479   24.808
  336.224   57.904    0.316    0.490   24.814
  336.474   59.417    0.314    0.505   24.818
  336.724   58.750    0.318    0.503   24.782
  336.974   56.351    0.324    0.477   25.312
  337.224   54.186    0.343    0.465   25.652
  337.474   54.497    0.342    0.461   25.592
  337.724   55.920    0.328    0.466   25.318
  337.974   55.179    0.326    0.491   24.249
  338.224   56.913    0.337    0.498   23.455
  338.474   58.875    0.342    0.492   21.954
  338.724   59.331    0.345    0.498   20.464
  338.974   57.591    0.340    0.502   19.457
  339.224   56.110    0.326    0.506   19.262
  339.474   55.312    0.322    0.504   18.896
  339.724   56.192    0.336    0.494   18.540
  339.974   58.291    0.342    0.493   18.288
  340.224   59.224    0.329    0.503   18.239
  340.474   60.192    0.334    0.517   18.234
  340.724   60.235    0.338    0.506   18.229
  340.974   59.513    0.336    0.490   18.137
  341.224   59.594    0.327    0.491   17.917
  341.474   58.247    0.330    0.498   17.922
  341.724   57.279    0.340    0.503   17.946
  341.974   58.356    0.342    0.493   17.626
  342.224   59.406    0.344    0.481   17.620
  342.474   59.689    0.343    0.473   17.628
  342.724   60.292    0.336    0.482   17.343
  342.974   59.628    0.329    0.495   17.320
  343.224   59.000    0.327    0.507   17.336
  343.474   58.633    0.328    0.511   17.652
  343.724   57.842    0.329    0.512   17.642
  343.974   57.231    0.331    0.519   17.644
  344.224   57.259    0.337    0.530   17.891
  344.474   57.251    0.345    0.538   18.070
  344.724   57.261    0.340    0.539   18.329
  344.974   57.643    0.324    0.519   18.329
  345.224   57.972    0.332    0.515   18.318
  345.474   58.487    0.345    0.519   18.650
  345.724   58.481    0.351    0.511   18.678
  345.974   58.476    0.340    0.517   18.693
  346.224   58.533    0.336    0.515   18.696
  346.474   57.766    0.336    0.512   18.673
  346.724   58.503    0.340    0.515   19.072
  346.974   59.346    0.349    0.506   19.058
  347.224   60.529    0.342    0.500   19.074
  347.474   60.910    0.338    0.491   19.073
  347.724   61.236    0.328    0.502   19.462
  347.974   63.243    0.321    0.520   19.443
  348.224   65.060    0.318    0.524   19.445
  348.474   66.705    0.317    0.519   19.452
  348.724   67.529    0.317    0.519   19.459
  348.974   68.569    0.325    0.522   19.463
  349.224   70.218    0.316    0.513   19.470
  349.474   71.919    0.320    0.504   19.476
  349.724   73.591    0.305    0.498   19.445
  349.974   74.299    0.293    0.501   19.887
  350.224   73.565    0.285    0.491   19.854
  350.474   71.974    0.288    0.486   19.859
  350.724   69.597    0.295    0.503   19.858
  350.974   68.191    0.307    0.511   19.879
  351.224   68.829    0.319    0.508   19.483
  351.474   70.882    0.320    0.519   19.499
  351.724   72.806    0.309    0.553   17.981
  351.974   75.340    0.294    0.567   15.935
  352.224   78.617    0.299    0.562   13.342
  352.474   79.922    0.299    0.518    9.817
  352.724   81.812    0.280    0.526    7.091
  352.974   85.147    0.240    0.551    5.517
  353.224   85.956    0.262    0.585    4.692
  353.474   87.575    0.252    0.601    3.969
  353.724   86.824    0.233    0.592    3.462
  353.974   85.777    0.251    0.582    3.192
  354.224   85.495    0.252    0.573    3.173
  354.474   85.039    0.226    0.568    3.332
  354.724   85.369    0.243    0.564    3.495
  354.974   86.555    0.252    0.591    3.761
