~Version Information Block
VERS .                 2.00:  CWLS LOG ASCII STANDARD - VERSION 2.00
WRAP.                  NO:
~Well Information Block
#MNEM.UNIT        Data Type   Information
#---------- ----------------  -----------
STRT.M           130.2000:
STOP.M           354.0000:
STEP.M             0.3000:
NULL.           -999.2500:
COMP.  :COMPANY
WELL.  :WELL
FLD.   :FIELD
LOC.   :LOCATION
CTRY.  :COUNTRY
PROV.  :PROVINCE
SRVC.  :SERVICE COMPANY
DATE.  :LOG DATE
UWI.   00/10-08-083-05W4/0:UNIQUE WELL ID
~Parameter Information Block
#MNEM.UNIT            Value   Description
#---------- ----------------  -----------
PROJECT.             SURMOUNT:  
SET  .                  RAW:  
~Curve Information Block
#MNEM.UNIT          API CODE    Curve Description
#-----------    ------------    -------------------------------------
DEPT.M                      :   DEPTH
DPHI .V/V                   :   DPHI
DT   .us/m                  :   DT
GR   .API                   :   GR
ILD  .Ohmm                  :   ILD
NPHI .V/V                   :   NPHI
PHID .                      :   Created by graphical digitiser entry.
RHOB .gm/c3                 :   RHOB
~A  Depth           DPHI          DT          GR         ILD        NPHI        PHID        RHOB
# ...
180.0000       -999.2500   -999.2500     59.3825      9.0929      0.4417      0.3807   2021.7922
180.3000       -999.2500   -999.2500     60.1799      9.0806      0.4362      0.3704   2038.7676
180.6000       -999.2500   -999.2500     60.9528      9.0659      0.4402      0.3670   2044.4233
180.9000       -999.2500   -999.2500     61.6114      9.0501      0.4491      0.3740   2032.9387
181.2000       -999.2500   -999.2500     61.1209      9.0341      0.4522      0.3751   2031.0715
181.5000       -999.2500   -999.2500     58.5751      9.0182      0.4519      0.3699   2039.6848
181.8000       -999.2500   -999.2500     56.6771      9.0023      0.4625      0.3625   2051.8281
182.1000       -999.2500   -999.2500     56.8332      8.9951      0.4528      0.3626   2051.6553
182.4000       -999.2500   -999.2500     56.6544      8.9994      0.4417      0.3691   2041.0518
182.7000       -999.2500   -999.2500     56.2960      9.0073      0.4326      0.3735   2033.6782
183.0000       -999.2500   -999.2500     57.0032      9.0152      0.4331      0.3696   2040.0806
183.3000       -999.2500   -999.2500     58.9021      9.0232      0.4414      0.3742   2032.5247
183.6000       -999.2500   -999.2500     61.0063      9.0311      0.4520      0.3751   2031.0490
183.9000       -999.2500   -999.2500     62.7489      9.0433      0.4434      0.3783   2025.7454
184.2000       -999.2500   -999.2500     62.2136      9.0644      0.4416      0.3836   2017.0317
184.5000       -999.2500   -999.2500     61.4904      9.0888      0.4297      0.3787   2025.1686
184.8000       -999.2500   -999.2500     62.5119      9.1132      0.4307      0.3695   2040.4053
185.1000       -999.2500   -999.2500     62.9190      9.1376      0.4369      0.3718   2036.5786
185.4000       -999.2500   -999.2500     62.1229      9.1620      0.4409      0.3711   2037.6316
185.7000       -999.2500   -999.2500     63.7781      9.1865      0.4380      0.3687   2041.6232
186.0000       -999.2500   -999.2500     65.6533      9.2116      0.4426      0.3766   2028.6349
186.3000       -999.2500   -999.2500     66.6248      9.2368      0.4497      0.3724   2035.5546
186.6000       -999.2500   -999.2500     67.1475      9.2621      0.4504      0.3547   2064.7488
186.9000       -999.2500   -999.2500     68.6772      9.2874      0.4349      0.3435   2083.2993
187.2000       -999.2500   -999.2500     68.3237      9.3126      0.4467      0.3445   2081.6411
187.5000       -999.2500   -999.2500     66.4801      9.3302      0.4589      0.3544   2065.2002
187.8000       -999.2500   -999.2500     66.2033      9.3143      0.4611      0.3583   2058.7839
188.1000       -999.2500   -999.2500     66.3266      9.2836      0.4456      0.3527   2068.0144
188.4000       -999.2500   -999.2500     65.0545      9.2528      0.4409      0.3491   2074.0083
188.7000       -999.2500   -999.2500     61.9089      9.2236      0.4536      0.3495   2073.3523
189.0000       -999.2500   -999.2500     62.3249      9.2086      0.4516      0.3537   2066.4617
189.3000       -999.2500   -999.2500     64.8528      9.2004      0.4444      0.3577   2059.7742
189.6000       -999.2500   -999.2500     67.3915      9.1923      0.4222      0.3550   2064.2527
189.9000       -999.2500   -999.2500     69.7242      9.1642      0.4224      0.3576   2059.9072
190.2000       -999.2500   -999.2500     67.2973      9.1248      0.4374      0.3576   2059.8787
190.5000       -999.2500   -999.2500     65.3306      9.0847      0.4425      0.3538   2066.2017
190.8000       -999.2500   -999.2500     66.5074      9.0148      0.4578      0.3562   2062.2458
191.1000       -999.2500   -999.2500     68.2987      8.9214      0.4546      0.3620   2052.7263
191.4000       -999.2500   -999.2500     69.0130      8.8242      0.4442      0.3648   2048.1282
191.7000       -999.2500   -999.2500     69.6593      8.7306      0.4378      0.3592   2057.2461
192.0000       -999.2500   -999.2500     68.8558      8.6386      0.4440      0.3560   2062.5388
192.3000       -999.2500   -999.2500     65.6025      8.5811      0.4365      0.3565   2061.8123
192.6000       -999.2500   -999.2500     65.5476      8.5861      0.4400      0.3567   2061.3655
192.9000       -999.2500   -999.2500     67.9871      8.6139      0.4535      0.3495   2073.3074
193.2000       -999.2500   -999.2500     71.5687      8.7663      0.4857      0.3483   2075.3528
193.5000       -999.2500   -999.2500     74.9239      8.9905      0.4756      0.3437   2082.9678
193.8000       -999.2500   -999.2500     72.3830      9.1849      0.4516      0.3517   2069.6648
194.1000       -999.2500   -999.2500     71.2026      9.2861      0.4563      0.3594   2057.0190
194.4000       -999.2500   -999.2500     71.9594      9.3495      0.4349      0.3536   2066.5625
194.7000       -999.2500   -999.2500     69.9534      9.3538      0.4228      0.3451   2080.5491
195.0000       -999.2500   -999.2500     71.0082      9.2655      0.4210      0.3378   2092.6309
195.3000       -999.2500   -999.2500     71.0533      9.1456      0.4215      0.3262   2111.7998
195.6000       -999.2500   -999.2500     70.9364      8.7390      0.4281      0.3087   2140.6157
195.9000       -999.2500   -999.2500     74.4068      8.1694      0.4334      0.2837   2181.8865
196.2000       -999.2500   -999.2500     79.6286      7.4262      0.4400      0.2971   2159.7356
196.5000       -999.2500   -999.2500     82.3012      6.6011      0.4441      0.3178   2125.5552
196.8000       -999.2500   -999.2500     84.1668      5.8093      0.4506      0.3178   2125.7083
197.1000       -999.2500   -999.2500     87.1438      5.0438      0.4394      0.3174   2126.2839
197.4000       -999.2500   -999.2500     88.8386      4.2132      0.4476      0.3003   2154.4800
197.7000       -999.2500   -999.2500     91.8239      3.4001      0.4669      0.2827   2183.4966
198.0000       -999.2500   -999.2500     95.0157      3.0233      0.4938      0.2843   2180.8459
198.3000       -999.2500   -999.2500     95.8903      3.2402      0.5265      0.2889   2173.2776
198.6000       -999.2500   -999.2500     99.0592      3.7665      0.5119      0.3174   2126.2639
198.9000       -999.2500   -999.2500     97.9805      4.5787      0.5198      0.3438   2082.6482
199.2000       -999.2500   -999.2500     97.6146      4.7828      0.5036      0.3276   2109.4417
199.5000       -999.2500   -999.2500     99.8860      4.2159      0.4872      0.2811   2186.2312
199.8000       -999.2500   -999.2500    102.2983      3.4813      0.4879      0.2718   2201.4973
200.1000       -999.2500   -999.2500    101.5305      2.9107      0.4904      0.2770   2192.8809
200.4000       -999.2500   -999.2500    101.7687      2.6297      0.5121      0.2850   2179.8162
200.7000       -999.2500   -999.2500    107.2135      2.5243      0.5388      0.3033   2149.5254
201.0000       -999.2500   -999.2500    109.2148      2.5185      0.5662      0.3110   2136.8691
201.3000       -999.2500   -999.2500    106.2985      2.5498      0.5708      0.3134   2132.9316
201.6000       -999.2500   -999.2500    104.1350      2.6337      0.5531      0.3101   2138.3499
201.9000       -999.2500   -999.2500    103.1686      2.8329      0.5619      0.3193   2123.1606
202.2000       -999.2500   -999.2500    101.0666      3.1231      0.5648      0.3198   2122.3401
202.5000       -999.2500   -999.2500     96.7465      3.4765      0.5625      0.3259   2112.2539
202.8000       -999.2500   -999.2500     93.2705      3.9018      0.5389      0.3068   2143.8201
203.1000       -999.2500   -999.2500     93.9145      4.3779      0.5372      0.3023   2151.1260
203.4000       -999.2500   -999.2500     92.6895      4.8189      0.5281      0.3046   2147.4817
203.7000       -999.2500   -999.2500     88.6407      5.2806      0.5108      0.3292   2106.7449
204.0000       -999.2500   -999.2500     87.1809      5.7683      0.4892      0.3112   2136.4565
204.3000       -999.2500   -999.2500     88.6778      6.4111      0.5065      0.2924   2167.6196
204.6000       -999.2500   -999.2500     92.0237      7.1944      0.5134      0.2872   2176.1343
