~VERSION INFORMATION
 VERS.                 2.0:   CWLS LOG ASCII STANDARD -VERSION 2.0
 WRAP.                  NO:   ONE LINE PER DEPTH STEP
~WELL INFORMATION BLOCK
#MNEM.UNIT           DATA                    DESCRIPTION OF MNEMONIC
#---------    -------------------            -------------------------------
# Generated from Intellog Unique Number	CW_73_75/WELL/2753
WELL.         COBRA ET AL MITSUE 16-29       : Well_name    - WELL
LOC .         00/16-29-073-05W5/0            : Location     - LOCATION
UWI .         00/16-29-073-05W5/0            : Uwi          - UNIQUE WELL ID
ENTR.         JAYE                           : Entered      - ENTERED BY
SRVC.         SCHLUMBERGER                   : Scn          - SERVICE COMPANY
DATE.         6 MAR 81                       : Date         - LOG DATE
STRT.M        360                            : top_depth    - START DEPTH
STOP.M        595                            : bot_depth    - STOP DEPTH
STEP.M        0.25                           : increment    - STEP LENGTH
 NULL. -999.2500:NULL Value
~CURVE INFORMATION BLOCK
#MNEM UNIT       ERCB CURVE CODE    CURVE DESCRIPTION
#-----------   ------------------   ----------------------------------
DEPT.M        00 001 00 00         : DEPTH        - DEPTH
DPHI.V/V      00 890 00 00         : PHID         - DENSITY POROSITY (SANDSTONE)
NPHI.V/V      00 330 00 00         : PHIN         - NEUTRON POROSITY (SANDSTONE)
GR  .API      00 310 00 00         : GR           - GAMMA RAY
CALI.MM       00 280 01 00         : CAL          - CALIPER
ILD .OHMM     00 120 00 00         : RESD         - DEEP RESISTIVITY (DIL)
~PARAMETER INFORMATION
#MNEM.UNIT           DATA             DESCRIPTION OF MNEMONIC
#---------         -----------     ------------------------------
GL  .M        581.61               : gl           - GROUND LEVEL ELEVATION
EREF.M        586.26               : kb           - ELEVATION OF DEPTH REFERENCE
DATM.M        581.61               : datum        - DATUM ELEVATION
TDD .M        1686                 : tdd          - TOTAL DEPTH DRILLER
RUN .         ONE                  : Run          - RUN NUMBER
ENG .         ADLAKHA              : Engineer     - RECORDING ENGINEER
WIT .         HEATHER              : Witness      - WITNESSED BY
BASE.         EDMONTON             : Branch       - HOME BASE OF LOGGING UNIT
MUD .         GEL CHEN             : Mud_type     - MUD TYPE
MATR.         SANDSTONE            : Logunit      - NEUTRON MATRIX
TMAX.C        54                   : BHT          - MAXIMUM RECORDED TEMPERATURE
BHTD.M        1686.3               : BHTDEP       - MAXIMUM RECORDED TEMPERATURE
RMT .C        15.5                 : MDTP         - TEMPERATURE OF MUD
MUDD.KG/M     1080                 : MWT          - MUD DENSITY
NEUT.         1                    : NEUTRON      - NEUTRON TYPE
RESI.         0                    : RESIST       - RESISTIVITY TYPE
RM  .OHMM     0.85                 : RM           - RESISTIVITY OF MUD
RMC .OHMM     0                    : RMC          - RESISTIVITY OF MUD CAKE
RMF .OHMM     0.77                 : RMF          - RESISTIVITY OF MUD FILTRATE
SUFT.C        0                    : SUFT         - SURFACE TEMPERATURE
~A  DEPTH     PHID     PHIN       GR      CAL     RESD
# ...
  469.500    0.297    0.446   65.191  256.351    4.578
  469.750    0.307    0.426   61.145  253.650    4.888
  470.000    0.265    0.423   56.539  250.014    5.141
  470.250    0.247    0.395   57.218  247.520    5.228
  470.500    0.227    0.368   59.453  244.507    5.188
  470.750    0.252    0.390   61.999  241.701    5.053
  471.000    0.282    0.444   63.923  238.689    4.875
  471.250    0.292    0.455   65.597  235.468    4.739
  471.500    0.289    0.453   66.091  234.011    4.607
  471.750    0.293    0.445   65.776  233.694    4.520
  472.000    0.277    0.435   62.911  234.618    4.435
  472.250    0.277    0.434   62.035  235.545    4.360
  472.500    0.290    0.462   62.342  236.470    4.279
  472.750    0.301    0.485   62.961  237.396    4.246
  473.000    0.308    0.472   63.391  238.322    4.222
  473.250    0.306    0.432   63.387  238.833    4.245
  473.500    0.305    0.422   63.197  238.723    4.381
  473.750    0.274    0.436   62.384  236.228    4.875
  474.000    0.228    0.460   59.394  235.184    5.506
  474.250    0.148    0.345   52.798  235.074    5.759
  474.500    0.153    0.282   53.602  235.481    5.889
  474.750    0.236    0.302   58.574  237.962    5.746
  475.000    0.272    0.375   61.430  244.692    5.300
  475.250    0.242    0.401   62.109  256.915    4.807
  475.500    0.229    0.408   62.914  263.024    4.409
  475.750    0.244    0.429   66.206  262.810    4.261
  476.000    0.260    0.422   68.689  258.138    4.261
  476.250    0.276    0.421   68.001  250.358    4.284
  476.500    0.295    0.422   64.265  245.375    4.308
  476.750    0.297    0.436   64.136  247.027    4.315
  477.000    0.291    0.467   65.065  253.653    4.338
  477.250    0.269    0.452   66.243  263.700    4.395
  477.500    0.245    0.439   67.296  270.844    4.494
  477.750    0.231    0.435   67.851  276.433    4.648
  478.000    0.252    0.441   68.531  275.599    4.762
  478.250    0.265    0.444   68.091  268.647    4.806
  478.500    0.261    0.427   67.963  272.785    4.896
  478.750    0.238    0.443   67.958  281.174    4.969
  479.000    0.218    0.449   66.462  288.423    5.034
  479.250    0.204    0.425   63.907  293.390    5.119
  479.500    0.202    0.444   64.774  294.938    5.225
  479.750    0.199    0.447   66.076  295.657    5.404
  480.000    0.194    0.438   67.067  296.790    5.515
  480.250    0.195    0.428   66.378  297.610    5.577
  480.500    0.202    0.414   65.752  298.434    5.618
  480.750    0.211    0.414   65.437  299.671    5.596
  481.000    0.222    0.430   65.309  299.768    5.450
  481.250    0.228    0.444   66.112  298.413    5.084
  481.500    0.232    0.444   67.290  291.876    4.680
  481.750    0.231    0.452   68.778  284.303    4.173
  482.000    0.230    0.436   70.702  277.352    3.886
  482.250    0.233    0.452   71.258  270.400    3.856
  482.500    0.248    0.497   69.885  267.387    4.242
  482.750    0.265    0.465   64.098  265.928    4.676
  483.000    0.285    0.445   59.180  264.366    5.116
  483.250    0.306    0.429   59.424  263.427    5.483
  483.500    0.303    0.421   59.607  263.005    5.909
  483.750    0.294    0.411   59.106  263.103    6.250
  484.000    0.289    0.409   55.743  263.199    6.133
  484.250    0.288    0.421   52.567  263.710    6.040
  484.500    0.286    0.418   52.750  264.533    5.983
  484.750    0.287    0.411   52.994  265.873    5.982
  485.000    0.292    0.408   53.798  266.798    5.959
  485.250    0.304    0.409   52.551  267.516    5.946
  485.500    0.301    0.417   51.551  268.132    5.957
  485.750    0.300    0.425   52.542  269.161    5.989
  486.000    0.313    0.441   51.854  269.880    6.011
  486.250    0.321    0.458   50.233  270.702    6.021
  486.500    0.320    0.443   50.788  271.110    6.066
  486.750    0.314    0.459   51.841  270.272    6.110
  487.000    0.310    0.468   53.205  269.437    6.178
  487.250    0.311    0.412   54.755  268.186    6.212
  487.500    0.309    0.410   57.612  267.349    6.234
  487.750    0.301    0.405   58.789  267.240    6.245
  488.000    0.297    0.394   58.536  266.921    6.232
  488.250    0.300    0.418   57.102  266.603    6.243
  488.500    0.302    0.437   54.672  266.181    6.242
  488.750    0.301    0.431   52.553  266.070    6.206
  489.000    0.300    0.385   53.296  265.754    6.124
  489.250    0.289    0.412   53.353  264.813    5.998
  489.500    0.280    0.432   52.977  264.081    5.863
  489.750    0.288    0.424   52.971  263.140    5.657
  490.000    0.299    0.402   53.403  262.512    5.448
  490.250    0.300    0.389   55.140  261.573    5.296
  490.500    0.294    0.404   57.437  260.426    5.119
  490.750    0.295    0.399   60.480  258.655    5.004
  491.000    0.298    0.387   55.066  257.405    4.947
  491.250    0.299    0.397   52.636  255.947    4.919
  491.500    0.299    0.405   52.569  255.319    4.900
  491.750    0.301    0.423   53.063  254.586    4.880
  492.000    0.299    0.417   55.422  253.439    4.870
  492.250    0.294    0.385   58.962  252.395    4.888
  492.500    0.289    0.390   58.958  251.765    4.970
  492.750    0.299    0.406   55.285  251.448    5.035
  493.000    0.304    0.421   53.725  248.228    5.120
  493.250    0.305    0.420   53.410  246.251    5.275
  493.500    0.298    0.402   52.598  245.933    5.476
  493.750    0.294    0.364   51.536  248.000    5.652
  494.000    0.290    0.362   51.283  250.481    5.846
  494.250    0.276    0.382   51.217  253.997    6.137
  494.500    0.250    0.405   51.462  260.416    6.552
  494.750    0.222    0.381   54.007  266.214    7.222
  495.000    0.166    0.333   53.319  266.310    8.082
  495.250    0.112    0.253   49.957  261.847    9.406
  495.500    0.082    0.209   45.039  258.417   11.824
  495.750    0.039    0.176   40.620  256.649   17.334
  496.000    0.026    0.144   37.755  255.088   23.707
  496.250    0.011    0.120   38.124  254.252   26.035
  496.500    0.032    0.136   40.731  254.660   24.884
  496.750    0.075    0.161   43.526  258.073   23.518
  497.000    0.103    0.268   46.196  263.041   22.186
  497.250    0.304    0.294   48.492  268.527   19.970
  497.500    0.271    0.278   51.224  272.874   17.741
  497.750    0.236    0.291   53.210  275.872   15.439
  498.000    0.274    0.340   55.072  276.590   12.989
  498.250    0.320    0.374   55.005  277.413   10.969
  498.500    0.287    0.387   55.126  281.033    9.672
  498.750    0.230    0.387   55.619  284.758    8.722
  499.000    0.198    0.366   55.428  286.720    8.105
  499.250    0.195    0.348   56.108  282.463    7.704
  499.500    0.191    0.355   56.663  275.304    7.281
  499.750    0.186    0.350   56.037  268.664    7.025
  500.000    0.293    0.402   51.646  264.522    6.842
  500.250    0.309    0.396   52.009  258.910    6.609
  500.500    0.305    0.401   55.045  255.475    6.673
  500.750    0.312    0.419   55.719  253.502    6.929
  501.000    0.325    0.443   53.542  251.934    7.222
  501.250    0.330    0.370   53.349  250.168    7.584
  501.500    0.322    0.355   54.019  249.520    7.846
  501.750    0.313    0.401   55.069  249.935    8.102
  502.000    0.315    0.432   55.251  250.332    7.674
  502.250    0.314    0.432   54.556  251.051    7.132
  502.500    0.312    0.419   54.367  251.544    6.802
  502.750    0.309    0.415   54.108  251.639    6.467
  503.000    0.304    0.405   53.972  251.311    6.299
  503.250    0.297    0.398   51.916  250.376    6.205
  503.500    0.293    0.434   50.167  249.233    6.146
  503.750    0.304    0.426   51.843  248.584    6.135
  504.000    0.309    0.418   57.299  247.646    6.160
  504.250    0.301    0.438   56.605  247.010    6.182
  504.500    0.294    0.458   55.045  246.576    6.267
  504.750    0.295    0.423   54.601  246.662    6.349
  505.000    0.295    0.410   55.406  246.251    6.420
  505.250    0.292    0.402   55.894  245.088    6.519
  505.500    0.291    0.394   56.386  243.421    6.619
  505.750    0.287    0.390   57.184  241.658    6.668
