~VERSION INFORMATION
 VERS.                 2.0:   CWLS LOG ASCII STANDARD -VERSION 2.0
 WRAP.                  NO:   ONE LINE PER DEPTH STEP
~WELL INFORMATION BLOCK
#MNEM.UNIT           DATA                    DESCRIPTION OF MNEMONIC
#---------    -------------------            -------------------------------
# Generated from Intellog Unique Number	CW_70_72/WELL/1061
NULL.         -999.25                        : NULL_VALUE
WELL.         WINCAN ET AL GAMBLER 11-22     : Well_name    - WELL              
LOC .         11-22-071-21W4                 : Location     - LOCATION          
UWI .         00/11-22-071-21W4/0            : Uwi          - UNIQUE WELL ID    
ENTR.         JAYE                           : Entered      - ENTERED BY        
SRVC.         SCHLUMBERGER                   : Scn          - SERVICE COMPANY   
DATE.         19 MAR 83                      : Date         - LOG DATE          
STRT.M        335                            : top_depth    - START DEPTH       
STOP.M        518                            : bot_depth    - STOP DEPTH        
STEP.M        0.25                           : increment    - STEP LENGTH       
~CURVE INFORMATION BLOCK
#MNEM UNIT       ERCB CURVE CODE    CURVE DESCRIPTION
#-----------   ------------------   ----------------------------------
DEPT.M        00 001 00 00         : DEPTH        - DEPTH                       
DPHI.V/V      00 890 00 00         : PHID         - DENSITY POROSITY (SANDSTONE)
NPHI.V/V      00 330 00 00         : PHIN         - NEUTRON POROSITY (SANDSTONE)
GR  .API      00 310 00 00         : GR           - GAMMA RAY                   
CALI.MM       00 280 01 00         : CAL          - CALIPER                     
ILD .OHMM     00 120 00 00         : RESD         - DEEP RESISTIVITY (DIL)      
~PARAMETER INFORMATION       
#MNEM.UNIT           DATA             DESCRIPTION OF MNEMONIC
#---------         -----------     ------------------------------
GL  .M        600.05               : gl           - GROUND LEVEL ELEVATION      
EREF.M        603.25               : kb           - ELEVATION OF DEPTH REFERENCE
DATM.M        600.05               : datum        - DATUM ELEVATION             
TDD .M        518                  : tdd          - TOTAL DEPTH DRILLER         
RUN .         ONE                  : Run          - RUN NUMBER                  
ENG .         GAGGINO              : Engineer     - RECORDING ENGINEER          
WIT .         LYSZKIEWICZ          : Witness      - WITNESSED BY                
BASE.         EDM                  : Branch       - HOME BASE OF LOGGING UNIT   
MUD .         GEL CHEM             : Mud_type     - MUD TYPE                    
MATR.         SANDSTONE            : Logunit      - NEUTRON MATRIX              
TMAX.C        28.8                 : BHT          - MAXIMUM RECORDED TEMPERATURE
BHTD.M        517.7                : BHTDEP       - MAXIMUM RECORDED TEMPERATURE
RMT .C        16.6                 : MDTP         - TEMPERATURE OF MUD          
MUDD.KG/M     1240                 : MWT          - MUD DENSITY                 
NEUT.         1                    : NEUTRON      - NEUTRON TYPE                
RESI.         0                    : RESIST       - RESISTIVITY TYPE            
RM  .OHMM     4.02                 : RM           - RESISTIVITY OF MUD          
RMC .OHMM     0                    : RMC          - RESISTIVITY OF MUD CAKE     
RMF .OHMM     3.26                 : RMF          - RESISTIVITY OF MUD FILTRATE 
SUFT.C        0                    : SUFT         - SURFACE TEMPERATURE         
~A  DEPTH     PHID     PHIN       GR      CAL     RESD
# ...
  481.000    0.164    0.395   89.826  224.942    6.068
  481.250    0.158    0.408   92.350  224.337    6.076
  481.500    0.149    0.408   88.225  223.528    6.144
  481.750    0.135    0.408   89.808  222.406    6.222
  482.000    0.118    0.415   91.830  221.799    6.255
  482.250    0.130    0.415   93.351  221.097    6.277
  482.500    0.143    0.403   92.801  221.119    6.321
  482.750    0.155    0.402   91.437  221.147    6.366
  483.000    0.174    0.402   90.198  221.270    6.363
  483.250    0.175    0.394   89.835  221.405    6.350
  483.500    0.167    0.386   90.039  221.531    6.323
  483.750    0.153    0.377   90.241  221.243    6.286
  484.000    0.136    0.387   88.437  221.265    6.284
  484.250    0.103    0.396   91.402  220.979    6.269
  484.500    0.132    0.397   93.422  221.315    6.339
  484.750    0.152    0.385   95.319  221.862    6.347
  485.000    0.154    0.387   97.719  222.622    6.320
  485.250    0.155    0.397  100.995  223.379    6.331
  485.500    0.156    0.402  106.845  223.925    6.341
  485.750    0.150    0.400  102.910  223.531    6.361
  486.000    0.142    0.396   93.512  222.405    6.407
  486.250    0.122    0.386   81.607  221.492    6.650
  486.500    0.083    0.328   73.404  221.206    7.233
  486.750    0.055    0.313   78.313  220.917    7.956
  487.000    0.100    0.348   78.140  220.413    8.274
  487.250    0.138    0.364   76.650  219.497    8.149
  487.500    0.132    0.375   78.735  217.953    7.785
  487.750    0.114    0.369   81.322  217.142    7.288
  488.000    0.122    0.384   81.838  216.541    7.056
  488.250    0.082    0.389   73.257  216.356    7.228
  488.500    0.040    0.348   63.674  216.172    7.996
  488.750    0.017    0.263   61.745  216.096    9.359
  489.000    0.047    0.247   69.225  216.430   10.334
  489.250    0.083    0.317   74.070  216.666   10.646
  489.500    0.082    0.344   76.971  217.006   10.098
  489.750    0.080    0.348   77.174  216.826    9.740
  490.000    0.060    0.337   78.696  216.739    9.361
  490.250    0.047    0.310   80.654  216.763    8.944
  490.500    0.121    0.330   84.246  214.599    8.371
  490.750    0.143    0.371   86.268  214.409    7.604
  491.000    0.147    0.398   87.036  215.165    6.960
  491.250    0.136    0.391   88.054  217.387    6.575
  491.500    0.131    0.387   89.637  218.669    6.306
  491.750    0.140    0.388   91.847  217.233    6.245
  492.000    0.140    0.385   94.121  216.313    6.256
  492.250    0.136    0.379   89.870  215.814    6.323
  492.500    0.143    0.370   81.793  215.420    6.453
  492.750    0.136    0.374   76.977  215.031    6.774
  493.000    0.062    0.364   79.565  214.740    7.123
  493.250    0.062    0.325   84.409  214.771    7.421
  493.500    0.106    0.320   87.751  215.110    7.517
  493.750    0.131    0.339   90.273  215.125    7.544
  494.000    0.144    0.360   95.119  215.467    7.568
  494.250    0.140    0.370  101.783  215.494    7.622
  494.500    0.137    0.356   97.846  215.618    7.661
  494.750    0.135    0.340   92.026  215.644    7.689
  495.000    0.130    0.340   86.458  215.775    7.686
  495.250    0.108    0.344   70.726  216.013    7.696
  495.500    0.081    0.334   71.432  216.348    7.682
  495.750    0.109    0.350   81.109  216.585    7.691
  496.000    0.136    0.362   82.567  216.603    7.673
  496.250    0.136    0.346   81.892  216.630    7.628
  496.500    0.120    0.331   82.347  216.553    7.596
  496.750    0.099    0.319   85.685  216.162    7.424
  497.000    0.117    0.335   95.046  215.868    7.040
  497.250    0.141    0.343  104.471  215.478    6.288
  497.500    0.160    0.346  108.062  215.194    5.084
  497.750    0.171    0.397  107.765  215.003    3.638
  498.000    0.182    0.445  107.716  214.507    2.975
  498.250    0.186    0.468  109.927  214.425    2.940
  498.500    0.133    0.488  107.244  214.657    2.978
  498.750    0.090    0.471   92.453  215.521    3.264
  499.000    0.058    0.402   83.748  216.379    3.863
  499.250    0.043    0.362   73.286  217.141    4.686
  499.500    0.046    0.337   77.880  217.580    5.868
  499.750    0.074    0.328   84.860  218.030    6.653
  500.000    0.106    0.349   88.514  218.363    6.905
  500.250    0.144    0.380   92.104  219.121    6.623
  500.500    0.136    0.380   95.946  219.664    6.188
  500.750    0.131    0.370   99.975  220.006    5.716
  501.000    0.133    0.376  104.256  219.505    5.758
  501.250    0.113    0.395   94.798  217.445    6.181
  501.500    0.065    0.398   78.941  215.689    7.276
  501.750    0.012    0.303   68.480  214.143    8.403
  502.000   -0.005    0.270   59.837  213.646   10.059
  502.250    0.016    0.258   73.841  213.568   11.087
  502.500    0.048    0.294   82.388  213.806   10.536
  502.750    0.093    0.325   85.728  214.355    9.606
  503.000    0.065    0.363   80.475  214.905    8.404
  503.250   -0.011    0.363   81.994  215.128    7.408
  503.500    0.026    0.331   87.906  215.367    6.666
  503.750    0.059    0.352   90.243  215.389    6.381
  504.000    0.081    0.376   86.054  215.207    6.087
  504.250    0.100    0.400   88.767  215.232    5.937
  504.500    0.120    0.395   93.236  215.463    5.847
  504.750    0.131    0.391   97.518  215.908    5.672
  505.000    0.142    0.397   94.834  216.249    5.585
  505.250    0.150    0.406   95.225  216.693    5.552
  505.500    0.137    0.408   96.495  217.034    5.613
  505.750    0.121    0.388   93.562  217.581    5.641
  506.000    0.108    0.382   93.514  218.024    5.642
  506.250    0.116    0.395   99.802  218.365    5.586
  506.500    0.139    0.401  104.083  218.589    5.511
  506.750    0.149    0.396   98.891  218.930    5.426
  507.000    0.138    0.387  100.287  219.056    5.306
  507.250    0.136    0.385  102.182  219.395    5.222
  507.500    0.130    0.397  101.445  219.735    5.094
  507.750    0.129    0.392  101.271  219.761    4.878
  508.000    0.135    0.388  107.184  219.681    4.785
  508.250    0.145    0.400  110.398  219.494    4.712
  508.500    0.145    0.411  113.674  219.310    4.683
  508.750    0.144    0.396  121.845  219.027    4.780
  509.000    0.156    0.410  125.373  218.528    4.932
  509.250    0.139    0.403  115.038  218.550    5.149
  509.500    0.129    0.391  106.395  218.577    5.393
  509.750    0.127    0.393  102.144  218.599    5.867
  510.000    0.078    0.405   98.583  218.416    6.466
  510.250    0.053    0.315   96.088  218.023    6.968
  510.500    0.072    0.345   91.398  217.527    7.218
  510.750    0.106    0.381   83.132  216.925    5.870
  511.000    0.128    0.422   58.366  216.526    5.164
  511.250    0.141    0.422   31.907  216.137    4.861
  511.500    0.141    0.402   29.602  215.747    4.725
  511.750    0.133    0.391   29.303  215.456    4.687
  512.000    0.141    0.418   28.941  215.478    4.883
  512.250    0.134    0.416   28.456  215.500    5.136
  512.500    0.100    0.394   28.218  215.739    5.472
  512.750    0.066    0.383   27.922  215.763    5.974
  513.000    0.039    0.380   27.873  215.889    6.306
  513.250    0.059    0.386   27.700  215.605    6.547
  513.500    0.084    0.365   27.341  215.210    6.794
  513.750    0.114    0.333   27.103  214.918    7.184
  514.000    0.124    0.312   26.864  214.212    7.684
  514.250    0.113    0.311   26.692  213.820    8.172
  514.500    0.092    0.311   26.581  213.636    8.577
  514.750    0.064    0.311   26.595  213.661    8.969
  515.000    0.046    0.311   26.548  213.473    9.326
  515.250    0.037    0.310   26.314  213.082    9.717
  515.500    0.034    0.311   26.326  212.060    9.974
  515.750    0.036    0.313   26.343  206.334   10.042
  516.000    0.052    0.316   26.421  197.575   10.040
  516.250    0.051    0.318   26.496  188.297    9.960
  516.500    0.042    0.322   26.636  181.003    9.810
  516.750    0.044    0.326   26.842  175.066    9.716
  517.000    0.053    0.332   27.047  168.296    9.655
  517.250    0.063    0.339   27.185  159.957    9.561
