~VERSION INFORMATION
 VERS.                 2.0:   CWLS LOG ASCII STANDARD -VERSION 2.0
 WRAP.                  NO:   ONE LINE PER DEPTH STEP
~WELL INFORMATION BLOCK
#MNEM.UNIT           DATA                    DESCRIPTION OF MNEMONIC
#---------    -------------------            -------------------------------
# Generated from Intellog Unique Number	CS_69_70/WELL/2879
WELL.         HUSKY OIL PRODUCTION LTD.      : Well_name    - WELL
LOC .         00/12-28-069-08W4/0            : Location     - LOCATION
UWI .         00/12-28-069-08W4/0            : Uwi          - UNIQUE WELL ID
ENTR.         JOETTE                         : Entered      - ENTERED BY
SRVC.         SCHLUMBERGER                   : Scn          - SERVICE COMPANY
DATE.         05/15/92                       : Date         - LOG DATE
STRT.M        325                            : top_depth    - START DEPTH
STOP.M        575                            : bot_depth    - STOP DEPTH
STEP.M        0.25                           : increment    - STEP LENGTH
 NULL. -999.2500:NULL Value
~CURVE INFORMATION BLOCK
#MNEM UNIT       ERCB CURVE CODE    CURVE DESCRIPTION
#-----------   ------------------   ----------------------------------
DEPT.M        00 001 00 00         : DEPTH        - DEPTH
GR  .API      00 310 00 00         : GR           - GAMMA RAY
CALI.MM       00 280 01 00         : CAL          - CALIPER
ILD .OHMM     00 120 00 00         : RESD         - DEEP RESISTIVITY (DIL)
DPHI.V/V      00 890 00 00         : PHID         - DENSITY POROSITY (SANDSTONE)
NPHI.V/V      00 330 00 00         : PHIN         - NEUTRON POROSITY (SANDSTONE)
~PARAMETER INFORMATION
#MNEM.UNIT           DATA             DESCRIPTION OF MNEMONIC
#---------         -----------     ------------------------------
GL  .M        662.9                : gl           - GROUND LEVEL ELEVATION
EREF.M        666.9                : kb           - ELEVATION OF DEPTH REFERENCE
DATM.M        666.9                : datum        - DATUM ELEVATION
TDD .M        580                  : tdd          - TOTAL DEPTH DRILLER
RUN .         ONE                  : Run          - RUN NUMBER
ENG .         BILL                 : Engineer     - RECORDING ENGINEER
WIT .         JIM                  : Witness      - WITNESSED BY
MUD .         GEL                  : Mud_type     - MUD TYPE
MATR.         SANDSTONE            : Logunit      - NEUTRON MATRIX
TMAX.C        26                   : BHT          - MAXIMUM RECORDED TEMPERATURE
BHTD.M        580                  : BHTDEP       - MAXIMUM RECORDED TEMPERATURE
RMT .C        18                   : MDTP         - TEMPERATURE OF MUD
MUDD.KG/M     1080                 : MWT          - MUD DENSITY
NEUT.         1                    : NEUTRON      - NEUTRON TYPE
RESI.         0                    : RESIST       - RESISTIVITY TYPE
RM  .OHMM     8.55                 : RM           - RESISTIVITY OF MUD
RMC .OHMM     8.57                 : RMC          - RESISTIVITY OF MUD CAKE
RMF .OHMM     8.57                 : RMF          - RESISTIVITY OF MUD FILTRATE
SUFT.C        4                    : SUFT         - SURFACE TEMPERATURE
~A  DEPTH       GR      CAL     RESD     PHID     PHIN
# ...
  471.000   70.538  239.547    4.359    0.469    0.482
  471.250   71.227  242.706    4.878    0.494    0.444
  471.500   72.502  232.733    4.793    0.360    0.425
  471.750   74.380  219.772    4.295    0.288    0.402
  472.000   75.051  211.867    3.776    0.250    0.360
  472.250   72.102  204.912    3.509    0.189    0.384
  472.500   69.153  195.945    3.086    0.246    0.422
  472.750   74.651  207.150    2.665    0.302    0.446
  473.000   77.150  202.263    2.570    0.326    0.439
  473.250   74.787  196.313    2.479    0.321    0.460
  473.500   72.458  194.415    2.483    0.370    0.512
  473.750   72.526  202.574    2.440    0.371    0.523
  474.000   74.991  209.727    2.442    0.350    0.527
  474.250   87.162  217.915    2.400    0.361    0.520
  474.500   88.436  221.073    2.315    0.361    0.501
  474.750   89.091  221.158    2.233    0.333    0.488
  475.000   92.796  216.243    2.114    0.322    0.481
  475.250   89.830  211.355    2.117    0.307    0.537
  475.500   86.294  208.423    2.199    0.293    0.550
  475.750   88.776  203.536    2.326    0.287    0.544
  476.000   91.861  200.575    2.603    0.292    0.537
  476.250   95.566  194.682    2.911    0.290    0.541
  476.500   96.841  189.767    3.316    0.276    0.550
  476.750   96.323  184.823    5.576    0.261    0.528
  477.000   92.736  178.958    5.900    0.255    0.517
  477.250   71.683  177.032    6.129    0.253    0.447
  477.500   67.510  176.139    6.135    0.243    0.415
  477.750   63.371  173.235    6.027    0.221    0.365
  478.000   62.836  173.320    6.262    0.179    0.354
  478.250   63.490  175.473    6.625    0.264    0.376
  478.500   65.972  176.564    7.278    0.286    0.413
  478.750   69.677  176.705    7.701    0.239    0.389
  479.000   71.555  173.801    7.709    0.221    0.375
  479.250   66.779  166.846    7.717    0.218    0.366
  479.500   61.416  163.970    8.018    0.239    0.381
  479.750   59.087  163.078    8.324    0.274    0.384
  480.000   60.345  162.157    8.651    0.269    0.382
  480.250   64.033  162.298    8.820    0.270    0.369
  480.500   63.532  162.411    8.829    0.259    0.363
  480.750   60.565  164.564    9.003    0.222    0.383
  481.000   60.650  165.683    9.012    0.211    0.396
  481.250   60.115  167.780    8.853    0.270    0.390
  481.500   58.372  169.904    8.862    0.271    0.385
  481.750   57.854  174.040    8.551    0.262    0.380
  482.000   57.888  177.199    8.247    0.261    0.370
  482.250   58.559  178.318    7.390    0.260    0.366
  482.500   60.437  179.465    6.497    0.261    0.383
  482.750   62.936  180.584    5.930    0.264    0.385
  483.000   64.797  180.669    6.392    0.269    0.385
  483.250   67.899  181.788    6.890    0.277    0.387
  483.500   72.191  181.929    7.293    0.278    0.393
  483.750   77.690  181.065    7.300    0.280    0.409
  484.000   83.189  180.144    7.040    0.278    0.399
  484.250   79.636  178.217    5.750    0.278    0.374
  484.500   76.704  173.358    4.443    0.285    0.374
  484.750   73.151  171.432    4.449    0.293    0.382
  485.000   73.202  169.505    4.885    0.286    0.384
  485.250   82.942  168.613    5.167    0.271    0.390
  485.500   93.872  170.737    5.997    0.252    0.397
  485.750  103.612  175.879    7.223    0.241    0.447
  486.000  109.714  179.038    8.865    0.242    0.458
  486.250   91.662  174.122    9.385    0.293    0.424
  486.500   76.644  169.179    9.565    0.316    0.411
  486.750   71.280  162.280    9.938    0.318    0.393
  487.000   87.641  157.364    9.766    0.311    0.373
  487.250   88.329  156.444    9.418    0.304    0.396
  487.500   79.329  156.557    8.437    0.301    0.389
  487.750   71.552  157.676    7.019    0.306    0.365
  488.000   78.258  158.795    5.949    0.313    0.364
  488.250   87.394  158.936    5.231    0.316    0.376
  488.500   98.324  159.077    4.863    0.310    0.436
  488.750  105.047  159.162    5.340    0.299    0.468
  489.000  109.339  161.315    6.198    0.292    0.467
  489.250  111.217  164.446    7.196    0.293    0.465
  489.500  110.078  165.536    7.755    0.299    0.455
  489.750  104.715  167.661    8.674    0.285    0.430
  490.000   95.128  160.790    9.354    0.251    0.397
  490.250   84.317  156.881    9.536    0.122    0.334
  490.500   71.126  156.937    9.724    0.201    0.365
  490.750   71.177  158.056    9.916    0.242    0.374
  491.000   67.607  160.181    9.926    0.299    0.348
  491.250   62.244  160.294    9.578    0.317    0.355
  491.500   67.760  160.407    8.906    0.316    0.371
  491.750   71.466  159.571    8.429    0.296    0.366
  492.000   70.913  159.656    7.692    0.285    0.361
  492.250   72.808  160.803    6.891    0.276    0.357
  492.500   75.876  160.888    6.175    0.261    0.349
  492.750   83.203  163.041    5.849    0.245    0.346
  493.000   89.908  164.132    5.639    0.234    0.356
  493.250   91.786  165.251    5.859    0.229    0.356
  493.500   91.251  166.369    6.086    0.225    0.359
  493.750   93.733  166.511    6.204    0.222    0.368
  494.000   99.248  165.618    5.988    0.222    0.371
  494.250  101.730  163.748    5.774    0.224    0.357
  494.500   90.316  162.799    5.175    0.250    0.344
  494.750   69.867  159.895    5.082    0.288    0.337
  495.000   62.073  151.962    4.994    0.307    0.346
  495.250   56.710  148.053    5.285    0.297    0.356
  495.500   53.174  147.188    5.913    0.288    0.369
  495.750   56.242  148.336    6.255    0.280    0.382
  496.000   59.931  149.398    6.382    0.274    0.395
  496.250   66.067  151.523    5.822    0.265    0.401
  496.500   63.704  153.704    4.934    0.270    0.397
  496.750   60.151  155.857    4.104    0.286    0.367
  497.000   56.599  156.919    3.815    0.265    0.356
  497.250   83.838  159.044    3.819    0.242    0.383
  497.500  103.837  162.174    4.435    0.180    0.418
  497.750  109.939  164.299    4.868    0.149    0.462
  498.000  105.783  165.446    5.758    0.157    0.486
  498.250  110.075  164.553    6.091    0.262    0.469
  498.500   87.798  161.678    5.771    0.294    0.404
  498.750   71.573  159.751    5.565    0.289    0.337
  499.000   61.969  157.853    5.269    0.276    0.319
  499.250   52.986  159.977    5.177    0.253    0.328
  499.500   68.156  170.148    4.994    0.236    0.334
  499.750   76.672  179.312    5.001    0.233    0.327
  500.000   75.534  185.460    4.914    0.231    0.325
  500.250   75.618  190.630    4.918    0.229    0.334
  500.500   76.876  197.840    5.015    0.224    0.341
  500.750   78.788  199.936    5.309    0.217    0.345
  501.000   78.253  202.033    5.618    0.220    0.344
  501.250   75.890  205.163    5.836    0.226    0.349
  501.500   72.320  207.288    6.062    0.230    0.356
  501.750   66.957  209.441    6.297    0.242    0.352
  502.000   63.422  211.594    6.419    0.258    0.348
  502.250   61.076  212.712    6.546    0.267    0.354
  502.500   60.523  213.803    6.678    0.262    0.363
  502.750   60.608  214.922    6.683    0.265    0.365
  503.000   61.883  217.103    6.566    0.272    0.368
  503.250   63.175  217.160    6.453    0.279    0.376
  503.500   62.035  218.307    6.225    0.272    0.378
  503.750   62.707  219.426    5.894    0.243    0.369
  504.000   66.378  220.573    5.187    0.231    0.360
  504.250   78.515  220.714    5.000    0.215    0.364
  504.500   87.048  220.771    4.736    0.197    0.358
  504.750   87.719  219.879    4.485    0.190    0.352
  505.000   91.425  218.986    4.325    0.185    0.378
  505.250   95.130  217.088    4.173    0.189    0.396
  505.500   93.388  216.223    4.102    0.199    0.397
  505.750   95.266  212.342    4.105    0.206    0.385
  506.000   98.938  210.387    4.110    0.212    0.377
  506.250  104.437  205.472    4.192    0.208    0.407
  506.500  108.125  196.505    4.273    0.203    0.462
  506.750   90.693  191.618    4.607    0.203    0.430
  507.000   85.330  190.697    4.784    0.206    0.400
  507.250   79.347  187.821    6.685    0.210    0.378
