~VERSION INFORMATION
 VERS.                 2.0:   CWLS LOG ASCII STANDARD -VERSION 2.0
 WRAP.                  NO:   ONE LINE PER DEPTH STEP
~WELL INFORMATION BLOCK
#MNEM.UNIT           DATA                    DESCRIPTION OF MNEMONIC
#---------    -------------------            -------------------------------
# Generated from Intellog Unique Number	CW_70_72/WELL/1057
NULL.         -999.25                        : NULL_VALUE
WELL.         MIKAS AMOCO CALLING LAKE 11-12 : Well_name    - WELL              
LOC .         11-12-072-20W4                 : Location     - LOCATION          
UWI .         00/11-12-072-20W4/0            : Uwi          - UNIQUE WELL ID    
ENTR.         JAYE                           : Entered      - ENTERED BY        
SRVC.         SCHLUMBERGER                   : Scn          - SERVICE COMPANY   
DATE.         24 FEB 73                      : Date         - LOG DATE          
STRT.M        316.992                        : top_depth    - START DEPTH       
STOP.M        518.242                        : bot_depth    - STOP DEPTH        
STEP.M        0.25                           : increment    - STEP LENGTH       
~CURVE INFORMATION BLOCK
#MNEM UNIT       ERCB CURVE CODE    CURVE DESCRIPTION
#-----------   ------------------   ----------------------------------
DEPT.M        00 001 00 00         : DEPTH        - DEPTH                       
DPHI.V/V      00 890 00 00         : PHID         - DENSITY POROSITY (SANDSTONE)
NPHI.V/V      00 330 00 00         : PHIN         - NEUTRON POROSITY (SANDSTONE)
GR  .API      00 310 00 00         : GR           - GAMMA RAY                   
CALI.MM       00 280 01 00         : CAL          - CALIPER                     
ILD .OHMM     00 120 00 00         : RESD         - DEEP RESISTIVITY (DLL)      
~PARAMETER INFORMATION       
#MNEM.UNIT           DATA             DESCRIPTION OF MNEMONIC
#---------         -----------     ------------------------------
GL  .M        594.055              : gl           - GROUND LEVEL ELEVATION      
EREF.M        597.408              : kb           - ELEVATION OF DEPTH REFERENCE
DATM.M        594.055              : datum        - DATUM ELEVATION             
TDD .M        542.544              : tdd          - TOTAL DEPTH DRILLER         
RUN .         ONE                  : Run          - RUN NUMBER                  
ENG .         LYE                  : Engineer     - RECORDING ENGINEER          
WIT .         COVENEY/BOUPLAND     : Witness      - WITNESSED BY                
BASE.         R.D.                 : Branch       - HOME BASE OF LOGGING UNIT   
MUD .         GEL CHEM             : Mud_type     - MUD TYPE                    
MATR.         SANDSTONE            : Logunit      - NEUTRON MATRIX              
TMAX.C        28.8889              : BHT          - MAXIMUM RECORDED TEMPERATURE
BHTD.M        542.239              : BHTDEP       - MAXIMUM RECORDED TEMPERATURE
RMT .C        18.8889              : MDTP         - TEMPERATURE OF MUD          
MUDD.KG/M     1104                 : MWT          - MUD DENSITY                 
NEUT.         1                    : NEUTRON      - NEUTRON TYPE                
RESI.         1                    : RESIST       - RESISTIVITY TYPE            
RM  .OHMM     4.29                 : RM           - RESISTIVITY OF MUD          
RMC .OHMM     0                    : RMC          - RESISTIVITY OF MUD CAKE     
RMF .OHMM     5.03                 : RMF          - RESISTIVITY OF MUD FILTRATE 
SUFT.C        -17.7778             : SUFT         - SURFACE TEMPERATURE         
~A  DEPTH     PHID     PHIN       GR      CAL     RESD
# ...
  389.992    0.085    0.242   60.862  163.147    6.301
  390.242    0.097    0.238   59.722  163.180    7.584
  390.492    0.104    0.241   59.255  164.159    9.268
  390.742    0.105    0.244   59.462  165.127   10.227
  390.992    0.101    0.248   59.301  165.580   10.453
  391.242    0.128    0.261   59.628  165.714   10.082
  391.492    0.171    0.292   59.892  165.332    8.721
  391.742    0.262    0.336   60.525  162.884    7.317
  391.992    0.319    0.446   62.623  159.512    6.045
  392.242    0.306    0.481   66.798  155.929    5.167
  392.492    0.307    0.469   68.591  154.307    4.696
  392.742    0.297    0.443   64.826  154.659    5.289
  392.992    0.298    0.404   62.039  156.863    6.080
  393.242    0.304    0.327   61.266  160.316    6.731
  393.492    0.284    0.294   63.853  162.110    7.315
  393.742    0.295    0.364   67.176  162.355    7.630
  393.992    0.288    0.498   68.477  161.981    7.564
  394.242    0.263    0.435   69.904  160.876    7.138
  394.492    0.253    0.399   71.211  160.399    6.654
  394.742    0.281    0.366   71.474  160.440    6.109
  394.992    0.298    0.378   71.559  160.679    5.628
  395.242    0.303    0.450   74.024  161.025    5.115
  395.492    0.296    0.459   78.870  161.582    4.826
  395.742    0.294    0.448   81.395  161.720    4.600
  395.992    0.290    0.440   82.212  162.071    4.468
  396.242    0.281    0.441   78.324  162.208    4.451
  396.492    0.272    0.480   70.712  162.451    4.572
  396.742    0.263    0.506   73.115  162.488    4.729
  396.992    0.251    0.486   75.947  162.939    4.959
  397.242    0.233    0.468   78.167  162.880    5.112
  397.492    0.221    0.464   80.570  163.738    5.208
  397.742    0.227    0.482   84.808  165.120    5.232
  397.992    0.234    0.500   88.798  166.088    5.204
  398.242    0.215    0.504   86.990  166.753    5.124
  398.492    0.202    0.480   86.590  166.993    5.061
  398.742    0.209    0.469   86.973  167.238    4.992
  398.992    0.205    0.490   86.382  167.582    4.931
  399.242    0.204    0.478   86.770  168.450    4.879
  399.492    0.215    0.448   89.235  168.893    4.836
  399.742    0.201    0.452   92.372  169.138    4.819
  399.992    0.193    0.468   94.289  169.071    4.794
  400.242    0.195    0.469   94.981  168.799    4.860
  400.492    0.202    0.478   91.093  168.527    4.923
  400.742    0.213    0.497   89.344  167.737    4.971
  400.992    0.210    0.518   91.688  167.154    5.038
  401.242    0.207    0.526   91.342  166.674    5.097
  401.492    0.215    0.497   92.160  166.397    5.147
  401.742    0.200    0.494   95.112  166.023    5.172
  401.992    0.198    0.500   96.660  166.472    5.206
  402.242    0.190    0.488   94.178  166.924    5.276
  402.492    0.204    0.481   96.399  167.174    5.338
  402.742    0.210    0.478  100.024  167.307    5.345
  402.992    0.200    0.483  105.544  167.864    5.271
  403.242    0.187    0.492  112.711  168.723    5.119
  403.492    0.168    0.500  110.595  169.796    4.905
  403.742    0.190    0.513  104.693  172.003    4.628
  403.992    0.216    0.509   98.974  173.179    4.351
  404.242    0.235    0.496   95.271  173.630    3.908
  404.492    0.242    0.484   90.588  172.220    3.588
  404.742    0.220    0.491   91.710  169.568    3.432
  404.992    0.219    0.506   93.138  165.571    3.520
  405.242    0.243    0.511   87.905  162.096    3.716
  405.492    0.258    0.518   80.783  160.471    3.916
  405.742    0.250    0.510   80.987  159.477    4.077
  405.992    0.254    0.466   84.550  159.512    4.283
  406.242    0.242    0.472   89.337  159.859    4.437
  406.492    0.246    0.490   87.466  160.206    4.566
  406.742    0.225    0.515   86.205  160.247    4.667
  406.992    0.223    0.515   87.508  160.698    4.691
  407.242    0.246    0.505   89.242  161.148    4.705
  407.492    0.240    0.492   91.951  161.495    4.719
  407.742    0.219    0.478   88.673  162.057    4.725
  407.992    0.211    0.484   85.582  162.404    4.732
  408.242    0.218    0.501   85.847  162.546    4.716
  408.492    0.215    0.521   88.496  162.587    4.697
  408.742    0.221    0.484   90.352  162.505    4.680
  408.992    0.212    0.490   88.233  162.438    4.655
  409.242    0.204    0.511   87.951  162.479    4.646
  409.492    0.211    0.499   86.872  162.511    4.614
  409.742    0.229    0.489   81.825  162.342    4.596
  409.992    0.236    0.539   82.336  163.000    4.578
  410.242    0.218    0.559   83.703  164.280    4.571
  410.492    0.230    0.547   84.577  164.528    4.545
  410.742    0.272    0.535   82.767  164.145    4.499
  410.992    0.290    0.546   79.247  163.150    4.467
  411.242    0.283    0.541   77.192  161.426    4.420
  411.492    0.280    0.522   74.833  160.226    4.381
  411.742    0.285    0.512   72.349  160.265    4.335
  411.992    0.290    0.508   70.722  159.997    4.283
  412.242    0.288    0.504   73.982  160.026    4.231
  412.492    0.298    0.501   75.470  160.059    4.193
  412.742    0.310    0.496   75.918  159.896    4.157
  412.992    0.303    0.499   76.428  159.930    4.141
  413.242    0.273    0.498   75.903  159.969    4.140
  413.492    0.203    0.483   73.540  160.518    4.174
  413.742    0.170    0.461   67.882  165.011    4.391
  413.992    0.120    0.426   64.545  167.214    4.988
  414.242    0.117    0.319   62.003  160.940    5.694
  414.492    0.124    0.344   62.454  156.840    6.490
  414.742    0.145    0.372   64.000  155.018    6.945
  414.992    0.184    0.412   67.016  154.846    7.062
  415.242    0.263    0.472   70.579  155.088    6.246
  415.492    0.289    0.515   70.602  155.758    5.366
  415.742    0.303    0.531   67.203  155.789    4.517
  415.992    0.304    0.535   66.737  156.130    3.881
  416.242    0.295    0.517   67.124  156.590    3.706
  416.492    0.290    0.505   66.107  156.945    3.588
  416.742    0.286    0.493   66.193  156.972    3.562
  416.992    0.287    0.480   67.189  157.209    3.592
  417.242    0.292    0.468   70.327  157.249    3.640
  417.492    0.302    0.472   70.105  157.182    3.688
  417.742    0.312    0.483   67.624  157.320    3.731
  417.992    0.325    0.497   67.277  157.358    3.755
  418.242    0.309    0.503   67.909  157.499    3.767
  418.492    0.296    0.483   68.847  158.166    3.786
  418.742    0.305    0.459   69.847  158.918    3.791
  418.992    0.289    0.446   69.442  159.894    3.829
  419.242    0.282    0.453   68.547  160.853    3.861
  419.492    0.287    0.469   68.326  162.132    3.879
  419.742    0.292    0.482   69.567  163.311    3.852
  419.992    0.302    0.496   72.705  164.066    3.799
  420.242    0.311    0.501   69.551  164.728    3.726
  420.492    0.312    0.490   67.558  165.589    3.571
  420.742    0.307    0.471   63.975  166.348    3.456
  420.992    0.308    0.432   60.516  166.386    3.386
  421.242    0.279    0.387   58.094  166.014    3.389
  421.492    0.256    0.355   58.239  165.738    3.436
  421.742    0.259    0.377   59.970  163.396    3.441
  421.992    0.333    0.436   61.518  160.018    3.410
  422.242    0.318    0.456   63.253  158.503    3.363
  422.492    0.315    0.461   63.642  159.988    3.294
  422.742    0.326    0.451   63.725  161.785    3.232
  422.992    0.334    0.474   64.050  161.924    3.177
  423.242    0.315    0.491   65.354  161.447    3.154
  423.492    0.302    0.507   65.926  161.070    3.137
  423.742    0.277    0.510   66.069  161.004    3.141
  423.992    0.293    0.487   66.702  161.561    3.173
  424.242    0.311    0.466   67.456  161.696    3.237
  424.492    0.298    0.451   67.602  161.529    3.326
  424.742    0.304    0.453   67.806  161.466    3.399
  424.992    0.295    0.465   68.561  161.601    3.492
  425.242    0.293    0.472   70.537  162.049    3.575
  425.492    0.282    0.468   74.711  162.818    3.654
  425.742    0.287    0.456   76.812  163.054    3.747
  425.992    0.287    0.461   73.351  163.510    3.882
  426.242    0.262    0.475   73.312  163.853    3.989
