~VERSION INFORMATION
 VERS.                 2.0:   CWLS LOG ASCII STANDARD -VERSION 2.0
 WRAP.                  NO:   ONE LINE PER DEPTH STEP
~WELL INFORMATION BLOCK
#MNEM.UNIT           DATA                    DESCRIPTION OF MNEMONIC
#---------    -------------------            -------------------------------
# Generated from Intellog Unique Number	CS_71_72/WELL/920
WELL.         AMOCO AEC IPIATIK              : Well_name    - WELL
LOC .         00/12-28-072-06W4/0            : Location     - LOCATION
UWI .         00/12-28-072-06W4/0            : Uwi          - UNIQUE WELL ID
ENTR.         SP                             : Entered      - ENTERED BY
SRVC.         SCHLUMBERGER                   : Scn          - SERVICE COMPANY
STRT.M        340                            : top_depth    - START DEPTH
STOP.M        565                            : bot_depth    - STOP DEPTH
STEP.M        0.25                           : increment    - STEP LENGTH
 NULL. -999.2500:NULL Value
~CURVE INFORMATION BLOCK
#MNEM UNIT       ERCB CURVE CODE    CURVE DESCRIPTION
#-----------   ------------------   ----------------------------------
DEPT.M        00 001 00 00         : DEPTH        - DEPTH
ILD .OHMM     00 120 00 00         : RESD         - DEEP RESISTIVITY (DIL)
DPHI.V/V      00 890 00 00         : PHID         - DENSITY POROSITY (LIMESTONE)
NPHI.V/V      00 330 00 00         : PHIN         - NEUTRON POROSITY (LIMESTONE)
GR  .API      00 310 00 00         : GR           - GAMMA RAY
~PARAMETER INFORMATION
#MNEM.UNIT           DATA             DESCRIPTION OF MNEMONIC
#---------         -----------     ------------------------------
GL  .M        713.57               : gl           - GROUND LEVEL ELEVATION
EREF.M        713.07               : kb           - ELEVATION OF DEPTH REFERENCE
DATM.M        713.57               : datum        - DATUM ELEVATION
TDD .M        580.9                : tdd          - TOTAL DEPTH DRILLER
RUN .         ONE                  : Run          - RUN NUMBER
ENG .         BILL                 : Engineer     - RECORDING ENGINEER
WIT .         JIM                  : Witness      - WITNESSED BY
MUD .         GEL                  : Mud_type     - MUD TYPE
MATR.         LIMESTONE            : Logunit      - NEUTRON MATRIX
TMAX.C        22                   : BHT          - MAXIMUM RECORDED TEMPERATURE
BHTD.M        580.9                : BHTDEP       - MAXIMUM RECORDED TEMPERATURE
MATR.         1                    : LOGUNIT      - NEUTRON MATRIX
RMT .C        25                   : MDTP         - TEMPERATURE OF MUD
NEUT.         1                    : NEUTRON      - NEUTRON TYPE
RESI.         0                    : RESIST       - RESISTIVITY TYPE
RMC .OHMM     0.25                 : RMC          - RESISTIVITY OF MUD CAKE
RMF .OHMM     0.25                 : RMF          - RESISTIVITY OF MUD FILTRATE
SUFT.C        15                   : SUFT         - SURFACE TEMPERATURE
~A  DEPTH     RESD     PHID     PHIN       GR
# ...
  383.500    9.783    0.224    0.422   57.012
  383.750    9.780    0.236    0.445   56.417
  384.000    9.776    0.244    0.455   54.016
  384.250    9.775    0.254    0.451   51.607
  384.500    9.955    0.264    0.447   49.808
  384.750   10.140    0.249    0.441   51.641
  385.000   10.328    0.238    0.449   56.495
  385.250    9.948    0.224    0.471   63.772
  385.500    9.581    0.214    0.490   66.200
  385.750    8.892    0.226    0.499   71.667
  386.000    8.099    0.222    0.497   73.492
  386.250    7.377    0.214    0.519   74.713
  386.500    6.974    0.222    0.529   74.737
  386.750    6.971    0.239    0.509   74.147
  387.000    7.102    0.248    0.485   74.159
  387.250    7.507    0.256    0.463   74.174
  387.500    8.237    0.263    0.447   74.185
  387.750    9.038    0.268    0.439   71.775
  388.000    9.380    0.269    0.439   65.139
  388.250    9.916    0.257    0.435   63.334
  388.500   10.483    0.255    0.429   63.957
  388.750   10.877    0.249    0.435   64.575
  389.000   11.079    0.242    0.447   65.801
  389.250   10.870    0.227    0.463   65.813
  389.500   10.868    0.221    0.470   63.409
  389.750   10.665    0.233    0.472   56.168
  390.000   11.275    0.250    0.465   49.531
  390.250   12.603    0.253    0.460   45.308
  390.500   13.324    0.230    0.448   40.484
  390.750   14.893    0.285    0.442   39.293
  391.000   15.171    0.294    0.437   39.304
  391.250   15.742    0.285    0.433   39.929
  391.500   15.738    0.268    0.428   42.359
  391.750   15.159    0.239    0.460   47.816
  392.000   12.348    0.226    0.484   58.719
  392.250   10.836    0.232    0.501   69.623
  392.500    9.871    0.223    0.492   75.686
  392.750    8.662    0.207    0.489   77.516
  393.000    7.323    0.202    0.526   78.737
  393.250    6.427    0.227    0.517   77.547
  393.500    5.640    0.261    0.502   71.515
  393.750    6.074    0.278    0.489   68.499
  394.000    6.918    0.268    0.484   63.072
  394.250    8.332    0.253    0.477   59.456
  394.500    9.489    0.224    0.474   56.446
  394.750   11.217    0.190    0.462   51.626
  395.000   12.776    0.162    0.433   49.224
  395.250   14.551    0.189    0.400   48.630
  395.500   15.671    0.237    0.417   49.856
  395.750   16.567    0.256    0.441   52.899
  396.000   16.256    0.269    0.459   54.118
  396.250   15.086    0.276    0.467   55.956
  396.500   13.741    0.292    0.482   57.178
  396.750   12.991    0.284    0.481   57.790
  397.000   12.282    0.284    0.470   57.205
  397.250   11.612    0.289    0.464   56.608
  397.500   11.184    0.292    0.473   53.603
  397.750   11.181    0.303    0.487   49.990
  398.000   11.389    0.310    0.495   47.581
  398.250   11.816    0.309    0.481   45.783
  398.500   12.036    0.307    0.462   48.823
  398.750   12.033    0.304    0.454   50.650
  399.000   12.256    0.296    0.443   49.455
  399.250   12.251    0.291    0.436   48.871
  399.500   12.248    0.279    0.432   48.887
  399.750   12.245    0.280    0.425   49.505
  400.000   12.242    0.293    0.429   49.516
  400.250   12.013    0.290    0.418   48.318
  400.500   12.011    0.283    0.442   48.940
  400.750   11.785    0.279    0.442   51.375
  401.000   12.004    0.271    0.443   53.805
  401.250   12.000    0.268    0.443   57.455
  401.500   11.777    0.259    0.445   59.279
  401.750   11.133    0.246    0.450   62.318
  402.000   10.332    0.233    0.485   64.757
  402.250    9.587    0.257    0.495   65.371
  402.500    9.235    0.291    0.488   56.319
  402.750    8.894    0.310    0.500   50.285
  403.000    9.229    0.315    0.489   45.458
  403.250    9.577    0.303    0.478   41.844
  403.500   10.314    0.300    0.466   40.648
  403.750   10.704    0.309    0.466   41.267
  404.000   11.314    0.307    0.466   42.495
  404.250   11.312    0.304    0.451   44.325
  404.500   11.309    0.301    0.454   43.733
  404.750   11.097    0.308    0.466   43.141
  405.000   10.889    0.312    0.454   42.550
  405.250   10.685    0.308    0.449   41.973
  405.500   10.486    0.307    0.445   41.381
  405.750   10.290    0.311    0.457   41.392
  406.000   10.287    0.306    0.453   42.611
  406.250   10.284    0.305    0.470   43.835
  406.500   10.280    0.322    0.478   44.457
  406.750   10.278    0.324    0.490   43.865
  407.000   10.277    0.311    0.476   41.458
  407.250   10.664    0.288    0.458   38.451
  407.500   11.484    0.127    0.370   37.255
  407.750   12.602    0.136    0.306   36.665
  408.000   13.827    0.158    0.306   36.683
  408.250   14.893    0.222    0.371   37.909
  408.500   16.040    0.296    0.433   39.740
  408.750   16.336    0.283    0.458   39.752
  409.000   16.333    0.235    0.439   39.166
  409.250   15.157    0.178    0.411   38.569
  409.500   13.550    0.157    0.382   40.401
  409.750   13.052    0.296    0.416   43.444
  410.000   12.339    0.325    0.452   44.664
  410.250   11.885    0.327    0.494   45.885
  410.500   11.237    0.315    0.478   48.931
  410.750    9.678    0.314    0.471   50.755
  411.000    8.653    0.321    0.463   51.984
  411.250    8.182    0.323    0.469   51.389
  411.500    7.452    0.321    0.477   48.377
  411.750    7.449    0.322    0.476   47.787
  412.000    7.448    0.326    0.464   47.205
  412.250    7.874    0.325    0.455   47.215
  412.500    8.169    0.327    0.482   46.021
  412.750    8.321    0.332    0.502   43.013
  413.000    8.634    0.333    0.511   40.609
  413.250    8.795    0.333    0.489   40.013
  413.500    9.126    0.333    0.465   41.246
  413.750    9.295    0.332    0.469   41.859
  414.000    9.468    0.327    0.478   43.090
  414.250    9.464    0.322    0.485   43.706
  414.500    9.288    0.317    0.488   44.930
  414.750    8.781    0.323    0.478   45.550
  415.000    8.457    0.327    0.467   45.562
  415.250    8.455    0.331    0.458   45.577
  415.500    8.452    0.334    0.457   43.780
  415.750    8.609    0.331    0.455   43.799
  416.000    8.768    0.327    0.485   44.415
  416.250    8.766    0.318    0.469   45.033
  416.500    8.764    0.313    0.468   45.651
  416.750    8.600    0.316    0.478   46.279
  417.000    8.439    0.314    0.474   46.894
  417.250    7.979    0.305    0.468   46.903
  417.500    7.404    0.301    0.492   47.530
  417.750    7.000    0.300    0.508   47.541
  418.000    6.496    0.311    0.507   47.560
  418.250    6.142    0.315    0.462   46.962
  418.500    7.395    0.327    0.441   45.164
  418.750    7.966    0.332    0.445   42.761
  419.000    9.072    0.336    0.456   39.755
  419.250    9.771    0.327    0.469   37.951
  419.500   10.330    0.322    0.482   36.151
  419.750   10.920    0.322    0.486   36.166
  420.000   11.544    0.327    0.481   39.205
  420.250   11.540    0.326    0.474   41.647
  420.500   11.537    0.324    0.472   42.265
  420.750   11.536    0.320    0.474   42.882
  421.000   11.532    0.311    0.482   42.894
  421.250   11.527    0.301    0.483   42.300
  421.500   11.524    0.288    0.461   41.108
  421.750   11.738    0.274    0.432   40.517
  422.000   11.736    0.288    0.444   40.541
  422.250   11.733    0.309    0.466   40.558
  422.500   11.730    0.315    0.476   40.571
  422.750   11.298    0.310    0.460   41.188
  423.000   10.680    0.305    0.470   41.802
  423.250   10.481    0.316    0.473   43.027
  423.500   10.285    0.318    0.459   43.648
  423.750   10.093    0.322    0.455   43.659
  424.000    9.905    0.327    0.447   43.075
  424.250    9.718    0.327    0.448   42.479
  424.500    9.716    0.327    0.466   41.891
  424.750    9.714    0.322    0.471   42.510
  425.000    9.531    0.319    0.472   43.737
  425.250    9.529    0.318    0.478   44.963
  425.500    9.351    0.316    0.484   45.578
  425.750    9.349    0.306    0.473   46.201
  426.000    8.837    0.300    0.463   46.819
  426.250    8.673    0.300    0.463   48.050
  426.500    8.198    0.299    0.468   48.668
  426.750    7.897    0.297    0.473   49.892
