~VERSION INFORMATION
 VERS.                 2.0:   CWLS LOG ASCII STANDARD -VERSION 2.0
 WRAP.                  NO:   ONE LINE PER DEPTH STEP
~WELL INFORMATION BLOCK
#MNEM.UNIT           DATA                    DESCRIPTION OF MNEMONIC
#---------    -------------------            -------------------------------
# Generated from Intellog Unique Number	CS_77_79/WELL/927
WELL.         ALLIED ET AL HOUSE             : Well_name    - WELL
LOC .         00/10-01-079-16W4/0            : Location     - LOCATION
UWI .         00/10-01-079-16W4/0            : Uwi          - UNIQUE WELL ID
ENTR.         JHS                            : Entered      - ENTERED BY
SRVC.         SCHLUMBERGER                   : Scn          - SERVICE COMPANY
STRT.M        198.12                         : top_depth    - START DEPTH
STOP.M        426.37                         : bot_depth    - STOP DEPTH
STEP.M        0.25                           : increment    - STEP LENGTH
 NULL. -999.2500:NULL Value
~CURVE INFORMATION BLOCK
#MNEM UNIT       ERCB CURVE CODE    CURVE DESCRIPTION
#-----------   ------------------   ----------------------------------
DEPT.M        00 001 00 00         : DEPTH        - DEPTH
RHOB.KG/M3    00 350 00 00         : DENS         - BULK DENSITY
GR  .API      00 310 00 00         : GR           - GAMMA RAY
DPHI.V/V      00 890 00 00         : PHID         - DENSITY POROSITY (SANDSTONE)
NPHI.V/V      00 330 00 00         : PHIN         - NEUTRON POROSITY (SANDSTONE)
ILD .OHMM     00 120 00 00         : RESD         - DEEP RESISTIVITY (DIL)
~PARAMETER INFORMATION
#MNEM.UNIT           DATA             DESCRIPTION OF MNEMONIC
#---------         -----------     ------------------------------
GL  .M        603.504              : gl           - GROUND LEVEL ELEVATION
EREF.M        606.552              : kb           - ELEVATION OF DEPTH REFERENCE
DATM.M        606.552              : datum        - DATUM ELEVATION
TDD .M        466.344              : tdd          - TOTAL DEPTH DRILLER
RUN .         ONE                  : Run          - RUN NUMBER
ENG .         BILL                 : Engineer     - RECORDING ENGINEER
WIT .         JIM                  : Witness      - WITNESSED BY
MUD .         GEL                  : Mud_type     - MUD TYPE
MATR.         SANDSTONE            : Logunit      - NEUTRON MATRIX
TMAX.C        31.1111              : BHT          - MAXIMUM RECORDED TEMPERATURE
BHTD.M        466.344              : BHTDEP       - MAXIMUM RECORDED TEMPERATURE
MATR.         1                    : LOGUNIT      - NEUTRON MATRIX
RMT .C        25                   : MDTP         - TEMPERATURE OF MUD
NEUT.         1                    : NEUTRON      - NEUTRON TYPE
RESI.         0                    : RESIST       - RESISTIVITY TYPE
RMC .OHMM     0.25                 : RMC          - RESISTIVITY OF MUD CAKE
RMF .OHMM     0.25                 : RMF          - RESISTIVITY OF MUD FILTRATE
SUFT.C        15                   : SUFT         - SURFACE TEMPERATURE
~A  DEPTH     DENS       GR     PHID     PHIN     RESD
  198.120    0.000   97.200    0.286    0.583    2.591
  198.370    0.000   95.184    0.273    0.598    2.600
  198.620    0.000   94.093    0.277    0.608    2.609
  198.870    0.000   95.848    0.285    0.612    2.622
  199.120    0.000   98.333    0.282    0.600    2.742
  199.370    0.000   97.643    0.264    0.592    2.833
  199.620    0.000   97.777    0.255    0.605    2.848
  199.870    0.000   96.708    0.263    0.605    2.856
  200.120    0.000   94.804    0.270    0.600    2.865
  200.370    0.000   97.186    0.259    0.590    2.877
  200.620    0.000  100.407    0.242    0.587    2.890
  200.870    0.000   97.174    0.248    0.595    2.901
  201.120    0.000   98.332    0.238    0.590    3.095
  201.370    0.000   99.754    0.250    0.564    3.319
  201.620    0.000   98.523    0.241    0.550    3.516
  201.870    0.000   97.590    0.244    0.538    3.647
  202.120    0.000  100.348    0.239    0.559    3.721
  202.370    0.000   97.510    0.191    0.577    3.943
  202.620    0.000   95.051    0.197    0.558    3.735
  202.870    0.000   94.908    0.216    0.542    3.771
  203.120    0.000   95.394    0.202    0.543    3.609
  203.370    0.000   96.440    0.228    0.590    3.594
  203.620    0.000   96.735    0.246    0.593    3.596
  203.870    0.000   96.697    0.240    0.593    3.606
  204.120    0.000   97.567    0.243    0.604    3.599
  204.370    0.000   98.558    0.247    0.570    3.827
  204.620    0.000   99.652    0.239    0.550    3.831
  204.870    0.000  101.719    0.237    0.527    3.840
  205.120    0.000  100.428    0.227    0.519    3.860
  205.370    0.000  100.075    0.231    0.522    3.641
  205.620    0.000   99.909    0.248    0.535    3.637
  205.870    0.000  100.418    0.259    0.558    3.475
  206.120    0.000  102.317    0.261    0.579    3.393
  206.370    0.000  101.912    0.250    0.585    3.306
  206.620    0.000  100.021    0.265    0.582    3.311
  206.870    0.000   97.638    0.254    0.561    3.322
  207.120    0.000   96.796    0.250    0.549    3.331
  207.370    0.000   95.385    0.238    0.573    3.319
  207.620    0.000   94.256    0.250    0.600    3.571
  207.870    0.000   93.258    0.255    0.568    3.560
  208.120    0.000   92.000    0.247    0.557    3.658
  208.370    0.000   89.157    0.226    0.542    4.275
  208.620    0.000   86.370    0.216    0.525    5.105
  208.870    0.000   79.976    0.182    0.482    6.376
  209.120    0.000   72.757    0.160    0.419    8.170
  209.370    0.000   69.749    0.148    0.439   10.140
  209.620    0.000   73.523    0.279    0.436   11.819
  209.870    0.000   75.974    0.331    0.435   13.445
  210.120    0.000   76.570    0.298    0.449   13.778
  210.370    0.000   75.664    0.286    0.444   13.613
  210.620    0.000   74.698    0.298    0.451   13.218
  210.870    0.000   74.464    0.317    0.463   12.929
  211.120    0.000   75.667    0.317    0.451   12.369
  211.370    0.000   77.093    0.308    0.452   12.067
  211.620    0.000   79.392    0.288    0.442   11.519
  211.870    0.000   82.601    0.295    0.429   11.063
  212.120    0.000   88.715    0.281    0.427   10.373
  212.370    0.000   92.306    0.258    0.441    9.712
  212.620    0.000   92.678    0.255    0.456    9.059
  212.870    0.000   89.356    0.257    0.466    8.423
  213.120    0.000   84.162    0.243    0.483    7.868
  213.370    0.000   84.472    0.248    0.498    7.111
  213.620    0.000   87.704    0.263    0.493    6.272
  213.870    0.000   94.123    0.242    0.496    5.579
  214.120    0.000   99.949    0.237    0.512    4.798
  214.370    0.000  106.605    0.223    0.517    4.135
  214.620    0.000  110.824    0.222    0.527    3.758
  214.870    0.000  114.343    0.237    0.538    3.624
  215.120    0.000  112.949    0.233    0.524    3.730
  215.370    0.000  108.267    0.229    0.514    4.081
  215.620    0.000  102.780    0.229    0.524    4.395
  215.870    0.000  100.135    0.239    0.528    4.897
  216.120    0.000   96.817    0.252    0.520    4.866
  216.370    0.000   94.243    0.267    0.496    5.017
  216.620    0.000   93.923    0.268    0.480    5.370
  216.870    0.000   92.220    0.251    0.481    5.704
  217.120    0.000   88.300    0.259    0.512    6.590
  217.370    0.000   84.785    0.266    0.501    7.291
  217.620    0.000   89.722    0.238    0.483    8.086
  217.870    0.000   91.850    0.219    0.476    8.876
  218.120    0.000   92.384    0.203    0.483    8.858
  218.370    0.000   96.120    0.175    0.483    8.216
  218.620    0.000  100.174    0.158    0.494    7.112
  218.870    0.000  103.419    0.135    0.511    6.515
  219.120    0.000  105.059    0.189    0.513    6.387
  219.370    0.000  102.854    0.199    0.502    6.137
  219.620    0.000   97.437    0.211    0.502    6.630
  219.870    0.000   88.408    0.227    0.517    7.229
  220.120    0.000   77.062    0.235    0.508    8.700
  220.370    0.000   70.162    0.279    0.435   10.204
  220.620    0.000   77.929    0.286    0.430   11.067
  220.870    0.000   89.835    0.254    0.450   11.672
  221.120    0.000   96.935    0.231    0.475   11.276
  221.370    0.000   99.097    0.231    0.480   10.286
  221.620    0.000   98.037    0.260    0.464    9.862
  221.870    0.000   93.975    0.279    0.465   10.562
  222.120    0.000   90.043    0.271    0.466   11.646
  222.370    0.000   86.891    0.303    0.447   12.745
  222.620    0.000   86.710    0.328    0.440   13.589
  222.870    0.000   96.266    0.318    0.436   14.199
  223.120    0.000   99.694    0.286    0.446   14.296
  223.370    0.000  100.313    0.272    0.461   14.182
  223.620    0.000   98.476    0.263    0.465   13.845
  223.870    0.000   99.021    0.253    0.469   13.726
  224.120    0.000   98.259    0.258    0.456   13.742
  224.370    0.000   94.163    0.277    0.453   13.772
  224.620    0.000   91.321    0.291    0.444   14.155
  224.870    0.000   90.930    0.293    0.438   13.961
  225.120    0.000   89.551    0.276    0.445   13.745
  225.370    0.000   81.868    0.263    0.448   13.259
  225.620    0.000   73.688    0.250    0.430   12.919
  225.870    0.000   65.257    0.243    0.428   12.602
  226.120    0.000   62.850    0.261    0.444   12.640
  226.370    0.000   62.463    0.269    0.443   12.405
  226.620    0.000   64.913    0.286    0.431   12.438
  226.870    0.000   73.366    0.290    0.429   12.118
  227.120    0.000   78.326    0.243    0.440   11.804
  227.370    0.000   78.098    0.210    0.443   11.487
  227.620    0.000   78.885    0.209    0.431   11.174
  227.870    0.000   83.013    0.233    0.425   10.883
  228.120    0.000   87.455    0.242    0.432   10.894
  228.370    0.000   89.431    0.232    0.435   11.299
  228.620    0.000   88.253    0.231    0.436   11.709
  228.870    0.000   86.832    0.238    0.434   11.371
  229.120    0.000   87.144    0.253    0.445   11.008
  229.370    0.000   90.894    0.262    0.466   10.126
  229.620    0.000   99.834    0.232    0.493    8.912
  229.870    0.000  113.109    0.205    0.527    7.360
  230.120    0.000  118.942    0.187    0.528    6.231
  230.370    0.000  119.359    0.154    0.529    5.031
  230.620    0.000  113.034    0.122    0.567    4.727
  230.870    0.000  113.086    0.123    0.570    4.245
  231.120    0.000  111.135    0.156    0.558    4.245
  231.370    0.000  110.953    0.164    0.574    4.254
  231.620    0.000  113.656    0.144    0.575    4.265
  231.870    0.000  113.981    0.167    0.558    4.273
  232.120    0.000  116.765    0.155    0.556    4.281
  232.370    0.000  126.291    0.188    0.546    4.287
  232.620    0.000  121.291    0.186    0.536    4.229
  232.870    0.000  116.676    0.205    0.559    4.112
  233.120    0.000  119.511    0.182    0.581    3.766
  233.370    0.000  121.999    0.204    0.577    3.687
  233.620    0.000  123.335    0.248    0.562    3.532
  233.870    0.000  120.874    0.245    0.543    3.755
  234.120    0.000  116.256    0.226    0.514    4.034
  234.370    0.000  112.879    0.219    0.493    4.701
