~VERSION INFORMATION
 VERS.                 2.0:   CWLS LOG ASCII STANDARD -VERSION 2.0
 WRAP.                  NO:   ONE LINE PER DEPTH STEP
~WELL INFORMATION BLOCK
#MNEM.UNIT           DATA                    DESCRIPTION OF MNEMONIC
#---------    -------------------            -------------------------------
# Generated from Intellog Unique Number	CN_94_101/WELL/2757
WELL.         PARAMOUNT LTD.                 : Well_name    - WELL
LOC .         00/10-03-094-21W4/0            : Location     - LOCATION
UWI .         00/10-03-094-21W4/0            : Uwi          - UNIQUE WELL ID
ENTR.         JOETTE                         : Entered      - ENTERED BY
SRVC.         COMPUTALOG                     : Scn          - SERVICE COMPANY
DATE.         07/03/92                       : Date         - LOG DATE
STRT.M        200                            : top_depth    - START DEPTH
STOP.M        364.25                         : bot_depth    - STOP DEPTH
STEP.M        0.25                           : increment    - STEP LENGTH
 NULL. -999.2500:NULL Value
~CURVE INFORMATION BLOCK
#MNEM UNIT       ERCB CURVE CODE    CURVE DESCRIPTION
#-----------   ------------------   ----------------------------------
DEPT.M        00 001 00 00         : DEPTH        - DEPTH
CALI.MM       00 280 01 00         : CAL          - CALIPER
GR  .API      00 310 00 00         : GR           - GAMMA RAY
NPHI.V/V      00 330 00 00         : PHIN         - NEUTRON POROSITY (SANDSTONE)
DPHI.V/V      00 890 00 00         : PHID         - DENSITY POROSITY (SANDSTONE)
ILD .OHMM     00 120 00 00         : RESD         - DEEP RESISTIVITY (DIL)
~PARAMETER INFORMATION
#MNEM.UNIT           DATA             DESCRIPTION OF MNEMONIC
#---------         -----------     ------------------------------
GL  .M        615.5                : gl           - GROUND LEVEL ELEVATION
EREF.M        618.8                : kb           - ELEVATION OF DEPTH REFERENCE
DATM.M        618.8                : datum        - DATUM ELEVATION
TDD .M        367                  : tdd          - TOTAL DEPTH DRILLER
RUN .         ONE                  : Run          - RUN NUMBER
ENG .         BILL                 : Engineer     - RECORDING ENGINEER
WIT .         JIM                  : Witness      - WITNESSED BY
MUD .         GEL                  : Mud_type     - MUD TYPE
MATR.         SANDSTONE            : Logunit      - NEUTRON MATRIX
TMAX.C        35                   : BHT          - MAXIMUM RECORDED TEMPERATURE
BHTD.M        367                  : BHTDEP       - MAXIMUM RECORDED TEMPERATURE
RMT .C        16                   : MDTP         - TEMPERATURE OF MUD
MUDD.KG/M     1120                 : MWT          - MUD DENSITY
NEUT.         1                    : NEUTRON      - NEUTRON TYPE
RESI.         0                    : RESIST       - RESISTIVITY TYPE
RM  .OHMM     5                    : RM           - RESISTIVITY OF MUD
RMC .OHMM     5                    : RMC          - RESISTIVITY OF MUD CAKE
RMF .OHMM     5                    : RMF          - RESISTIVITY OF MUD FILTRATE
SUFT.C        4                    : SUFT         - SURFACE TEMPERATURE
~A  DEPTH      CAL       GR     PHIN     PHID     RESD
# ...
  236.500  162.678   22.607    0.301    0.293   28.144
  236.750  161.698   19.025    0.305    0.282   32.008
  237.000  162.715   20.831    0.313    0.299   33.790
  237.250  161.739   26.236    0.328    0.313   33.112
  237.500  164.754   26.846    0.339    0.334   29.587
  237.750  168.763   26.857    0.329    0.350   22.796
  238.000  168.786   31.663    0.332    0.364   22.748
  238.250  166.802   39.465    0.338    0.367   22.732
  238.500  164.823   38.880    0.341    0.353   24.447
  238.750  173.836   35.292    0.333    0.321   29.931
  239.000  169.859   31.707    0.331    0.311   30.438
  239.250  164.883   27.523    0.339    0.313   27.716
  239.500  163.898   35.924    0.352    0.302   23.864
  239.750  163.921   50.919    0.373    0.280   20.925
  240.000  165.941   65.916    0.388    0.270   19.041
  240.250  167.948   82.708    0.396    0.259   18.335
  240.500  169.964   87.513    0.387    0.248   17.967
  240.750  168.984   89.323    0.385    0.243   19.323
  241.000  166.010   89.933    0.381    0.237   20.024
  241.250  164.031   91.145    0.383    0.226   17.892
  241.500  166.052   91.153    0.391    0.213   15.976
  241.750  167.060   89.969    0.405    0.210   15.672
  242.000  170.079   87.580    0.416    0.222   15.645
  242.250  172.096   83.398    0.412    0.242   16.213
  242.500  172.123   82.810    0.407    0.249   15.596
  242.750  171.133   85.216    0.414    0.218   15.008
  243.000  168.155   91.220    0.422    0.214   14.187
  243.250  165.182   97.823    0.456    0.212   12.676
  243.500  163.198  103.830    0.480    0.223    4.568
  243.750  162.217  101.441    0.498    0.234    4.315
  244.000  162.240   96.058    0.487    0.237    4.307
  244.250  162.254   93.076    0.473    0.232    4.303
  244.500  162.277   94.885    0.465    0.226    4.377
  244.750  163.294   93.697    0.467    0.229    4.619
  245.000  165.315   87.715    0.464    0.255    4.878
  245.250  166.323   82.329    0.451    0.269    7.322
  245.500  172.339   79.346    0.444    0.284    8.325
  245.750  175.350   81.755    0.438    0.291   10.383
  246.000  179.373   80.570    0.433    0.293   12.029
  246.250  179.382   78.783    0.429    0.292   13.931
  246.500  178.411   77.595    0.431    0.286   14.167
  246.750  177.421   79.404    0.425    0.281   13.888
  247.000  173.448   83.008    0.429    0.270   13.619
  247.250  171.464   88.416    0.431    0.244   13.100
  247.500  168.495   89.626    0.417    0.189   13.576
  247.750  166.511   82.442    0.435    0.156   15.146
  248.000  165.526   76.460    0.458    0.124   15.418
  248.250  164.551   77.070    0.460    0.234   15.109
  248.500  165.568   83.075    0.458    0.249   13.753
  248.750  170.581   88.480    0.457    0.251    8.484
  249.000  170.599   90.888    0.452    0.243    5.632
  249.250  167.625   89.700    0.449    0.232    4.940
  249.500  165.641   89.711    0.483    0.222    4.498
  249.750  162.663   90.325    0.471    0.223    4.329
  250.000  165.678   89.736    0.452    0.236    4.323
  250.250  171.690   87.347    0.440    0.231    4.563
  250.500  171.713   89.156    0.419    0.225    4.999
  250.750  169.733   87.969    0.403    0.219    5.579
  251.000  167.759   84.983    0.408    0.235    7.922
  251.250  168.771   79.603    0.402    0.248    8.682
  251.500  169.784   81.415    0.393    0.257   11.031
  251.750  172.804   81.423    0.390    0.260   12.311
  252.000  172.827   81.437    0.416    0.253   12.294
  252.250  172.836   79.653    0.441    0.246   11.609
  252.500  170.866   76.062    0.439    0.238   11.175
  252.750  169.881   71.878    0.431    0.229   10.549
  253.000  169.904   71.889    0.425    0.225   10.348
  253.250  169.913   70.105    0.418    0.242   10.716
  253.500  168.937   70.116    0.414    0.260   11.109
  253.750  168.960   71.925    0.422    0.273   11.512
  254.000  169.968   76.131    0.420    0.284   11.715
  254.250  171.998   80.335    0.411    0.278   11.699
  254.500  172.007   83.942    0.414    0.254   11.682
  254.750  170.032   82.754    0.411    0.251   11.444
  255.000  167.059   85.162    0.404    0.245   11.016
  255.250  166.069   86.372    0.388    0.253   10.597
  255.500  168.090   82.790    0.380    0.267   10.201
  255.750  175.100   80.401    0.404    0.267   10.187
  256.000  177.116   82.213    0.422    0.239    9.982
  256.250  174.138   85.220    0.432    0.234    9.606
  256.500  171.155   84.632    0.443    0.227    8.429
  256.750  167.178   81.644    0.462    0.269    6.615
  257.000  165.199   76.261    0.495    0.261    4.910
  257.250  166.221   84.662    0.486    0.254    4.226
  257.500  166.244   89.471    0.475    0.248    4.143
  257.750  166.253   88.283    0.455    0.239    4.540
  258.000  166.276   88.294    0.395    0.221    7.072
  258.250  168.287   80.517    0.360    0.191    8.043
  258.500  176.301   75.131    0.412    0.159   10.219
  258.750  177.314   68.549    0.436    0.083   13.222
  259.000  177.342   66.166    0.445    0.192   13.963
  259.250  176.352   68.572    0.452    0.250   12.023
  259.500  174.377   72.778    0.465    0.283    6.160
  259.750  170.400   77.584    0.488    0.302    5.017
  260.000  165.424   82.389    0.501    0.298    4.401
  260.250  163.440   87.794    0.491    0.290    4.081
  260.500  161.465   92.003    0.476    0.282    3.927
  260.750  166.478   89.018    0.463    0.264    3.850
  261.000  168.499   87.827    0.454    0.261    3.915
  261.250  167.514   86.640    0.464    0.248    4.208
  261.500  165.534   87.849    0.464    0.244    4.446
  261.750  161.557   95.055    0.464    0.245    4.962
  262.000  159.583   97.461    0.470    0.237    5.142
  262.250  159.601  100.468    0.485    0.268    4.857
  262.500  159.619  101.081    0.504    0.271    4.504
  262.750  160.632   98.093    0.511    0.264    4.415
  263.000  165.649   92.111    0.502    0.254    4.748
  263.250  167.661   88.526    0.443    0.249    5.297
  263.500  172.674   92.141    0.459    0.248    5.491
  263.750  173.696   93.345    0.469    0.241    5.484
  264.000  174.713   96.952    0.471    0.230    5.374
  264.250  170.736  101.159    0.467    0.223    5.173
  264.500  169.751   98.775    0.463    0.219    5.071
  264.750  173.765   98.184    0.459    0.211    4.969
  265.000  174.782   96.397    0.465    0.201    4.960
  265.250  171.804   96.408    0.475    0.188    5.142
  265.500  165.833   95.825    0.482    0.202    5.331
  265.750  164.853   95.834    0.492    0.208    5.623
  266.000  165.865   95.842    0.499    0.215    5.723
  266.250  167.882   97.052    0.494    0.221    5.612
  266.500  169.907  104.857    0.487    0.227    5.396
  266.750  169.925  104.865    0.478    0.220    5.195
  267.000  167.951  104.277    0.467    0.215    4.999
  267.250  166.961  107.284    0.454    0.207    4.898
  267.500  166.979  111.493    0.481    0.199    4.800
  267.750  174.993  109.104    0.478    0.195    4.795
  268.000  177.009  106.119    0.471    0.196    4.880
  268.250  176.029  105.533    0.461    0.192    4.962
  268.500  171.053  106.141    0.457    0.192    5.050
  268.750  166.072  107.356    0.477    0.202    5.041
  269.000  163.099  116.954    0.506    0.205    4.940
  269.250  163.113  115.167    0.496    0.196    4.936
  269.500  164.134  109.184    0.488    0.182    4.839
  269.750  166.151  105.000    0.473    0.186    4.832
  270.000  170.164  103.216    0.466    0.202    4.916
  270.250  173.184  102.625    0.473    0.200    4.819
  270.500  171.196  102.037    0.474    0.203    4.552
  270.750  168.217  103.246    0.469    0.208    4.219
  271.000  174.229  106.853    0.467    0.215    4.138
  271.250  174.252  112.258    0.461    0.225    4.130
  271.500  170.275  111.073    0.471    0.235    4.202
  271.750  168.295  109.284    0.491    0.250    4.356
  272.000  167.315  105.702    0.501    0.249    4.598
  272.250  166.334  103.912    0.495    0.238    4.765
  272.500  166.353   99.733    0.487    0.240    4.844
  272.750  169.368   97.341    0.476    0.249    4.928
