~VERSION INFORMATION
 VERS.                 2.0:   CWLS LOG ASCII STANDARD -VERSION 2.0
 WRAP.                  NO:   ONE LINE PER DEPTH STEP
~WELL INFORMATION BLOCK
#MNEM.UNIT           DATA                    DESCRIPTION OF MNEMONIC
#---------    -------------------            -------------------------------
# Generated from Intellog Unique Number	CS_73_76/WELL/3274
WELL.         BOW VALLEY EXPLORATION         : Well_name    - WELL
LOC .         00/12-34-075-14W4/0            : Location     - LOCATION
UWI .         00/12-34-075-14W4/0            : Uwi          - UNIQUE WELL ID
ENTR.         SP                             : Entered      - ENTERED BY
SRVC.         SCHLUMBERGER                   : Scn          - SERVICE COMPANY
STRT.M        345                            : top_depth    - START DEPTH
STOP.M        585                            : bot_depth    - STOP DEPTH
STEP.M        0.25                           : increment    - STEP LENGTH
 NULL. -999.2500:NULL Value
~CURVE INFORMATION BLOCK
#MNEM UNIT       ERCB CURVE CODE    CURVE DESCRIPTION
#-----------   ------------------   ----------------------------------
DEPT.M        00 001 00 00         : DEPTH        - DEPTH
ILD .OHMM     00 120 00 00         : RESD         - DEEP RESISTIVITY (DIL)
NPHI.V/V      00 330 00 00         : PHIN         - NEUTRON POROSITY (LIMESTONE)
DPHI.V/V      00 890 00 00         : PHID         - DENSITY POROSITY (LIMESTONE)
GR  .API      00 310 00 00         : GR           - GAMMA RAY
~PARAMETER INFORMATION
#MNEM.UNIT           DATA             DESCRIPTION OF MNEMONIC
#---------         -----------     ------------------------------
GL  .M        720.2                : gl           - GROUND LEVEL ELEVATION
EREF.M        723.4                : kb           - ELEVATION OF DEPTH REFERENCE
DATM.M        720.2                : datum        - DATUM ELEVATION
TDD .M        595                  : tdd          - TOTAL DEPTH DRILLER
RUN .         ONE                  : Run          - RUN NUMBER
ENG .         BILL                 : Engineer     - RECORDING ENGINEER
WIT .         JIM                  : Witness      - WITNESSED BY
MUD .         GEL                  : Mud_type     - MUD TYPE
MATR.         LIMESTONE            : Logunit      - NEUTRON MATRIX
TMAX.C        17                   : BHT          - MAXIMUM RECORDED TEMPERATURE
BHTD.M        595                  : BHTDEP       - MAXIMUM RECORDED TEMPERATURE
MATR.         1                    : LOGUNIT      - NEUTRON MATRIX
RMT .C        25                   : MDTP         - TEMPERATURE OF MUD
NEUT.         1                    : NEUTRON      - NEUTRON TYPE
RESI.         0                    : RESIST       - RESISTIVITY TYPE
RMC .OHMM     0.25                 : RMC          - RESISTIVITY OF MUD CAKE
RMF .OHMM     0.25                 : RMF          - RESISTIVITY OF MUD FILTRATE
SUFT.C        15                   : SUFT         - SURFACE TEMPERATURE
~A  DEPTH     RESD     PHIN     PHID       GR
# ...
  562.500    8.566    0.364    0.202  125.069
  562.750    8.886    0.356    0.191  132.953
  563.000    9.217    0.360    0.195  128.663
  563.250    9.388    0.371    0.208  123.749
  563.500    9.213    0.376    0.221  126.154
  563.750    9.210    0.365    0.205  126.724
  564.000    9.208    0.363    0.220  132.783
  564.250    9.206    0.358    0.201  139.452
  564.500    9.204    0.351    0.157  143.075
  564.750    9.373    0.349    0.177  144.878
  565.000    9.545    0.355    0.177  138.132
  565.250    9.543    0.355    0.172  132.007
  565.500    9.541    0.355    0.181  125.879
  565.750    9.363    0.365    0.180  119.754
  566.000    9.190    0.367    0.182  111.176
  566.250    8.693    0.366    0.187  105.653
  566.500    7.635    0.353    0.175  101.972
  566.750    7.223    0.342    0.153  108.633
  567.000    6.463    0.334    0.074  118.972
  567.250    6.114    0.368    0.069  136.615
  567.500    7.085    0.398    0.072  134.138
  567.750    7.626    0.415    0.048  125.574
  568.000    8.517    0.411    0.037  115.787
  568.250    8.836    0.363    0.042  107.219
  568.500    8.998    0.322    0.056  113.873
  568.750    8.669    0.336    0.077  118.116
  569.000    8.050    0.353    0.099  127.216
  569.250    7.337    0.376    0.111  130.855
  569.500    6.941    0.395    0.100  139.352
  569.750    6.444    0.409    0.102  143.585
  570.000    6.096    0.420    0.113  143.552
  570.250    5.766    0.421    0.125  146.567
  570.500    5.659    0.423    0.109  151.410
  570.750    5.452    0.430    0.121  155.031
  571.000    5.451    0.435    0.127  151.935
  571.250    5.350    0.446    0.130  151.301
  571.500    5.348    0.449    0.121  150.038
  571.750    5.249    0.453    0.129  150.014
  572.000    5.152    0.456    0.121  151.794
  572.250    5.151    0.456    0.113  152.377
  572.500    5.055    0.454    0.123  155.400
  572.750    5.053    0.454    0.137  157.803
  573.000    5.052    0.453    0.136  158.981
  573.250    5.051    0.446    0.127  158.339
  573.500    4.957    0.438    0.137  156.476
  573.750    5.048    0.434    0.143  154.616
  574.000    5.047    0.434    0.149  152.758
  574.250    5.046    0.437    0.132  150.894
  574.500    5.138    0.438    0.134  148.419
  574.750    5.330    0.437    0.125  145.334
  575.000    5.529    0.430    0.108  142.863
  575.250    5.951    0.425    0.098  140.388
  575.500    6.174    0.417    0.105  139.139
  575.750    6.405    0.403    0.093  134.225
  576.000    6.768    0.386    0.083  128.706
  576.250    6.893    0.356    0.083  131.715
  576.500    6.890    0.344    0.097  136.554
  576.750    6.888    0.356    0.109  138.363
  577.000    6.637    0.373    0.102  141.370
  577.250    6.278    0.387    0.097  137.672
  577.500    6.049    0.399    0.091  132.767
  577.750    5.828    0.422    0.093  124.200
  578.000    5.720    0.426    0.103  112.586
  578.250    5.934    0.411    0.078  100.963
  578.500    8.426    0.363    0.060   91.188
  578.750   12.415    0.288    0.020   69.207
  579.000   15.490    0.196    0.009   59.417
  579.250   16.984    0.171    0.005   59.387
  579.500   17.619    0.194    0.029   68.495
  579.750   16.665    0.221    0.048   78.210
  580.000   14.372    0.239    0.026   86.098
  580.250   12.862    0.256    0.045   90.332
  580.500   11.092    0.275    0.053   96.999
  580.750    9.926    0.292    0.070  101.845
  581.000    9.388    0.309    0.066  106.076
  581.250    8.880    0.318    0.056  107.878
  581.500    8.556    0.321    0.069  108.446
  581.750    8.243    0.326    0.081  108.418
  582.000    8.090    0.331    0.086  105.939
  582.250    8.089    0.336    0.074  104.079
  582.500    8.086    0.338    0.068  104.048
  582.750    8.084    0.341    0.062  105.845
  583.000    8.386    0.351    0.073  102.750
  583.250    8.384    0.360    0.071   96.018
  583.500    9.193    0.368    0.057   85.014
  583.750   10.654    0.327    0.033   74.611
  584.000   12.811    0.289    0.032   70.316
  584.250   15.984    0.241    0.021   64.788
  584.500   17.207    0.216    0.014   61.713
  584.750   21.470    0.197    0.008   57.402
  585.000   23.542    0.185    0.011   55.545
