~VERSION INFORMATION
 VERS.                 2.0:   CWLS LOG ASCII STANDARD -VERSION 2.0
 WRAP.                  NO:   ONE LINE PER DEPTH STEP
~WELL INFORMATION BLOCK
#MNEM.UNIT           DATA                    DESCRIPTION OF MNEMONIC
#---------    -------------------            -------------------------------
# Generated from Intellog Unique Number	CS_69_70/WELL/870
WELL.         ET AL HEART LAKE               : Well_name    - WELL
LOC .         00/10-21-069-09W4/0            : Location     - LOCATION
UWI .         00/10-21-069-09W4/0            : Uwi          - UNIQUE WELL ID
ENTR.         SP                             : Entered      - ENTERED BY
SRVC.         SCHLUMBERGER                   : Scn          - SERVICE COMPANY
STRT.M        375                            : top_depth    - START DEPTH
STOP.M        590                            : bot_depth    - STOP DEPTH
STEP.M        0.25                           : increment    - STEP LENGTH
 NULL. -999.2500:NULL Value
~CURVE INFORMATION BLOCK
#MNEM UNIT       ERCB CURVE CODE    CURVE DESCRIPTION
#-----------   ------------------   ----------------------------------
DEPT.M        00 001 00 00         : DEPTH        - DEPTH
GR  .API      00 310 00 00         : GR           - GAMMA RAY
NPHI.V/V      00 330 00 00         : PHIN         - NEUTRON POROSITY (LIMESTONE)
DPHI.V/V      00 890 00 00         : PHID         - DENSITY POROSITY (LIMESTONE)
ILD .OHMM     00 120 00 00         : RESD         - DEEP RESISTIVITY (DIL)
~PARAMETER INFORMATION
#MNEM.UNIT           DATA             DESCRIPTION OF MNEMONIC
#---------         -----------     ------------------------------
GL  .M        706.23               : gl           - GROUND LEVEL ELEVATION
EREF.M        709                  : kb           - ELEVATION OF DEPTH REFERENCE
DATM.M        706.23               : datum        - DATUM ELEVATION
TDD .M        600                  : tdd          - TOTAL DEPTH DRILLER
RUN .         ONE                  : Run          - RUN NUMBER
ENG .         BILL                 : Engineer     - RECORDING ENGINEER
WIT .         JIM                  : Witness      - WITNESSED BY
MUD .         GEL                  : Mud_type     - MUD TYPE
MATR.         LIMESTONE            : Logunit      - NEUTRON MATRIX
TMAX.C        17.7                 : BHT          - MAXIMUM RECORDED TEMPERATURE
BHTD.M        600                  : BHTDEP       - MAXIMUM RECORDED TEMPERATURE
MATR.         1                    : LOGUNIT      - NEUTRON MATRIX
RMT .C        25                   : MDTP         - TEMPERATURE OF MUD
NEUT.         1                    : NEUTRON      - NEUTRON TYPE
RESI.         0                    : RESIST       - RESISTIVITY TYPE
RMC .OHMM     0.25                 : RMC          - RESISTIVITY OF MUD CAKE
RMF .OHMM     0.25                 : RMF          - RESISTIVITY OF MUD FILTRATE
SUFT.C        15                   : SUFT         - SURFACE TEMPERATURE
~A  DEPTH       GR     PHIN     PHID     RESD
# ...
  505.500  108.969    0.550    0.263    1.845
  505.750  110.328    0.561    0.253    1.828
  506.000  102.589    0.559    0.245    1.856
  506.250   97.616    0.553    0.241    1.902
  506.500   94.610    0.548    0.244    2.020
  506.750   94.678    0.535    0.240    2.082
  507.000   94.870    0.536    0.235    2.170
  507.250   94.875    0.557    0.243    2.267
  507.500   94.390    0.567    0.264    2.358
  507.750   91.752    0.552    0.273    2.481
  508.000   88.070    0.537    0.259    2.646
  508.250   85.680    0.505    0.254    2.842
  508.500   83.842    0.490    0.249    2.902
  508.750   83.725    0.491    0.239    3.048
  509.000   84.592    0.478    0.157    3.464
  509.250   79.312    0.403    0.100    4.326
  509.500   74.892    0.311    0.067    5.202
  509.750   72.685    0.274    0.095    6.117
  510.000   68.143    0.312    0.117    7.638
  510.250   63.968    0.300    0.110    9.238
  510.500   69.570    0.268    0.104   10.780
  510.750   76.461    0.327    0.160    8.024
  511.000   81.447    0.367    0.202    6.711
  511.250   84.712    0.398    0.209    5.539
  511.500   86.071    0.418    0.214    4.902
  511.750   87.491    0.431    0.223    4.396
  512.000   88.542    0.447    0.212    4.116
  512.250   84.246    0.476    0.189    4.274
  512.500   75.030    0.517    0.143    4.697
  512.750   64.095    0.238    0.050    5.074
  513.000   52.237    0.207    0.020    5.954
  513.250   63.738    0.237    0.126    6.755
  513.500   76.532    0.362    0.180    7.162
  513.750   86.190    0.411    0.207    6.568
  514.000   90.745    0.438    0.207    5.868
  514.250   93.089    0.459    0.209    5.392
  514.500   93.525    0.470    0.218    4.992
  514.750   92.670    0.461    0.227    4.622
  515.000   89.910    0.466    0.226    4.393
  515.250   91.884    0.459    0.221    4.208
  515.500   92.690    0.453    0.220    4.145
  515.750   92.881    0.448    0.220    4.130
  516.000   93.072    0.445    0.229    4.115
  516.250   93.139    0.442    0.234    4.108
  516.500   93.391    0.457    0.227    4.100
  516.750   93.644    0.469    0.221    4.078
  517.000   92.728    0.457    0.219    4.025
  517.250   91.628    0.453    0.230    3.973
  517.500   90.958    0.462    0.235    3.928
  517.750   94.777    0.444    0.241    3.899
  518.000   98.903    0.429    0.242    3.863
  518.250  101.429    0.446    0.224    3.842
  518.500  103.217    0.440    0.231    3.842
  518.750   96.954    0.427    0.242    3.821
  519.000   85.771    0.431    0.257    3.771
  519.250   86.823    0.439    0.277    3.722
  519.500   89.043    0.437    0.268    3.660
  519.750   90.155    0.428    0.251    3.613
  520.000   90.408    0.432    0.238    3.573
  520.250   90.107    0.450    0.234    3.513
  520.500   90.176    0.459    0.233    3.474
  520.750   90.304    0.447    0.229    3.409
  521.000   90.189    0.453    0.223    3.397
  521.250   89.087    0.461    0.223    3.347
  521.500   80.303    0.457    0.234    3.285
  521.750   78.035    0.470    0.242    3.236
  522.000   79.333    0.464    0.234    3.224
  522.250   81.675    0.441    0.216    3.286
  522.500   83.403    0.424    0.206    3.261
  522.750   84.331    0.440    0.212    2.997
  523.000   84.584    0.481    0.228    2.540
  523.250   86.618    0.515    0.244    2.295
  523.500   89.760    0.529    0.260    2.077
  523.750   93.763    0.532    0.269    1.912
  524.000   97.396    0.544    0.249    1.760
  524.250   89.288    0.560    0.264    1.708
  524.500   84.745    0.516    0.277    1.895
  524.750   84.137    0.456    0.271    2.055
  525.000   87.093    0.431    0.236    2.232
  525.250   83.965    0.443    0.207    2.384
  525.500   60.488    0.457    0.187    3.006
  525.750   47.830    0.298    0.127    3.670
  526.000   46.054    0.223    0.006    4.024
  526.250   61.429    0.380    0.035    4.071
  526.500   72.624    0.432    0.235    3.555
  526.750   83.143    0.447    0.229    3.182
  527.000   86.592    0.448    0.225    2.952
  527.250   87.028    0.445    0.227    2.864
  527.500   86.544    0.445    0.220    2.919
  527.750   85.320    0.461    0.234    3.112
  528.000   82.007    0.466    0.247    3.465
  528.250   78.509    0.426    0.199    3.865
  528.500   74.643    0.349    0.069    4.385
  528.750   83.624    0.337    0.082    4.719
  529.000   91.500    0.374    0.204    4.956
  529.250   95.011    0.418    0.219    4.947
  529.500   97.598    0.452    0.211    4.738
  529.750  101.601    0.478    0.206    4.249
  530.000  104.496    0.504    0.213    3.614
  530.250  102.721    0.526    0.212    3.075
  530.500  100.637    0.525    0.206    2.804
  530.750  102.118    0.525    0.200    2.591
  531.000  103.969    0.525    0.196    2.368
  531.250  105.390    0.534    0.194    2.251
  531.500  106.994    0.542    0.204    2.234
  531.750  110.074    0.525    0.198    2.251
  532.000  113.769    0.512    0.186    2.273
  532.250  117.895    0.512    0.180    2.273
  532.500  120.606    0.518    0.193    2.277
  532.750  121.228    0.506    0.206    2.282
  533.000  121.971    0.528    0.209    2.282
  533.250  122.715    0.546    0.203    2.270
  533.500  124.075    0.524    0.209    2.215
  533.750  123.774    0.512    0.216    2.121
  534.000  106.136    0.535    0.222    2.130
  534.250   82.536    0.523    0.224    2.335
  534.500   72.461    0.420    0.214    2.762
  534.750   74.251    0.356    0.186    3.359
  535.000   79.052    0.369    0.108    4.210
  535.250   82.624    0.412    0.220    5.101
  535.500   84.535    0.436    0.227    5.976
  535.750   78.272    0.445    0.223    6.407
  536.000   71.516    0.419    0.227    6.704
  536.250   64.084    0.406    0.243    7.015
  536.500   64.706    0.401    0.255    7.189
  536.750   65.633    0.395    0.266    7.565
  537.000   66.748    0.389    0.266    7.796
  537.250   67.676    0.394    0.260    8.051
  537.500   68.665    0.407    0.253    8.455
  537.750   70.393    0.414    0.262    8.780
  538.000   71.321    0.412    0.241    8.982
  538.250   68.746    0.403    0.189    9.033
  538.500   62.974    0.335    0.078    8.984
  538.750   56.402    0.303    0.154    8.884
  539.000   76.449    0.377    0.184    8.752
  539.250   87.153    0.416    0.195    8.398
  539.500   82.733    0.441    0.206    7.659
  539.750   75.854    0.428    0.229    6.855
  540.000   92.889    0.397    0.245    5.976
  540.250  101.317    0.371    0.243    5.522
  540.500  100.156    0.399    0.235    6.045
  540.750   96.904    0.407    0.242    6.421
  541.000   92.362    0.409    0.249    6.923
  541.250   89.295    0.421    0.265    7.299
  541.500   87.333    0.417    0.271    7.680
  541.750   90.536    0.408    0.271    8.142
  542.000  101.425    0.389    0.263    8.599
  542.250  110.221    0.362    0.234    8.880
  542.500  115.576    0.406    0.203    8.764
  542.750   96.709    0.424    0.216    7.713
  543.000   64.196    0.373    0.278    7.034
  543.250   51.046    0.352    0.317    6.512
  543.500   58.307    0.359    0.308    5.917
  543.750   55.178    0.365    0.303    5.656
  544.000   54.324    0.355    0.300    5.468
  544.250   74.740    0.353    0.289    5.700
  544.500   92.636    0.368    0.280    6.100
  544.750   97.622    0.390    0.281    6.480
  545.000   99.595    0.392    0.270    6.831
  545.250  104.951    0.412    0.259    7.054
  545.500  111.659    0.438    0.239    6.845
  545.750  117.258    0.457    0.226    6.361
  546.000  123.720    0.471    0.218    5.868
  546.250  130.119    0.502    0.214    5.341
  546.500  135.781    0.534    0.207    5.020
  546.750  116.854    0.491    0.166    5.233
  547.000   95.467    0.400    0.011    5.782
  547.250   76.600    0.358   -0.005    6.401
  547.500   68.123    0.258    0.004    7.208
  547.750   74.031    0.314    0.132    8.116
  548.000   77.173    0.328    0.202    8.540
  548.250   72.876    0.334    0.227    8.752
  548.500   68.333    0.355    0.244    8.558
  548.750   64.343    0.378    0.255    8.104
