~VERSION INFORMATION
 VERS.                 2.0:   CWLS LOG ASCII STANDARD -VERSION 2.0
 WRAP.                  NO:   ONE LINE PER DEPTH STEP
~WELL INFORMATION BLOCK
#MNEM.UNIT           DATA                    DESCRIPTION OF MNEMONIC
#---------    -------------------            -------------------------------
# Generated from Intellog Unique Number	CC_80_83/WELL/2496
WELL.         CAVALIER CHEVRON ALGER         : Well_name    - WELL
LOC .         00/11-25-081-17W4/0            : Location     - LOCATION
UWI .         00/11-25-081-17W400            : Uwi          - UNIQUE WELL ID
ENTR.         DW                             : Entered      - ENTERED BY
SRVC.         SCHLUMBERGER                   : Scn          - SERVICE COMPANY
STRT.M        118.872                        : top_depth    - START DEPTH
STOP.M        301.622                        : bot_depth    - STOP DEPTH
STEP.M        0.25                           : increment    - STEP LENGTH
 NULL. -999.2500:NULL Value
~CURVE INFORMATION BLOCK
#MNEM UNIT       ERCB CURVE CODE    CURVE DESCRIPTION
#-----------   ------------------   ----------------------------------
DEPT.M        00 001 00 00         : DEPTH        - DEPTH
ILD .OHMM     00 120 00 00         : RESD         - DEEP RESISTIVITY (DIL)
NPHI.V/V      00 330 00 00         : PHIN         - NEUTRON POROSITY (SANDSTONE)
DPHI.V/V      00 890 00 00         : PHID         - DENSITY POROSITY (SANDSTONE)
GR  .API      00 310 00 00         : GR           - GAMMA RAY
~PARAMETER INFORMATION
#MNEM.UNIT           DATA             DESCRIPTION OF MNEMONIC
#---------         -----------     ------------------------------
GL  .M        539.496              : gl           - GROUND LEVEL ELEVATION
EREF.M        545.3                : kb           - ELEVATION OF DEPTH REFERENCE
DATM.M        545.3                : datum        - DATUM ELEVATION
TDD .M        303.581              : tdd          - TOTAL DEPTH DRILLER
RUN .         ONE                  : Run          - RUN NUMBER
ENG .         BILL                 : Engineer     - RECORDING ENGINEER
WIT .         JIM                  : Witness      - WITNESSED BY
MUD .         GEL                  : Mud_type     - MUD TYPE
MATR.         SANDSTONE            : Logunit      - NEUTRON MATRIX
TMAX.C        25                   : BHT          - MAXIMUM RECORDED TEMPERATURE
BHTD.M        303.581              : BHTDEP       - MAXIMUM RECORDED TEMPERATURE
MATR.         1                    : LOGUNIT      - NEUTRON MATRIX
RMT .C        25                   : MDTP         - TEMPERATURE OF MUD
NEUT.         1                    : NEUTRON      - NEUTRON TYPE
RESI.         0                    : RESIST       - RESISTIVITY TYPE
RMC .OHMM     0.25                 : RMC          - RESISTIVITY OF MUD CAKE
RMF .OHMM     0.25                 : RMF          - RESISTIVITY OF MUD FILTRATE
SUFT.C        15                   : SUFT         - SURFACE TEMPERATURE
~A  DEPTH     RESD     PHIN     PHID       GR
# ...
  205.872   10.725    0.434    0.307   65.683
  206.122   10.815    0.443    0.298   64.721
  206.372   10.786    0.449    0.290   66.654
  206.622   10.585    0.439    0.299   68.211
  206.872   10.318    0.437    0.299   67.954
  207.122   10.074    0.451    0.295   67.336
  207.372    9.956    0.467    0.296   68.460
  207.622   10.011    0.469    0.302   70.399
  207.872   10.151    0.461    0.307   70.723
  208.122   10.188    0.452    0.309   70.687
  208.372    9.827    0.448    0.300   71.046
  208.622    8.960    0.448    0.292   71.842
  208.872    8.150    0.448    0.282   74.391
  209.122    7.736    0.451    0.262   81.004
  209.372    7.260    0.457    0.256   90.260
  209.622    6.950    0.466    0.259   93.594
  209.872    6.823    0.466    0.252   92.017
  210.122    6.840    0.462    0.253   92.360
  210.372    6.908    0.456    0.254   95.040
  210.622    6.897    0.448    0.232   93.869
  210.872    6.885    0.445    0.233   88.290
  211.122    7.026    0.447    0.258   83.958
  211.372    7.035    0.472    0.265   79.573
  211.622    6.997    0.478    0.256   77.301
  211.872    7.073    0.447    0.256   78.897
  212.122    6.998    0.443    0.259   79.314
  212.372    6.808    0.442    0.263   78.366
  212.622    6.592    0.440    0.263   77.548
  212.872    6.441    0.457    0.258   77.625
  213.122    6.439    0.479    0.257   80.538
  213.372    6.597    0.477    0.262   85.595
  213.622    6.802    0.472    0.261   87.104
  213.872    6.957    0.468    0.269   88.200
  214.122    7.042    0.463    0.276   88.245
  214.372    7.109    0.459    0.278   87.726
  214.622    7.171    0.457    0.283   85.056
  214.872    7.240    0.459    0.293   77.698
  215.122    7.561    0.462    0.301   72.934
  215.372    8.460    0.455    0.311   68.760
  215.622    9.411    0.445    0.321   65.849
  215.872   10.017    0.427    0.330   63.827
  216.122   10.275    0.414    0.334   62.131
  216.372   10.015    0.438    0.333   63.757
  216.622    9.399    0.455    0.321   64.347
  216.872    8.648    0.466    0.305   65.826
  217.122    8.197    0.473    0.291   69.124
  217.372    8.161    0.465    0.289   71.558
  217.622    8.237    0.444    0.302   71.317
  217.872    8.432    0.437    0.303   70.639
  218.122    8.656    0.442    0.304   71.516
  218.372    8.788    0.459    0.311   71.740
  218.622    8.820    0.479    0.317   69.969
  218.872    8.815    0.487    0.319   68.922
  219.122    8.754    0.482    0.317   71.059
  219.372    8.549    0.471    0.312   72.072
  219.622    8.449    0.462    0.299   71.019
  219.872    8.337    0.459    0.289   69.384
  220.122    8.127    0.457    0.292   68.919
  220.372    8.007    0.454    0.299   70.717
  220.622    7.939    0.464    0.282   74.293
  220.872    7.884    0.474    0.268   76.736
  221.122    7.776    0.481    0.274   78.319
  221.372    7.643    0.494    0.287   79.691
  221.622    7.499    0.499    0.293   81.414
  221.872    7.229    0.479    0.287   84.985
  222.122    6.832    0.465    0.273   89.749
  222.372    6.462    0.458    0.263   92.083
  222.622    6.180    0.454    0.259   89.828
  222.872    6.050    0.452    0.257   85.661
  223.122    6.151    0.456    0.258   83.474
  223.372    6.465    0.487    0.260   82.861
  223.622    7.026    0.500    0.274   83.488
  223.872    7.323    0.473    0.279   82.832
  224.122    7.229    0.457    0.268   81.083
  224.372    6.888    0.480    0.257   81.407
  224.622    6.342    0.493    0.251   85.650
  224.872    5.974    0.493    0.239   91.496
  225.122    5.767    0.467    0.230   94.254
  225.372    5.528    0.457    0.230   94.755
  225.622    5.284    0.471    0.234   95.368
  225.872    5.172    0.476    0.238   95.746
  226.122    5.105    0.480    0.242   94.341
  226.372    5.078    0.484    0.249   90.939
  226.622    5.184    0.490    0.256   87.846
  226.872    5.291    0.496    0.257   84.246
  227.122    5.377    0.497    0.257   82.553
  227.372    5.664    0.500    0.259   83.057
  227.622    6.069    0.494    0.267   72.351
  227.872    6.446    0.480    0.274   68.276
  228.122    6.975    0.465    0.279   68.851
  228.372    7.724    0.446    0.282   71.920
  228.622    8.430    0.429    0.283   79.089
  228.872    8.773    0.439    0.277   80.509
  229.122    8.760    0.451    0.273   79.516
  229.372    9.005    0.450    0.281   75.784
  229.622    9.477    0.440    0.290   71.451
  229.872    9.974    0.432    0.292   68.992
  230.122   10.505    0.417    0.280   65.750
  230.372   10.851    0.392    0.225   59.217
  230.622   11.869    0.409    0.199   59.395
  230.872   13.186    0.318    0.199   64.005
  231.122   14.475    0.201    0.193   62.990
  231.372   15.921    0.205    0.136   56.623
  231.622   17.080    0.206    0.033   55.339
  231.872   16.807    0.244    0.044   56.465
  232.122   15.549    0.265    0.117   66.199
  232.372   13.862    0.339    0.161   75.715
  232.622   12.325    0.439    0.203   78.514
  232.872   11.044    0.443    0.274   80.479
  233.122    9.241    0.447    0.273   81.537
  233.372    8.378    0.448    0.265   82.059
  233.622    7.991    0.456    0.262   82.696
  233.872    7.662    0.474    0.255   84.178
  234.122    7.578    0.487    0.251   86.220
  234.372    7.511    0.492    0.251   88.718
  234.622    7.389    0.492    0.247   94.476
  234.872    7.198    0.484    0.233  100.466
  235.122    6.752    0.471    0.228  105.273
  235.372    6.118    0.459    0.232  104.046
  235.622    5.704    0.457    0.230   94.581
  235.872    5.698    0.476    0.227   88.478
  236.122    5.869    0.475    0.228   91.535
  236.372    6.518    0.461    0.231   94.256
  236.622    7.277    0.450    0.241   93.598
  236.872    7.645    0.442    0.257   94.215
  237.122    7.838    0.448    0.257   96.859
  237.372    7.984    0.477    0.250   97.832
  237.622    8.040    0.481    0.242   95.500
  237.872    7.930    0.471    0.231   90.376
  238.122    7.692    0.467    0.213   86.485
  238.372    7.420    0.460    0.205   86.616
  238.622    7.147    0.459    0.231   87.643
  238.872    6.996    0.472    0.242   88.267
  239.122    6.869    0.483    0.236   88.457
  239.372    6.752    0.487    0.227   88.199
  239.622    6.714    0.483    0.213   87.655
  239.872    6.794    0.470    0.198   87.156
  240.122    7.000    0.473    0.216   86.602
  240.372    7.145    0.502    0.228   86.840
  240.622    7.319    0.496    0.228   89.805
  240.872    7.499    0.477    0.227   93.731
  241.122    7.536    0.499    0.228   95.108
  241.372    7.470    0.513    0.230   94.056
  241.622    7.306    0.494    0.233   92.490
  241.872    6.959    0.475    0.233   91.482
  242.122    6.550    0.467    0.233   93.490
  242.372    6.273    0.469    0.224   96.828
  242.622    6.156    0.476    0.213   96.921
  242.872    6.089    0.468    0.252   95.076
  243.122    6.058    0.463    0.278   91.378
  243.372    6.185    0.457    0.285   84.862
  243.622    6.967    0.445    0.282   78.557
  243.872    8.623    0.431    0.251   75.093
  244.122   10.182    0.410    0.201   73.567
  244.372   10.101    0.402    0.191   77.591
  244.622    9.111    0.430    0.218   85.456
  244.872    8.035    0.459    0.232   88.868
  245.122    7.377    0.464    0.226   87.524
  245.372    7.315    0.460    0.232   89.107
  245.622    7.375    0.458    0.239   93.323
  245.872    7.552    0.457    0.243   94.722
  246.122    7.787    0.460    0.240   96.100
  246.372    8.117    0.465    0.234   90.642
  246.622    8.404    0.471    0.234   79.994
  246.872    8.386    0.473    0.248   80.768
  247.122    8.343    0.465    0.257   84.721
  247.372    8.083    0.457    0.243   84.956
  247.622    7.714    0.457    0.231   83.372
  247.872    7.241    0.465    0.234   83.956
  248.122    6.641    0.473    0.235   88.137
  248.372    6.305    0.475    0.226   94.391
  248.622    6.077    0.477    0.233   96.094
  248.872    6.010    0.478    0.228   91.683
  249.122    6.248    0.479    0.227   85.159
