~VERSION INFORMATION
 VERS.                 2.0:   CWLS LOG ASCII STANDARD -VERSION 2.0
 WRAP.                  NO:   ONE LINE PER DEPTH STEP
~WELL INFORMATION BLOCK
#MNEM.UNIT           DATA                    DESCRIPTION OF MNEMONIC
#---------    -------------------            -------------------------------
# Generated from Intellog Unique Number	CS_69_70/WELL/875
WELL.         ALOA MINERAL ENTERPRISE        : Well_name    - WELL
LOC .         00/10-32-069-17W4/0            : Location     - LOCATION
UWI .         00/10-32-069-17W4/0            : Uwi          - UNIQUE WELL ID
ENTR.         SP                             : Entered      - ENTERED BY
SRVC.         SCHLUMBERGER                   : Scn          - SERVICE COMPANY
STRT.M        304.8                          : top_depth    - START DEPTH
STOP.M        472.3                          : bot_depth    - STOP DEPTH
STEP.M        0.25                           : increment    - STEP LENGTH
 NULL. -999.2500:NULL Value
~CURVE INFORMATION BLOCK
#MNEM UNIT       ERCB CURVE CODE    CURVE DESCRIPTION
#-----------   ------------------   ----------------------------------
DEPT.M        00 001 00 00         : DEPTH        - DEPTH
GR  .API      00 310 00 00         : GR           - GAMMA RAY
DPHI.V/V      00 890 00 00         : PHID         - DENSITY POROSITY (SANDSTONE)
NPHI.V/V      00 330 00 00         : PHIN         - NEUTRON POROSITY (SANDSTONE)
ILD .OHMM     00 120 00 00         : RESD         - DEEP RESISTIVITY (DIL)
~PARAMETER INFORMATION
#MNEM.UNIT           DATA             DESCRIPTION OF MNEMONIC
#---------         -----------     ------------------------------
GL  .M        562.051              : gl           - GROUND LEVEL ELEVATION
EREF.M        565.099              : kb           - ELEVATION OF DEPTH REFERENCE
DATM.M        562.051              : datum        - DATUM ELEVATION
TDD .M        512.064              : tdd          - TOTAL DEPTH DRILLER
RUN .         ONE                  : Run          - RUN NUMBER
ENG .         BILL                 : Engineer     - RECORDING ENGINEER
WIT .         JIM                  : Witness      - WITNESSED BY
MUD .         GEL                  : Mud_type     - MUD TYPE
MATR.         SANDSTONE            : Logunit      - NEUTRON MATRIX
TMAX.C        26.6667              : BHT          - MAXIMUM RECORDED TEMPERATURE
BHTD.M        512.064              : BHTDEP       - MAXIMUM RECORDED TEMPERATURE
MATR.         1                    : LOGUNIT      - NEUTRON MATRIX
RMT .C        25                   : MDTP         - TEMPERATURE OF MUD
NEUT.         1                    : NEUTRON      - NEUTRON TYPE
RESI.         0                    : RESIST       - RESISTIVITY TYPE
RMC .OHMM     0.25                 : RMC          - RESISTIVITY OF MUD CAKE
RMF .OHMM     0.25                 : RMF          - RESISTIVITY OF MUD FILTRATE
SUFT.C        15                   : SUFT         - SURFACE TEMPERATURE
~A  DEPTH       GR     PHID     PHIN     RESD
# ...
  435.300  101.094    0.114    0.374    3.621
  435.550  101.184    0.123    0.360    3.450
  435.800  104.591    0.147    0.343    3.479
  436.050  104.807    0.163    0.353    3.513
  436.300  101.871    0.162    0.374    3.533
  436.550   98.836    0.162    0.392    3.502
  436.800   98.328    0.160    0.398    3.382
  437.050  100.113    0.160    0.400    3.156
  437.300  101.294    0.182    0.392    2.736
  437.550  101.469    0.215    0.425    2.506
  437.800   96.674    0.276    0.458    2.218
  438.050   98.973    0.434    0.490    2.030
  438.300  100.425    0.416    0.498    1.834
  438.550  101.354    0.467    0.498    1.796
  438.800   98.184    0.225    0.465    2.232
  439.050   91.295    0.218    0.425    3.169
  439.300   85.344    0.217    0.383    4.056
  439.550   82.303    0.201    0.369    5.126
  439.800   83.860    0.073    0.268    5.816
  440.050   89.437    0.057    0.267    6.318
  440.300   95.252    0.182    0.311    6.399
  440.550  100.638    0.235    0.364    5.767
  440.800  104.069    0.201    0.420    4.863
  441.050  106.232    0.173    0.435    4.307
  441.300  105.677    0.150    0.415    3.960
  441.550  103.336    0.140    0.392    4.199
  441.800  101.667    0.137    0.377    4.622
  442.050   99.955    0.145    0.378    4.884
  442.300  100.001    0.152    0.386    4.820
  442.550  103.312    0.154    0.383    4.751
  442.800  104.655    0.160    0.398    4.709
  443.050  101.410    0.164    0.422    4.883
  443.300  101.637    0.153    0.388    5.056
  443.550  103.068    0.141    0.379    5.114
  443.800  103.116    0.129    0.359    4.895
  444.050  106.966    0.104    0.301    4.637
  444.300  110.116    0.297    0.399    4.258
  444.550  113.073    0.269    0.425    3.608
  444.800  107.905    0.244    0.426    3.375
  445.050  101.457    0.233    0.419    3.131
  445.300   98.458    0.237    0.460    3.046
  445.550   98.823    0.235    0.454    3.058
  445.800  100.952    0.226    0.388    3.029
  446.050  104.678    0.221    0.423    3.002
  446.300  106.785    0.224    0.454    2.985
  446.550  107.664    0.214    0.421    2.998
  446.800  106.850    0.204    0.410    2.985
  447.050  105.054    0.201    0.410    2.967
  447.300  104.024    0.241    0.397    2.944
  447.550  105.579    0.257    0.427    2.914
  447.800  105.391    0.261    0.464    2.771
  448.050  103.667    0.259    0.454    2.665
  448.300  102.863    0.292    0.426    2.568
  448.550  102.556    0.335    0.422    2.560
  448.800  101.163    0.379    0.453    2.571
  449.050   99.034    0.394    0.443    2.575
  449.300   99.309    0.390    0.478    2.571
  449.550  102.278    0.392    0.484    2.523
  449.800  105.766    0.415    0.502    2.478
  450.050  108.046    0.446    0.511    2.411
  450.300  109.123    0.452    0.515    2.333
  450.550  107.927    0.466    0.502    2.263
  450.800  106.484    0.454    0.513    2.212
  451.050  108.638    0.430    0.487    2.249
  451.300  109.894    0.426    0.512    2.399
  451.550  108.240    0.423    0.554    2.520
  451.800  105.905    0.406    0.542    2.604
  452.050  101.765    0.388    0.525    2.562
  452.300   98.504    0.390    0.520    2.438
  452.550   98.290    0.408    0.522    2.282
  452.800  101.245    0.411    0.535    2.108
  453.050  105.035    0.406    0.544    1.994
  453.300  107.103    0.400    0.546    1.919
  453.550  108.442    0.395    0.530    1.913
  453.800  110.504    0.410    0.509    1.976
  454.050  111.544    0.425    0.469    2.225
  454.300  108.740    0.412    0.441    2.597
  454.550  106.346    0.358    0.444    3.078
  454.800  103.233    0.328    0.452    3.798
  455.050  101.057    0.289    0.443    4.623
  455.300   96.691    0.233    0.419    5.672
  455.550   90.802    0.181    0.395    6.664
  455.800   82.613    0.181    0.364    7.874
  456.050   81.414    0.205    0.359    8.719
  456.300   81.588    0.202    0.372    9.302
  456.550   81.019    0.191    0.387    9.786
  456.800   80.008    0.184    0.389    9.900
  457.050   78.763    0.179    0.376    9.698
  457.300   76.945    0.176    0.389    9.546
  457.550   78.894    0.172    0.372    9.465
  457.800   80.804    0.170    0.356    9.137
  458.050   82.574    0.170    0.358    8.964
  458.300   80.402    0.168    0.341    8.842
  458.550   79.687    0.167    0.333    8.832
  458.800   80.157    0.168    0.344    9.132
  459.050   80.641    0.173    0.338    9.427
  459.300   80.188    0.186    0.340    9.773
  459.550   75.708    0.199    0.363   10.279
  459.800   77.237    0.218    0.380   10.414
  460.050   79.297    0.260    0.388   10.376
  460.300   80.952    0.269    0.406   10.208
  460.550   83.707    0.260    0.402    9.461
  460.800   86.717    0.251    0.390    8.723
  461.050   88.905    0.240    0.375    7.895
  461.300   90.794    0.227    0.366    7.171
  461.550   93.364    0.225    0.355    6.654
  461.800   97.061    0.210    0.358    6.175
  462.050  101.154    0.176    0.349    5.797
  462.300  104.908    0.153    0.323    5.553
  462.550  109.888    0.138    0.350    5.421
  462.800  118.924    0.129    0.368    5.367
  463.050  122.846    0.121    0.389    5.402
  463.300  117.841    0.132    0.380    5.512
  463.550  112.948    0.157    0.365    5.225
  463.800  106.025    0.185    0.384    5.422
  464.050  102.354    0.205    0.402    5.429
  464.300  102.732    0.200    0.410    5.531
  464.550  104.789    0.180    0.396    5.731
  464.800  107.189    0.158    0.329    5.920
  465.050  108.577    0.146    0.346    6.109
  465.300  109.555    0.133    0.338    6.338
  465.550  109.663    0.119    0.332    6.526
  465.800  109.027    0.109    0.340    6.523
  466.050  109.607    0.098    0.339    6.201
  466.300  108.928    0.103    0.339    5.908
  466.550  103.614    0.113    0.335    5.445
  466.800   99.948    0.118    0.376    5.182
  467.050   98.516    0.167    0.470    4.871
  467.300   97.133    0.237    0.412    4.784
  467.550   93.278    0.229    0.347    4.855
  467.800   92.841    0.174    0.314    5.107
  468.050   99.776    0.119    0.301    5.642
  468.300  105.145    0.101    0.290    6.139
  468.550  107.691    0.091    0.281    6.616
  468.800  107.403    0.101    0.272    7.159
  469.050   90.129    0.121    0.279    8.006
  469.300   92.048    0.160    0.297    8.876
  469.550   75.518    0.198    0.311   10.266
  469.800   74.936    0.109    0.323   11.110
  470.050   79.120    0.073    0.311   12.469
  470.300   80.722    0.042    0.305   14.345
  470.550   79.411    0.026    0.264   16.429
  470.800   67.222    0.020    0.230   18.251
  471.050   63.067    0.012    0.198   20.587
  471.300   62.407    0.004    0.192   21.314
  471.550   62.664   -0.000    0.209   22.224
  471.800   63.015    0.003    0.219   22.500
  472.050   63.311    0.072    0.238   21.743
  472.300   62.505    0.174    0.273   20.706
