~VERSION INFORMATION
 VERS.                 2.0:   CWLS LOG ASCII STANDARD -VERSION 2.0
 WRAP.                  NO:   ONE LINE PER DEPTH STEP
~WELL INFORMATION BLOCK
#MNEM.UNIT           DATA                    DESCRIPTION OF MNEMONIC
#---------    -------------------            -------------------------------
# Generated from Intellog Unique Number	CW_79_81/WELL/2483
WELL.         TEXEX WABASCA                  : Well_name    - WELL
LOC .         00/11-10-081-25W4/0            : Location     - LOCATION
UWI .         00/11-10-081-25W4/0            : Uwi          - UNIQUE WELL ID
ENTR.         MAX                            : Entered      - ENTERED BY
SRVC.         WESTERN ATLAS                  : Scn          - SERVICE COMPANY
STRT.M        213.36                         : top_depth    - START DEPTH
STOP.M        469.11                         : bot_depth    - STOP DEPTH
STEP.M        0.25                           : increment    - STEP LENGTH
 NULL. -999.2500:NULL Value
~CURVE INFORMATION BLOCK
#MNEM UNIT       ERCB CURVE CODE    CURVE DESCRIPTION
#-----------   ------------------   ----------------------------------
DEPT.M        00 001 00 00         : DEPTH        - DEPTH
ILD .OHMM     00 120 00 00         : RESD         - DEEP RESISTIVITY (DIL)
NPHI.V/V      00 330 00 00         : PHIN         - NEUTRON POROSITY (SANDSTONE)
DPHI.V/V      00 890 00 00         : PHID         - DENSITY POROSITY (SANDSTONE)
GR  .API      00 310 00 00         : GR           - GAMMA RAY
CALI.MM       00 280 01 00         : CAL          - CALIPER
~PARAMETER INFORMATION
#MNEM.UNIT           DATA             DESCRIPTION OF MNEMONIC
#---------         -----------     ------------------------------
GL  .M        595.884              : gl           - GROUND LEVEL ELEVATION
EREF.M        599.542              : kb           - ELEVATION OF DEPTH REFERENCE
DATM.M        595.884              : datum        - DATUM ELEVATION
TDD .M        466.039              : tdd          - TOTAL DEPTH DRILLER
RUN .         ONE                  : Run          - RUN NUMBER
ENG .         BILL                 : Engineer     - RECORDING ENGINEER
WIT .         JIM                  : Witness      - WITNESSED BY
MUD .         GEL                  : Mud_type     - MUD TYPE
MATR.         SANDSTONE            : Logunit      - NEUTRON MATRIX
TMAX.C        27.2222              : BHT          - MAXIMUM RECORDED TEMPERATURE
BHTD.M        466.039              : BHTDEP       - MAXIMUM RECORDED TEMPERATURE
MATR.         1                    : LOGUNIT      - NEUTRON MATRIX
RMT .C        12.2222              : MDTP         - TEMPERATURE OF MUD
NEUT.         1                    : NEUTRON      - NEUTRON TYPE
RESI.         0                    : RESIST       - RESISTIVITY TYPE
RMC .OHMM     10                   : RMC          - RESISTIVITY OF MUD CAKE
RMF .OHMM     10                   : RMF          - RESISTIVITY OF MUD FILTRATE
SUFT.C        -20.5556             : SUFT         - SURFACE TEMPERATURE
~A  DEPTH     RESD     PHIN     PHID       GR      CAL
# ...
  432.360    8.957    0.381    0.177   59.907  200.487
  432.610    8.893    0.382    0.169   58.484  200.071
  432.860    8.876    0.383    0.154   57.768  199.658
  433.110    8.875    0.383    0.158   59.291  199.044
  433.360    8.875    0.383    0.183   61.996  198.329
  433.610    8.874    0.381    0.197   61.829  197.830
  433.860    8.873    0.378    0.185   59.855  197.399
  434.110    8.872    0.373    0.178   59.137  196.987
  434.360    8.872    0.368    0.185   59.482  196.872
  434.610    8.871    0.361    0.196   60.654  196.858
  434.860    8.854    0.352    0.202   61.650  196.844
  435.110    8.790    0.337    0.182   61.186  196.825
  435.360    8.789    0.322    0.173   63.634  196.812
  435.610    8.789    0.306    0.166   61.740  196.794
  435.860    8.835    0.298    0.158   59.136  197.978
  436.110    8.898    0.295    0.165   58.301  199.164
  436.360    8.977    0.295    0.182   59.945  199.949
  436.610    9.120    0.298    0.196   62.951  200.813
  436.860    9.187    0.304    0.205   62.696  201.209
  437.110    9.186    0.306    0.214   61.980  201.995
  437.360    9.186    0.307    0.219   61.617  202.483
  437.610    9.152    0.305    0.214   61.256  202.669
  437.860    9.020    0.304    0.198   60.836  202.455
  438.110    8.596    0.309    0.161   60.588  201.636
  438.360    8.101    0.315    0.121   60.581  201.622
  438.610    7.701    0.317    0.104   61.986  202.009
  438.860    7.566    0.320    0.154   64.278  202.393
  439.110    7.726    0.321    0.195   67.925  202.577
  439.360    8.082    0.321    0.203   70.983  202.562
  439.610    8.317    0.316    0.207   68.644  202.547
  439.860    8.317    0.322    0.170   66.424  202.531
  440.110    8.022    0.332    0.099   65.236  202.515
  440.360    7.739    0.344    0.103   66.170  202.501
  440.610    7.356    0.351    0.147   68.874  202.488
  440.860    6.950    0.353    0.192   72.286  202.473
  441.110    6.715    0.348    0.188   74.537  202.456
  441.360    6.765    0.341    0.173   74.036  202.441
  441.610    7.262    0.333    0.118   70.962  202.425
  441.860    8.205    0.328    0.118   63.111  202.412
  442.110    9.469    0.322    0.143   57.677  202.399
  442.360   10.924    0.313    0.177   55.487  201.986
  442.610   12.778    0.301    0.216   49.178  200.121
  442.860   14.091    0.296    0.250   40.078  198.858
  443.110   15.556    0.296    0.292   32.758  197.246
  443.360   16.749    0.297    0.303   29.859  195.933
  443.610   18.286    0.301    0.304   29.968  194.721
  443.860   20.651    0.309    0.306   31.846  193.808
  444.110   24.235    0.319    0.307   34.578  193.957
  444.360   26.125    0.322    0.308   35.307  194.774
  444.610   25.751    0.323    0.310   33.883  195.159
  444.860   24.427    0.322    0.314   33.344  195.243
  445.110   23.072    0.321    0.317   33.571  195.029
  445.360   21.986    0.318    0.317   34.210  194.716
  445.610   20.904    0.312    0.304   34.868  194.699
  445.860   20.140    0.306    0.295   35.843  194.684
  446.110   19.287    0.297    0.290   36.779  194.668
  446.360   18.573    0.292    0.288   37.891  194.949
  446.610   17.720    0.290    0.285   39.651  195.335
  446.860   16.766    0.291    0.275   41.941  196.024
  447.110   15.780    0.292    0.237   44.251  197.854
  447.360   14.980    0.294    0.154   45.225  199.089
  447.610   14.138    0.300    0.153   46.868  200.271
  447.860   13.421    0.305    0.172   49.218  201.753
  448.110   12.905    0.312    0.193   50.270  202.538
  448.360   12.699    0.321    0.217   48.553  201.926
  448.610   13.216    0.325    0.276   42.233  198.929
  448.860   14.574    0.325    0.309   37.802  196.000
  449.110   16.203    0.319    0.311   36.612  194.790
  449.360   18.486    0.317    0.313   37.547  194.477
  449.610   21.334    0.318    0.318   38.601  194.662
  449.860   24.727    0.320    0.321   38.829  195.047
  450.110   29.573    0.317    0.314   38.297  195.427
  450.360   32.612    0.310    0.296   38.042  195.414
  450.610   32.609    0.303    0.284   37.327  195.797
  450.860   32.257    0.304    0.260   40.148  196.182
  451.110   32.482    0.306    0.227   42.971  196.567
  451.360   32.263    0.307    0.191   43.788  196.952
  451.610   27.127    0.309    0.163   43.306  197.500
  451.860   20.462    0.320    0.160   49.193  198.317
  452.110   15.926    0.324    0.178   55.553  199.503
  452.360   12.659    0.325    0.181   60.851  200.086
  452.610   10.641    0.326    0.177   64.617  200.271
  452.860    9.518    0.326    0.172   66.319  200.359
  453.110    9.107    0.324    0.183   65.069  200.740
  453.360    9.383    0.322    0.231   63.587  200.724
  453.610   10.432    0.323    0.245   60.748  200.709
  453.860   13.156    0.321    0.263   52.781  200.695
  454.110   16.093    0.318    0.273   47.109  200.681
  454.360   17.779    0.315    0.263   46.569  200.768
  454.610   21.312    0.320    0.214   49.636  201.150
  454.860   21.958    0.342    0.154   50.855  201.135
  455.110   20.725    0.349    0.209   51.083  201.520
  455.360   19.890    0.348    0.249   52.195  201.605
  455.610   19.470    0.345    0.264   53.365  201.590
  455.860   19.569    0.344    0.259   53.827  201.575
  456.110   20.727    0.346    0.253   52.580  201.475
  456.360   22.343    0.349    0.246   51.097  201.041
  456.610   24.154    0.346    0.246   51.558  200.630
  456.860   23.862    0.343    0.246   52.553  200.215
  457.110   22.090    0.343    0.240   53.843  200.199
  457.360   19.773    0.347    0.230   55.072  200.784
  457.610   17.183    0.351    0.220   56.064  201.966
  457.860   15.608    0.353    0.204   57.530  201.951
  458.110   14.309    0.360    0.165   56.814  201.938
  458.360   13.270    0.371    0.145   56.805  201.923
  458.610   11.977    0.383    0.159   57.505  201.908
  458.860   10.341    0.392    0.192   59.029  201.894
  459.110    8.053    0.393    0.208   61.662  201.877
  459.360    6.203    0.389    0.210   61.900  201.863
  459.610    5.165    0.375    0.217   58.118  202.248
  459.860    4.746    0.367    0.218   56.104  202.931
  460.110    4.565    0.356    0.192   56.567  203.514
  460.360    4.516    0.342    0.142   59.035  203.698
  460.610    4.674    0.332    0.109   61.659  203.452
  460.860    5.001    0.336    0.148   60.668  204.269
  461.110    5.520    0.341    0.167   61.130  205.451
  461.360    6.036    0.344    0.164   65.484  206.036
  461.610    6.578    0.348    0.117   71.963  205.822
  461.860    7.075    0.358    0.061   74.375  204.710
  462.110    7.237    0.387    0.093   61.754  202.528
  462.360    7.024    0.394    0.136   60.023  201.681
  462.610    6.581    0.395    0.201   60.252  201.667
  462.860    6.340    0.393    0.239   61.010  202.251
  463.110    6.250    0.389    0.287   62.416  202.636
  463.360    6.261    0.384    0.338   64.059  202.323
  463.610    6.352    0.377    0.336   64.697  200.941
  463.860    6.594    0.370    0.324   63.214  200.095
  464.110    6.784    0.366    0.246   61.320  198.882
  464.360    6.870    0.366    0.219   60.839  197.668
  464.610    6.869    0.368    0.215   60.949  196.655
  464.860    6.807    0.371    0.221   61.353  195.543
  465.110    6.690    0.373    0.244   62.482  192.948
  465.360    6.590    0.369    0.266   63.454  190.021
  465.610    6.590    0.363    0.323   61.796  189.206
  465.860    6.624    0.360    0.330   61.198  190.489
  466.110    6.672    0.360    0.315   62.133  191.272
  466.360    6.719    0.362    0.297   63.893  190.857
  466.610    6.777    0.367    0.289   64.541  190.278
  466.860    6.827    0.369    0.288   64.287  189.429
  467.110    6.826    0.358    0.291   65.458  189.016
  467.360    6.826    0.357    0.295   65.037  188.901
  467.610    6.825    0.361    0.299   63.731  188.887
  467.860    6.812    0.366    0.301   62.660  188.774
  468.110    6.753    0.373    0.304   63.408  188.355
  468.360    6.702    0.375    0.306   63.644  188.343
  468.610    6.606    0.375    0.307   64.344  188.325
