~VERSION INFORMATION
 VERS.                 2.0:   CWLS LOG ASCII STANDARD -VERSION 2.0
 WRAP.                  NO:   ONE LINE PER DEPTH STEP
~WELL INFORMATION BLOCK
#MNEM.UNIT           DATA                    DESCRIPTION OF MNEMONIC
#---------    -------------------            -------------------------------
# Generated from Intellog Unique Number	CC_84_87/WELL/2318
NULL.         -999.25                        : NULL_VALUE
WELL.         PEX PCEJ HANGST OV             : Well_name    - WELL
LOC .         10-32-084-11W4                 : Location     - LOCATION          
UWI .         00/10-32-084-11W400            : Uwi          - UNIQUE WELL ID    
ENTR.         DW                             : Entered      - ENTERED BY        
SRVC.         DRESSER ATLAS                  : Scn          - SERVICE COMPANY   
DATE.         17 FEB 81                      : Date         - LOG DATE
STRT.M        110                            : top_depth    - START DEPTH       
STOP.M        299.9                          : bot_depth    - STOP DEPTH        
STEP.M        0.3                            : increment    - STEP LENGTH       
~CURVE INFORMATION BLOCK
#MNEM UNIT       ERCB CURVE CODE    CURVE DESCRIPTION
#-----------   ------------------   ----------------------------------
DEPT.M        00 001 00 00         : DEPTH        - DEPTH                       
DPHI.V/V      00 890 00 00         : PHID         - DENSITY POROSITY (LIMESTONE)
NPHI.V/V      00 330 00 00         : PHIN         - NEUTRON POROSITY (LIMESTONE)
GR  .API      00 310 00 00         : GR           - GAMMA RAY                   
ILD .OHMM     00 120 00 00         : RESD         - DEEP RESISTIVITY (DIL)      
~PARAMETER INFORMATION       
#MNEM.UNIT           DATA             DESCRIPTION OF MNEMONIC
#---------         -----------     ------------------------------
GL  .M        542.43               : gl           - GROUND LEVEL ELEVATION      
EREF.M        545.8                : kb           - ELEVATION OF DEPTH REFERENCE
DATM.M        545.8                : datum        - DATUM ELEVATION             
TDD .M        303                  : tdd          - TOTAL DEPTH DRILLER         
RUN .         ONE                  : Run          - RUN NUMBER                  
ENG .         BILL                 : Engineer     - RECORDING ENGINEER          
WIT .         JIM                  : Witness      - WITNESSED BY                
MUD .         GEL                  : Mud_type     - MUD TYPE                    
MATR.         LIMESTONE            : Logunit      - NEUTRON MATRIX              
TMAX.C        15                   : BHT          - MAXIMUM RECORDED TEMPERATURE
BHTD.M        3032                 : BHTDEP       - MAXIMUM RECORDED TEMPERATURE
MATR.         1                    : LOGUNIT      - NEUTRON MATRIX              
RMT .C        25                   : MDTP         - TEMPERATURE OF MUD          
NEUT.         1                    : NEUTRON      - NEUTRON TYPE                
RESI.         0                    : RESIST       - RESISTIVITY TYPE            
RMC .OHMM     0.25                 : RMC          - RESISTIVITY OF MUD CAKE     
RMF .OHMM     0.25                 : RMF          - RESISTIVITY OF MUD FILTRATE 
SUFT.C        15                   : SUFT         - SURFACE TEMPERATURE         
~A  DEPTH     PHID     PHIN       GR     RESD
  110.000    0.207    0.492  111.070    3.876
  110.300    0.234    0.499  115.993    3.731
  110.600    0.272    0.511  122.152    3.946
  110.900    0.337    0.510  119.669    5.431
  111.200    0.321    0.422  109.168   11.743
  111.500    0.309    0.429   87.557   18.787
  111.800    0.334    0.432   74.584   23.097
  112.100    0.343    0.437  127.022   24.888
  112.400    0.307    0.427  109.114   23.513
  112.700    0.282    0.412   85.033   21.394
  113.000    0.306    0.391   75.763   19.461
  113.300    0.314    0.409   86.858   19.825
  113.600    0.322    0.423   78.817   22.606
  113.900    0.337    0.402   86.214   21.761
  114.200    0.312    0.416   81.262   24.816
  114.500    0.325    0.421   76.930   16.707
  114.800    0.309    0.400   86.172   10.631
  115.100    0.260    0.401  110.225    9.314
  115.400    0.258    0.437  111.447    9.486
  115.700    0.277    0.446  117.604   10.034
  116.000    0.287    0.453  105.865   12.107
  116.300    0.300    0.416   94.744   17.631
  116.600    0.317    0.390   84.240   20.875
  116.900    0.317    0.402   79.290   22.493
  117.200    0.314    0.414   89.768   22.484
  117.500    0.319    0.413   98.392   22.059
  117.800    0.317    0.396  107.634   20.447
  118.100    0.303    0.411   94.662   19.320
  118.400    0.315    0.414   95.883   17.248
  118.700    0.263    0.392   87.849   14.830
  119.000    0.263    0.384   78.579   13.749
  119.300    0.244    0.394   86.585   12.988
  119.600    0.272    0.403   82.252   12.505
  119.900    0.295    0.391   77.304   12.036
  120.200    0.284    0.411   88.398   11.808
  120.500    0.268    0.437   74.806   11.800
  120.800    0.287    0.421   80.965   11.796
  121.100    0.278    0.403   92.055   11.792
  121.400    0.299    0.403   84.023   11.784
  121.700    0.319    0.440   74.755   12.005
  122.000    0.305    0.418   72.889   13.433
  122.300    0.276    0.400   59.300   14.209
  122.600    0.266    0.408   52.499   14.201
  122.900    0.240    0.417   74.698   13.166
  123.200    0.230    0.405   76.537   11.110
  123.500    0.249    0.428   79.609    8.860
  123.800    0.283    0.450   77.127    7.911
  124.100    0.278    0.476   95.010    8.852
  124.400    0.297    0.503   85.121   11.302
  124.700    0.324    0.433   58.574   20.628
  125.000    0.338    0.402   49.303   24.424
  125.300    0.344    0.418   52.994   24.412
  125.600    0.341    0.424   65.938   20.990
  125.900    0.331    0.413   72.096   18.389
  126.200    0.326    0.397   68.997   17.705
  126.500    0.320    0.417   57.257   18.377
  126.800    0.325    0.380   60.949   21.351
  127.100    0.329    0.358   59.695   22.160
  127.400    0.233    0.337   62.773   22.151
  127.700    0.148    0.285   51.033   20.153
  128.000    0.260    0.353   62.126   18.336
  128.300    0.273    0.448   56.561   16.370
  128.600    0.279    0.460   61.483   14.617
  128.900    0.304    0.459   68.257   12.335
  129.200    0.310    0.429   75.648   10.408
  129.500    0.276    0.410   86.127    9.649
  129.800    0.283    0.428  104.007    9.113
  130.100    0.314    0.443  106.462    9.286
  130.400    0.299    0.412   99.042   10.389
  130.700    0.261    0.421  100.262   12.072
  131.000    0.277    0.439  101.485   15.123
  131.300    0.273    0.420   97.769   16.923
  131.600    0.295    0.418   90.963   17.899
  131.900    0.305    0.428   89.103   17.230
  132.200    0.300    0.440   88.468   14.267
  132.500    0.286    0.447   92.159   12.980
  132.800    0.262    0.458   98.934   12.033
  133.100    0.252    0.463   90.901   11.804
  133.400    0.286    0.437  100.759   11.797
  133.700    0.308    0.432   97.041   12.246
  134.000    0.297    0.431   90.857   13.197
  134.300    0.278    0.421   88.378   13.696
  134.600    0.268    0.445   87.747   13.953
  134.900    0.266    0.458   85.260   13.685
  135.200    0.305    0.432   83.400   12.928
  135.500    0.287    0.409   90.789   12.684
  135.800    0.303    0.431   96.331   12.208
  136.100    0.286    0.471   92.616   12.671
  136.400    0.284    0.452   80.878   13.657
  136.700    0.287    0.443   67.287   15.868
  137.000    0.291    0.434   70.978   17.755
  137.300    0.311    0.420   64.177   17.415
  137.600    0.320    0.402   62.926   17.410
  137.900    0.331    0.377   58.595   18.071
  138.200    0.310    0.347   51.176   22.639
  138.500    0.244    0.232   39.436   29.446
  138.800    0.173    0.180   35.106   31.735
  139.100    0.166    0.195   44.347   31.127
  139.400    0.283    0.382   49.270   28.323
  139.700    0.299    0.405   46.786   25.288
  140.000    0.314    0.410   40.600   22.576
  140.300    0.256    0.372   39.353   21.325
  140.600    0.294    0.368   39.957   20.922
  140.900    0.318    0.384   40.564   21.308
  141.200    0.305    0.391   52.892   22.114
  141.500    0.267    0.401   53.497   22.528
  141.800    0.282    0.380   44.843   22.943
  142.100    0.310    0.391   50.380   22.503
  142.400    0.318    0.395   55.304   22.497
  142.700    0.319    0.385   52.208   22.065
  143.000    0.304    0.411   49.724   21.648
  143.300    0.324    0.384   53.409   20.840
  143.600    0.332    0.377   54.636   17.919
  143.900    0.291    0.405   76.835   15.700
  144.200    0.249    0.427   80.527   15.693
  144.500    0.266    0.412   71.873   15.981
  144.800    0.307    0.417   60.136   15.977
  145.100    0.316    0.394   56.418   15.379
  145.400    0.307    0.423   66.894   13.993
  145.700    0.286    0.436   77.990   11.807
  146.000    0.238    0.438   93.402    9.778
  146.300    0.237    0.444  102.643    8.897
  146.600    0.230    0.432   97.695    8.248
  146.900    0.227    0.466  105.083    7.938
  147.200    0.216    0.490  113.091    7.934
  147.500    0.254    0.474  116.167    8.083
  147.800    0.243    0.453  111.217    8.549
  148.100    0.272    0.464  114.290    9.212
  148.400    0.250    0.479  100.697    9.384
  148.700    0.228    0.457  105.001    9.557
  149.000    0.197    0.441  109.309    9.375
  149.300    0.234    0.468  112.384    8.858
  149.600    0.234    0.464  114.221    8.057
  149.900    0.223    0.489  114.821    7.904
  150.200    0.230    0.455  106.172    7.901
  150.500    0.222    0.476  110.478    7.898
  150.800    0.254    0.475  112.314    8.352
  151.100    0.288    0.443  107.983    8.669
  151.400    0.280    0.419  102.416    8.665
  151.700    0.267    0.451  115.974    8.340
  152.000    0.278    0.468  120.900    8.182
  152.300    0.294    0.487  131.377    7.729
  152.600    0.230    0.471  123.341    7.166
  152.900    0.234    0.469  117.775    6.770
  153.200    0.218    0.487  119.610    6.395
  153.500    0.211    0.474  118.363    6.041
  153.800    0.213    0.467  115.263    5.815
  154.100    0.258    0.462  113.397    5.705
  154.400    0.275    0.516  106.597    5.490
  154.700    0.285    0.534  101.648    5.386
  155.000    0.308    0.526  101.017    5.384
  155.300    0.329    0.510   98.534    5.383
  155.600    0.301    0.511   95.438    5.482
  155.900    0.304    0.501  103.440    5.583
  156.200    0.328    0.540  105.279    5.478
  156.500    0.322    0.562  104.034    5.272
  156.800    0.277    0.539  100.933    5.076
  157.100    0.312    0.507   92.901    5.168
  157.400    0.322    0.481   89.183    5.264
  157.700    0.307    0.500   92.875    5.464
  158.000    0.283    0.458   87.305    5.672
  158.300    0.344    0.437   81.124    6.113
  158.600    0.334    0.454   98.385    6.841
  158.900    0.307    0.474   90.967    8.099
  159.201    0.331    0.460   81.083    9.771
  159.501    0.299    0.431   76.747   10.935
  159.801    0.228    0.411   70.565   12.947
  160.101    0.265    0.419   53.272   15.044
  160.401    0.304    0.441   63.133   17.479
  160.701    0.303    0.445   72.376   18.486
  161.001    0.290    0.441   58.170   18.828
  161.301    0.295    0.409   64.940   18.822
  161.601    0.297    0.408   66.162   18.116
  161.901    0.295    0.426   65.534   17.774
