~VERSION INFORMATION
 VERS.                 2.0:   CWLS LOG ASCII STANDARD -VERSION 2.0
 WRAP.                  NO:   ONE LINE PER DEPTH STEP
~WELL INFORMATION BLOCK
#MNEM.UNIT           DATA                    DESCRIPTION OF MNEMONIC
#---------    -------------------            -------------------------------
# Generated from Intellog Unique Number	CS_77_79/WELL/980
WELL.         MESA H. B. THORNBURY           : Well_name    - WELL
LOC .         00/10-33-078-11W4/0            : Location     - LOCATION
UWI .         00/10-33-078-11W4/0            : Uwi          - UNIQUE WELL ID
ENTR.         JHS                            : Entered      - ENTERED BY
SRVC.         SCHLUMBERGER                   : Scn          - SERVICE COMPANY
STRT.M        275                            : top_depth    - START DEPTH
STOP.M        501                            : bot_depth    - STOP DEPTH
STEP.M        0.25                           : increment    - STEP LENGTH
 NULL. -999.2500:NULL Value
~CURVE INFORMATION BLOCK
#MNEM UNIT       ERCB CURVE CODE    CURVE DESCRIPTION
#-----------   ------------------   ----------------------------------
DEPT.M        00 001 00 00         : DEPTH        - DEPTH
DPHI.V/V      00 890 00 00         : PHID         - DENSITY POROSITY (LIMESTONE)
NPHI.V/V      00 330 00 00         : PHIN         - NEUTRON POROSITY (LIMESTONE)
GR  .API      00 310 00 00         : GR           - GAMMA RAY
ILD .OHMM     00 120 00 00         : RESD         - DEEP RESISTIVITY (DIL)
RHOB.KG/M3    00 350 00 00         : DENS         - BULK DENSITY
~PARAMETER INFORMATION
#MNEM.UNIT           DATA             DESCRIPTION OF MNEMONIC
#---------         -----------     ------------------------------
GL  .M        695.6                : gl           - GROUND LEVEL ELEVATION
EREF.M        699.7                : kb           - ELEVATION OF DEPTH REFERENCE
DATM.M        699.7                : datum        - DATUM ELEVATION
TDD .M        502                  : tdd          - TOTAL DEPTH DRILLER
RUN .         ONE                  : Run          - RUN NUMBER
ENG .         BILL                 : Engineer     - RECORDING ENGINEER
WIT .         JIM                  : Witness      - WITNESSED BY
MUD .         GEL                  : Mud_type     - MUD TYPE
MATR.         LIMESTONE            : Logunit      - NEUTRON MATRIX
TMAX.C        22                   : BHT          - MAXIMUM RECORDED TEMPERATURE
BHTD.M        502                  : BHTDEP       - MAXIMUM RECORDED TEMPERATURE
MATR.         1                    : LOGUNIT      - NEUTRON MATRIX
RMT .C        25                   : MDTP         - TEMPERATURE OF MUD
NEUT.         1                    : NEUTRON      - NEUTRON TYPE
RESI.         0                    : RESIST       - RESISTIVITY TYPE
RMC .OHMM     0.25                 : RMC          - RESISTIVITY OF MUD CAKE
RMF .OHMM     0.25                 : RMF          - RESISTIVITY OF MUD FILTRATE
SUFT.C        15                   : SUFT         - SURFACE TEMPERATURE
~A  DEPTH     PHID     PHIN       GR     RESD     DENS
# ...
  311.500    0.296    0.418   93.389   14.193    0.000
  311.750    0.269    0.415   96.444   12.228    0.000
  312.000    0.251    0.425  103.172   10.934    0.000
  312.250    0.255    0.446  108.064    8.113    0.000
  312.500    0.224    0.475  111.732    6.019    0.000
  312.750    0.195    0.498  116.623    5.909    0.000
  313.000    0.172    0.466  114.781    6.251    0.000
  313.250    0.206    0.458  120.896    6.995    0.000
  313.500    0.233    0.463  123.952    8.123    0.000
  313.750    0.258    0.475  123.944    9.613    0.000
  314.000    0.279    0.463  122.102   11.164    0.000
  314.250    0.280    0.448  117.198   12.727    0.000
  314.500    0.277    0.439  112.907   13.976    0.000
  314.750    0.283    0.453  106.167   15.064    0.000
  315.000    0.333    0.454   98.814   15.642    0.000
  315.250    0.318    0.428   90.849   15.072    0.000
  315.500    0.310    0.425   90.843   14.254    0.000
  315.750    0.296    0.417   98.184   12.511    0.000
  316.000    0.271    0.418  103.687   11.613    0.000
  316.250    0.257    0.441  107.353   11.403    0.000
  316.500    0.269    0.440  107.349   12.063    0.000
  316.750    0.251    0.435  108.566   12.525    0.000
  317.000    0.268    0.453  108.561   12.764    0.000
  317.250    0.301    0.452  100.596   11.629    0.000
  317.500    0.271    0.442   92.631    8.956    0.000
  317.750    0.250    0.437  101.808    7.433    0.000
  318.000    0.272    0.478  107.312    7.297    0.000
  318.250    0.254    0.539   98.735    8.013    0.000
  318.500    0.240    0.518   93.219    8.800    0.000
  318.750    0.218    0.489   91.988    9.310    0.000
  319.000    0.243    0.485   90.145    9.140    0.000
  319.250    0.243    0.473   91.974    8.974    0.000
  319.500    0.238    0.485   95.642    8.977    0.000
  319.750    0.238    0.498   96.249    9.147    0.000
  320.000    0.245    0.506   92.569    9.499    0.000
  320.250    0.250    0.487   91.951    9.680    0.000
  320.500    0.255    0.485   93.782    9.865    0.000
  320.750    0.278    0.506   93.776    9.867    0.000
  321.000    0.281    0.508   95.605    9.870    0.000
  321.250    0.259    0.485   95.599    9.873    0.000
  321.500    0.253    0.480   94.370    9.875    0.000
  321.750    0.256    0.488   96.201    9.877    0.000
  322.000    0.268    0.506   99.256    9.880    0.000
  322.250    0.271    0.512   93.739   10.453    0.000
  322.500    0.266    0.488   91.896   10.854    0.000
  322.750    0.258    0.472   98.013   10.855    0.000
  323.000    0.272    0.467   99.230   10.658    0.000
  323.250    0.269    0.472   97.388   10.464    0.000
  323.500    0.258    0.474   99.830   10.083    0.000
  323.750    0.255    0.474  100.435   10.085    0.000
  324.000    0.280    0.469   98.594    9.900    0.000
  324.250    0.261    0.471  101.037    9.904    0.000
  324.500    0.252    0.486  106.540    9.543    0.000
  324.750    0.295    0.495  109.595    9.025    0.000
  325.000    0.263    0.476  108.364    8.537    0.000
  325.250    0.284    0.452  102.236    8.699    0.000
  325.500    0.293    0.439   96.109    9.376    0.000
  325.750    0.280    0.441   91.204   10.296    0.000
  326.000    0.277    0.448   89.974   11.307    0.000
  326.250    0.287    0.437   89.969   11.740    0.000
  326.500    0.281    0.441   93.024   12.420    0.000
  326.750    0.257    0.431   95.465   12.195    0.000
  327.000    0.241    0.434   94.847   11.750    0.000
  327.250    0.261    0.446   91.168   11.113    0.000
  327.500    0.249    0.450   86.264   10.708    0.000
  327.750    0.232    0.451   85.033   10.127    0.000
  328.000    0.250    0.462   85.028    9.402    0.000
  328.250    0.285    0.489   77.675    9.231    0.000
  328.500    0.298    0.490   68.486    9.585    0.000
  328.750    0.307    0.446   62.356    9.951    0.000
  329.000    0.303    0.428   64.800   10.726    0.000
  329.250    0.277    0.439   68.467   11.347    0.000
  329.500    0.272    0.453   64.176   12.230    0.000
  329.750    0.298    0.443   54.986   13.181    0.000
  330.000    0.314    0.406   48.858   14.207    0.000
  330.250    0.322    0.399   49.465   15.312    0.000
  330.500    0.318    0.410   51.295   16.505    0.000
  330.750    0.311    0.414   48.839   18.126    0.000
  331.000    0.297    0.409   48.833   19.535    0.000
  331.250    0.285    0.410   51.276   21.057    0.000
  331.500    0.298    0.405   50.046   22.276    0.000
  331.750    0.313    0.416   46.367   22.700    0.000
  332.000    0.316    0.428   47.585   23.137    0.000
  332.250    0.312    0.413   53.090   23.142    0.000
  332.500    0.316    0.419   54.306   23.146    0.000
  332.750    0.321    0.436   55.523   23.154    0.000
  333.000    0.330    0.421   59.191   23.160    0.000
  333.250    0.316    0.413   61.023   22.739    0.000
  333.500    0.327    0.413   62.241   22.744    0.000
  333.750    0.341    0.431   65.908   21.916    0.000
  334.000    0.348    0.437   65.903   21.921    0.000
  334.250    0.344    0.422   62.835   21.926    0.000
  334.500    0.336    0.419   60.993   22.347    0.000
  334.750    0.330    0.431   59.761   22.353    0.000
  335.000    0.329    0.447   59.144   22.357    0.000
  335.250    0.346    0.439   57.914   22.787    0.000
  335.500    0.358    0.442   57.295   22.790    0.000
  335.750    0.362    0.428   59.737   22.377    0.000
  336.000    0.352    0.418   59.118   22.385    0.000
  336.250    0.348    0.430   59.113   21.974    0.000
  336.500    0.349    0.443   61.556   21.979    0.000
  336.750    0.343    0.430   60.938   21.986    0.000
  337.000    0.353    0.414   59.094   21.990    0.000
  337.250    0.369    0.419   62.150   21.997    0.000
  337.500    0.376    0.431   63.368   21.595    0.000
  337.750    0.375    0.435   59.688   20.424    0.000
  338.000    0.365    0.432   58.459   20.052    0.000
  338.250    0.356    0.440   57.839   20.057    0.000
  338.500    0.363    0.429   54.772   20.440    0.000
  338.750    0.376    0.438   53.543   20.446    0.000
  339.000    0.371    0.463   59.045   20.837    0.000
  339.250    0.370    0.440   59.652   21.237    0.000
  339.500    0.367    0.431   59.033   21.241    0.000
  339.750    0.373    0.441   58.414   21.248    0.000
  340.000    0.373    0.423   59.634   21.654    0.000
  340.250    0.363    0.434   62.076   21.658    0.000
  340.500    0.352    0.432   61.459   21.667    0.000
  340.750    0.344    0.409   58.390   21.671    0.000
  341.000    0.340    0.406   55.936   21.676    0.000
  341.250    0.330    0.412   52.255   22.092    0.000
  341.500    0.327    0.423   51.025   22.096    0.000
  341.750    0.333    0.407   51.019   22.104    0.000
  342.000    0.337    0.406   53.462   22.107    0.000
  342.250    0.348    0.434   52.842   21.706    0.000
  342.500    0.365    0.437   52.838   20.916    0.000
  342.750    0.369    0.431   51.605   20.155    0.000
  343.000    0.358    0.431   50.377   19.787    0.000
  343.250    0.381    0.436   49.759   19.428    0.000
  343.500    0.380    0.445   49.753   19.073    0.000
  343.750    0.373    0.445   46.685   19.077    0.000
  344.000    0.370    0.445   46.067   19.083    0.000
  344.250    0.379    0.453   47.897   19.086    0.000
  344.500    0.379    0.463   49.115   19.093    0.000
  344.750    0.375    0.456   49.722   19.097    0.000
  345.000    0.381    0.461   49.104   19.103    0.000
  345.250    0.389    0.463   47.262   19.107    0.000
  345.500    0.385    0.448   46.030   19.112    0.000
  345.750    0.391    0.441   46.022   19.116    0.000
  346.000    0.392    0.451   46.631   19.121    0.000
  346.250    0.386    0.447   49.074   18.773    0.000
  346.500    0.383    0.440   52.128   18.432    0.000
  346.750    0.379    0.444   53.345   18.435    0.000
  347.000    0.372    0.444   53.338   18.101    0.000
  347.250    0.362    0.440   52.723   18.104    0.000
  347.500    0.367    0.448   50.879   17.776    0.000
  347.750    0.362    0.455   49.037   17.778    0.000
