~VERSION INFORMATION
 VERS.                 2.0:   CWLS LOG ASCII STANDARD -VERSION 2.0
 WRAP.                  NO:   ONE LINE PER DEPTH STEP
~WELL INFORMATION BLOCK
#MNEM.UNIT           DATA                    DESCRIPTION OF MNEMONIC
#---------    -------------------            -------------------------------
# Generated from Intellog Unique Number	CW_70_72/WELL/1033
NULL.         -999.25                        : NULL_VALUE
WELL.         CHIEFCO ET AL SMITH 10-09      : Well_name    - WELL              
LOC .         10-09-071-26W4                 : Location     - LOCATION          
UWI .         00/10-09-071-26W4/0            : Uwi          - UNIQUE WELL ID    
ENTR.         JAYE                           : Entered      - ENTERED BY        
SRVC.         SCHLUMBERGER                   : Scn          - SERVICE COMPANY   
DATE.         7 JAN 76                       : Date         - LOG DATE          
STRT.M        432.816                        : top_depth    - START DEPTH       
STOP.M        691.816                        : bot_depth    - STOP DEPTH        
STEP.M        0.25                           : increment    - STEP LENGTH       
~CURVE INFORMATION BLOCK
#MNEM UNIT       ERCB CURVE CODE    CURVE DESCRIPTION
#-----------   ------------------   ----------------------------------
DEPT.M        00 001 00 00         : DEPTH        - DEPTH                       
DPHI.V/V      00 890 00 00         : PHID         - DENSITY POROSITY (SANDSTONE)
NPHI.V/V      00 330 00 00         : PHIN         - NEUTRON POROSITY (SANDSTONE)
GR  .API      00 310 00 00         : GR           - GAMMA RAY                   
CALI.MM       00 280 01 00         : CAL          - CALIPER                     
ILD .OHMM     00 120 00 00         : RESD         - DEEP RESISTIVITY (DLL)      
~PARAMETER INFORMATION       
#MNEM.UNIT           DATA             DESCRIPTION OF MNEMONIC
#---------         -----------     ------------------------------
GL  .M        622.365              : gl           - GROUND LEVEL ELEVATION      
EREF.M        625.45               : kb           - ELEVATION OF DEPTH REFERENCE
DATM.M        622.365              : datum        - DATUM ELEVATION             
TDD .M        708.965              : tdd          - TOTAL DEPTH DRILLER         
RUN .         ONE                  : Run          - RUN NUMBER                  
ENG .         MCDONALD             : Engineer     - RECORDING ENGINEER          
WIT .         GARDINER             : Witness      - WITNESSED BY                
BASE.         EDM                  : Branch       - HOME BASE OF LOGGING UNIT   
MUD .         GEL CHEM             : Mud_type     - MUD TYPE                    
MATR.         SANDSTONE            : Logunit      - NEUTRON MATRIX              
TMAX.C        28.3333              : BHT          - MAXIMUM RECORDED TEMPERATURE
BHTD.M        709.27               : BHTDEP       - MAXIMUM RECORDED TEMPERATURE
RMT .C        21.6667              : MDTP         - TEMPERATURE OF MUD          
MUDD.KG/M     0                    : MWT          - MUD DENSITY                 
NEUT.         1                    : NEUTRON      - NEUTRON TYPE                
RESI.         1                    : RESIST       - RESISTIVITY TYPE            
RM  .OHMM     3.34                 : RM           - RESISTIVITY OF MUD          
RMC .OHMM     2.63                 : RMC          - RESISTIVITY OF MUD CAKE     
RMF .OHMM     2.81                 : RMF          - RESISTIVITY OF MUD FILTRATE 
SUFT.C        0                    : SUFT         - SURFACE TEMPERATURE         
~A  DEPTH     PHID     PHIN       GR      CAL     RESD
# ...
  505.816    0.198    0.413   67.213  170.214    4.086
  506.066    0.173    0.343   62.109  170.627    4.296
  506.316    0.132    0.323   60.468  170.937    4.551
  506.566    0.090    0.329   59.861  171.040    4.759
  506.816    0.117    0.366   59.193  171.350    4.835
  507.066    0.168    0.388   59.437  171.557    4.248
  507.316    0.227    0.404   60.228  171.455    3.548
  507.566    0.246    0.418   62.538  171.353    2.904
  507.816    0.252    0.427   64.301  171.045    2.547
  508.066    0.261    0.419   63.390  170.841    2.312
  508.316    0.265    0.414   62.540  170.944    2.233
  508.566    0.253    0.418   61.811  171.048    2.211
  508.816    0.251    0.427   60.657  171.050    2.210
  509.066    0.244    0.435   60.961  171.051    2.213
  509.316    0.230    0.440   64.001  171.154    2.235
  509.566    0.240    0.444   63.454  171.361    2.259
  509.816    0.253    0.439   63.273  171.568    2.286
  510.066    0.273    0.433   65.400  171.363    2.293
  510.316    0.275    0.424   68.258  171.158    2.338
  510.566    0.260    0.423   69.717  170.954    2.375
  510.816    0.249    0.416   69.171  170.749    2.391
  511.066    0.238    0.406   66.740  170.750    2.416
  511.316    0.226    0.386   64.188  171.163    2.490
  511.566    0.205    0.369   62.669  171.575    2.651
  511.816    0.189    0.383   62.974  172.091    2.803
  512.066    0.213    0.411   63.886  172.504    3.001
  512.316    0.202    0.402   65.527  172.813    3.116
  512.566    0.200    0.395   68.689  173.123    3.259
  512.816    0.201    0.397   72.336  173.227    3.317
  513.066    0.188    0.403   73.309  173.331    3.363
  513.316    0.185    0.417   74.160  173.435    3.416
  513.566    0.157    0.449   72.641  173.436    3.458
  513.816    0.163    0.471   66.807  173.231    3.513
  514.066    0.177    0.396   68.692  173.232    3.530
  514.316    0.169    0.389   70.273  173.233    3.528
  514.566    0.216    0.411   71.793  173.234    3.519
  514.816    0.230    0.429   73.070  173.235    3.467
  515.066    0.220    0.435   74.894  173.648    3.433
  515.316    0.208    0.437   77.447  175.090    3.388
  515.566    0.188    0.437   83.890  176.943    3.331
  515.816    0.178    0.445   82.432  175.915    3.318
  516.066    0.169    0.440   79.941  174.681    3.250
  516.316    0.237    0.435   79.273  174.065    3.201
  516.566    0.193    0.441   79.577  174.066    3.142
  516.816    0.193    0.447   80.246  174.272    3.061
  517.066    0.213    0.448   79.275  174.788    2.999
  517.316    0.218    0.447   78.121  175.098    2.922
  517.566    0.224    0.442   78.790  175.408    2.868
  517.816    0.214    0.435   80.006  175.512    2.825
  518.066    0.197    0.437   81.283  175.821    2.828
  518.316    0.176    0.448   82.195  176.028    2.827
  518.566    0.171    0.456   83.411  176.235    2.882
  518.816    0.166    0.468   85.053  176.751    2.971
  519.066    0.151    0.454   81.589  177.266    3.040
  519.316    0.198    0.428   77.031  177.679    3.066
  519.566    0.217    0.419   75.087  178.092    3.036
  519.816    0.212    0.412   74.297  178.504    2.980
  520.066    0.197    0.403   76.000  178.917    2.941
  520.316    0.182    0.399   77.702  179.124    2.966
  520.566    0.159    0.420   75.393  179.228    3.046
  520.816    0.192    0.401   67.918  179.435    3.162
  521.066    0.137    0.302   62.510  179.950    3.307
  521.316    0.118    0.244   57.952  182.421    3.586
  521.566    0.086    0.216   54.549  185.407    3.974
  521.816    0.066    0.193   52.544  186.437    4.469
  522.066    0.042    0.175   51.633  184.997    5.211
  522.316    0.022    0.174   51.998  182.322    6.199
  522.566    0.007    0.208   53.579  179.545    7.202
  522.816    0.035    0.238   58.259  177.076    7.342
  523.066    0.099    0.285   64.702  175.430    6.416
  523.316    0.126    0.329   65.007  174.093    5.741
  523.566    0.181    0.365   63.123  173.580    5.118
  523.816    0.229    0.411   61.726  173.478    4.337
  524.066    0.239    0.442   59.903  173.685    3.635
  524.316    0.232    0.463   59.114  173.789    2.970
  524.566    0.218    0.335   57.899  173.686    2.600
  524.816    0.178    0.290   55.712  173.996    2.561
  525.066    0.121    0.273   54.314  174.100    2.944
  525.316    0.079    0.284   54.923  174.410    3.483
  525.566    0.068    0.274   55.409  174.926    4.196
  525.816    0.108    0.272   56.018  175.133    4.848
  526.066    0.215    0.296   60.759  175.339    4.490
  526.316    0.255    0.375   64.224  175.649    3.902
  526.566    0.276    0.426   60.335  175.753    3.349
  526.816    0.278    0.426   63.678  175.754    2.776
  527.066    0.260    0.417   67.022  175.549    2.352
  527.316    0.244    0.412   71.763  175.447    2.191
  527.566    0.229    0.407   76.018  175.449    2.320
  527.816    0.211    0.405   81.610  175.552    2.462
  528.066    0.193    0.412   85.014  175.862    2.670
  528.316    0.183    0.417   86.960  176.892    2.884
  528.566    0.179    0.409   87.993  178.128    3.083
  528.816    0.174    0.403   89.392  179.879    3.265
  529.066    0.165    0.405   90.487  181.424    3.452
  529.316    0.164    0.411   91.156  182.454    3.584
  529.566    0.160    0.422   90.488  182.970    3.688
  529.816    0.168    0.432   88.847  182.147    3.760
  530.066    0.168    0.449   85.384  180.604    3.771
  530.316    0.159    0.474   79.063  178.650    3.735
  530.566    0.209    0.480   73.047  177.519    3.567
  530.816    0.234    0.447   74.020  176.594    3.244
  531.066    0.262    0.443   77.850  175.874    2.950
  531.316    0.259    0.457   77.729  175.464    2.803
  531.566    0.252    0.467   75.906  175.156    2.701
  531.816    0.236    0.474   70.984  174.848    2.632
  532.066    0.251    0.482   61.077  174.746    2.551
  532.316    0.284    0.467   59.680  174.850    2.440
  532.566    0.288    0.449   66.245  174.954    2.301
  532.816    0.282    0.431   69.406  174.749    2.166
  533.066    0.263    0.426   68.616  174.647    2.039
  533.316    0.244    0.439   68.070  174.546    1.958
  533.566    0.252    0.449   68.739  174.752    1.933
  533.816    0.265    0.440   70.745  174.753    1.918
  534.066    0.279    0.429   72.934  174.857    1.913
  534.316    0.293    0.427   76.217  175.167    1.940
  534.566    0.256    0.425   77.250  175.580    1.981
  534.816    0.251    0.410   75.306  175.684    2.072
  535.066    0.246    0.425   71.964  175.685    2.223
  535.316    0.239    0.388   68.622  175.377    2.432
  535.566    0.179    0.321   68.561  175.172    2.666
  535.816    0.140    0.319   72.330  174.865    2.870
  536.066    0.189    0.401   76.403  174.660    2.986
  536.316    0.223    0.428   78.349  174.455    2.925
  536.566    0.258    0.427   77.316  174.044    2.804
  536.816    0.267    0.434   75.979  174.045    2.707
  537.066    0.252    0.436   75.008  174.046    2.614
  537.316    0.247    0.423   73.732  173.944    2.566
  537.566    0.255    0.410   72.274  173.842    2.518
  537.816    0.241    0.417   71.120  173.741    2.494
  538.066    0.255    0.437   71.120  173.639    2.470
  538.316    0.267    0.454   71.789  173.434    2.455
  538.566    0.249    0.465   72.337  173.332    2.467
  538.816    0.249    0.464   72.824  173.230    2.492
  539.066    0.244    0.436   72.703  173.334    2.541
  539.316    0.226    0.432   72.278  173.335    2.614
  539.566    0.210    0.427   71.914  173.336    2.695
  539.816    0.218    0.420   72.826  173.337    2.768
  540.066    0.211    0.420   75.136  173.132    2.878
  540.316    0.206    0.424   76.839  173.133    2.972
  540.566    0.223    0.419   75.077  173.134    3.025
  540.816    0.231    0.440   72.342  173.032    2.974
  541.066    0.239    0.462   72.769  173.033    2.785
  541.316    0.244    0.445   72.830  173.137    2.584
  541.566    0.241    0.424   73.073  173.138    2.454
  541.816    0.231    0.407   73.378  173.139    2.382
  542.066    0.214    0.405   73.561  173.038    2.343
