~VERSION INFORMATION
 VERS.                 2.0:   CWLS LOG ASCII STANDARD -VERSION 2.0
 WRAP.                  NO:   ONE LINE PER DEPTH STEP
~WELL INFORMATION BLOCK
#MNEM.UNIT           DATA                    DESCRIPTION OF MNEMONIC
#---------    -------------------            -------------------------------
# Generated from Intellog Unique Number	CW_73_75/WELL/2742
WELL.         SUNCOR MITSUE 10-20            : Well_name    - WELL
LOC .         00/10-20-073-04W5/0            : Location     - LOCATION
UWI .         00/10-20-073-04W5/0            : Uwi          - UNIQUE WELL ID
ENTR.         JAYE                           : Entered      - ENTERED BY
SRVC.         SCHLUMBERGER                   : Scn          - SERVICE COMPANY
DATE.         28 JAN 81                      : Date         - LOG DATE
STRT.M        350                            : top_depth    - START DEPTH
STOP.M        565                            : bot_depth    - STOP DEPTH
STEP.M        0.25                           : increment    - STEP LENGTH
 NULL. -999.2500:NULL Value
~CURVE INFORMATION BLOCK
#MNEM UNIT       ERCB CURVE CODE    CURVE DESCRIPTION
#-----------   ------------------   ----------------------------------
DEPT.M        00 001 00 00         : DEPTH        - DEPTH
DPHI.V/V      00 890 00 00         : PHID         - DENSITY POROSITY (SANDSTONE)
NPHI.V/V      00 330 00 00         : PHIN         - NEUTRON POROSITY (SANDSTONE)
GR  .API      00 310 00 00         : GR           - GAMMA RAY
CALI.MM       00 280 01 00         : CAL          - CALIPER
ILD .OHMM     00 120 00 00         : RESD         - DEEP RESISTIVITY (DIL)
~PARAMETER INFORMATION
#MNEM.UNIT           DATA             DESCRIPTION OF MNEMONIC
#---------         -----------     ------------------------------
GL  .M        582.23               : gl           - GROUND LEVEL ELEVATION
EREF.M        586.56               : kb           - ELEVATION OF DEPTH REFERENCE
DATM.M        582.23               : datum        - DATUM ELEVATION
TDD .M        1628                 : tdd          - TOTAL DEPTH DRILLER
RUN .         ONE                  : Run          - RUN NUMBER
MUD .         GEL CHEM             : Mud_type     - MUD TYPE
MATR.         SANDSTONE            : Logunit      - NEUTRON MATRIX
TMAX.C        46.4                 : BHT          - MAXIMUM RECORDED TEMPERATURE
BHTD.M        1626.5               : BHTDEP       - MAXIMUM RECORDED TEMPERATURE
RMT .C        15                   : MDTP         - TEMPERATURE OF MUD
MUDD.KG/M     0                    : MWT          - MUD DENSITY
NEUT.         1                    : NEUTRON      - NEUTRON TYPE
RESI.         0                    : RESIST       - RESISTIVITY TYPE
RM  .OHMM     1.7                  : RM           - RESISTIVITY OF MUD
RMC .OHMM     0                    : RMC          - RESISTIVITY OF MUD CAKE
RMF .OHMM     1.28                 : RMF          - RESISTIVITY OF MUD FILTRATE
SUFT.C        0                    : SUFT         - SURFACE TEMPERATURE
~A  DEPTH     PHID     PHIN       GR      CAL     RESD
# ...
  386.500    0.312    0.436   57.640  206.630    4.968
  386.750    0.380    0.456   57.974  206.456    5.039
  387.000    0.439    0.470   62.792  225.291    5.045
  387.250    0.435    0.457   65.680  253.476    4.880
  387.500    0.372    0.435   63.087  247.070    4.633
  387.750    0.357    0.420   64.600  205.038    4.339
  388.000    0.344    0.449   65.743  212.965    4.119
  388.250    0.341    0.466   62.149  223.077    3.948
  388.500    0.357    0.476   57.869  223.948    3.848
  388.750    0.364    0.495   56.272  224.081    3.874
  389.000    0.361    0.479   60.841  222.246    4.012
  389.250    0.350    0.475   64.540  216.983    4.357
  389.500    0.349    0.464   64.996  205.593    4.732
  389.750    0.341    0.452   65.328  202.514    5.326
  390.000    0.346    0.439   66.844  201.928    6.181
  390.250    0.352    0.425   69.359  201.751    6.699
  390.500    0.356    0.434   69.130  201.579    6.847
  390.750    0.357    0.436   67.344  201.407    6.688
  391.000    0.357    0.431   68.986  201.234    6.470
  391.250    0.355    0.426   71.623  201.065    6.165
  391.500    0.355    0.436   69.587  200.989    5.997
  391.750    0.359    0.431   62.628  201.337    5.891
  392.000    0.355    0.431   61.964  201.996    5.874
  392.250    0.352    0.433   65.224  203.273    5.869
  392.500    0.351    0.430   64.936  205.184    5.897
  392.750    0.348    0.420   62.712  208.120    5.903
  393.000    0.364    0.425   63.731  207.536    5.886
  393.250    0.356    0.444   64.747  203.727    5.904
  393.500    0.349    0.455   64.085  199.916    5.933
  393.750    0.358    0.467   64.977  196.835    5.972
  394.000    0.346    0.463   68.487  195.730    5.990
  394.250    0.294    0.444   71.748  195.971    5.985
  394.500    0.266    0.409   66.409  196.845    6.024
  394.750    0.205    0.355   62.067  197.391    6.064
  395.000    0.238    0.413   63.463  197.951    6.127
  395.250    0.321    0.457   65.663  198.499    6.251
  395.500    0.339    0.469   67.927  199.267    6.341
  395.750    0.348    0.453   68.883  200.023    6.407
  396.000    0.349    0.439   68.342  200.473    6.450
  396.250    0.350    0.455   66.993  200.402    6.518
  396.500    0.345    0.469   65.393  200.021    6.574
  396.750    0.350    0.472   64.291  199.432    6.556
  397.000    0.346    0.460   64.749  199.469    6.513
  397.250    0.329    0.447   66.765  200.645    6.421
  397.500    0.305    0.428   68.903  203.278    6.223
  397.750    0.285    0.443   72.788  210.375    5.624
  398.000    0.337    0.513   76.860  224.951    4.792
  398.250    0.419    0.554   77.941  240.151    3.821
  398.500    0.384    0.526   79.582  243.097    3.165
  398.750    0.357    0.490   82.033  234.299    2.833
  399.000    0.321    0.475   81.369  228.725    3.124
  399.250    0.304    0.481   78.273  224.190    3.673
  399.500    0.321    0.448   73.371  218.408    4.520
  399.750    0.325    0.428   69.029  208.887    5.107
  400.000    0.331    0.422   66.557  203.003    5.816
  400.250    0.331    0.420   70.691  201.791    6.485
  400.500    0.323    0.419   77.007  201.722    6.780
  400.750    0.306    0.433   72.603  203.313    6.957
  401.000    0.307    0.443   63.215  206.363    6.872
  401.250    0.326    0.431   52.638  209.725    6.598
  401.500    0.335    0.415   43.997  211.003    6.383
  401.750    0.336    0.418   46.323  211.970    6.414
  402.000    0.337    0.442   49.834  212.422    6.554
  402.250    0.338    0.428   52.037  212.455    6.802
  402.500    0.339    0.415   52.183  212.177    6.952
  402.750    0.342    0.433   49.960  212.212    7.039
  403.000    0.349    0.414   48.738  212.251    7.099
  403.250    0.361    0.413   47.758  212.182    7.092
  403.500    0.360    0.425   45.972  211.907    7.033
  403.750    0.356    0.429   43.811  211.626    6.973
  404.000    0.362    0.425   46.885  212.287    6.849
  404.250    0.354    0.425   53.139  213.156    6.626
  404.500    0.345    0.427   57.772  213.494    6.386
  404.750    0.337    0.463   61.283  213.949    6.108
  405.000    0.331    0.477   63.048  213.671    5.931
  405.250    0.323    0.472   62.759  213.392    5.938
  405.500    0.318    0.455   60.473  213.325    6.185
  405.750    0.307    0.438   55.447  213.985    6.515
  406.000    0.286    0.381   51.729  215.053    6.956
  406.250    0.231    0.303   51.124  216.749    7.246
  406.500    0.180    0.265   55.196  217.511    7.294
  406.750    0.224    0.303   59.831  217.031    7.205
  407.000    0.315    0.401   57.108  215.815    7.091
  407.250    0.331    0.448   52.268  214.816    6.977
  407.500    0.327    0.431   52.288  214.123    6.866
  407.750    0.340    0.420   53.243  213.638    6.707
  408.000    0.344    0.432   56.007  213.260    6.611
  408.250    0.350    0.450   56.651  212.977    6.506
  408.500    0.358    0.482   54.992  212.391    6.402
  408.750    0.354    0.448   54.199  211.597    6.300
  409.000    0.344    0.433   58.085  210.797    6.246
  409.250    0.350    0.414   60.785  210.418    6.170
  409.500    0.355    0.436   61.991  210.354    6.061
  409.750    0.349    0.450   58.773  210.489    5.987
  410.000    0.348    0.462   56.485  210.627    5.936
  410.250    0.341    0.473   53.950  210.661    5.886
  410.500    0.331    0.464   55.965  211.109    5.836
  410.750    0.334    0.446   60.351  211.770    5.787
  411.000    0.342    0.453   61.680  212.428    5.750
  411.250    0.337    0.449   58.335  213.396    5.755
  411.500    0.326    0.441   55.738  215.199    5.760
  411.750    0.332    0.432   57.072  217.515    5.777
  412.000    0.345    0.416   58.399  220.980    5.717
  412.250    0.344    0.402   60.851  226.104    5.626
  412.500    0.337    0.394   64.048  233.098    5.422
  412.750    0.348    0.418   69.178  250.165    5.108
  413.000    0.351    0.460   72.253  258.099    4.564
  413.250    0.383    0.465   73.583  257.921    3.963
  413.500    0.412    0.504   75.100  249.128    3.805
  413.750    0.391    0.512   76.055  239.710    4.017
  414.000    0.334    0.466   75.704  238.296    4.488
  414.250    0.293    0.447   75.725  238.330    5.014
  414.500    0.275    0.447   75.995  238.775    5.293
  414.750    0.287    0.437   76.451  240.889    5.389
  415.000    0.284    0.408   77.094  242.896    5.353
  415.250    0.264    0.431   77.862  246.670    5.268
  415.500    0.242    0.453   77.385  250.862    5.067
  415.750    0.223    0.468   76.097  253.181    4.874
  416.000    0.229    0.526   76.306  254.461    4.654
  416.250    0.300    0.520   77.635  255.222    4.527
  416.500    0.294    0.466   80.210  251.728    4.388
  416.750    0.260    0.459   83.101  250.412    4.245
  417.000    0.227    0.478   85.550  252.730    4.099
  417.250    0.266    0.486   84.575  259.100    3.974
  417.500    0.298    0.504   82.039  264.224    3.918
  417.750    0.334    0.517   77.199  262.493    4.027
  418.000    0.380    0.594   70.178  257.025    4.218
  418.250    0.625    0.665   57.859  254.568    4.555
  418.500    0.397    0.591   60.310  253.250    4.826
  418.750    0.318    0.460   67.000  241.132    4.989
  419.000    0.289    0.430   71.260  227.768    5.099
  419.250    0.295    0.425   75.705  223.237    5.094
  419.500    0.320    0.419   72.361  220.670    5.051
  419.750    0.326    0.403   61.973  217.901    5.231
  420.000    0.324    0.405   62.990  214.824    5.553
  420.250    0.320    0.426   67.998  212.985    5.940
  420.500    0.332    0.451   71.882  212.192    6.199
  420.750    0.337    0.446   72.278  211.707    6.372
  421.000    0.338    0.441   69.992  211.439    6.391
  421.250    0.331    0.452   69.455  211.261    6.349
  421.500    0.323    0.445   71.279  211.394    6.271
  421.750    0.323    0.440   70.555  211.848    6.196
  422.000    0.320    0.444   68.393  212.296    6.166
  422.250    0.330    0.443   61.434  212.541    6.149
  422.500    0.339    0.447   54.412  213.196    6.096
  422.750    0.325    0.454   57.611  214.064    6.011
