~VERSION INFORMATION
 VERS.                 2.0:   CWLS LOG ASCII STANDARD -VERSION 2.0
 WRAP.                  NO:   ONE LINE PER DEPTH STEP
~WELL INFORMATION BLOCK
#MNEM.UNIT           DATA                    DESCRIPTION OF MNEMONIC
#---------    -------------------            -------------------------------
# Generated from Intellog Unique Number	CN_91_93/WELL/2811
WELL.         11-14-093-21W4                 : Well_name    - WELL
LOC .         00/11-14-093-21W4/0            : Location     - LOCATION
UWI .         00/11-14-093-21W4/0            : Uwi          - UNIQUE WELL ID
ENTR.         JOETTE                         : Entered      - ENTERED BY
SRVC.         SCHLUMBERGER                   : Scn          - SERVICE COMPANY
DATE.         03/24/92                       : Date         - LOG DATE
STRT.F        250                            : top_depth    - START DEPTH
STOP.F        889.764                        : bot_depth    - STOP DEPTH
STEP.F        0.82                           : increment    - STEP LENGTH
 NULL. -999.2500:NULL Value
~CURVE INFORMATION BLOCK
#MNEM UNIT       ERCB CURVE CODE    CURVE DESCRIPTION
#-----------   ------------------   ----------------------------------
DEPT.F        00 001 00 00         : DEPTH        - DEPTH
CALI.IN       00 280 01 00         : CAL          - CALIPER
GR  .API      00 310 00 00         : GR           - GAMMA RAY
NPHI.V/V      00 330 00 00         : PHIN         - NEUTRON POROSITY (SANDSTONE)
DPHI.V/V      00 890 00 00         : PHID         - DENSITY POROSITY (SANDSTONE)
ILD .OHMM     00 120 00 00         : RESD         - DEEP RESISTIVITY (DIL)
~PARAMETER INFORMATION
#MNEM.UNIT           DATA             DESCRIPTION OF MNEMONIC
#---------         -----------     ------------------------------
GL  .M        548.64               : gl           - GROUND LEVEL ELEVATION
EREF.M        550.469              : kb           - ELEVATION OF DEPTH REFERENCE
DATM.M        550.469              : datum        - DATUM ELEVATION
TDD .M        383.134              : tdd          - TOTAL DEPTH DRILLER
RUN .         ONE                  : Run          - RUN NUMBER
ENG .         BILL                 : Engineer     - RECORDING ENGINEER
WIT .         JIM                  : Witness      - WITNESSED BY
MUD .         GEL                  : Mud_type     - MUD TYPE
MATR.         SANDSTONE            : Logunit      - NEUTRON MATRIX
TMAX.F        69.8                 : BHT          - MAXIMUM RECORDED TEMPERATURE
BHTD.F        1257                 : BHTDEP       - MAXIMUM RECORDED TEMPERATURE
RMT .F        65                   : MDTP         - TEMPERATURE OF MUD
MUDD.LB/G     9.2                  : MWT          - MUD DENSITY
NEUT.         1                    : NEUTRON      - NEUTRON TYPE
RESI.         0                    : RESIST       - RESISTIVITY TYPE
RM  .OHMM     3.85                 : RM           - RESISTIVITY OF MUD
RMC .OHMM     3.85                 : RMC          - RESISTIVITY OF MUD CAKE
RMF .OHMM     3.85                 : RMF          - RESISTIVITY OF MUD FILTRATE
SUFT.F        39.2                 : SUFT         - SURFACE TEMPERATURE
~A  DEPTH      CAL       GR     PHIN     PHID     RESD
# ...
  609.252   10.089  119.020    0.517    0.310    4.451
  610.072   10.176  117.211    0.542    0.309    4.373
  610.892   10.221  117.245    0.554    0.312    4.298
  611.713   10.223  119.763    0.551    0.307    4.302
  612.533   10.309  120.426    0.548    0.306    4.387
  613.353   10.311  121.112    0.545    0.310    4.472
  614.173   10.398  122.394    0.552    0.303    4.560
  614.993   10.401  120.585    0.542    0.310    4.651
  615.814   10.446  117.540    0.530    0.318    4.653
  616.634   10.449  116.350    0.515    0.314    4.834
  617.454   10.451  114.541    0.508    0.304    5.310
  618.274   10.455  115.822    0.502    0.302    5.941
  619.094   10.458  117.115    0.487    0.307    6.286
  619.915   10.420  114.677    0.483    0.306    6.293
  620.735   10.381  115.341    0.488    0.309    6.296
  621.555   10.303  117.858    0.497    0.314    6.073
  622.375   10.305  117.297    0.497    0.311    5.967
  623.196   10.226  119.196    0.494    0.305    5.757
  624.016   10.187  124.197    0.498    0.307    5.552
  624.836   10.109  125.479    0.508    0.306    5.353
  625.656   10.032  124.299    0.516    0.301    4.451
  626.476    9.993  123.097    0.517    0.300    4.137
  627.297    9.993  121.895    0.511    0.306    4.063
  628.117    9.834  119.480    0.513    0.311    3.992
  628.937    9.918  117.065    0.527    0.311    3.923
  629.757    9.881  114.020    0.527    0.309    4.075
  630.577    9.802  111.593    0.520    0.314    4.559
  631.398    9.764  109.155    0.512    0.321    4.913
  632.218    9.684  108.583    0.514    0.319    5.705
  633.038    9.606  111.718    0.509    0.305    6.503
  633.858    9.567  116.090    0.506    0.286    6.509
  634.678    9.447  116.158    0.521    0.257    6.280
  635.499    9.367  119.282    0.521    0.222    6.055
  636.319    9.369  127.991    0.515    0.186    5.732
  637.139    9.332  125.553    0.519    0.230    5.230
  637.959    9.336  127.475    0.528    0.260    5.043
  638.780    9.379  129.981    0.532    0.255    4.863
  639.600    9.382  130.026    0.541    0.235    4.691
  640.420    9.427  130.072    0.555    0.233    4.608
  641.240    9.471  127.645    0.556    0.269    4.612
  642.060    9.474  131.410    0.548    0.283    4.617
  642.881    9.477  133.939    0.550    0.282    4.621
  643.701    9.481  137.063    0.552    0.274    4.625
  644.521    9.443  138.344    0.546    0.254    4.629
  645.341    9.445  130.974    0.547    0.279    4.633
  646.161    9.407  113.714    0.567    0.303    4.637
  646.982    9.329  100.163    0.581    0.309    4.818
  647.802    9.290   90.320    0.579    0.308    5.098
  648.622    9.170   87.905    0.546    0.315    5.600
  649.442    9.131   87.939    0.474    0.335    6.036
  650.262    9.052   87.984    0.470    0.343    6.752
  651.083    8.973   86.794    0.481    0.338    7.697
  651.903    8.894   82.513    0.498    0.335    8.610
  652.723    8.856   75.760    0.487    0.334    9.998
  653.543    8.818   75.828    0.479    0.344   10.580
  654.364    8.821   78.323    0.475    0.351   10.788
  655.184    8.824   84.560    0.472    0.334   10.213
  656.004    8.869   87.695    0.474    0.311    9.670
  656.824    8.872   77.234    0.487    0.277    9.679
  657.644    8.874   69.864    0.455    0.255   11.031
  658.465    8.920   72.999    0.418    0.279   12.807
  659.285    8.924   79.843    0.430    0.339   14.600
  660.105    8.925   86.698    0.449    0.359   14.077
  660.925    8.928   92.923    0.474    0.355   12.841
  661.745    8.931  102.250    0.463    0.351   11.287
  662.566    8.976  109.094    0.461    0.343    9.738
  663.386    9.021  115.320    0.486    0.334    8.560
  664.206    9.148  122.804    0.495    0.326    7.523
  665.026    9.191  121.625    0.503    0.313    6.738
  665.846    9.318  120.411    0.506    0.312    6.264
  666.667    9.445  111.816    0.505    0.309    6.152
  667.487    9.573  110.007    0.498    0.308    5.934
  668.307    9.617  110.041    0.475    0.308    5.829
  669.127    9.619  111.334    0.459    0.309    5.835
  669.948    9.622  115.099    0.444    0.304    6.175
  670.768    9.625  116.987    0.451    0.296    6.412
  671.588    9.588  121.370    0.503    0.300    6.541
  672.408    9.550  118.932    0.501    0.308    6.425
  673.228    9.511  108.471    0.501    0.308    6.084
  674.049    9.473   99.246    0.498    0.303    5.866
  674.869    9.312   90.021    0.480    0.311    5.451
  675.689    9.109   85.740    0.440    0.314    5.768
  676.509    9.029   85.179    0.422    0.312    7.771
  677.329    9.033   85.236    0.426    0.325    8.223
  678.150    9.077   82.797    0.440    0.307    9.200
  678.970    9.163   83.472    0.453    0.288   10.292
  679.790    9.207   85.990    0.457    0.308   11.730
  680.610    9.252   85.417    0.475    0.313   11.315
  681.430    9.295   83.609    0.472    0.332   11.973
  682.251    9.299   81.182    0.442    0.300   12.211
  683.071    9.343   79.373    0.417    0.274   10.339
  683.891    9.430   85.599    0.411    0.252    8.283
  684.711    9.474   93.678    0.471    0.217    5.511
  685.531    9.517  113.512    0.501    0.201    4.668
  686.352    9.644  111.096    0.532    0.270    4.258
  687.172    9.689  109.894    0.553    0.325    3.885
  687.992    9.692  107.479    0.545    0.318    3.746
  688.812    9.696  105.659    0.524    0.314    3.612
  689.633    9.698  105.704    0.500    0.305    3.823
  690.453    9.701  109.481    0.492    0.296    4.522
  691.273    9.705  106.436    0.496    0.278    5.155
  692.093    9.667  103.998    0.494    0.277    5.660
  692.913    9.670  108.369    0.486    0.263    6.452
  693.734    9.672  107.797    0.473    0.275    7.219
  694.554    9.634  103.516    0.475    0.289    8.078
  695.374    9.637   99.235    0.475    0.263    8.546
  696.194    9.641  101.146    0.465    0.279    8.879
  697.014    9.604  100.573    0.477    0.289    9.051
  697.835    9.524   99.394    0.480    0.284    9.403
  698.655    9.444   96.956    0.479    0.261    9.774
  699.475    9.324   94.529    0.478    0.218   10.150
  700.295    9.327   91.485    0.465    0.196   10.347
  701.115    9.453   90.305    0.445    0.261   10.548
  701.936    9.581   94.666    0.482    0.304   10.760
  702.756    9.420   91.003    0.492    0.327   10.767
  703.576    9.339   86.734    0.490    0.358   10.580
  704.396    9.261   86.779    0.493    0.369   10.587
  705.217    9.264   93.623    0.497    0.340   10.404
  706.037    9.391   98.612    0.472    0.300   10.222
  706.857    9.518  103.613    0.461    0.278   10.228
  707.677    9.561  101.186    0.445    0.252    9.869
  708.497    9.606   96.299    0.454    0.291    9.694
  709.318    9.651   93.861    0.464    0.320    9.347
  710.138    9.654   91.445    0.462    0.321    8.070
  710.958    9.698   93.345    0.471    0.320    7.636
  711.778    9.702   97.087    0.485    0.318    7.099
  712.598    9.663  109.504    0.464    0.312    6.845
  713.419    9.666  116.989    0.465    0.313    6.478
  714.239    9.629  115.180    0.498    0.306    6.022
  715.059    9.631  112.742    0.535    0.315    5.392
  715.879    9.675  113.405    0.534    0.324    4.738
  716.699    9.679  113.451    0.538    0.326    3.940
  717.520    9.682  104.226    0.540    0.322    3.730
  718.340    9.562   89.439    0.514    0.314    4.173
  719.160    9.482   86.405    0.492    0.330    4.756
  719.980    9.402   88.305    0.461    0.337    5.321
  720.801    9.201   88.339    0.463    0.344    6.064
  721.621    9.161   86.541    0.466    0.343    6.784
  722.441    9.082   85.351    0.458    0.337    8.330
  723.261    9.127   84.160    0.458    0.324    9.319
  724.081    9.254   82.969    0.462    0.285   10.236
  724.902    9.381   84.869    0.450    0.194    9.874
  725.722    9.507   91.094    0.397    0.206    9.343
  726.542    9.593   99.174    0.400    0.238    8.212
  727.362    9.638   98.613    0.429    0.292    6.829
  728.182    9.477   98.670    0.504    0.317    6.468
