~VERSION INFORMATION
 VERS.                 2.0:   CWLS LOG ASCII STANDARD -VERSION 2.0
 WRAP.                  NO:   ONE LINE PER DEPTH STEP
~WELL INFORMATION BLOCK
#MNEM.UNIT           DATA                    DESCRIPTION OF MNEMONIC
#---------    -------------------            -------------------------------
# Generated from Intellog Unique Number	CX_WELLS/WELL/3404
WELL.         SUNCOR NEWBY                   : Well_name    - WELL
LOC .         00/11-20-084-04W4/0            : Location     - LOCATION
UWI .         00/11-20-084-04W4/0            : Uwi          - UNIQUE WELL ID
ENTR.         T                              : Entered      - ENTERED BY
SRVC.         SCHLUMBERGER                   : Scn          - SERVICE COMPANY
STRT.M        80                             : top_depth    - START DEPTH
STOP.M        235                            : bot_depth    - STOP DEPTH
STEP.M        0.25                           : increment    - STEP LENGTH
 NULL. -999.2500:NULL Value
~CURVE INFORMATION BLOCK
#MNEM UNIT       ERCB CURVE CODE    CURVE DESCRIPTION
#-----------   ------------------   ----------------------------------
DEPT.M        00 001 00 00         : DEPTH        - DEPTH
GR  .API      00 310 00 00         : GR           - GAMMA RAY
NPHI.V/V      00 330 00 00         : PHIN         - NEUTRON POROSITY (SANDSTONE)
DPHI.V/V      00 890 00 00         : PHID         - DENSITY POROSITY (SANDSTONE)
ILD .OHMM     00 120 00 00         : RESD         - DEEP RESISTIVITY (OTHER)
~PARAMETER INFORMATION
#MNEM.UNIT           DATA             DESCRIPTION OF MNEMONIC
#---------         -----------     ------------------------------
GL  .M        463                  : gl           - GROUND LEVEL ELEVATION
EREF.M        466                  : kb           - ELEVATION OF DEPTH REFERENCE
DATM.M        466                  : datum        - DATUM ELEVATION
TDD .M        245                  : tdd          - TOTAL DEPTH DRILLER
RUN .         ONE                  : Run          - RUN NUMBER
ENG .         BILL                 : Engineer     - RECORDING ENGINEER
WIT .         JIM                  : Witness      - WITNESSED BY
MUD .         GEL                  : Mud_type     - MUD TYPE
MATR.         SANDSTONE            : Logunit      - NEUTRON MATRIX
TMAX.C        33                   : BHT          - MAXIMUM RECORDED TEMPERATURE
BHTD.M        245                  : BHTDEP       - MAXIMUM RECORDED TEMPERATURE
MATR.         1                    : LOGUNIT      - NEUTRON MATRIX
RMT .C        18                   : MDTP         - TEMPERATURE OF MUD
NEUT.         1                    : NEUTRON      - NEUTRON TYPE
RESI.         2                    : RESIST       - RESISTIVITY TYPE
RMC .OHMM     1.9                  : RMC          - RESISTIVITY OF MUD CAKE
RMF .OHMM     2.7                  : RMF          - RESISTIVITY OF MUD FILTRATE
SUFT.C        4                    : SUFT         - SURFACE TEMPERATURE
~A  DEPTH       GR     PHIN     PHID     RESD
# ...
  123.500   62.463    0.469    0.287    4.773
  123.750   63.158    0.462    0.287    4.781
  124.000   63.277    0.470    0.268    4.708
  124.250   63.372    0.474    0.278    4.644
  124.500   63.492    0.467    0.298    4.569
  124.750   64.210    0.455    0.292    4.499
  125.000   65.457    0.446    0.282    4.430
  125.250   67.375    0.450    0.272    4.362
  125.500   68.646    0.448    0.268    4.381
  125.750   68.142    0.460    0.259    4.306
  126.000   68.261    0.469    0.248    4.168
  126.250   70.155    0.461    0.238    4.100
  126.500   73.848    0.451    0.243    3.962
  126.750   78.141    0.475    0.253    3.756
  127.000   83.058    0.479    0.263    3.494
  127.250   87.375    0.482    0.268    3.310
  127.500   90.468    0.493    0.264    3.138
  127.750   91.739    0.508    0.259    2.977
  128.000   93.034    0.522    0.254    2.932
  128.250   93.729    0.539    0.253    2.833
  128.500   93.224    0.548    0.256    2.737
  128.750   92.144    0.555    0.257    2.640
  129.000   91.616    0.557    0.260    2.507
  129.250   91.159    0.558    0.262    2.422
  129.500   91.207    0.562    0.263    2.338
  129.750   92.525    0.570    0.263    2.302
  130.000   97.442    0.567    0.263    2.225
  130.250  100.511    0.565    0.263    2.189
  130.500  103.005    0.571    0.263    2.157
  130.750  104.324    0.575    0.265    2.248
  131.000  104.443    0.564    0.268    2.390
  131.250  105.138    0.576    0.267    2.536
  131.500  104.633    0.583    0.258    2.696
  131.750  102.953    0.554    0.253    2.808
  132.000  101.826    0.547    0.254    2.985
  132.250   98.299    0.559    0.253    3.168
  132.500   95.372    0.557    0.253    3.432
  132.750   90.070    0.493    0.251    3.642
  133.000   87.191    0.468    0.248    4.099
  133.250   88.486    0.481    0.246    4.526
  133.500   89.780    0.503    0.243    4.717
  133.750   89.252    0.500    0.240    4.824
  134.000   87.572    0.477    0.238    4.837
  134.250   86.468    0.472    0.235    4.854
  134.500   84.764    0.445    0.233    5.063
  134.750   83.660    0.448    0.230    5.277
  135.000   83.156    0.457    0.233    5.397
  135.250   82.628    0.461    0.242    5.635
  135.500   82.795    0.465    0.262    5.645
  135.750   82.219    0.467    0.270    5.783
  136.000   80.515    0.468    0.277    5.793
  136.250   78.235    0.464    0.272    5.813
  136.500   75.932    0.457    0.263    5.833
  136.750   77.826    0.448    0.250    5.869
  137.000   82.695    0.448    0.245    5.879
  137.250   89.411    0.460    0.241    5.895
  137.500   91.905    0.474    0.239    5.915
  137.750   92.623    0.484    0.236    6.050
  138.000   92.742    0.481    0.231    6.316
  138.250   93.390    0.471    0.226    6.327
  138.500   93.485    0.467    0.218    6.471
  138.750   92.981    0.456    0.219    6.494
  139.000   92.476    0.425    0.222    6.285
  139.250   89.621    0.449    0.226    6.178
  139.500   87.893    0.476    0.235    5.857
  139.750   87.389    0.477    0.244    5.553
  140.000   90.506    0.467    0.251    5.069
  140.250   93.576    0.439    0.246    4.719
  140.500   95.494    0.439    0.244    4.736
  140.750   93.191    0.470    0.239    4.936
  141.000   91.487    0.477    0.235    5.048
  141.250   90.383    0.481    0.232    5.162
  141.500   90.478    0.485    0.226    4.894
  141.750   91.173    0.457    0.213    4.388
  142.000   93.643    0.462    0.212    4.152
  142.250  104.580    0.472    0.221    3.646
  142.500  103.500    0.481    0.230    3.331
  142.750  102.348    0.495    0.239    3.277
  143.000  100.069    0.509    0.250    3.230
  143.250   98.965    0.540    0.257    3.306
  143.500   99.636    0.549    0.258    3.443
  143.750  101.530    0.502    0.257    3.588
  144.000  101.050    0.505    0.257    3.808
  144.250   90.327    0.535    0.258    4.129
  144.500   88.600    0.547    0.262    4.062
  144.750   84.497    0.473    0.270    3.848
  145.000   85.792    0.461    0.273    3.516
  145.250   97.904    0.474    0.267    3.209
  145.500   99.223    0.497    0.265    2.985
  145.750   97.519    0.539    0.269    2.884
  146.000   95.192    0.561    0.264    3.179
  146.250   91.113    0.570    0.256    3.712
  146.500   88.810    0.574    0.252    4.339
  146.750   90.728    0.501    0.241    4.976
  147.000   90.775    0.475    0.235    5.186
  147.250   87.896    0.465    0.221    4.921
  147.500   81.947    0.456    0.211    4.750
  147.750   74.846    0.450    0.200    4.674
  148.000   71.344    0.431    0.179    4.690
  148.250   72.662    0.417    0.161    5.077
  148.500   73.357    0.442    0.183    5.713
  148.750   73.452    0.459    0.210    6.429
  149.000   72.948    0.463    0.225    7.092
  149.250   71.244    0.470    0.259    7.670
  149.500   67.718    0.480    0.279    7.411
  149.750   63.016    0.382    0.264    6.154
  150.000   57.090    0.311    0.035    5.307
  150.250   55.986    0.274    0.102    4.749
  150.500   67.499    0.341    0.152    4.502
  150.750   73.615    0.392    0.205    4.268
  151.000   73.111    0.427    0.273    4.283
  151.250   73.230    0.439    0.288    4.380
  151.500   72.126    0.446    0.293    4.400
  151.750   71.621    0.455    0.293    4.415
  152.000   70.517    0.467    0.288    4.431
  152.250   71.812    0.472    0.261    4.446
  152.500   74.882    0.444    0.173    4.462
  152.750   81.573    0.430    0.161    4.567
  153.000   87.737    0.435    0.185    4.666
  153.250   87.784    0.454    0.204    4.687
  153.500   87.903    0.466    0.228    4.789
  153.750   87.975    0.478    0.233    4.906
  154.000   89.317    0.483    0.235    4.919
  154.250   89.988    0.478    0.236    4.936
  154.500   90.659    0.470    0.239    4.954
  154.750   90.778    0.463    0.237    4.790
  155.000   89.698    0.455    0.234    4.620
  155.250   89.146    0.442    0.233    4.294
  155.500   88.666    0.439    0.234    3.703
  155.750   88.785    0.444    0.236    2.963
  156.000   87.081    0.441    0.240    2.649
  156.250   85.929    0.435    0.249    2.160
  156.500   82.427    0.466    0.262    2.127
  156.750   78.948    0.499    0.287    2.093
  157.000   77.844    0.544    0.311    2.102
  157.250   78.538    0.558    0.316    2.148
  157.500   80.433    0.572    0.287    2.283
  157.750   81.151    0.554    0.275    2.378
  158.000   81.223    0.540    0.265    2.628
  158.250   80.719    0.513    0.253    2.845
  158.500   80.814    0.500    0.243    3.141
  158.750   80.909    0.489    0.228    3.207
  159.000   82.275    0.479    0.219    3.279
  159.250   82.922    0.468    0.219    3.296
  159.500   82.994    0.458    0.217    3.305
  159.750   82.513    0.450    0.218    3.320
  160.000   82.609    0.441    0.229    3.325
  160.250   84.527    0.439    0.235    3.340
  160.500   85.174    0.436    0.233    3.355
  160.750   88.891    0.462    0.229    3.360
  161.000   90.833    0.469    0.225    3.250
  161.250   90.905    0.491    0.221    3.200
  161.500   89.801    0.504    0.212    3.148
  161.750   86.274    0.501    0.214    3.102
  162.000   83.371    0.505    0.233    2.998
  162.250   84.090    0.502    0.245    2.952
  162.500   85.960    0.500    0.251    2.909
  162.750   89.701    0.508    0.257    2.917
  163.000   89.749    0.504    0.258    2.927
  163.250   89.268    0.510    0.251    2.934
  163.500   89.363    0.509    0.249    3.004
  163.750   88.835    0.491    0.246    3.011
  164.000   91.353    0.490    0.244    3.085
  164.250   92.048    0.519    0.243    3.091
  164.500   90.944    0.545    0.242    3.104
  164.750   92.262    0.548    0.241    3.057
  165.000   91.182    0.512    0.241    3.010
  165.250   90.030    0.518    0.241    3.020
  165.500   89.550    0.528    0.241    3.028
  165.750   89.621    0.536    0.241    3.097
  166.000   89.717    0.531    0.242    3.355
  166.250   88.636    0.509    0.241    3.370
  166.500   88.708    0.504    0.239    3.446
  166.750   88.803    0.490    0.232    3.522
