~VERSION INFORMATION
 VERS.                 2.0:   CWLS LOG ASCII STANDARD -VERSION 2.0
 WRAP.                  NO:   ONE LINE PER DEPTH STEP
~WELL INFORMATION BLOCK
#MNEM.UNIT           DATA                    DESCRIPTION OF MNEMONIC
#---------    -------------------            -------------------------------
# Generated from Intellog Unique Number	CS_77_79/WELL/3307
WELL.         UNIVERSAL EXPLORATIONS LTD.    : Well_name    - WELL
LOC .         00/13-24-078-07W4/0            : Location     - LOCATION
UWI .         00/13-24-078-07W4/0            : Uwi          - UNIQUE WELL ID
ENTR.         JOETTE                         : Entered      - ENTERED BY
SRVC.         SCHLUMBERGER                   : Scn          - SERVICE COMPANY
DATE.         08-26-92                       : Date         - LOG DATE
STRT.M        125                            : top_depth    - START DEPTH
STOP.M        321                            : bot_depth    - STOP DEPTH
STEP.M        0.25                           : increment    - STEP LENGTH
 NULL. -999.2500:NULL Value
~CURVE INFORMATION BLOCK
#MNEM UNIT       ERCB CURVE CODE    CURVE DESCRIPTION
#-----------   ------------------   ----------------------------------
DEPT.M        00 001 00 00         : DEPTH        - DEPTH
ILD .OHMM     00 120 00 00         : RESD         - DEEP RESISTIVITY (DIL)
DPHI.V/V      00 890 00 00         : PHID         - DENSITY POROSITY (SANDSTONE)
NPHI.V/V      00 330 00 00         : PHIN         - NEUTRON POROSITY (SANDSTONE)
GR  .API      00 310 00 00         : GR           - GAMMA RAY
~PARAMETER INFORMATION
#MNEM.UNIT           DATA             DESCRIPTION OF MNEMONIC
#---------         -----------     ------------------------------
GL  .M        547.2                : gl           - GROUND LEVEL ELEVATION
EREF.M        550.73               : kb           - ELEVATION OF DEPTH REFERENCE
DATM.M        550.73               : datum        - DATUM ELEVATION
TDD .M        325                  : tdd          - TOTAL DEPTH DRILLER
RUN .         ONE                  : Run          - RUN NUMBER
ENG .         BILL                 : Engineer     - RECORDING ENGINEER
WIT .         JIM                  : Witness      - WITNESSED BY
MUD .         GEL                  : Mud_type     - MUD TYPE
MATR.         SANDSTONE            : Logunit      - NEUTRON MATRIX
TMAX.C        18                   : BHT          - MAXIMUM RECORDED TEMPERATURE
BHTD.M        325                  : BHTDEP       - MAXIMUM RECORDED TEMPERATURE
MATR.         1                    : LOGUNIT      - NEUTRON MATRIX
RMT .C        16                   : MDTP         - TEMPERATURE OF MUD
NEUT.         1                    : NEUTRON      - NEUTRON TYPE
RESI.         0                    : RESIST       - RESISTIVITY TYPE
RMC .OHMM     0.533                : RMC          - RESISTIVITY OF MUD CAKE
RMF .OHMM     0.533                : RMF          - RESISTIVITY OF MUD FILTRATE
SUFT.C        15                   : SUFT         - SURFACE TEMPERATURE
~A  DEPTH     RESD     PHID     PHIN       GR
# ...
  212.000    7.758    0.319    0.444   82.692
  212.250    7.189    0.296    0.450   83.292
  212.500    7.051    0.279    0.447   88.776
  212.750    7.048    0.267    0.441   94.261
  213.000    6.913    0.272    0.431   96.076
  213.250    6.780    0.259    0.448   96.061
  213.500    6.525    0.244    0.459   96.050
  213.750    6.279    0.241    0.464   95.424
  214.000    6.043    0.247    0.464   94.186
  214.250    5.816    0.250    0.462   93.560
  214.500    5.598    0.223    0.457   97.819
  214.750    5.286    0.214    0.462  102.082
  215.000    5.185    0.202    0.473  105.733
  215.250    4.990    0.230    0.477  103.889
  215.500    4.895    0.248    0.483   99.596
  215.750    4.622    0.252    0.496  100.192
  216.000    4.534    0.249    0.513  103.229
  216.250    4.201    0.249    0.533  104.436
  216.500    3.968    0.259    0.543   99.536
  216.750    3.540    0.272    0.533   98.299
  217.000    3.344    0.281    0.520  102.561
  217.250    3.217    0.270    0.511  106.205
  217.500    3.216    0.255    0.531  108.027
  217.750    3.403    0.243    0.549  109.842
  218.000    3.739    0.255    0.547  109.831
  218.250    4.349    0.266    0.546  104.927
  218.500    4.963    0.275    0.533  100.634
  218.750    5.350    0.277    0.508   96.948
  219.000    5.349    0.284    0.483   98.159
  219.250    5.148    0.282    0.461   98.755
  219.500    4.681    0.260    0.519   96.903
  219.750    4.098    0.237    0.534   96.892
  220.000    3.657    0.229    0.532   99.321
  220.250    3.518    0.225    0.508  102.362
  220.500    3.585    0.231    0.503  105.402
  220.750    3.651    0.237    0.535  104.161
  221.000    3.651    0.242    0.568  103.535
  221.250    3.581    0.245    0.582  102.909
  221.500    3.512    0.250    0.559  104.116
  221.750    3.254    0.252    0.547  103.490
  222.000    3.073    0.253    0.549  102.860
  222.250    2.848    0.261    0.556  105.901
  222.500    2.847    0.271    0.555  108.330
  222.750    3.187    0.284    0.584  106.482
  223.000    3.570    0.284    0.581  104.026
  223.250    4.478    0.278    0.574   94.844
  223.500    6.177    0.280    0.567   89.329
  223.750    6.660    0.289    0.516   88.703
  224.000    7.181    0.285    0.470   89.910
  224.250    7.313    0.274    0.437   90.506
  224.500    7.174    0.266    0.459   90.491
  224.750    7.037    0.268    0.479   89.865
  225.000    6.773    0.264    0.488   89.239
  225.250    6.642    0.254    0.473   88.002
  225.500    6.639    0.248    0.451   85.538
  225.750    6.637    0.244    0.452   87.357
  226.000    6.635    0.247    0.465   90.401
  226.250    6.631    0.254    0.473   94.664
  226.500    6.756    0.260    0.485   90.367
  226.750    7.284    0.255    0.498   86.074
  227.000    7.706    0.248    0.506   83.004
  227.250    8.308    0.249    0.505   80.544
  227.500    8.465    0.261    0.488   78.081
  227.750    8.622    0.263    0.457   74.403
  228.000    8.620    0.269    0.449   74.388
  228.250    8.616    0.277    0.435   81.095
  228.500    7.686    0.270    0.436   87.191
  228.750    7.399    0.258    0.438   87.176
  229.000    6.856    0.248    0.436   90.828
  229.250    6.117    0.237    0.452   94.479
  229.500    5.355    0.243    0.488   92.631
  229.750    4.265    0.262    0.479   90.782
  230.000    3.527    0.253    0.493   95.041
  230.250    3.207    0.257    0.545   99.308
  230.500    3.087    0.270    0.555  103.571
  230.750    3.205    0.277    0.552   95.611
  231.000    3.521    0.275    0.572   86.426
  231.250    3.870    0.278    0.562   76.633
  231.500    4.501    0.289    0.535   69.896
  231.750    5.647    0.315    0.502   69.269
  232.000    7.358    0.325    0.474   70.477
  232.250    8.720    0.325    0.462   68.628
  232.500    9.402    0.332    0.462   64.947
  232.750    9.579    0.338    0.464   61.261
  233.000    9.944    0.344    0.461   63.691
  233.250   10.129    0.350    0.452   66.120
  233.500   10.124    0.352    0.448   67.938
  233.750   10.121    0.350    0.456   67.927
  234.000   10.116    0.349    0.461   67.297
  234.250   10.111    0.348    0.453   66.675
  234.500   10.109    0.349    0.449   66.048
  234.750   10.105    0.349    0.456   67.252
  235.000   10.294    0.349    0.494   66.014
  235.250   10.288    0.347    0.484   65.385
  235.500   10.284    0.343    0.466   68.429
  235.750   10.086    0.335    0.460   71.469
  236.000   10.081    0.334    0.455   66.566
  236.250   10.078    0.341    0.448   56.773
  236.500    9.884    0.341    0.450   60.424
  236.750    9.513    0.341    0.455   64.687
  237.000    8.984    0.337    0.456   70.172
  237.250    8.647    0.323    0.453   75.657
  237.500    7.861    0.307    0.459   82.364
  237.750    7.712    0.281    0.470   81.123
  238.000    7.708    0.274    0.490   82.941
  238.250    7.851    0.276    0.504   85.374
  238.500    8.000    0.284    0.512   85.971
  238.750    8.305    0.289    0.519   85.956
  239.000    8.621    0.295    0.520   85.940
  239.250    8.618    0.291    0.492   86.537
  239.500    8.779    0.285    0.479   87.744
  239.750    8.775    0.279    0.471   88.947
  240.000    8.771    0.277    0.481   89.547
  240.250    8.766    0.274    0.490   90.139
  240.500    8.763    0.279    0.475   88.906
  240.750    8.760    0.285    0.468   83.994
  241.000    8.755    0.288    0.479   85.201
  241.250    8.752    0.282    0.476   90.079
  241.500    8.584    0.273    0.468   90.675
  241.750    8.419    0.265    0.481   88.827
  242.000    8.417    0.265    0.474   89.423
  242.250    8.254    0.270    0.480   93.074
  242.500    8.096    0.276    0.513   91.226
  242.750    7.941    0.268    0.516   88.766
  243.000    7.790    0.266    0.469   86.918
  243.250    7.356    0.272    0.500   87.514
  243.500    6.816    0.269    0.521   92.384
  243.750    6.317    0.258    0.516   96.040
  244.000    5.530    0.259    0.504   99.076
  244.250    4.842    0.261    0.505   96.617
  244.500    4.081    0.253    0.497   97.213
  244.750    3.506    0.249    0.483  100.250
  245.000    3.069    0.248    0.506  101.464
  245.250    2.687    0.265    0.533  102.668
  245.500    2.490    0.288    0.546  102.042
  245.750    2.397    0.299    0.590  100.193
  246.000    2.350    0.300    0.618   98.345
  246.250    2.395    0.301    0.627   96.496
  246.500    2.533    0.300    0.623   95.255
  246.750    2.681    0.291    0.601   95.240
  247.000    3.002    0.281    0.568   98.892
  247.250    3.426    0.265    0.548  101.936
  247.500    3.836    0.257    0.518   98.866
  247.750    4.461    0.268    0.506   93.347
  248.000    5.924    0.269    0.533   90.891
  248.250    6.036    0.263    0.522   87.817
  248.500    6.149    0.268    0.515   85.968
  248.750    6.383    0.278    0.475   84.120
  249.000    6.753    0.273    0.453   81.053
  249.250    7.011    0.284    0.484   77.979
  249.500    7.417    0.296    0.500   75.519
  249.750    7.699    0.294    0.487   71.834
  250.000    7.845    0.283    0.459   70.597
  250.250    8.143    0.285    0.443   71.804
  250.500    8.296    0.300    0.436   74.848
  250.750    8.137    0.290    0.437   79.107
  251.000    7.981    0.281    0.445   76.647
  251.250    7.828    0.284    0.451   74.799
  251.500    7.677    0.191    0.445   75.395
  251.750    7.821    0.185    0.444   77.828
  252.000    8.273    0.201    0.449   83.313
  252.250    8.429    0.259    0.456   82.076
  252.500    9.261    0.294    0.460   73.502
  252.750    9.799    0.259    0.474   69.824
  253.000   10.766    0.019    0.308   64.920
  253.250   11.179   -0.014    0.287   66.127
  253.500   12.283   -0.020    0.163   75.890
  253.750   13.245    0.046    0.211   80.152
  254.000   13.239    0.111    0.385   79.526
  254.250   11.813    0.178    0.407   76.452
  254.500    9.771    0.293    0.431   78.885
  254.750    8.554    0.284    0.423   80.088
  255.000    7.926    0.285    0.455   77.014
  255.250    7.775    0.296    0.449   76.392
