~VERSION INFORMATION
 VERS.                 2.0:   CWLS LOG ASCII STANDARD -VERSION 2.0
 WRAP.                  NO:   ONE LINE PER DEPTH STEP
~WELL INFORMATION BLOCK
#MNEM.UNIT           DATA                    DESCRIPTION OF MNEMONIC
#---------    -------------------            -------------------------------
# Generated from Intellog Unique Number	CW_73_75/WELL/1054
WELL.         HOME UNIT MARTIN HILLS 16-21   : Well_name    - WELL
LOC .         00/16-21-074-24W4/0            : Location     - LOCATION
UWI .         00/16-21-074-24W4/0            : Uwi          - UNIQUE WELL ID
ENTR.         JAYE                           : Entered      - ENTERED BY
SRVC.         SCHLUMBERGER                   : Scn          - SERVICE COMPANY
DATE.         23 NOV 77                      : Date         - LOG DATE
STRT.M        374.904                        : top_depth    - START DEPTH
STOP.M        585.154                        : bot_depth    - STOP DEPTH
STEP.M        0.25                           : increment    - STEP LENGTH
 NULL. -999.2500:NULL Value
~CURVE INFORMATION BLOCK
#MNEM UNIT       ERCB CURVE CODE    CURVE DESCRIPTION
#-----------   ------------------   ----------------------------------
DEPT.M        00 001 00 00         : DEPTH        - DEPTH
ILD .OHMM     00 120 00 00         : RESD         - DEEP RESISTIVITY (DIL)
NPHI.V/V      00 330 00 00         : PHIN         - NEUTRON POROSITY (SANDSTONE)
DPHI.V/V      00 890 00 00         : PHID         - DENSITY POROSITY (SANDSTONE)
CALI.MM       00 280 01 00         : CAL          - CALIPER
GR  .API      00 310 00 00         : GR           - GAMMA RAY
~PARAMETER INFORMATION
#MNEM.UNIT           DATA             DESCRIPTION OF MNEMONIC
#---------         -----------     ------------------------------
GL  .M        649.224              : gl           - GROUND LEVEL ELEVATION
EREF.M        653.796              : kb           - ELEVATION OF DEPTH REFERENCE
DATM.M        649.224              : datum        - DATUM ELEVATION
TDD .M        585.216              : tdd          - TOTAL DEPTH DRILLER
RUN .         ONE                  : Run          - RUN NUMBER
BASE.         EDM                  : Branch       - HOME BASE OF LOGGING UNIT
MATR.         SANDSTONE            : Logunit      - NEUTRON MATRIX
TMAX.C        28.8889              : BHT          - MAXIMUM RECORDED TEMPERATURE
BHTD.M        585.826              : BHTDEP       - MAXIMUM RECORDED TEMPERATURE
RMT .C        13.8889              : MDTP         - TEMPERATURE OF MUD
MUDD.KG/M     0                    : MWT          - MUD DENSITY
NEUT.         1                    : NEUTRON      - NEUTRON TYPE
RESI.         0                    : RESIST       - RESISTIVITY TYPE
RM  .OHMM     6.22                 : RM           - RESISTIVITY OF MUD
RMC .OHMM     0                    : RMC          - RESISTIVITY OF MUD CAKE
RMF .OHMM     6.72                 : RMF          - RESISTIVITY OF MUD FILTRATE
SUFT.C        -17.7778             : SUFT         - SURFACE TEMPERATURE
~A  DEPTH     RESD     PHIN     PHID      CAL       GR
# ...
  557.404   67.877    0.173    0.331  174.970   34.377
  557.654   70.872    0.176    0.332  173.965   35.272
  557.904   73.583    0.180    0.339  173.275   36.172
  558.154   75.120    0.186    0.330  173.114   35.827
  558.404   75.831    0.191    0.313  172.740   35.606
  558.654   76.980    0.192    0.312  172.577   36.878
  558.904   77.419    0.194    0.308  172.842   37.346
  559.154   76.987    0.199    0.292  173.624   37.246
  559.404   74.996    0.195    0.286  175.778   37.836
  559.654   71.564    0.190    0.312  175.726   39.047
  559.904   67.780    0.193    0.332  174.610   41.070
  560.154   65.288    0.208    0.336  172.337   42.094
  560.404   61.029    0.211    0.337  172.073   42.685
  560.654   58.237    0.208    0.326  172.224   43.648
  560.904   53.426    0.207    0.319  172.486   44.111
  561.154   49.014    0.210    0.315  172.641   44.453
  561.404   43.391    0.219    0.315  172.580   45.040
  561.654   36.586    0.227    0.314  172.531   46.068
  561.904   33.313    0.234    0.309  172.578   46.654
  562.154   30.619    0.240    0.314  172.619   44.314
  562.404   28.196    0.249    0.319  172.560   47.770
  562.654   25.577    0.261    0.309  172.405   51.221
  562.904   22.140    0.269    0.302  172.242   52.558
  563.154   19.345    0.270    0.287  172.393   52.589
  563.404   17.614    0.273    0.279  173.074   52.615
  563.654   16.220    0.283    0.268  173.434   51.775
  563.904   15.133    0.290    0.252  173.489   52.302
  564.154   14.067    0.297    0.244  172.692   52.887
  564.404   13.174    0.315    0.232  171.473   53.663
  564.654   12.477    0.333    0.226  170.150   55.002
  564.904   11.751    0.346    0.216  169.352   55.713
  565.154   11.555    0.359    0.222  168.984   55.617
  565.404   11.405    0.370    0.232  168.815   56.145
  565.654   11.152    0.375    0.220  168.869   57.044
  565.904   10.986    0.373    0.210  170.289   57.573
  566.154   10.803    0.364    0.211  173.498   59.218
  566.404   10.682    0.347    0.204  175.552   59.373
  566.654   10.563    0.340    0.205  176.017   58.527
  566.904   10.505    0.340    0.228  175.752   58.869
  567.154   10.310    0.343    0.217  175.804   59.706
  567.404   10.062    0.350    0.204  175.744   60.419
  567.654    9.857    0.357    0.206  175.482   61.257
  567.904    9.692    0.364    0.188  175.313   63.341
  568.154    9.495    0.375    0.182  175.251   65.800
  568.404    9.267    0.366    0.194  174.877   67.200
  568.654    9.112    0.362    0.191  175.136   66.792
  568.904    8.960    0.369    0.176  175.503   66.008
  569.154    8.761    0.378    0.183  176.077   69.277
  569.404    8.534    0.365    0.192  176.765   72.605
  569.654    8.205    0.353    0.188  176.596   76.121
  569.904    7.978    0.344    0.180  176.018   80.133
  570.154    7.670    0.345    0.162  172.474   87.386
  570.404    7.347    0.365    0.146  171.471  101.675
  570.654    7.320    0.395    0.125  173.097  115.965
  570.904    7.571    0.352    0.105  174.519  133.929
  571.154    7.629    0.339    0.143  175.727  139.251
  571.404    7.515    0.367    0.119  176.513  148.435
  571.654    7.253    0.407    0.120  177.199  177.981
  571.904    6.986    0.461    0.119  177.243  186.230
  572.154    6.793    0.486    0.107  177.499  182.149
  572.404    6.605    0.466    0.083  179.024  168.600
  572.654    6.362    0.438    0.156  180.656  168.629
  572.904    6.186    0.480    0.141  183.556  166.229
  573.154    5.880    0.546    0.145  186.128  149.194
  573.404    5.528    0.551    0.136  185.016  144.241
  573.654    5.196    0.502    0.113  180.956  142.216
  573.904    5.034    0.470    0.097  182.793  139.503
  574.154    5.024    0.428    0.110  184.529  135.858
  574.404    5.044    0.429    0.085  177.409  132.148
  574.654    5.139    0.416    0.082  178.829  127.072
  574.904    5.247    0.390    0.081  181.194  121.495
  575.154    5.407    0.394    0.104  183.038  121.586
  575.404    5.530    0.371    0.109  182.665  119.747
  575.654    5.624    0.333    0.134  183.662  119.338
  575.904    5.688    0.338    0.128  186.660  121.173
  576.154    5.753    0.371    0.115  192.613  117.028
  576.404    5.796    0.343    0.108  183.592  110.207
  576.654    5.840    0.352    0.102  177.212  108.865
  576.904    5.840    0.367    0.118  178.000  109.081
  577.154    5.679    0.365    0.151  179.946  113.467
  577.404    5.449    0.367    0.131  180.202  125.703
  577.654    5.220    0.375    0.118  174.664  130.090
  577.904    5.047    0.378    0.115  171.335  132.173
  578.154    4.962    0.372    0.137  172.334  132.268
  578.404    4.834    0.401    0.138  183.661  131.484
  578.654    4.727    0.422    0.149  183.499  130.515
  578.904    4.648    0.380    0.118  181.444  130.482
  579.154    4.657    0.340    0.156  180.118  130.015
  579.404    4.701    0.363    0.107  179.531  129.480
  579.654    5.163    0.359    0.110  179.266  128.513
  579.904    5.566    0.352    0.133  179.945  127.358
  580.154    5.650    0.357    0.124  179.149  125.954
  580.404    5.682    0.370    0.092  176.457  123.553
  580.654    5.556    0.368    0.134  177.665  117.291
  580.904    5.392    0.358    0.136  180.453   99.198
  581.154    5.050    0.361    0.128  177.975   78.613
  581.404    4.747    0.364    0.099  181.711   46.694
  581.654    4.210    0.366    0.110  182.079   43.486
  581.904    3.356    0.369    0.042  177.589   61.323
  582.154    2.645    0.372    0.062  172.470   62.536
  582.404    2.552    0.370    0.168  169.670   67.983
  582.654    2.777    0.355    0.190  168.453   72.623
  582.904    2.949    0.320    0.206  171.882   74.702
  583.154    3.108    0.253    0.208  172.242   77.533
  583.404    3.338    0.189    0.154  169.229   78.001
  583.654    3.459    0.008    0.089  170.024   77.841
  583.904    3.612   -0.013    0.057  173.441   78.802
  584.154    3.694   -0.015    0.088  181.292   78.457
  584.404    3.653   -0.015    0.106  158.775   77.614
  584.654    3.632    0.042    0.104  142.370   78.140
  584.904    3.619    0.059    0.104  134.616   77.359
  585.154    3.559    0.055    0.111  130.551   74.959
