~VERSION INFORMATION
 VERS.                 2.0:   CWLS LOG ASCII STANDARD -VERSION 2.0
 WRAP.                  NO:   ONE LINE PER DEPTH STEP
~WELL INFORMATION BLOCK
#MNEM.UNIT           DATA                    DESCRIPTION OF MNEMONIC
#---------    -------------------            -------------------------------
# Generated from Intellog Unique Number	CW_76_78/WELL/2586
WELL.         SCURRY ET AL DOUCETTE          : Well_name    - WELL
LOC .         00/12-22-078-02W5/0            : Location     - LOCATION
UWI .         00/12-22-078-02W5/0            : Uwi          - UNIQUE WELL ID
ENTR.         MAX                            : Entered      - ENTERED BY
SRVC.         WESTERN ATLAS                  : Scn          - SERVICE COMPANY
STRT.M        330                            : top_depth    - START DEPTH
STOP.M        585                            : bot_depth    - STOP DEPTH
STEP.M        0.25                           : increment    - STEP LENGTH
 NULL. -999.2500:NULL Value
~CURVE INFORMATION BLOCK
#MNEM UNIT       ERCB CURVE CODE    CURVE DESCRIPTION
#-----------   ------------------   ----------------------------------
DEPT.M        00 001 00 00         : DEPTH        - DEPTH
ILD .OHMM     00 120 00 00         : RESD         - DEEP RESISTIVITY (DIL)
NPHI.V/V      00 330 00 00         : PHIN         - NEUTRON POROSITY (SANDSTONE)
DPHI.V/V      00 890 00 00         : PHID         - DENSITY POROSITY (SANDSTONE)
CALI.MM       00 280 01 00         : CAL          - CALIPER
GR  .API      00 310 00 00         : GR           - GAMMA RAY
~PARAMETER INFORMATION
#MNEM.UNIT           DATA             DESCRIPTION OF MNEMONIC
#---------         -----------     ------------------------------
GL  .M        625.1                : gl           - GROUND LEVEL ELEVATION
EREF.M        629.33               : kb           - ELEVATION OF DEPTH REFERENCE
DATM.M        625.1                : datum        - DATUM ELEVATION
TDD .M        611.3                : tdd          - TOTAL DEPTH DRILLER
RUN .         ONE                  : Run          - RUN NUMBER
ENG .         BILL                 : Engineer     - RECORDING ENGINEER
WIT .         JIM                  : Witness      - WITNESSED BY
MUD .         GEL                  : Mud_type     - MUD TYPE
MATR.         SANDSTONE            : Logunit      - NEUTRON MATRIX
TMAX.C        29                   : BHT          - MAXIMUM RECORDED TEMPERATURE
BHTD.M        611.3                : BHTDEP       - MAXIMUM RECORDED TEMPERATURE
RMT .C        13                   : MDTP         - TEMPERATURE OF MUD
MUDD.KG/M     1170                 : MWT          - MUD DENSITY
NEUT.         1                    : NEUTRON      - NEUTRON TYPE
RESI.         0                    : RESIST       - RESISTIVITY TYPE
RM  .OHMM     5                    : RM           - RESISTIVITY OF MUD
RMC .OHMM     3.5                  : RMC          - RESISTIVITY OF MUD CAKE
RMF .OHMM     6                    : RMF          - RESISTIVITY OF MUD FILTRATE
SUFT.C        -5                   : SUFT         - SURFACE TEMPERATURE
~A  DEPTH     RESD     PHIN     PHID      CAL       GR
# ...
  366.500    2.987    0.465    0.252  202.990   88.688
  366.750    2.991    0.470    0.257  202.533   85.518
  367.000    2.994    0.472    0.261  201.615   84.373
  367.250    3.025    0.474    0.259  200.702   88.490
  367.500    3.056    0.472    0.248  200.252   92.320
  367.750    3.087    0.466    0.248  200.792   92.341
  368.000    3.090    0.462    0.245  202.305   91.790
  368.250    3.094    0.461    0.241  204.299   94.160
  368.500    3.098    0.456    0.236  205.806   96.520
  368.750    3.074    0.452    0.250  207.799   97.129
  369.000    3.050    0.458    0.253  207.853   96.574
  369.250    3.056    0.464    0.247  206.436   96.610
  369.500    3.030    0.464    0.231  206.004   96.635
  369.750    2.954    0.457    0.228  208.976   98.710
  370.000    2.930    0.451    0.236  210.975   96.401
  370.250    2.934    0.451    0.241  209.552   93.811
  370.500    2.912    0.452    0.245  205.224   93.836
  370.750    2.889    0.452    0.247  203.332   98.242
  371.000    2.866    0.453    0.249  203.380   99.737
  371.250    2.819    0.458    0.249  202.948   99.762
  371.500    2.848    0.463    0.245  202.516   97.752
  371.750    2.877    0.470    0.243  202.564   95.443
  372.000    2.932    0.470    0.242  202.126   95.184
  372.250    2.963    0.464    0.241  201.694   94.921
  372.500    2.968    0.458    0.243  201.730   93.203
  372.750    2.969    0.456    0.265  201.303   92.064
  373.000    2.973    0.456    0.265  201.345   91.805
  373.250    2.949    0.464    0.269  202.852   93.001
  373.500    2.927    0.471    0.266  208.748   93.905
  373.750    2.984    0.489    0.256  207.331   92.183
  374.000    3.096    0.495    0.259  205.446   89.878
  374.250    3.183    0.482    0.265  204.996   85.818
  374.500    3.424    0.476    0.271  204.570   82.061
  374.750    3.681    0.464    0.273  204.618   78.001
  375.000    4.031    0.454    0.282  203.213   74.820
  375.250    4.453    0.446    0.284  201.790   74.266
  375.500    4.962    0.438    0.284  200.866   75.465
  375.750    5.994    0.424    0.278  199.947   74.035
  376.000    7.777    0.413    0.259  199.022   68.520
  376.250   10.180    0.402    0.233  198.590   60.667
  376.500   14.703    0.394    0.273  198.146   53.113
  376.750   21.048    0.399    0.320  196.741   50.811
  377.000   22.844    0.410    0.360  195.336   50.256
  377.250   22.867    0.415    0.366  194.892   51.449
  377.500   22.089    0.413    0.363  194.454   52.061
  377.750   21.151    0.411    0.360  194.022   52.973
  378.000   20.804    0.407    0.358  193.109   50.955
  378.250   20.828    0.402    0.356  192.179   50.401
  378.500   20.849    0.396    0.353  191.254   51.013
  378.750   20.882    0.393    0.350  190.335   53.088
  379.000   20.711    0.393    0.345  190.390   54.868
  379.250   20.556    0.391    0.343  189.951   54.313
  379.500   20.213    0.390    0.341  189.501   52.011
  379.750   19.878    0.391    0.341  189.555   48.546
  380.000   19.551    0.395    0.339  191.068   47.987
  380.250   19.058    0.393    0.337  192.083   46.853
  380.500   18.576    0.388    0.336  193.109   45.422
  380.750   18.265    0.388    0.334  192.671   48.366
  381.000   17.965    0.389    0.334  192.245   53.647
  381.250   17.823    0.392    0.334  192.287   55.138
  381.500   17.846    0.393    0.333  192.347   51.085
  381.750   17.867    0.394    0.333  193.356   48.780
  382.000   17.890    0.396    0.335  195.355   47.062
  382.250   17.593    0.400    0.337  197.342   45.333
  382.500   17.299    0.405    0.339  197.409   44.486
  382.750   16.274    0.412    0.342  194.533   45.109
  383.000   15.166    0.415    0.344  194.575   44.839
  383.250   14.263    0.415    0.346  196.568   45.160
  383.500   13.536    0.416    0.346  196.142   48.406
  383.750   13.193    0.420    0.346  194.245   47.267
  384.000   12.973    0.423    0.347  194.785   46.417
  384.250   12.885    0.424    0.345  195.307   46.158
  384.500   12.778    0.424    0.345  196.820   47.361
  384.750   12.791    0.421    0.345  198.327   46.799
  385.000   12.804    0.417    0.345  199.354   45.077
  385.250   13.167    0.411    0.346  199.402   44.526
  385.500   13.914    0.410    0.346  198.970   45.441
  385.750   14.567    0.408    0.346  199.024   46.918
  386.000   15.245    0.402    0.343  197.127   48.701
  386.250   16.546    0.394    0.337  195.224   48.143
  386.500   17.632    0.357    0.319  196.244   45.257
  386.750   18.132    0.340    0.260  199.210   42.077
  387.000   16.018    0.356    0.234  200.231   42.105
  387.250   14.537    0.376    0.320  200.777   42.721
  387.500   14.296    0.398    0.346  200.333   43.049
  387.750   14.575    0.404    0.354  200.381   43.075
  388.000   14.721    0.405    0.354  201.408   44.270
  388.250   14.738    0.405    0.352  201.456   45.755
  388.500   14.493    0.409    0.347  200.531   46.958
  388.750   14.001    0.412    0.346  197.668   49.904
  389.000   13.894    0.415    0.349  198.694   49.937
  389.250   13.786    0.417    0.350  196.311   48.795
  389.500   14.051    0.416    0.350  194.894   45.910
  389.750   14.198    0.412    0.350  195.915   46.522
  390.000   14.212    0.404    0.352  195.963   47.423
  390.250   14.102    0.400    0.353  194.564   50.085
  390.500   13.993    0.401    0.352  193.633   52.156
  390.750   14.013    0.404    0.348  193.195   53.352
  391.000   14.153    0.411    0.344  193.736   52.509
  391.250   14.554    0.410    0.343  193.784   50.784
  391.500   14.834    0.404    0.343  192.865   49.354
  391.750   14.851    0.402    0.343  192.427   48.507
  392.000   14.605    0.402    0.341  191.502   50.582
  392.250   14.235    0.403    0.338  189.611   53.241
  392.500   13.629    0.407    0.341  190.152   55.020
  392.750   13.054    0.420    0.348  192.625   56.216
  393.000   12.721    0.429    0.355  193.160   57.124
  393.250   12.621    0.432    0.355  193.208   58.320
  393.500   12.635    0.433    0.350  193.742   59.516
  393.750   12.652    0.427    0.346  193.802   60.424
  394.000   12.554    0.414    0.342  193.844   61.036
  394.250   12.347    0.404    0.343  194.871   61.947
  394.500   12.033    0.399    0.344  196.372   62.261
  394.750   11.524    0.400    0.344  198.371   62.585
  395.000   10.936    0.398    0.338  195.501   63.198
  395.250   10.655    0.392    0.319  188.747   65.856
  395.500   10.113    0.356    0.273  192.680   68.507
  395.750    9.944    0.351    0.207  199.056   72.041
  396.000    9.694    0.375    0.173  200.563   76.742
  396.250    9.363    0.400    0.219  197.693   80.269
  396.500    8.966    0.425    0.245  196.774   77.963
  396.750    8.818    0.425    0.255  195.850   75.957
  397.000    8.670    0.419    0.284  195.448   75.402
  397.250    8.527    0.419    0.271  194.979   76.306
  397.500    8.385    0.420    0.248  194.535   81.007
  397.750    8.101    0.420    0.241  196.540   81.325
  398.000    7.827    0.418    0.259  197.561   81.941
  398.250    7.765    0.412    0.260  198.095   81.678
  398.500    7.775    0.404    0.255  198.138   80.835
  398.750    7.783    0.407    0.252  198.192   79.696
  399.000    7.723    0.411    0.247  198.246   78.853
  399.250    7.528    0.417    0.242  198.774   77.423
  399.500    7.210    0.420    0.246  199.314   76.281
  399.750    7.090    0.419    0.249  199.855   75.727
  400.000    7.097    0.420    0.246  200.383   76.047
  400.250    7.041    0.419    0.241  201.410   78.702
  400.500    6.927    0.416    0.234  202.431   85.446
  400.750    6.812    0.416    0.230  202.479   91.022
  401.000    6.639    0.415    0.224  202.040   90.179
  401.250    6.414    0.411    0.215  201.602   89.625
  401.500    6.251    0.405    0.218  200.197   89.650
  401.750    5.985    0.406    0.225  199.273   94.059
  402.000    5.940    0.418    0.226  199.327   98.177
  402.250    6.054    0.426    0.226  199.375  101.995
  402.500    6.054    0.424    0.226  200.888  104.070
  402.750    6.236    0.422    0.223  203.860   97.391
