~VERSION INFORMATION
 VERS.                 2.0:   CWLS LOG ASCII STANDARD -VERSION 2.0
 WRAP.                  NO:   ONE LINE PER DEPTH STEP
~WELL INFORMATION BLOCK
#MNEM.UNIT           DATA                    DESCRIPTION OF MNEMONIC
#---------    -------------------            -------------------------------
# Generated from Intellog Unique Number	CX_WELLS/WELL/2793
WELL.         TRITON ATCOR HANGST            : Well_name    - WELL
LOC .         00/11-13-081-11W4/0            : Location     - LOCATION
UWI .         00/11-13-081-11W400            : Uwi          - UNIQUE WELL ID
ENTR.         T                              : Entered      - ENTERED BY
SRVC.         SCHLUMBERGER                   : Scn          - SERVICE COMPANY
STRT.M        260                            : top_depth    - START DEPTH
STOP.M        480                            : bot_depth    - STOP DEPTH
STEP.M        0.25                           : increment    - STEP LENGTH
 NULL. -999.2500:NULL Value
~CURVE INFORMATION BLOCK
#MNEM UNIT       ERCB CURVE CODE    CURVE DESCRIPTION
#-----------   ------------------   ----------------------------------
DEPT.M        00 001 00 00         : DEPTH        - DEPTH
GR  .API      00 310 00 00         : GR           - GAMMA RAY
NPHI.V/V      00 330 00 00         : PHIN         - NEUTRON POROSITY (SANDSTONE)
DPHI.V/V      00 890 00 00         : PHID         - DENSITY POROSITY (SANDSTONE)
ILD .OHMM     00 120 00 00         : RESD         - DEEP RESISTIVITY (OTHER)
~PARAMETER INFORMATION
#MNEM.UNIT           DATA             DESCRIPTION OF MNEMONIC
#---------         -----------     ------------------------------
GL  .M        696                  : gl           - GROUND LEVEL ELEVATION
EREF.M        698                  : kb           - ELEVATION OF DEPTH REFERENCE
DATM.M        698                  : datum        - DATUM ELEVATION
TDD .M        488                  : tdd          - TOTAL DEPTH DRILLER
RUN .         ONE                  : Run          - RUN NUMBER
ENG .         BILL                 : Engineer     - RECORDING ENGINEER
WIT .         JIM                  : Witness      - WITNESSED BY
MUD .         GEL                  : Mud_type     - MUD TYPE
MATR.         SANDSTONE            : Logunit      - NEUTRON MATRIX
TMAX.C        22                   : BHT          - MAXIMUM RECORDED TEMPERATURE
BHTD.M        488                  : BHTDEP       - MAXIMUM RECORDED TEMPERATURE
MATR.         1                    : LOGUNIT      - NEUTRON MATRIX
RMT .C        18                   : MDTP         - TEMPERATURE OF MUD
NEUT.         1                    : NEUTRON      - NEUTRON TYPE
RESI.         9.7                  : RESIST       - RESISTIVITY TYPE
RMC .OHMM     0.25                 : RMC          - RESISTIVITY OF MUD CAKE
RMF .OHMM     7                    : RMF          - RESISTIVITY OF MUD FILTRATE
SUFT.C        4                    : SUFT         - SURFACE TEMPERATURE
~A  DEPTH       GR     PHIN     PHID     RESD
# ...
  434.000   59.957    0.194    0.330   37.338
  434.250   71.647    0.176    0.358   40.240
  434.500   75.787    0.160    0.351   42.568
  434.750   71.201    0.186    0.321   44.222
  435.000   67.170    0.200    0.325   40.480
  435.250   64.316    0.184    0.336   37.717
  435.500   65.534    0.207    0.348   33.874
  435.750   67.333    0.233    0.338   29.352
  436.000   71.460    0.360    0.327   22.801
  436.250   76.182    0.379    0.294   17.720
  436.500   81.472    0.395    0.272   15.079
  436.750   86.181    0.408    0.257   14.313
  437.000   89.740    0.421    0.271   14.602
  437.250   87.454    0.419    0.305   15.169
  437.500   73.560    0.411    0.317   15.758
  437.750   68.946    0.399    0.318   16.076
  438.000   60.856    0.385    0.316   17.014
  438.250   58.002    0.382    0.314   17.683
  438.500   66.201    0.384    0.309   18.024
  438.750   73.250    0.394    0.306   18.396
  439.000   70.978    0.396    0.307   18.767
  439.250   68.110    0.390    0.310   20.586
  439.500   64.092    0.392    0.311   22.995
  439.750   62.415    0.400    0.312   27.123
  440.000   61.320    0.403    0.313   35.686
  440.250   60.197    0.401    0.314   43.646
  440.500   57.370    0.396    0.315   76.797
  440.750   56.234    0.391    0.318   87.314
  441.000   52.812    0.383    0.321  110.787
  441.250   51.703    0.370    0.320   94.273
  441.500   54.652    0.363    0.316   62.202
  441.750   61.688    0.382    0.307   38.885
  442.000   64.651    0.402    0.296   30.759
  442.250   59.483    0.391    0.283   23.475
  442.500   58.942    0.393    0.274   20.724
  442.750   71.227    0.426    0.266   21.151
  443.000   81.781    0.420    0.269   21.963
  443.250   83.567    0.410    0.282   23.245
  443.500   78.385    0.402    0.293   24.601
  443.750   73.204    0.399    0.298   24.635
  444.000   74.436    0.406    0.298   24.225
  444.250   76.804    0.429    0.295   24.270
  444.500   80.362    0.457    0.287   24.337
  444.750   83.894    0.465    0.278   24.370
  445.000   83.380    0.463    0.256   25.317
  445.250   82.271    0.451    0.257   27.272
  445.500   80.581    0.423    0.285   28.345
  445.750   74.236    0.399    0.302   25.480
  446.000   69.623    0.375    0.292   24.595
  446.250   73.763    0.398    0.258   21.702
  446.500   85.453    0.420    0.237   19.149
  446.750   93.665    0.422    0.215   16.593
  447.000  100.119    0.421    0.215   14.642
  447.250  101.932    0.422    0.215   14.152
  447.500  102.555    0.423    0.215   14.695
  447.750  103.205    0.422    0.217   15.280
  448.000  103.841    0.414    0.227   15.582
  448.250  102.732    0.410    0.235   15.889
  448.500  102.205    0.415    0.238   16.224
  448.750  105.168    0.426    0.227   16.254
  449.000  108.131    0.432    0.208   16.885
  449.250  109.958    0.431    0.201   17.226
  449.500  108.836    0.426    0.206   17.573
  449.750  104.832    0.416    0.218   17.928
  450.000  102.532    0.413    0.250   18.290
  450.250   97.946    0.419    0.275   18.667
  450.500   94.496    0.430    0.283   19.044
  450.750   88.152    0.429    0.274   19.419
  451.000   95.201    0.423    0.254   20.183
  451.250   98.746    0.419    0.234   20.590
  451.500   94.146    0.414    0.250   21.006
  451.750   90.724    0.402    0.260   21.419
  452.000   90.183    0.383    0.258   20.341
  452.250   97.219    0.392    0.227   19.282
  452.500  104.850    0.405    0.218   16.708
  452.750  113.049    0.418    0.226   15.294
  453.000  111.358    0.418    0.258   15.329
  453.250  103.268    0.398    0.284   15.646
  453.500   95.178    0.391    0.283   15.947
  453.750   95.828    0.395    0.234   15.696
  454.000   99.941    0.403    0.224   14.362
  454.250  108.154    0.407    0.212   13.375
  454.500  107.626    0.404    0.208   12.462
  454.750  104.190    0.400    0.224   12.719
  455.000  100.754    0.394    0.238   13.207
  455.250   97.318    0.392    0.244   13.971
  455.500   97.954    0.390    0.247   15.333
  455.750   98.591    0.390    0.248   16.220
  456.000   99.227    0.389    0.248   17.174
  456.250   99.877    0.392    0.249   17.505
  456.500  100.500    0.397    0.249   17.230
  456.750  100.568    0.409    0.246   17.261
  457.000  101.218    0.416    0.238   16.990
  457.250  102.436    0.420    0.217   17.333
  457.500  103.654    0.417    0.201   17.682
  457.750  102.545    0.422    0.182   18.369
  458.000   99.095    0.427    0.176   19.432
  458.250   95.659    0.434    0.208   20.557
  458.500   89.314    0.422    0.273   21.736
  458.750   81.792    0.411    0.287   25.200
  459.000   73.121    0.407    0.317   30.253
  459.250   64.449    0.400    0.331   40.533
  459.500   58.699    0.391    0.336   55.274
  459.750   57.590    0.391    0.324  104.576
  460.000   58.795    0.397    0.314   88.947
  460.250   65.249    0.405    0.304   77.110
  460.500   76.952    0.412    0.332   74.499
  460.750   75.261    0.413    0.337   73.294
  461.000   67.171    0.411    0.331   73.429
  461.250   66.657    0.400    0.324   67.155
  461.500   70.189    0.385    0.305   59.256
  461.750   77.238    0.383    0.300   51.346
  462.000   88.927    0.389    0.290   33.910
  462.250   95.408    0.393    0.277   31.041
  462.500   91.959    0.403    0.269   28.389
  462.750   85.019    0.408    0.285   31.141
  463.000   76.929    0.405    0.310   34.144
  463.250   70.002    0.401    0.320   38.140
  463.500   65.403    0.393    0.322   47.523
  463.750   64.307    0.400    0.328   58.124
  464.000   66.093    0.410    0.323   61.487
  464.250   67.893    0.419    0.323   67.510
  464.500   67.948    0.417    0.324   68.872
  464.750   68.029    0.412    0.325   68.999
  465.000   70.397    0.412    0.328   64.317
  465.250   76.269    0.419    0.329   60.967
  465.500   80.978    0.422    0.314   53.820
  465.750   81.046    0.416    0.308   49.222
  466.000   82.278    0.414    0.303   45.037
  466.250   81.169    0.421    0.302   42.730
  466.500   80.046    0.427    0.298   41.302
  466.750   75.460    0.434    0.300   41.378
  467.000   73.174    0.440    0.311   42.194
  467.250   70.320    0.451    0.319   46.327
  467.500   65.734    0.429    0.323   49.881
  467.750   62.298    0.416    0.326   56.739
  468.000   60.593    0.415    0.329   65.720
  468.250   60.066    0.415    0.336   83.387
  468.500   61.866    0.414    0.341  103.855
  468.750   63.679    0.412    0.342  120.294
  469.000   65.466    0.404    0.342  122.834
  469.250   69.024    0.377    0.338  112.338
  469.500   75.478    0.365    0.320   79.699
  469.750   83.095    0.358    0.298   34.026
  470.000   92.471    0.342    0.240   26.444
  470.250   97.762    0.362    0.241   23.333
  470.500   95.489    0.391    0.254   20.589
  470.750   93.217    0.469    0.268   18.175
  471.000   93.867    0.443    0.304   17.244
  471.250   95.666    0.427    0.331   16.661
  471.500   99.211    0.429    0.291   16.384
  471.750  104.502    0.432    0.219   16.119
  472.000  109.210    0.423    0.203   15.573
  472.250  115.096    0.413    0.197   15.060
  472.500  112.242    0.397    0.240   14.543
  472.750   98.902    0.380    0.267   14.044
  473.000   76.836    0.373    0.277   13.325
  473.250   67.001    0.370    0.301   12.643
  473.500   62.415    0.368    0.298   11.995
  473.750   63.051    0.363    0.298   11.181
  474.000   66.001    0.358    0.297   10.807
  474.250   72.469    0.356    0.296   10.442
  474.500   75.432    0.358    0.293   10.088
  474.750   72.578    0.359    0.283    9.747
  475.000   68.573    0.356    0.277    9.412
  475.250   66.301    0.352    0.278    8.930
  475.500   64.015    0.357    0.278    8.632
  475.750   61.161    0.363    0.278    8.343
  476.000   60.633    0.364    0.277    8.201
  476.250   60.688    0.376    0.279    8.224
  476.500   60.174    0.380    0.280    8.231
  476.750   59.052    0.376    0.281    8.555
  477.000   59.120    0.349    0.279    9.058
  477.250   59.783    0.342    0.276    9.401
