~VERSION INFORMATION
 VERS.                 2.0:   CWLS LOG ASCII STANDARD -VERSION 2.0
 WRAP.                  NO:   ONE LINE PER DEPTH STEP
~WELL INFORMATION BLOCK
#MNEM.UNIT           DATA                    DESCRIPTION OF MNEMONIC
#---------    -------------------            -------------------------------
# Generated from Intellog Unique Number	CW_70_72/WELL/3033
NULL.         -999.25                        : NULL_VALUE
WELL.         PANTHER FOW HUNDO 11-32        : Well_name    - WELL              
LOC .         11-32-070-01W5                 : Location     - LOCATION          
UWI .         00/11-32-070-01W5/0            : Uwi          - UNIQUE WELL ID    
ENTR.         JAYE                           : Entered      - ENTERED BY        
SRVC.         SCHLUMBERGER                   : Scn          - SERVICE COMPANY   
DATE.         18 FEB 79                      : Date         - LOG DATE          
STRT.M        410                            : top_depth    - START DEPTH       
STOP.M        655                            : bot_depth    - STOP DEPTH        
STEP.M        0.25                           : increment    - STEP LENGTH       
~CURVE INFORMATION BLOCK
#MNEM UNIT       ERCB CURVE CODE    CURVE DESCRIPTION
#-----------   ------------------   ----------------------------------
DEPT.M        00 001 00 00         : DEPTH        - DEPTH                       
ILD .OHMM     00 120 00 00         : RESD         - DEEP RESISTIVITY (DIL)      
CALI.MM       00 280 01 00         : CAL          - CALIPER                     
GR  .API      00 310 00 00         : GR           - GAMMA RAY                   
NPHI.V/V      00 330 00 00         : PHIN         - NEUTRON POROSITY (SANDSTONE)
DPHI.V/V      00 890 00 00         : PHID         - DENSITY POROSITY (SANDSTONE)
~PARAMETER INFORMATION       
#MNEM.UNIT           DATA             DESCRIPTION OF MNEMONIC
#---------         -----------     ------------------------------
GL  .M        591.1                : gl           - GROUND LEVEL ELEVATION      
EREF.M        595                  : kb           - ELEVATION OF DEPTH REFERENCE
DATM.M        591.1                : datum        - DATUM ELEVATION             
TDD .M        1533                 : tdd          - TOTAL DEPTH DRILLER         
RUN .         ONE                  : Run          - RUN NUMBER                  
ENG .         GILLIS               : Engineer     - RECORDING ENGINEER          
WIT .         WETHERLEY            : Witness      - WITNESSED BY                
BASE.         EDM                  : Branch       - HOME BASE OF LOGGING UNIT   
MUD .         GEL MUD              : Mud_type     - MUD TYPE                    
MATR.         SANDSTONE            : Logunit      - NEUTRON MATRIX              
TMAX.C        42                   : BHT          - MAXIMUM RECORDED TEMPERATURE
BHTD.M        1532.5               : BHTDEP       - MAXIMUM RECORDED TEMPERATURE
RMT .C        17                   : MDTP         - TEMPERATURE OF MUD          
MUDD.KG/M     1090                 : MWT          - MUD DENSITY                 
NEUT.         1                    : NEUTRON      - NEUTRON TYPE                
RESI.         0                    : RESIST       - RESISTIVITY TYPE            
RM  .OHMM     1.41                 : RM           - RESISTIVITY OF MUD          
RMC .OHMM     0.25                 : RMC          - RESISTIVITY OF MUD CAKE     
RMF .OHMM     1.13                 : RMF          - RESISTIVITY OF MUD FILTRATE 
SUFT.C        0                    : SUFT         - SURFACE TEMPERATURE         
~A  DEPTH     RESD      CAL       GR     PHIN     PHID
  410.000    2.257  311.696  100.364    0.530    0.225
  410.250    2.186  303.217   99.495    0.527    0.252
  410.500    2.160  311.223   95.038    0.541    0.271
  410.750    2.176  319.964   94.048    0.544    0.264
  411.000    2.215  333.219   96.520    0.543    0.258
  411.250    2.272  319.807   96.789    0.534    0.271
  411.500    2.297  309.122   96.929    0.524    0.243
  411.750    2.270  312.401   95.997    0.530    0.241
  412.000    2.235  334.062   92.674    0.544    0.254
  412.250    2.193  344.268   90.803    0.563    0.249
  412.500    2.163  336.630   93.525    0.575    0.239
  412.750    2.158  314.503   94.108    0.581    0.260
  413.000    2.190  321.875   92.106    0.543    0.254
  413.250    2.229  337.654   91.996    0.523    0.226
  413.500    2.325  340.200   92.136    0.505    0.212
  413.750    2.461  325.629   90.831    0.490    0.203
  414.000    2.703  306.650   87.316    0.493    0.213
  414.250    2.953  304.787   82.104    0.475    0.180
  414.500    3.226  303.445   74.748    0.456    0.155
  414.750    3.422  281.735   69.850    0.415    0.163
  415.000    3.370  282.286   72.953    0.428    0.209
  415.250    3.192  297.957   76.055    0.467    0.230
  415.500    2.929  329.171   77.141    0.524    0.246
  415.750    2.552  336.656   76.652    0.508    0.243
  416.000    2.312  341.721   77.111    0.516    0.264
  416.250    2.134  347.098   79.332    0.522    0.270
  416.500    2.067  351.637   81.109    0.527    0.274
  416.750    2.088  322.158   82.636    0.502    0.290
  417.000    2.174  289.950   76.730    0.506    0.266
  417.250    2.425  333.550   76.495    0.518    0.274
  417.500    2.664  313.942   80.604    0.491    0.308
  417.750    2.975  287.085   83.832    0.435    0.239
  418.000    3.323  264.120   77.044    0.418    0.255
  418.250    3.747  262.779   70.444    0.413    0.272
  418.500    4.063  262.918   71.089    0.425    0.198
  418.750    4.206  263.882   68.902    0.427    0.153
  419.000    4.173  265.586   65.514    0.403    0.113
  419.250    4.072  267.394   69.498    0.408    0.095
  419.500    3.906  271.624   78.459    0.444    0.198
  419.750    3.560  274.906   83.454    0.470    0.244
  420.000    3.218  276.608   87.251    0.490    0.259
  420.250    2.883  340.790   89.469    0.523    0.274
  420.500    2.731  369.693   90.870    0.542    0.287
  420.750    2.714  343.888   90.507    0.564    0.296
  421.000    2.895  310.416   88.191    0.502    0.259
  421.250    3.162  304.669   86.444    0.506    0.252
  421.500    3.506  328.110   86.648    0.389    0.283
  421.750    3.888  255.054   87.799    0.360    0.233
  422.000    4.193  248.883   89.326    0.352    0.225
  422.250    4.348  247.334   88.963    0.365    0.203
  422.500    4.274  247.150   90.303    0.386    0.214
  422.750    4.210  247.280   93.529    0.450    0.204
  423.000    4.231  247.939   93.544    0.480    0.204
  423.250    4.331  247.332   86.316    0.457    0.215
  423.500    4.427  244.424   80.283    0.438    0.217
  423.750    4.457  242.661   76.456    0.434    0.209
  424.000    4.341  242.059   74.959    0.447    0.202
  424.250    4.251  243.235   75.291    0.428    0.217
  424.500    4.147  245.047   79.399    0.418    0.216
  424.750    4.039  248.018   83.069    0.426    0.188
  425.000    3.969  250.038   84.470    0.428    0.175
  425.250    3.975  251.845   86.000    0.435    0.181
  425.500    4.077  252.924   87.588    0.449    0.197
  425.750    4.190  253.264   91.447    0.454    0.196
  426.000    4.290  253.288   94.171    0.452    0.203
  426.250    4.328  252.684   93.811    0.432    0.211
  426.500    4.317  252.603   91.052    0.418    0.210
  426.750    4.251  255.155   87.290    0.422    0.193
  427.000    4.187  260.118   85.036    0.436    0.208
  427.250    4.108  265.598   84.420    0.438    0.226
  427.500    4.052  277.595   86.327    0.437    0.240
  427.750    3.888  292.633   89.491    0.450    0.257
  428.000    3.717  268.299   92.910    0.457    0.279
  428.250    3.443  300.980   96.706    0.476    0.268
  428.500    3.165  329.251   98.423    0.500    0.275
  428.750    2.805  322.874   96.296    0.540    0.295
  429.000    2.527  329.303   90.640    0.543    0.303
  429.250    2.393  298.459   81.522    0.521    0.250
  429.500    2.473  302.371   73.284    0.549    0.251
  429.750    2.589  355.422   68.006    0.410    0.316
  430.000    2.731  336.967   61.658    0.378    0.254
  430.250    2.827  239.345   53.610    0.381    0.247
  430.500    2.758  234.115   49.216    0.376    0.261
  430.750    2.494  229.732   47.027    0.364    0.262
  431.000    2.239  228.078   49.372    0.356    0.244
  431.250    2.020  227.371   53.671    0.386    0.248
  431.500    1.896  226.766   43.357    0.384    0.283
  431.750    1.800  226.377   39.276    0.359    0.288
  432.000    1.762  226.185   35.384    0.365    0.272
  432.250    1.729  226.841   37.164    0.355    0.279
  432.500    1.721  227.818   45.938    0.350    0.275
  432.750    1.743  229.106   53.387    0.355    0.262
  433.000    1.824  230.810   62.790    0.332    0.249
  433.250    1.942  232.198   71.877    0.341    0.237
  433.500    2.186  234.115   82.604    0.364    0.223
  433.750    2.344  235.607   88.666    0.383    0.194
  434.000    2.678  237.001   95.803    0.410    0.177
  434.250    2.947  237.760   97.332    0.405    0.184
  434.500    3.219  238.520   95.769    0.393    0.178
  434.750    3.511  239.280   95.597    0.391    0.175
  435.000    3.688  243.086   96.557    0.418    0.188
  435.250    3.919  253.402  101.297    0.456    0.206
  435.500    4.073  283.669  105.282    0.440    0.228
  435.750    4.131  271.517  107.062    0.427    0.215
  436.000    3.891  259.779  105.691    0.450    0.241
  436.250    3.447  249.725  100.164    0.578    0.325
  436.500    2.609  268.232   97.532    0.607    0.380
  436.750    2.158  303.224   95.406    0.625    0.387
  437.000    1.856  331.389   93.719    0.602    0.403
  437.250    1.811  373.837   92.350    0.566    0.416
  437.500    1.871  361.158   90.349    0.566    0.429
  437.750    2.079  313.091   86.836    0.535    0.295
  438.000    2.322  273.742   82.315    0.492    0.277
  438.250    2.668  246.046   76.282    0.454    0.213
  438.500    2.892  230.743   69.178    0.413    0.175
  438.750    3.189  232.869   66.234    0.388    0.154
  439.000    3.389  237.831   70.471    0.407    0.133
  439.250    3.294  245.416   78.298    0.430    0.201
  439.500    3.007  260.876   83.731    0.453    0.302
  439.750    2.827  259.852   80.849    0.443    0.295
  440.000    2.857  266.703   73.619    0.464    0.296
  440.250    2.979  271.350   74.833    0.456    0.291
  440.500    3.125  241.975   78.063    0.450    0.282
  440.750    3.176  238.225   80.662    0.488    0.277
  441.000    3.127  245.703   82.062    0.520    0.276
  441.250    2.995  258.432   80.754    0.528    0.307
  441.500    2.880  235.881   77.114    0.477    0.274
  441.750    2.889  225.410   75.555    0.413    0.261
  442.000    2.941  228.067   77.270    0.407    0.252
  442.250    3.045  231.241   81.192    0.422    0.223
  442.500    3.217  233.997   85.620    0.429    0.212
  442.750    3.368  235.381   86.768    0.446    0.207
  443.000    3.474  237.198   86.405    0.477    0.186
  443.250    3.517  238.373   86.296    0.490    0.182
  443.500    3.509  239.452   88.011    0.459    0.180
  443.750    3.443  239.900   83.680    0.450    0.179
  444.000    3.378  239.925   78.403    0.471    0.193
  444.250    3.295  239.106   72.560    0.472    0.218
  444.500    3.150  237.033   64.700    0.465    0.250
  444.750    2.952  236.118   62.007    0.454    0.274
  445.000    2.847  236.676   67.630    0.443    0.271
  445.250    2.762  237.329   74.135    0.430    0.249
  445.500    2.613  238.080   76.921    0.421    0.243
  445.750    2.553  241.162   78.133    0.431    0.249
  446.000    2.382  243.701   78.527    0.445    0.254
  446.250    2.154  249.288   77.849    0.462    0.258
