~Version Information
VERS.                2.00:
WRAP.                  NO:
~Well Information Block
#MNEM.UNIT       Data Type    Information
#---------    -------------   -------------------
FLD.   :FIELD
FLD.   :FIELD
FLD.   :FIELD
FLD.   :FIELD
STRT.M          1950.0000:
STOP.M          4060.0000:
STEP.M             0.8202:
NULL.           -999.2500:
COMP.  MUTUAL EXPLORATION FUNDS:COMPANY
WELL.  MUTES IOE SEAFORTH:WELL
FLD.   :FIELD
LOC.   15-20-095-20W4:LOCATION
CTRY.  CANADA:COUNTRY
PROV.  ALBERTA:PROVINCE
SRVC.  SCHLUMBERGER:SERVICE COMPANY
DATE.  01 MAR 69:LOG DATE
UWI.   00/15-20-095-20W4/0:UNIQUE WELL ID
~Curve Information Block
#MNEM.UNIT        API CODE    Curve Description
#---------    ------------    -----
DEPT.M                    :   DEPTH
CALI.in                   :   CALI
GR  .API                  :   GR
SNP .V/V                  :   SNP
~A  Depth           CALI          GR         SNP
# ...
3564.1536         8.9287      6.0434      0.0274
3564.9738         8.9296      6.0422      0.0347
3565.7940         8.9304      6.7273      0.0395
3566.6142         8.8983      7.9412      0.0420
3567.4344         8.8664      8.5959      0.0373
3568.2546         8.8290      9.1801      0.0285
3569.0748         8.8194      9.9523      0.0216
3569.8950         8.8151     10.0908      0.0178
3570.7152         8.8141      9.8440      0.0143
3571.5354         8.7805      9.4260      0.0151
3572.3556         8.7758      8.7040      0.0152
3573.1758         8.7759      8.5714      0.0145
3573.9960         8.7765      8.1425      0.0124
3574.8162         8.7773      8.1489      0.0100
3575.6364         8.7781      8.1566      0.0103
3576.4566         8.7789      7.8484      0.0103
3577.2768         8.7444      7.3811      0.0096
3578.0970         8.7051      7.0648      0.0130
3578.9172         8.7018      6.9820      0.0148
3579.7374         8.6720      7.3683      0.0137
3580.5576         8.6626      7.0153      0.0107
3581.3778         8.6625      7.0022      0.0096
3582.1980         8.6631      7.0086      0.0102
3583.0182         8.6639      7.0162      0.0124
3583.8384         8.6647      7.0239      0.0190
3584.6586         8.7026      7.0315      0.0312
3585.4788         8.7067      7.4050      0.0397
3586.2990         8.7078      7.8103      0.0471
3587.1192         8.7086      8.5810      0.0465
3587.9394         8.7094      9.5355      0.0369
3588.7596         8.7103     10.0905      0.0256
3589.5798         8.7111     10.6371      0.0195
3590.4000         8.7739     11.0613      0.0145
3591.2202         8.7894     11.1183      0.0104
3592.0404         8.7945     10.4315      0.0040
3592.8606         8.7955      9.3070      0.0052
3593.6808         8.7964      8.6192      0.0060
3594.5010         8.7972      8.0356      0.0054
3595.3212         8.7981      7.9700      0.0052
3596.1414         8.7989      7.6129      0.0052
3596.9616         8.8317      7.5619      0.0044
3597.7818         8.8410      6.8928      0.0075
3598.6020         8.8016      6.7842      0.0083
3599.4222         8.8023      6.7713      0.0090
3600.2424         8.8031      6.7753      0.0091
3601.0626         8.8243      6.7823      0.0091
3601.8828         8.8387      6.7899      0.0131
3602.7030         8.8434      6.7975      0.0125
3603.5232         8.8464      6.8052      0.0117
3604.3434         8.8477      6.8129      0.0115
3605.1636         8.8486      6.4257      0.0108
3605.9838         8.8494      6.4253      0.0107
3606.8040         8.8503      6.8228      0.0100
3607.6242         8.8511      6.8432      0.0098
3608.4444         8.8519      6.8513      0.0105
3609.2646         8.8244      7.2417      0.0112
3610.0848         8.8149      7.6493      0.0096
3610.9050         8.8141      7.6794      0.0104
3611.7252         8.8148      7.6885      0.0112
3612.5454         8.8155      7.6963      0.0106
3613.3656         8.7811      7.7040      0.0133
3614.1858         8.7781      7.7116      0.0198
3615.0060         8.7776      7.7193      0.0283
3615.8262         8.7783      7.7270      0.0371
3616.6464         8.7791      7.7347      0.0500
3617.4666         8.7800      8.1020      0.0594
3618.2868         8.7808      8.8644      0.0568
3619.1070         8.7816     10.7435      0.0557
3619.9272         8.7825     13.1065      0.0583
3620.7474         8.7833     14.8076      0.0565
3621.5676         8.8143     15.3661      0.0507
3622.3878         8.8229     15.4281      0.0428
3623.2080         8.8254     15.1048      0.0376
3624.0282         8.8271     13.3384      0.0398
3624.8484         8.8280     12.7529      0.0458
3625.6686         8.8288     12.6736      0.0471
3626.4888         8.7914     12.9509      0.0466
3627.3090         8.7901     13.3959      0.0580
3628.1292         8.7520     14.1475      0.0700
3628.9494         8.7511     15.9594      0.0596
3629.7696         8.7126     16.5993      0.0431
3630.5898         8.7122     15.7175      0.0283
3631.4100         8.7130     13.9608      0.0211
3632.2302         8.7138     13.1288      0.0207
3633.0504         8.4516     12.8071      0.0244
3633.8706         8.3691     11.9576      0.0345
3634.6908         8.3546     11.1370      0.0613
3635.5110         8.4521     10.1869      0.0919
3636.3312         8.5698     10.7291      0.1171
3637.1514         8.6583     12.7148      0.1112
3637.9716         8.7085     15.1287      0.1018
3638.7918         8.7863     17.9487      0.0720
3639.6120         8.8658     19.2025      0.0487
3640.4322         8.9063     16.5437      0.0416
3641.2524         8.9224     14.9111      0.0398
3642.0726         8.9533     14.4541      0.0398
3642.8928         8.9656     14.4395      0.0398
3643.7130         9.0021     14.4418      0.0366
3644.5332         8.9799     14.0763      0.0339
3645.3534         8.9380     14.0549      0.0321
3646.1736         8.9320     14.4273      0.0291
3646.9938         8.8973     14.4674      0.0259
3647.8140         8.8362     13.7544      0.0319
3648.6342         8.7799     14.0485      0.0724
3649.4544         8.7453     13.3725      0.1093
3650.2746         8.7067     12.9480      0.1248
3651.0948         8.6671     11.8495      0.1321
3651.9150         8.5674     10.3241      0.1373
3652.7352         8.4985     10.1236      0.1426
3653.5554         8.4557     10.6743      0.1514
3654.3756         8.4153     11.5632      0.1594
3655.1958         8.4128     13.7595      0.1539
3656.0160         8.4392     14.0927      0.1408
3656.8362         8.4914     13.1362      0.1311
3657.6564         8.4959     11.9837      0.1226
3658.4766         8.5349     13.1337      0.1104
3659.2968         8.5686     14.3357      0.0809
3660.1170         8.6173     14.7888      0.0526
3660.9372         8.6210     13.9795      0.0173
3661.7574         8.6604     13.5109      0.0106
3662.5776         8.7018     15.0602      0.0083
3663.3978         8.7041     14.3883      0.0073
3664.2180         8.7054     11.8276      0.0073
3665.0382         8.7455      9.8393      0.0072
3665.8584         8.7476      9.5020      0.0072
3666.6786         8.7487      9.1216      0.0087
3667.4988         8.7891      8.6360      0.0103
3668.3190         8.7907      8.2398      0.0089
3669.1392         8.7918      8.2318      0.0080
3669.9594         8.7926      8.2349      0.0102
3670.7796         8.7935      8.2423      0.0103
3671.5998         8.7943      7.9472      0.0103
3672.4200         8.7951      7.4919      0.0118
3673.2402         8.7960      7.4625      0.0119
3674.0604         8.7968      7.4676      0.0111
3674.8806         8.7976      7.4744      0.0087
3675.7008         8.7985      7.4820      0.0079
3676.5210         8.7993      7.4897      0.0070
3677.3412         8.8001      7.7895      0.0070
3678.1614         8.8009      8.1682      0.0046
3678.9816         8.7736      8.6551      0.0039
3679.8018         8.7658      7.6699      0.0038
3680.6220         8.7644      6.1604      0.0037
3681.4422         8.7643      6.2795      0.0044
3682.2624         8.7646      6.6706      0.0050
3683.0826         8.7654      6.7248      0.0052
3683.9028         8.7662      6.7493      0.0059
3684.7230         8.7670      6.7597      0.0074
3685.5432         8.7679      7.0454      0.0070
3686.3634         8.7687      7.4916      0.0055
3687.1836         8.7695      7.5738      0.0060
3688.0038         8.7997      7.5945      0.0060
3688.8240         8.8087      7.9334      0.0080
3689.6442         8.8118      8.0018      0.0097
3690.4644         8.8132      8.0210      0.0116
3691.2846         8.8142      8.0308      0.0122
3692.1048         8.8151      8.0391      0.0124
3692.9250         8.8159      7.6476      0.0131
3693.7452         8.8168      8.4457      0.0132
3694.5654         8.8176      9.0969      0.0126
3695.3856         8.8184      9.2749      0.0117
3696.2058         8.8192     10.0685      0.0122
3697.0260         8.8201     10.8782      0.0130
3697.8462         8.8209     10.9142      0.0138
