~VERSION INFORMATION
 VERS.                 2.0:   CWLS LOG ASCII STANDARD -VERSION 2.0
 WRAP.                  NO:   ONE LINE PER DEPTH STEP
~WELL INFORMATION BLOCK
#MNEM.UNIT           DATA                    DESCRIPTION OF MNEMONIC
#---------    -------------------            -------------------------------
# Generated from Intellog Unique Number	CW_73_75/WELL/2749
WELL.         COSEKA ETAL MITSUE 12-31       : Well_name    - WELL
LOC .         00/12-31-073-04W5/0            : Location     - LOCATION
UWI .         00/12-31-073-04W5/0            : Uwi          - UNIQUE WELL ID
ENTR.         JAYE                           : Entered      - ENTERED BY
SRVC.         WESTERN ATLAS                  : Scn          - SERVICE COMPANY
DATE.         19 JUNE 84                     : Date         - LOG DATE
STRT.M        365                            : top_depth    - START DEPTH
STOP.M        585                            : bot_depth    - STOP DEPTH
STEP.M        0.25                           : increment    - STEP LENGTH
 NULL. -999.2500:NULL Value
~CURVE INFORMATION BLOCK
#MNEM UNIT       ERCB CURVE CODE    CURVE DESCRIPTION
#-----------   ------------------   ----------------------------------
DEPT.M        00 001 00 00         : DEPTH        - DEPTH
DPHI.V/V      00 890 00 00         : PHID         - DENSITY POROSITY (SANDSTONE)
NPHI.V/V      00 330 00 00         : PHIN         - NEUTRON POROSITY (SANDSTONE)
GR  .API      00 310 00 00         : GR           - GAMMA RAY
CALI.MM       00 280 01 00         : CAL          - CALIPER
ILD .OHMM     00 120 00 00         : RESD         - DEEP RESISTIVITY (DIL)
~PARAMETER INFORMATION
#MNEM.UNIT           DATA             DESCRIPTION OF MNEMONIC
#---------         -----------     ------------------------------
GL  .M        585.2                : gl           - GROUND LEVEL ELEVATION
EREF.M        598.8                : kb           - ELEVATION OF DEPTH REFERENCE
DATM.M        585.2                : datum        - DATUM ELEVATION
TDD .M        1645                 : tdd          - TOTAL DEPTH DRILLER
RUN .         ONE                  : Run          - RUN NUMBER
ENG .         TAKEYASU             : Engineer     - RECORDING ENGINEER
WIT .         JONES                : Witness      - WITNESSED BY
BASE.         EDM                  : Branch       - HOME BASE OF LOGGING UNIT
MUD .         GEL CHEM             : Mud_type     - MUD TYPE
MATR.         SANDSTONE            : Logunit      - NEUTRON MATRIX
TMAX.C        49                   : BHT          - MAXIMUM RECORDED TEMPERATURE
BHTD.M        1645.6               : BHTDEP       - MAXIMUM RECORDED TEMPERATURE
RMT .C        16                   : MDTP         - TEMPERATURE OF MUD
MUDD.KG/M     1090                 : MWT          - MUD DENSITY
NEUT.         1                    : NEUTRON      - NEUTRON TYPE
RESI.         0                    : RESIST       - RESISTIVITY TYPE
RM  .OHMM     1.2                  : RM           - RESISTIVITY OF MUD
RMC .OHMM     1.2                  : RMC          - RESISTIVITY OF MUD CAKE
RMF .OHMM     0.6                  : RMF          - RESISTIVITY OF MUD FILTRATE
SUFT.C        0                    : SUFT         - SURFACE TEMPERATURE
~A  DEPTH     PHID     PHIN       GR      CAL     RESD
  365.000    0.493    0.387   52.734  286.710    2.954
  365.250    0.603    0.449   49.732  311.072    2.678
  365.500    0.847    0.663   49.996  369.625    2.373
  365.750    0.873    0.712   46.132  371.707    2.131
  366.000    0.886    0.670   42.760  378.206    2.021
  366.250    0.884    0.668   58.055  369.095    1.959
  366.500    0.872    0.655   69.039  217.371    1.964
  366.750    0.860    0.790   81.130  208.159    2.044
  367.000    0.842    0.603   83.303  206.750    2.201
  367.250    0.548    0.465   78.885  212.532    2.400
  367.500    0.439    0.464   73.727  218.101    2.696
  367.750    0.300    0.489   72.081  223.365    3.128
  368.000    0.265    0.500   69.696  221.959    3.689
  368.250    0.257    0.379   67.311  215.105    4.433
  368.500    0.254    0.381   68.314  208.666    4.907
  368.750    0.254    0.403   73.812  210.850    5.060
  369.000    0.261    0.415   71.981  217.144    5.008
  369.250    0.273    0.409   68.919  221.894    4.946
  369.500    0.284    0.392   65.054  225.724    4.987
  369.750    0.276    0.370   63.716  225.239    5.143
  370.000    0.272    0.420   72.912  224.138    5.264
  370.250    0.260    0.467   75.640  222.624    5.267
  370.500    0.222    0.476   76.028  220.088    5.222
  370.750    0.197    0.447   79.925  216.623    5.158
  371.000    0.202    0.414   79.018  211.928    5.270
  371.250    0.240    0.377   74.108  207.747    5.495
  371.500    0.331    0.425   70.798  207.983    5.827
  371.750    0.334    0.424   67.056  211.603    5.986
  372.000    0.290    0.386   76.191  213.581    6.024
  372.250    0.287    0.431   84.524  212.275    5.851
  372.500    0.306    0.470   78.196  210.660    5.588
  372.750    0.298    0.517   80.369  208.535    5.075
  373.000    0.330    0.499   80.942  210.717    4.473
  373.250    0.395    0.463   83.545  219.063    4.353
  373.500    0.436    0.491   83.687  215.498    4.455
  373.750    0.366    0.515   79.020  208.646    4.585
  374.000    0.316    0.469   74.973  206.622    4.597
  374.250    0.325    0.530   71.725  208.706    4.375
  374.500    0.414    0.540   67.675  221.156    3.885
  374.750    0.561    0.510   64.920  253.013    3.373
  375.000    0.523    0.489   77.258  301.607    2.719
  375.250    0.434    0.466   89.534  275.556    2.441
  375.500    0.346    0.517  102.735  243.242    2.499
  375.750    0.371    0.569   94.312  218.525    2.876
  376.000    0.453    0.510   78.620  210.854    3.374
  376.250    0.499    0.539   63.112  219.719    4.093
  376.500    0.333    0.564   53.828  223.542    5.241
  376.750    0.341    0.388   52.613  226.136    6.513
  377.000    0.333    0.390   58.914  226.985    6.946
  377.250    0.312    0.423   58.991  227.116    6.772
  377.500    0.297    0.455   57.161  227.660    6.565
  377.750    0.303    0.430   57.116  227.583    6.401
  378.000    0.314    0.416   52.575  227.612    6.125
  378.250    0.312    0.439   49.080  227.231    6.016
  378.500    0.309    0.412   53.719  226.749    5.954
  378.750    0.317    0.388   58.479  226.363    5.848
  379.000    0.321    0.405   57.694  226.806    5.628
  379.250    0.319    0.413   55.185  226.831    5.426
  379.500    0.315    0.427   58.592  226.554    5.309
  379.750    0.304    0.426   57.685  226.683    5.254
  380.000    0.301    0.383   53.820  227.125    5.278
  380.250    0.312    0.355   49.402  228.587    5.341
  380.500    0.323    0.396   45.969  230.671    5.437
  380.750    0.310    0.397   46.355  232.652    5.553
  381.000    0.299    0.408   48.097  234.322    5.726
  381.250    0.283    0.396   58.526  235.582    5.904
  381.500    0.270    0.368   68.892  236.945    6.145
  381.750    0.261    0.424   71.312  238.105    6.566
  382.000    0.256    0.442   72.684  238.440    6.962
  382.250    0.253    0.382   74.797  238.160    7.246
  382.500    0.256    0.358   74.258  237.470    7.361
  382.750    0.311    0.399   74.769  238.938    7.230
  383.000    0.354    0.411   72.445  249.848    6.493
  383.250    0.549    0.465   68.704  267.124    5.659
  383.500    0.634    0.536   65.949  283.069    4.942
  383.750    0.712    0.628   61.347  286.790    4.397
  384.000    0.718    0.684   72.021  271.726    3.712
  384.250    0.715    0.688   83.865  251.117    2.969
  384.500    0.728    0.487   87.579  250.119    2.603
  384.750    0.568    0.457   78.048  258.465    2.552
  385.000    0.575    0.474   80.098  270.505    3.348
  385.250    0.563    0.531   89.478  235.626    3.825
  385.500    0.289    0.394   88.941  228.263    4.763
  385.750    0.293    0.382   71.585  224.082    5.618
  386.000    0.303    0.377   53.860  223.291    7.048
  386.250    0.300    0.357   49.996  223.626    8.009
  386.500    0.293    0.333   58.022  224.375    7.523
  386.750    0.264    0.324   72.947  224.707    6.973
  387.000    0.230    0.330   79.125  224.944    6.416
  387.250    0.231    0.357   74.522  224.763    6.037
  387.500    0.251    0.373   65.667  224.486    6.087
  387.750    0.277    0.369   60.694  224.513    6.172
  388.000    0.281    0.340   56.092  224.645    6.200
  388.250    0.268    0.335   72.680  225.288    6.113
  388.500    0.264    0.363   80.151  225.935    5.806
  388.750    0.254    0.396   84.912  226.581    5.432
  389.000    0.242    0.362   85.421  227.324    4.933
  389.250    0.237    0.399   70.037  228.279    4.756
  389.500    0.451    0.461   60.814  227.997    5.062
  389.750    0.486    0.480   50.113  226.895    5.656
  390.000    0.383    0.455   39.533  226.207    6.297
  390.250    0.334    0.367   32.589  225.002    6.892
  390.500    0.329    0.358   37.473  224.107    7.517
  390.750    0.326    0.464   45.992  224.959    7.823
  391.000    0.320    0.475   53.278  225.604    7.917
  391.250    0.322    0.402   55.512  226.041    7.777
  391.500    0.324    0.392   56.148  226.687    7.304
  391.750    0.323    0.428   57.518  226.821    7.095
  392.000    0.321    0.412   60.122  226.847    7.060
  392.250    0.318    0.385   64.884  226.771    7.106
  392.500    0.310    0.399   71.122  226.802    7.071
  392.750    0.307    0.415   63.008  226.522    6.998
  393.000    0.301    0.436   65.674  226.342    6.938
  393.250    0.297    0.421   65.690  225.859    6.676
  393.500    0.290    0.427   62.197  225.475    6.412
  393.750    0.279    0.443   67.696  225.097    6.263
  394.000    0.267    0.419   72.703  224.817    6.152
  394.250    0.258    0.413   65.327  224.845    6.088
  394.500    0.257    0.415   58.939  224.872    6.059
  394.750    0.263    0.394   60.742  224.591    6.155
  395.000    0.269    0.416   60.266  224.723    6.241
  395.250    0.276    0.419   61.330  225.058    6.234
  395.500    0.291    0.402   58.883  226.113    6.452
  395.750    0.303    0.430   53.540  228.402    5.752
  396.000    0.324    0.483   59.102  231.306    4.929
  396.250    0.386    0.475   67.435  234.207    3.862
  396.500    0.407    0.479   70.349  236.289    3.341
  396.750    0.348    0.562   71.843  236.830    3.057
  397.000    0.348    0.530   75.372  234.808    3.372
  397.250    0.376    0.395   77.422  232.681    4.029
  397.500    0.356    0.384   64.133  231.374    4.665
  397.750    0.336    0.392   56.757  230.476    5.411
  398.000    0.344    0.432   53.263  229.069    5.989
  398.250    0.350    0.431   56.238  228.072    6.339
  398.500    0.342    0.410   57.979  227.074    6.321
  398.750    0.334    0.429   54.978  226.589    6.243
  399.000    0.325    0.412   55.980  226.412    6.224
  399.250    0.318    0.389   55.382  226.028    6.276
  399.500    0.313    0.403   51.825  225.747    6.424
  399.750    0.319    0.406   50.734  225.471    6.611
  400.000    0.326    0.395   51.243  225.294    6.855
  400.250    0.325    0.431   63.212  224.910    7.135
  400.500    0.318    0.460   56.205  224.834    7.510
  400.750    0.314    0.344   54.375  224.558    7.714
  401.000    0.313    0.370   55.502  224.174    7.605
  401.250    0.311    0.395   55.456  223.792    7.401
