~VERSION INFORMATION
 VERS.                 2.0:   CWLS LOG ASCII STANDARD -VERSION 2.0
 WRAP.                  NO:   ONE LINE PER DEPTH STEP
~WELL INFORMATION BLOCK
#MNEM.UNIT           DATA                    DESCRIPTION OF MNEMONIC
#---------    -------------------            -------------------------------
# Generated from Intellog Unique Number	CS_71_72/WELL/910
WELL.         PEX PHILLIPS AEC KIRBY         : Well_name    - WELL
LOC .         00/11-31-072-07W4/0            : Location     - LOCATION
UWI .         00/11-31-072-07W4/0            : Uwi          - UNIQUE WELL ID
ENTR.         SP                             : Entered      - ENTERED BY
SRVC.         SCHLUMBERGER                   : Scn          - SERVICE COMPANY
STRT.M        310                            : top_depth    - START DEPTH
STOP.M        530                            : bot_depth    - STOP DEPTH
STEP.M        0.25                           : increment    - STEP LENGTH
 NULL. -999.2500:NULL Value
~CURVE INFORMATION BLOCK
#MNEM UNIT       ERCB CURVE CODE    CURVE DESCRIPTION
#-----------   ------------------   ----------------------------------
DEPT.M        00 001 00 00         : DEPTH        - DEPTH
ILD .OHMM     00 120 00 00         : RESD         - DEEP RESISTIVITY (DIL)
DPHI.V/V      00 890 00 00         : PHID         - DENSITY POROSITY (LIMESTONE)
NPHI.V/V      00 330 00 00         : PHIN         - NEUTRON POROSITY (LIMESTONE)
GR  .API      00 310 00 00         : GR           - GAMMA RAY
~PARAMETER INFORMATION
#MNEM.UNIT           DATA             DESCRIPTION OF MNEMONIC
#---------         -----------     ------------------------------
GL  .M        682.8                : gl           - GROUND LEVEL ELEVATION
EREF.M        685.88               : kb           - ELEVATION OF DEPTH REFERENCE
DATM.M        682.8                : datum        - DATUM ELEVATION
TDD .M        536                  : tdd          - TOTAL DEPTH DRILLER
RUN .         ONE                  : Run          - RUN NUMBER
ENG .         BILL                 : Engineer     - RECORDING ENGINEER
WIT .         JIM                  : Witness      - WITNESSED BY
MUD .         GEL                  : Mud_type     - MUD TYPE
MATR.         LIMESTONE            : Logunit      - NEUTRON MATRIX
TMAX.C        26                   : BHT          - MAXIMUM RECORDED TEMPERATURE
BHTD.M        536                  : BHTDEP       - MAXIMUM RECORDED TEMPERATURE
MATR.         1                    : LOGUNIT      - NEUTRON MATRIX
RMT .C        25                   : MDTP         - TEMPERATURE OF MUD
NEUT.         1                    : NEUTRON      - NEUTRON TYPE
RESI.         0                    : RESIST       - RESISTIVITY TYPE
RMC .OHMM     0.25                 : RMC          - RESISTIVITY OF MUD CAKE
RMF .OHMM     0.25                 : RMF          - RESISTIVITY OF MUD FILTRATE
SUFT.C        15                   : SUFT         - SURFACE TEMPERATURE
~A  DEPTH     RESD     PHID     PHIN       GR
# ...
  484.000    7.849    0.245    0.329   81.824
  484.250    7.423    0.220    0.322   86.733
  484.500    7.568    0.202    0.312   88.579
  484.750    7.570    0.191    0.308   90.428
  485.000    7.715    0.179    0.300   89.826
  485.250    8.167    0.191    0.298   86.783
  485.500    8.324    0.187    0.301   84.954
  485.750    8.647    0.193    0.308   87.413
  486.000    8.649    0.193    0.313   89.870
  486.250    8.334    0.203    0.320   97.230
  486.500    7.591    0.183    0.329  103.976
  486.750    7.046    0.171    0.336  107.050
  487.000    6.918    0.181    0.349  109.506
  487.250    6.920    0.195    0.366  107.072
  487.500    7.604    0.192    0.371  105.857
  487.750    8.199    0.168    0.361  103.417
  488.000    9.531    0.177    0.339   96.082
  488.250   10.276    0.191    0.335   87.520
  488.500   12.173    0.217    0.333   75.286
  488.750   12.882    0.254    0.328   66.118
  489.000   11.734    0.287    0.330   62.452
  489.250   10.294    0.314    0.331   55.728
  489.500    9.202    0.320    0.329   50.842
  489.750    8.381    0.307    0.326   47.791
  490.000    7.778    0.286    0.330   64.335
  490.250    7.638    0.259    0.336   78.426
  490.500    7.786    0.239    0.362   90.683
  490.750    7.936    0.206    0.377   97.430
  491.000    8.089    0.210    0.361   92.547
  491.250    8.563    0.245    0.345   89.495
  491.500    8.727    0.267    0.335   84.608
  491.750    9.064    0.268    0.325   78.496
  492.000    9.068    0.216    0.309   76.055
  492.250    8.902    0.181    0.322   79.739
  492.500    8.580    0.168    0.330   80.975
  492.750    8.582    0.159    0.342   83.436
  493.000    8.585    0.164    0.347   84.673
  493.250    8.588    0.151    0.317   85.909
  493.500    8.592    0.162    0.303   87.756
  493.750    9.094    0.163    0.311   87.769
  494.000    9.268    0.164    0.319   85.328
  494.250    9.996    0.174    0.312   82.891
  494.500   10.577    0.176    0.307   88.411
  494.750   12.069    0.188    0.303   94.547
  495.000   13.260    0.199    0.305   98.230
  495.250   14.570    0.218    0.315   97.628
  495.500   15.417    0.258    0.318   79.884
  495.750   16.626    0.298    0.311   65.201
  496.000   17.270    0.304    0.304   56.030
  496.250   15.730    0.299    0.301   54.205
  496.500   13.543    0.296    0.305   56.052
  496.750   11.023    0.310    0.306   56.065
  497.000    9.490    0.301    0.305   55.461
  497.250    7.440    0.289    0.305   53.639
  497.500    6.527    0.279    0.312   52.423
  497.750    5.834    0.272    0.319   53.049
  498.000    5.622    0.284    0.323   54.284
  498.250    5.950    0.297    0.326   61.642
  498.500    6.663    0.308    0.311   74.509
  498.750    7.051    0.238    0.310   86.764
  499.000    7.186    0.133    0.319   99.022
  499.250    7.325    0.162    0.323  106.380
  499.500    7.192    0.176    0.329  108.837
  499.750    6.931    0.178    0.336  108.850
  500.000    7.065    0.183    0.345  107.023
  500.250    7.200    0.211    0.350  110.095
  500.500    7.621    0.241    0.345  107.046
  500.750    7.916    0.264    0.343   98.485
  501.000    8.069    0.225    0.309   81.356
  501.250    8.225    0.201    0.302   74.630
  501.500    8.228    0.195    0.299   78.314
  501.750    8.232    0.183    0.302   80.163
  502.000    8.234    0.162    0.315   83.236
  502.250    8.240    0.228    0.326   75.898
  502.500    8.244    0.280    0.318   66.115
  502.750    8.247    0.280    0.313   60.002
  503.000    8.405    0.191    0.309   69.810
  503.250    8.566    0.142    0.307   79.616
  503.500    8.898    0.120    0.310   88.201
  503.750    9.241    0.102    0.319   92.495
  504.000    9.600    0.173    0.335   82.102
  504.250    9.970    0.210    0.350   72.928
  504.500   10.162    0.186    0.361   68.040
  504.750   10.360    0.132    0.358   71.724
  505.000   10.365    0.169    0.357   69.900
  505.250   10.175    0.243    0.313   70.524
  505.500    9.623    0.241    0.335   79.110
  505.750    9.447    0.214    0.364   91.975
  506.000    9.102    0.252    0.395  111.576
  506.250    8.138    0.251    0.409  119.545
  506.500    7.695    0.287    0.412  125.068
  506.750    7.277    0.315    0.413  128.139
  507.000    7.012    0.230    0.413  129.990
  507.250    7.015    0.191    0.416  127.551
  507.500    7.150    0.244    0.397  120.829
  507.750    7.427    0.294    0.381  117.775
  508.000    8.010    0.276    0.368  111.668
  508.250    8.164    0.074    0.363  108.006
  508.500    8.168    0.115    0.359  104.956
  508.750    8.325    0.147    0.364  102.518
  509.000    8.329    0.147    0.365   99.469
  509.250    8.490    0.133    0.358   97.029
  509.500    8.492    0.149    0.352   96.426
  509.750    8.822    0.165    0.347   93.990
  510.000    8.991    0.177    0.342   91.552
  510.250    9.166    0.198    0.340   88.503
  510.500    9.170    0.164    0.345   86.676
  510.750    9.004    0.216    0.333   85.460
  511.000    8.839    0.283    0.329   83.635
  511.250    8.679    0.117    0.334   89.158
  511.500    8.520    0.116    0.338   97.740
  511.750    8.365    0.126    0.334  105.710
  512.000    8.370    0.133    0.332  110.617
  512.250    8.531    0.127    0.332  111.243
  512.500    8.534    0.130    0.313  110.641
  512.750    8.538    0.146    0.313  108.815
  513.000    8.541    0.162    0.319  110.051
  513.250    8.545    0.135    0.330  115.573
  513.500    8.389    0.125    0.323  119.870
  513.750    7.934    0.111    0.317  118.043
  514.000    7.789    0.135    0.312  115.605
  514.250    7.231    0.158    0.311  113.168
  514.500    6.967    0.147    0.313  103.995
  514.750    6.588    0.176    0.317   92.376
  515.000    6.230    0.227    0.314   82.591
  515.250    5.783    0.201    0.309   76.479
  515.500    5.677    0.210    0.308   72.817
  515.750    5.368    0.231    0.317   68.547
  516.000    5.270    0.256    0.314   66.717
  516.250    4.984    0.211    0.312   65.501
  516.500    4.802    0.249    0.308   64.292
  516.750    4.542    0.221    0.313   63.688
  517.000    4.459    0.233    0.318   61.866
  517.250    4.217    0.267    0.321   60.038
  517.500    4.063    0.269    0.323   57.601
  517.750    3.842    0.289    0.320   57.611
  518.000    3.634    0.340    0.325   58.232
  518.250    3.501    0.264    0.332   58.246
  518.500    3.374    0.296    0.334   56.419
  518.750    3.251    0.325    0.332   49.695
  519.000    3.191    0.337    0.331   46.032
  519.250    3.076    0.335    0.338   42.983
  519.500    3.019    0.338    0.340   41.156
  519.750    2.964    0.321    0.337   39.942
  520.000    2.966    0.308    0.335   46.078
  520.250    2.911    0.305    0.331   48.536
  520.500    2.913    0.314    0.327   50.997
  520.750    2.914    0.337    0.326   43.662
  521.000    2.970    0.312    0.322   36.944
  521.250    3.028    0.306    0.320   35.115
  521.500    3.029    0.316    0.317   33.290
  521.750    3.266    0.333    0.309   32.684
  522.000    3.797    0.352    0.298   37.594
  522.250    4.018    0.290    0.283   46.177
  522.500    4.760    0.230    0.272   57.208
  522.750    5.133    0.159    0.262   68.240
  523.000    5.746    0.206    0.247   54.781
  523.250    6.433    0.261    0.233   46.220
  523.500    7.339    0.248    0.213   51.745
  523.750    8.529    0.082    0.197   54.814
  524.000   11.095    0.024    0.178   49.317
  524.250   14.433   -0.012    0.166   45.041
  524.500   20.622   -0.022    0.147   44.443
  524.750   25.358   -0.017    0.137   42.614
  525.000   26.839   -0.012    0.124   35.892
  525.250   27.357   -0.004    0.135   37.130
  525.500   27.371    0.003    0.164   45.100
  525.750   26.873    0.015    0.173   49.393
  526.000   27.909    0.003    0.155   39.609
  526.250   30.094    0.003    0.139   37.170
  526.500   34.987    0.022    0.155   42.693
  526.750   37.724    0.021    0.139   32.909
  527.000   42.241    0.002    0.129   25.572
  527.250   43.865   -0.011    0.138   23.133
