~VERSION INFORMATION
 VERS.                 2.0:   CWLS LOG ASCII STANDARD -VERSION 2.0
 WRAP.                  NO:   ONE LINE PER DEPTH STEP
~WELL INFORMATION BLOCK
#MNEM.UNIT           DATA                    DESCRIPTION OF MNEMONIC
#---------    -------------------            -------------------------------
# Generated from Intellog Unique Number	nealta/WELL/2304
WELL.         AMOCO PELICAN                  : Well_name    - WELL
LOC .         10-29-077-24W4                 : Location     - LOCATION
UWI .         00/10-29-077-24W4/0            : Uwi          - UNIQUE WELL ID
ENTR.         JAYE                           : Entered      - ENTERED BY
SRVC.         WESTERN ATLAS                  : Scn          - SERVICE COMPANY
DATE.         4 FEB 79                       : Date         - LOG DATE
STRT.M        365                            : top_depth    - START DEPTH
STOP.M        640                            : bot_depth    - STOP DEPTH
STEP.M        0.25                           : increment    - STEP LENGTH
 NULL. -999.2500:NULL Value
~CURVE INFORMATION BLOCK
#MNEM UNIT       ERCB CURVE CODE    CURVE DESCRIPTION
#-----------   ------------------   ----------------------------------
DEPT.M        00 001 00 00         : DEPTH        - DEPTH
GR  .API      00 310 00 00         : GR           - GAMMA RAY
ILD .OHMM     00 120 00 00         : RESD         - DEEP RESISTIVITY (DIL)
CALI.MM       00 280 01 00         : CAL          - CALIPER
NPHI.V/V      00 330 00 00         : PHIN         - NEUTRON POROSITY (SANDSTONE)
DPHI.V/V      00 890 00 00         : PHID         - DENSITY POROSITY (SANDSTONE)
~PARAMETER INFORMATION
#MNEM.UNIT           DATA             DESCRIPTION OF MNEMONIC
#---------         -----------     ------------------------------
GL  .M        666.57               : gl           - GROUND LEVEL ELEVATION
EREF.M        670.67               : kb           - ELEVATION OF DEPTH REFERENCE
DATM.M        666.57               : datum        - DATUM ELEVATION
TDD .M        642                  : tdd          - TOTAL DEPTH DRILLER
RUN .         ONE                  : Run          - RUN NUMBER
ENG .         FRENNETTE            : Engineer     - RECORDING ENGINEER
WIT .         LAMPEN               : Witness      - WITNESSED BY
BASE.         R.D.                 : Branch       - HOME BASE OF LOGGING UNIT
MUD .         GEL CHEM             : Mud_type     - MUD TYPE
MATR.         SANDSTONE            : Logunit      - NEUTRON MATRIX
TMAX.C        29                   : BHT          - MAXIMUM RECORDED TEMPERATURE
BHTD.M        643.4                : BHTDEP       - MAXIMUM RECORDED TEMPERATURE
RMT .C        15.5                 : MDTP         - TEMPERATURE OF MUD
MUDD.KG/M     1050                 : MWT          - MUD DENSITY
NEUT.         1                    : NEUTRON      - NEUTRON TYPE
RESI.         0                    : RESIST       - RESISTIVITY TYPE
RM  .OHMM     5.1                  : RM           - RESISTIVITY OF MUD
RMC .OHMM     6.87                 : RMC          - RESISTIVITY OF MUD CAKE
RMF .OHMM     5.5                  : RMF          - RESISTIVITY OF MUD FILTRATE
SUFT.C        4.5                  : SUFT         - SURFACE TEMPERATURE
~A  DEPTH       GR     RESD      CAL     PHIN     PHID
# ...
  438.000   83.514    9.762  200.727    0.404    0.288
  438.250   85.577    8.941  200.614    0.413    0.272
  438.500   88.769    8.264  200.296    0.412    0.258
  438.750   92.087    7.810  200.065    0.412    0.259
  439.000   95.215    7.603  199.740    0.420    0.250
  439.250   98.156    7.695  199.416    0.432    0.259
  439.500   91.874    8.324  199.185    0.454    0.270
  439.750   86.160    9.071  198.992    0.474    0.298
  440.000   82.572    9.794  198.961    0.501    0.363
  440.250   78.737   10.209  198.830    0.497    0.416
  440.500   78.604   10.031  199.130    0.445    0.373
  440.750   82.993    9.622  199.742    0.433    0.279
  441.000   87.499    9.178  200.674    0.452    0.296
  441.250   91.882    8.722  201.818    0.470    0.332
  441.500   94.448    8.092  202.548    0.500    0.423
  441.750   94.815    7.330  203.166    0.530    0.447
  442.000   94.994    6.787  203.233    0.503    0.412
  442.250   96.753    6.160  202.813    0.480    0.382
  442.500   99.119    5.704  204.252    0.465    0.309
  442.750  103.754    5.302  206.963    0.474    0.244
  443.000  108.075    4.918  208.838    0.485    0.246
  443.250  112.337    4.674  209.995    0.477    0.297
  443.500  112.017    4.585  210.168    0.449    0.292
  443.750  109.935    4.683  209.314    0.458    0.251
  444.000  106.984    4.792  207.831    0.472    0.260
  444.250  109.044    4.940  208.132    0.489    0.267
  444.500  109.725    5.325  208.962    0.481    0.268
  444.750  102.939    5.622  209.998    0.461    0.262
  445.000   96.219    6.127  210.296    0.444    0.263
  445.250   94.955    6.434  210.074    0.429    0.264
  445.500   99.463    6.524  210.486    0.440    0.313
  445.750  104.160    6.304  211.198    0.440    0.265
  446.000  107.416    5.915  211.921    0.436    0.239
  446.250  103.644    5.579  211.910    0.441    0.248
  446.500  101.947    5.352  211.686    0.442    0.266
  446.750  104.320    5.249  211.252    0.438    0.258
  447.000  106.631    5.223  210.496    0.432    0.258
  447.250   97.587    5.200  208.811    0.424    0.248
  447.500   93.633    5.234  206.296    0.414    0.238
  447.750   94.695    5.276  205.874    0.406    0.249
  448.000   96.185    5.510  206.477    0.396    0.255
  448.250   94.112    5.765  206.902    0.409    0.251
  448.500   90.654    5.987  206.994    0.422    0.226
  448.750   89.698    6.184  206.849    0.429    0.233
  449.000   89.444    6.202  206.738    0.429    0.246
  449.250   90.689    6.140  205.887    0.433    0.249
  449.500   89.930    6.020  205.031    0.428    0.266
  449.750   92.935    5.816  204.718    0.426    0.276
  450.000   94.176    5.498  205.020    0.434    0.266
  450.250   94.607    5.472  205.732    0.451    0.260
  450.500   90.269    5.508  206.337    0.427    0.269
  450.750   88.699    5.625  206.558    0.421    0.272
  451.000   87.875    5.853  206.736    0.419    0.267
  451.250   86.550    6.425  206.968    0.418    0.281
  451.500   84.905    7.106  206.703    0.415    0.277
  451.750   82.200    7.560  205.983    0.408    0.272
  452.000   79.493    7.708  205.543    0.412    0.290
  452.250   78.742    7.616  205.103    0.422    0.290
  452.500   79.104    7.608  204.560    0.424    0.289
  452.750   79.096    7.642  204.129    0.419    0.296
  453.000   74.881    7.693  203.280    0.410    0.288
  453.250   73.432    7.770  202.231    0.415    0.286
  453.500   73.738    7.879  201.166    0.413    0.301
  453.750   73.102    8.106  200.728    0.410    0.308
  454.000   73.531    8.576  200.199    0.404    0.311
  454.250   74.027    8.925  200.090    0.399    0.310
  454.500   74.962    8.999  199.964    0.410    0.305
  454.750   75.522    9.142  199.439    0.408    0.276
  455.000   75.326    9.336  198.997    0.397    0.270
  455.250   76.193    9.841  198.352    0.386    0.264
  455.500   82.331   11.211  197.921    0.377    0.254
  455.750   86.970   12.171  197.708    0.366    0.221
  456.000   86.083   13.070  197.074    0.355    0.166
  456.250   86.895   13.524  197.161    0.337    0.117
  456.500   83.747   13.967  197.253    0.332    0.138
  456.750   82.482   13.422  197.347    0.360    0.184
  457.000   82.097   11.716  197.431    0.416    0.252
  457.250   83.409   10.208  197.523    0.430    0.258
  457.500   82.460    9.365  196.889    0.436    0.260
  457.750   85.157    8.770  196.131    0.445    0.265
  458.000   87.208    8.396  195.279    0.445    0.268
  458.250   86.581    8.084  194.955    0.441    0.265
  458.500   88.011    7.898  194.124    0.437    0.257
  458.750   88.695    7.890  193.688    0.442    0.251
  459.000   88.495    8.165  193.139    0.438    0.253
  459.250   89.871    8.559  192.824    0.431    0.255
  459.500   89.988    9.054  192.583    0.429    0.253
  459.750   87.655    9.669  192.166    0.427    0.250
  460.000   84.823   10.192  192.035    0.415    0.240
  460.250   86.577   10.546  191.406    0.398    0.225
  460.500   83.052   10.791  191.191    0.394    0.214
  460.750   82.230   10.681  191.066    0.394    0.217
  461.000   80.777   10.534  191.267    0.396    0.256
  461.250   83.406   10.275  191.449    0.407    0.273
  461.500   85.848    9.837  191.852    0.428    0.278
  461.750   84.391    9.417  192.064    0.425    0.275
  462.000   86.016    9.202  192.562    0.414    0.255
  462.250   89.084    9.125  193.071    0.406    0.232
  462.500   90.521    9.150  193.474    0.400    0.247
  462.750   90.264    9.276  194.302    0.378    0.251
  463.000   89.812    9.814  195.120    0.369    0.232
  463.250   88.048   10.695  196.466    0.359    0.237
  463.500   83.898   12.320  198.016    0.345    0.242
  463.750   81.379   13.983  200.420    0.328    0.076
  464.000   78.303   14.495  202.282    0.305    0.095
  464.250   77.099   14.164  204.252    0.326    0.106
  464.500   80.853   13.020  204.662    0.381    0.121
  464.750   83.483   11.705  204.644    0.401    0.240
  465.000   85.418   10.179  203.915    0.408    0.224
  465.250   88.172    9.017  203.062    0.421    0.219
  465.500   91.550    8.107  201.997    0.421    0.213
  465.750   96.250    7.719  200.616    0.420    0.202
  466.000   99.879    7.584  199.269    0.427    0.216
  466.250   97.675    7.536  198.297    0.431    0.247
  466.500   94.034    7.515  197.046    0.431    0.254
  466.750   92.708    7.576  195.967    0.428    0.253
  467.000   91.190    7.739  195.636    0.422    0.238
  467.250   89.052    7.817  195.632    0.413    0.219
  467.500   89.668    7.868  195.514    0.403    0.213
  467.750   91.290    7.759  196.126    0.407    0.205
  468.000   96.302    7.624  197.153    0.416    0.173
  468.250  102.072    7.380  198.706    0.425    0.160
  468.500  105.201    7.105  200.790    0.432    0.181
  468.750  102.618    6.868  202.765    0.440    0.208
  469.000   98.528    6.822  204.858    0.453    0.216
  469.250   99.968    6.853  206.292    0.456    0.220
  469.500   98.645    6.987  207.958    0.451    0.200
  469.750   92.921    7.136  207.112    0.440    0.210
  470.000   88.654    7.466  205.329    0.428    0.230
  470.250   87.386    7.798  203.948    0.410    0.210
  470.500   87.627    7.979  202.785    0.403    0.269
  470.750   86.241    8.092  201.820    0.417    0.287
  471.000   84.286    8.115  201.089    0.426    0.290
  471.250   84.784    8.137  200.123    0.427    0.169
  471.500   87.659    8.157  199.379    0.425    0.184
  471.750   88.842    8.123  198.541    0.425    0.244
  472.000   92.417    8.096  197.392    0.425    0.284
  472.250   92.091    7.999  196.422    0.425    0.296
  472.500   88.379    7.946  195.573    0.430    0.295
  472.750   85.934    8.041  194.940    0.436    0.285
  473.000   85.297    8.123  194.381    0.442    0.284
  473.250   87.415    8.191  193.739    0.452    0.287
  473.500   81.825    8.366  192.701    0.447    0.272
  473.750   84.956    8.498  191.940    0.430    0.257
  474.000   87.706    8.428  191.614    0.408    0.254
  474.250   86.882    8.101  190.662    0.405    0.252
