~VERSION INFORMATION
 VERS.                 2.0:   CWLS LOG ASCII STANDARD -VERSION 2.0
 WRAP.                  NO:   ONE LINE PER DEPTH STEP
~WELL INFORMATION BLOCK
#MNEM.UNIT           DATA                    DESCRIPTION OF MNEMONIC
#---------    -------------------            -------------------------------
# Generated from Intellog Unique Number	CW_73_75/WELL/3023
WELL.         RANGER ET AL MARTEN H 11-15    : Well_name    - WELL
LOC .         00/11-15-073-23W4/0            : Location     - LOCATION
UWI .         00/11-15-073-23W4/0            : Uwi          - UNIQUE WELL ID
ENTR.         JJ                             : Entered      - ENTERED BY
SRVC.         SCHLUMBERGER                   : Scn          - SERVICE COMPANY
DATE.         13 NOV 70                      : Date         - LOG DATE
STRT.M        502.92                         : top_depth    - START DEPTH
STOP.M        697.92                         : bot_depth    - STOP DEPTH
STEP.M        0.25                           : increment    - STEP LENGTH
 NULL. -999.2500:NULL Value
~CURVE INFORMATION BLOCK
#MNEM UNIT       ERCB CURVE CODE    CURVE DESCRIPTION
#-----------   ------------------   ----------------------------------
DEPT.M        00 001 00 00         : DEPTH        - DEPTH
DPHI.V/V      00 890 00 00         : PHID         - DENSITY POROSITY (SANDSTONE)
GR  .API      00 310 00 00         : GR           - GAMMA RAY
CALI.MM       00 280 01 00         : CAL          - CALIPER
NPHI.V/V      00 330 00 00         : PHIN         - NEUTRON POROSITY (SANDSTONE)
ILD .OHMM     00 120 00 00         : RESD         - DEEP RESISTIVITY (DIL)
~PARAMETER INFORMATION
#MNEM.UNIT           DATA             DESCRIPTION OF MNEMONIC
#---------         -----------     ------------------------------
GL  .M        717.499              : gl           - GROUND LEVEL ELEVATION
EREF.M        720.547              : kb           - ELEVATION OF DEPTH REFERENCE
DATM.M        720.547              : datum        - DATUM ELEVATION
TDD .M        701.04               : tdd          - TOTAL DEPTH DRILLER
RUN .         ONE                  : Run          - RUN NUMBER
ENG .         SLADEN               : Engineer     - RECORDING ENGINEER
WIT .         BROWN                : Witness      - WITNESSED BY
BASE.         EDMONTON             : Branch       - HOME BASE OF LOGGING UNIT
MUD .         GEL CHEM-LCM         : Mud_type     - MUD TYPE
MATR.         SANDSTONE            : Logunit      - NEUTRON MATRIX
TMAX.C        20                   : BHT          - MAXIMUM RECORDED TEMPERATURE
BHTD.M        701.345              : BHTDEP       - MAXIMUM RECORDED TEMPERATURE
RMT .C        7.22222              : MDTP         - TEMPERATURE OF MUD
MUDD.KG/M     1068                 : MWT          - MUD DENSITY
NEUT.         0                    : NEUTRON      - NEUTRON TYPE
RESI.         0                    : RESIST       - RESISTIVITY TYPE
RM  .OHMM     2.13                 : RM           - RESISTIVITY OF MUD
RMC .OHMM     0                    : RMC          - RESISTIVITY OF MUD CAKE
RMF .OHMM     2.91                 : RMF          - RESISTIVITY OF MUD FILTRATE
SUFT.C        5                    : SUFT         - SURFACE TEMPERATURE
~A  DEPTH     PHID       GR      CAL     PHIN     RESD
  502.920    0.229   77.383  151.242    0.319    8.028
  503.170    0.212   79.842  152.507    0.298    8.153
  503.420    0.199   78.385  152.627    0.283    8.228
  503.670    0.233   74.237  149.748    0.324    8.256
  503.920    0.256   76.268  148.731    0.312    8.196
  504.170    0.234   81.174  152.275    0.292    8.175
  504.420    0.209   78.557  154.468    0.284    8.042
  504.670    0.188   72.940  150.968    0.290    7.830
  504.920    0.233   74.787  145.604    0.308    7.689
  505.170    0.252   82.812  145.103    0.320    7.340
  505.420    0.231   88.451  146.681    0.334    6.887
  505.670    0.209   84.181  148.460    0.316    6.593
  505.920    0.195   81.379  151.481    0.292    6.340
  506.170    0.187   86.101  154.818    0.307    6.167
  506.420    0.212   87.091  156.598    0.316    6.091
  506.670    0.267   82.638  152.991    0.319    5.991
  506.920    0.280   81.977  152.707    0.331    5.954
  507.170    0.248   90.186  156.657    0.346    6.015
  507.420    0.227   79.432  162.063    0.327    6.186
  507.670    0.233   73.571  149.756    0.337    6.535
  507.920    0.231   72.421  148.017    0.343    6.995
  508.170    0.219   77.999  150.210    0.326    7.392
  508.420    0.200   80.093  153.136    0.310    7.885
  508.670    0.175   84.078  154.914    0.291    8.065
  508.920    0.169   82.562  156.801    0.283    7.789
  509.170    0.212   82.940  158.792    0.298    7.527
  509.420    0.220   88.214  160.363    0.290    7.274
  509.670    0.200   93.670  161.728    0.283    6.869
  509.920    0.184   97.414  163.197    0.299    6.497
  510.170    0.177   92.652  164.361    0.312    6.259
  510.420    0.173   87.710  165.106    0.307    5.974
  510.670    0.172   89.373  165.851    0.289    5.769
  510.920    0.179   95.138  165.658    0.275    5.636
  511.170    0.226   84.136  164.955    0.302    5.648
  511.420    0.260   69.038  163.423    0.289    6.053
  511.670    0.290   72.171  162.923    0.303    6.698
  511.920    0.319   67.656  161.907    0.348    7.833
  512.170    0.345   54.088  158.411    0.373    8.847
  512.420    0.320   46.210  155.218    0.305   10.190
  512.670    0.263   42.244  151.504    0.274   11.356
  512.920    0.275   43.356  148.727    0.270   12.315
  513.170    0.295   48.446  152.064    0.274   12.599
  513.420    0.297   54.271  152.501    0.312   12.145
  513.670    0.295   56.790  151.170    0.330   11.130
  513.920    0.300   53.620  149.743    0.321   10.316
  514.170    0.301   45.985  149.869    0.299    9.453
  514.420    0.296   47.834  149.989    0.292    9.169
  514.670    0.288   58.242  150.113    0.302    9.357
  514.920    0.279   67.553  150.234    0.320    9.986
  515.170    0.264   72.154  149.322    0.315   10.591
  515.420    0.248   73.877  148.206    0.301   11.181
  515.670    0.257   75.234  146.777    0.308   11.553
  515.920    0.242   77.265  146.279    0.298   12.038
  516.170    0.228   82.415  146.813    0.305   12.218
  516.420    0.219   81.510  148.181    0.324   11.861
  516.670    0.234   67.819  148.717    0.325   11.215
  516.920    0.263   53.517  149.255    0.299   10.649
  517.170    0.276   45.025  149.383    0.297    9.988
  517.420    0.297   41.001  149.401    0.321    9.534
  517.670    0.317   40.342  150.145    0.328    8.945
  517.920    0.321   40.902  152.444    0.320    8.491
  518.170    0.316   43.239  154.539    0.331    8.238
  518.420    0.315   39.885  155.696    0.322    8.241
  518.670    0.301   40.877  151.055    0.302    8.399
  518.920    0.300   44.803  145.379    0.310    8.594
  519.170    0.298   48.913  145.606    0.316    8.782
  519.420    0.294   44.337  148.113    0.288    8.922
  519.670    0.292   39.335  149.997    0.270    9.006
  519.920    0.292   38.061  150.018    0.283    9.034
  520.170    0.293   39.235  150.038    0.287    9.005
  520.420    0.279   41.083  150.372    0.283    8.953
  520.670    0.267   40.666  150.284    0.287    8.860
  520.920    0.267   41.105  150.723    0.286    8.719
  521.170    0.290   43.442  151.259    0.302    8.603
  521.420    0.302   42.477  151.795    0.297    8.342
  521.670    0.295   41.875  152.227    0.298    8.146
  521.920    0.290   41.886  152.872    0.310    8.053
  522.170    0.292   43.305  152.994    0.309    8.112
  522.420    0.293   46.375  152.909    0.306    8.341
  522.670    0.281   47.918  152.311    0.298    8.610
  522.920    0.275   48.787  152.227    0.297    8.838
  523.170    0.277   48.613  152.458    0.283    8.857
  523.420    0.273   48.075  152.888    0.296    8.749
  523.670    0.290   48.638  152.921    0.300    8.833
  523.920    0.293   43.816  153.133    0.284    9.126
  524.170    0.262   37.957  152.842    0.265    9.490
  524.420    0.238   32.829  152.842    0.259   10.047
  524.670    0.230   33.270  147.397    0.250   10.540
  524.920    0.207   35.790  148.970    0.233   10.952
  525.170    0.204   33.537  152.405    0.260   11.429
  525.420    0.199   32.449  155.531    0.245   11.890
  525.670    0.214   33.135  155.656    0.233   12.383
  525.920    0.198   30.698  149.981    0.228   12.635
  526.170    0.206   37.623  148.859    0.247   12.117
  526.420    0.197   43.384  150.537    0.261   11.070
  526.670    0.211   46.213  153.561    0.305    9.687
  526.920    0.238   47.142  154.621    0.323    8.953
  527.170    0.315   47.520  154.434    0.343    8.547
  527.420    0.320   48.142  154.450    0.337    8.038
  527.670    0.320   48.706  154.370    0.320    7.600
  527.920    0.316   48.780  154.079    0.333    7.837
  528.170    0.313   46.159  153.892    0.312    8.314
  528.420    0.321   43.174  154.324    0.329    8.823
  528.670    0.299   42.819  153.931    0.319    9.107
  528.920    0.290   43.564  153.327    0.308    9.263
  529.170    0.275   41.927  152.932    0.314    9.371
  529.420    0.285   42.792  152.646    0.305    9.415
  529.670    0.295   42.315  152.458    0.324    9.435
  529.920    0.295   44.345  151.958    0.340    9.486
  530.170    0.299   44.786  152.184    0.311    9.555
  530.420    0.289   45.960  152.207    0.297    9.630
  530.670    0.280   47.928  152.537    0.291    9.746
  530.920    0.284   49.286  152.555    0.295    9.838
  531.170    0.287   49.054  152.267    0.308    9.882
  531.420    0.253   47.110  152.077    0.292    9.893
  531.670    0.223   44.184  152.414    0.285    9.737
  531.920    0.228   39.057  152.842    0.297    9.412
  532.170    0.260   35.276  153.072    0.319    9.215
  532.420    0.293   38.716  153.089    0.295    9.098
  532.670    0.302   38.299  153.316    0.310    8.966
  532.920    0.305   40.817  153.130    0.315    8.881
  533.170    0.274   43.707  153.357    0.306    8.822
  533.420    0.277   43.902  153.584    0.312    8.873
  533.670    0.278   43.668  153.707    0.328    9.197
  533.920    0.271   43.740  153.318    0.334    9.394
  534.170    0.280   43.935  153.029    0.331    9.365
  534.420    0.292   44.008  153.152    0.324    9.224
  534.670    0.288   44.020  153.064    0.326    8.956
  534.920    0.279   42.259  152.981    0.297    8.807
  535.170    0.268   40.131  153.107    0.306    8.546
  535.420    0.279   37.939  152.920    0.315    8.357
  535.670    0.283   35.993  150.350    0.335    8.120
  535.920    0.282   39.676  148.399    0.344    7.867
  536.170    0.286   41.461  149.455    0.322    7.686
  536.420    0.297   42.147  151.551    0.326    7.610
  536.670    0.289   42.280  152.401    0.341    7.517
  536.920    0.302   42.108  153.039    0.335    7.465
  537.170    0.305   42.609  153.474    0.318    7.509
  537.420    0.296   42.621  153.598    0.307    7.577
  537.670    0.294   39.514  153.409    0.319    7.629
  537.920    0.305   38.119  153.325    0.308    7.673
  538.170    0.299   37.824  152.828    0.323    7.732
  538.420    0.304   42.118  150.569    0.332    7.808
  538.670    0.321   45.189  147.689    0.340    7.836
  538.920    0.302   40.979  147.689    0.345    7.848
  539.170    0.292   41.971  147.689    0.336    7.860
