~VERSION INFORMATION
 VERS.                 2.0:   CWLS LOG ASCII STANDARD -VERSION 2.0
 WRAP.                  NO:   ONE LINE PER DEPTH STEP
~WELL INFORMATION BLOCK
#MNEM.UNIT           DATA                    DESCRIPTION OF MNEMONIC
#---------    -------------------            -------------------------------
# Generated from Intellog Unique Number	CS_73_76/WELL/3251
WELL.         10-32-076-08W4                 : Well_name    - WELL
LOC .         00/10-32-076-08W4/0            : Location     - LOCATION
UWI .         00/10-32-076-08W4/0            : Uwi          - UNIQUE WELL ID
ENTR.         SP                             : Entered      - ENTERED BY
SRVC.         SCHLUMBERGER                   : Scn          - SERVICE COMPANY
STRT.M        198.12                         : top_depth    - START DEPTH
STOP.M        426.37                         : bot_depth    - STOP DEPTH
STEP.M        0.25                           : increment    - STEP LENGTH
 NULL. -999.2500:NULL Value
~CURVE INFORMATION BLOCK
#MNEM UNIT       ERCB CURVE CODE    CURVE DESCRIPTION
#-----------   ------------------   ----------------------------------
DEPT.M        00 001 00 00         : DEPTH        - DEPTH
GR  .API      00 310 00 00         : GR           - GAMMA RAY
DPHI.V/V      00 890 00 00         : PHID         - DENSITY POROSITY (SANDSTONE)
NPHI.V/V      00 330 00 00         : PHIN         - NEUTRON POROSITY (SANDSTONE)
ILD .OHMM     00 120 00 00         : RESD         - DEEP RESISTIVITY (DIL)
~PARAMETER INFORMATION
#MNEM.UNIT           DATA             DESCRIPTION OF MNEMONIC
#---------         -----------     ------------------------------
GL  .M        615.696              : gl           - GROUND LEVEL ELEVATION
EREF.M        618.134              : kb           - ELEVATION OF DEPTH REFERENCE
DATM.M        615.696              : datum        - DATUM ELEVATION
TDD .M        426.72               : tdd          - TOTAL DEPTH DRILLER
RUN .         ONE                  : Run          - RUN NUMBER
ENG .         BILL                 : Engineer     - RECORDING ENGINEER
WIT .         JIM                  : Witness      - WITNESSED BY
MUD .         GEL                  : Mud_type     - MUD TYPE
MATR.         SANDSTONE            : Logunit      - NEUTRON MATRIX
TMAX.C        13.3333              : BHT          - MAXIMUM RECORDED TEMPERATURE
BHTD.M        426.72               : BHTDEP       - MAXIMUM RECORDED TEMPERATURE
MATR.         1                    : LOGUNIT      - NEUTRON MATRIX
RMT .C        25                   : MDTP         - TEMPERATURE OF MUD
NEUT.         1                    : NEUTRON      - NEUTRON TYPE
RESI.         0                    : RESIST       - RESISTIVITY TYPE
RMC .OHMM     0.25                 : RMC          - RESISTIVITY OF MUD CAKE
RMF .OHMM     0.25                 : RMF          - RESISTIVITY OF MUD FILTRATE
SUFT.C        15                   : SUFT         - SURFACE TEMPERATURE
~A  DEPTH       GR     PHID     PHIN     RESD
  198.120  116.601    0.287    0.574    3.162
  198.370  116.612    0.273    0.582    3.226
  198.620  116.740    0.276    0.591    3.116
  198.870  117.146    0.288    0.604    3.269
  199.120  117.791    0.299    0.591    3.319
  199.370  116.685    0.281    0.569    3.276
  199.620  115.230    0.286    0.562    3.339
  199.870  115.101    0.300    0.568    3.316
  200.120  114.106    0.307    0.563    3.285
  200.370  113.638    0.286    0.558    3.177
  200.620  113.059    0.277    0.574    3.128
  200.870  115.444    0.291    0.585    3.059
  201.120  118.970    0.293    0.580    2.961
  201.370  119.681    0.285    0.574    2.947
  201.620  115.417    0.292    0.569    3.006
  201.870  110.609    0.282    0.573    3.112
  202.120  106.896    0.275    0.591    3.288
  202.370  108.096    0.267    0.597    3.536
  202.620  110.932    0.266    0.590    3.799
  202.870  113.729    0.248    0.590    3.903
  203.120  113.573    0.229    0.577    3.958
  203.370  114.349    0.228    0.557    4.051
  203.620  115.965    0.234    0.540    3.962
  203.870  117.053    0.253    0.543    3.917
  204.120  115.541    0.262    0.565    3.800
  204.370  114.062    0.262    0.583    3.688
  204.620  114.517    0.268    0.562    3.684
  204.870  112.912    0.267    0.552    3.777
  205.120  111.103    0.262    0.545    3.901
  205.370  112.326    0.243    0.531    3.905
  205.620  115.247    0.245    0.534    3.969
  205.870  117.995    0.241    0.551    3.975
  206.120  120.017    0.248    0.565    3.976
  206.370  119.758    0.246    0.559    3.977
  206.620  118.198    0.237    0.550    3.980
  206.870  117.356    0.236    0.536    4.006
  207.120  114.406    0.254    0.549    4.136
  207.370  109.685    0.256    0.564    4.327
  207.620  104.490    0.264    0.559    4.673
  207.870  103.995    0.256    0.557    5.045
  208.120  104.861    0.234    0.548    5.508
  208.370  102.797    0.181    0.513    6.153
  208.620  104.771    0.123    0.457    7.054
  208.870  111.628    0.126    0.462    8.394
  209.120  119.634    0.200    0.443    9.577
  209.370  119.923    0.255    0.434   10.288
  209.620  117.713    0.260    0.452   10.882
  209.870  112.426    0.287    0.469   11.804
  210.120  103.923    0.287    0.472   12.922
  210.370   90.502    0.299    0.457   14.243
  210.620   73.967    0.334    0.450   15.462
  210.870   74.421    0.359    0.446   16.129
  211.120   77.897    0.332    0.435   16.654
  211.370   80.906    0.321    0.445   16.640
  211.620   82.837    0.322    0.463   16.613
  211.870   84.768    0.318    0.470   16.988
  212.120   87.179    0.310    0.470   16.958
  212.370   89.595    0.303    0.457   16.848
  212.620   90.515    0.308    0.447   16.366
  212.870   92.050    0.319    0.439   15.908
  213.120   92.049    0.306    0.430   15.280
  213.370   92.713    0.307    0.434   14.664
  213.620   94.443    0.293    0.425   14.231
  213.870   97.404    0.285    0.429   13.816
  214.120   99.675    0.280    0.435   13.412
  214.370  100.597    0.265    0.444   13.156
  214.620   99.480    0.264    0.446   13.183
  214.870   96.380    0.265    0.443   12.967
  215.120   93.765    0.273    0.437   12.611
  215.370   91.106    0.252    0.431   11.998
  215.620   88.630    0.251    0.418   12.197
  215.870   88.600    0.246    0.415   12.810
  216.120   91.626    0.255    0.435   13.758
  216.370   93.039    0.268    0.461   14.618
  216.620   94.095    0.293    0.470   15.206
  216.870   97.335    0.324    0.467   15.860
  217.120  102.175    0.319    0.469   15.884
  217.370  106.016    0.316    0.474   15.485
  217.620  108.885    0.312    0.476   15.041
  217.870  111.181    0.313    0.472   14.726
  218.120  107.815    0.303    0.465   15.167
  218.370  104.521    0.296    0.455   15.611
  218.620  102.661    0.300    0.448   15.607
  218.870  102.287    0.296    0.455   15.611
  219.120  100.158    0.300    0.461   15.609
  219.370  100.372    0.307    0.469   15.543
  219.620  100.710    0.309    0.474   14.760
  219.870  101.574    0.304    0.477   14.349
  220.120  103.916    0.317    0.462   13.402
  220.370  104.769    0.290    0.446   12.559
  220.620  104.150    0.272    0.434   12.167
  220.870  104.458    0.229    0.428   12.100
  221.120  108.560    0.247    0.446   11.308
  221.370  106.388    0.260    0.449   10.352
  221.620   98.806    0.275    0.438    9.017
  221.870   89.984    0.295    0.433    7.626
  222.120  115.751    0.286    0.442    6.632
  222.370  120.185    0.266    0.492    5.264
  222.620  119.368    0.192    0.552    4.737
  222.870  121.612    0.184    0.559    4.002
  223.120  125.228    0.235    0.560    3.710
  223.370  123.711    0.232    0.559    4.464
  223.620  118.561    0.242    0.556    6.185
  223.870  105.232    0.286    0.551    8.360
  224.120   80.788    0.316    0.497   12.191
  224.370   70.599    0.329    0.450   15.365
  224.620   64.541    0.315    0.449   19.330
  224.870   60.505    0.308    0.465   21.558
  225.120   64.155    0.321    0.489   21.799
  225.370   67.807    0.348    0.469   21.171
  225.620   72.626    0.334    0.438   19.981
  225.870   80.283    0.197    0.412   18.822
  226.120   83.752    0.185    0.392   18.731
  226.370   87.371    0.240    0.438   18.409
  226.620   86.994    0.308    0.446   17.904
  226.870   83.514    0.315    0.444   17.598
  227.120   80.027    0.317    0.443   17.224
  227.370   82.640    0.326    0.445   15.851
  227.620   85.488    0.320    0.451   14.851
  227.870   89.012    0.315    0.456   12.640
  228.120   94.401    0.310    0.464   10.762
  228.370  101.939    0.295    0.444    8.786
  228.620  108.080    0.280    0.432    7.525
  228.870  117.420    0.263    0.439    6.772
  229.120  125.801    0.240    0.476    6.155
  229.370  130.946    0.247    0.485    5.566
  229.620  132.201    0.241    0.493    5.315
  229.870  133.330    0.212    0.512    5.236
  230.120  134.347    0.194    0.520    5.473
  230.370  133.687    0.197    0.522    6.052
  230.620  133.714    0.174    0.536    6.632
  230.870  134.237    0.172    0.545    7.715
  231.120  134.893    0.194    0.535    8.507
  231.370  135.591    0.236    0.519    9.854
  231.620  136.206    0.256    0.499   11.509
  231.870  130.504    0.272    0.486   12.469
  232.120  123.497    0.284    0.471   13.224
  232.370  117.475    0.290    0.468   13.516
  232.620  112.842    0.278    0.463   12.886
  232.870  116.120    0.282    0.451   12.288
  233.120  117.192    0.268    0.450   12.014
  233.370  115.797    0.262    0.457   11.521
  233.620  117.643    0.269    0.463   11.229
  233.870  121.283    0.268    0.470   11.005
  234.120  122.525    0.263    0.470   11.021
  234.370  122.443    0.278    0.450   11.198
  234.620  122.869    0.283    0.436   12.063
  234.870  117.203    0.268    0.442   13.649
  235.120  108.205    0.250    0.450   14.695
  235.370   95.332    0.276    0.451   16.290
  235.620   82.823    0.302    0.449   16.538
  235.870   73.153    0.316    0.445   17.165
  236.120   74.504    0.329    0.436   16.989
  236.370   76.121    0.323    0.432   15.956
  236.620   78.143    0.305    0.420   14.331
  236.870   85.167    0.269    0.412   12.137
  237.120   97.782    0.262    0.419   10.784
  237.370  104.940    0.244    0.439    9.260
  237.620  116.830    0.226    0.463    8.141
  237.870  125.542    0.234    0.470    7.201
  238.120  131.993    0.244    0.484    6.816
  238.370  130.094    0.233    0.492    6.775
  238.620  125.761    0.244    0.489    7.076
  238.870  127.734    0.234    0.476    7.478
  239.120  122.241    0.247    0.462    7.849
  239.370  116.693    0.249    0.436    8.483
  239.620  108.382    0.246    0.416    9.226
  239.870  109.827    0.245    0.414   10.279
  240.120  112.788    0.239    0.416   10.995
  240.370  117.318    0.243    0.439   10.193
  240.620  124.663    0.233    0.461    9.341
  240.870  130.674    0.224    0.483    8.332
  241.120  132.711    0.232    0.496    7.973
  241.370  130.140    0.243    0.500    7.589
