~VERSION INFORMATION
 VERS.                 2.0:   CWLS LOG ASCII STANDARD -VERSION 2.0
 WRAP.                  NO:   ONE LINE PER DEPTH STEP
~WELL INFORMATION BLOCK
#MNEM.UNIT           DATA                    DESCRIPTION OF MNEMONIC
#---------    -------------------            -------------------------------
# Generated from Intellog Unique Number	CS_71_72/WELL/923
WELL.         BRENDA IPIATIK                 : Well_name    - WELL
LOC .         00/14-04-071-09W4/0            : Location     - LOCATION
UWI .         00/14-04-071-09W4/0            : Uwi          - UNIQUE WELL ID
ENTR.         SP                             : Entered      - ENTERED BY
SRVC.         SCHLUMBERGER                   : Scn          - SERVICE COMPANY
STRT.M        250                            : top_depth    - START DEPTH
STOP.M        450                            : bot_depth    - STOP DEPTH
STEP.M        0.25                           : increment    - STEP LENGTH
 NULL. -999.2500:NULL Value
~CURVE INFORMATION BLOCK
#MNEM UNIT       ERCB CURVE CODE    CURVE DESCRIPTION
#-----------   ------------------   ----------------------------------
DEPT.M        00 001 00 00         : DEPTH        - DEPTH
ILD .OHMM     00 120 00 00         : RESD         - DEEP RESISTIVITY (DIL)
DPHI.V/V      00 890 00 00         : PHID         - DENSITY POROSITY (LIMESTONE)
NPHI.V/V      00 330 00 00         : PHIN         - NEUTRON POROSITY (LIMESTONE)
GR  .API      00 310 00 00         : GR           - GAMMA RAY
~PARAMETER INFORMATION
#MNEM.UNIT           DATA             DESCRIPTION OF MNEMONIC
#---------         -----------     ------------------------------
GL  .M        604.92               : gl           - GROUND LEVEL ELEVATION
EREF.M        608.28               : kb           - ELEVATION OF DEPTH REFERENCE
DATM.M        604.92               : datum        - DATUM ELEVATION
TDD .M        460                  : tdd          - TOTAL DEPTH DRILLER
RUN .         ONE                  : Run          - RUN NUMBER
ENG .         BILL                 : Engineer     - RECORDING ENGINEER
WIT .         JIM                  : Witness      - WITNESSED BY
MUD .         GEL                  : Mud_type     - MUD TYPE
MATR.         LIMESTONE            : Logunit      - NEUTRON MATRIX
TMAX.C        15                   : BHT          - MAXIMUM RECORDED TEMPERATURE
BHTD.M        460                  : BHTDEP       - MAXIMUM RECORDED TEMPERATURE
MATR.         1                    : LOGUNIT      - NEUTRON MATRIX
RMT .C        25                   : MDTP         - TEMPERATURE OF MUD
NEUT.         1                    : NEUTRON      - NEUTRON TYPE
RESI.         0                    : RESIST       - RESISTIVITY TYPE
RMC .OHMM     0.25                 : RMC          - RESISTIVITY OF MUD CAKE
RMF .OHMM     0.25                 : RMF          - RESISTIVITY OF MUD FILTRATE
SUFT.C        15                   : SUFT         - SURFACE TEMPERATURE
~A  DEPTH     RESD     PHID     PHIN       GR
  250.000    2.684    0.284    0.583   88.807
  250.250    2.687    0.272    0.585   88.751
  250.500    2.721    0.254    0.595   92.779
  250.750    2.751    0.236    0.610   94.370
  251.000    2.795    0.258    0.589   91.511
  251.250    2.810    0.257    0.564   90.601
  251.500    2.846    0.272    0.570   93.899
  251.750    2.882    0.269    0.574   96.464
  252.000    2.924    0.258    0.573   94.701
  252.250    2.906    0.263    0.572   92.025
  252.500    2.824    0.268    0.574   93.616
  252.750    2.796    0.272    0.578   97.644
  253.000    2.779    0.261    0.552  101.123
  253.250    2.846    0.240    0.548  102.531
  253.500    2.963    0.228    0.559  102.475
  253.750    2.996    0.240    0.570  101.748
  254.000    3.051    0.250    0.584  101.754
  254.250    3.161    0.252    0.594  102.736
  254.500    3.274    0.242    0.602  103.350
  254.750    3.278    0.245    0.576  103.843
  255.000    3.276    0.258    0.562  102.446
  255.250    3.380    0.243    0.559  100.989
  255.500    3.495    0.240    0.555  100.385
  255.750    3.593    0.239    0.551  100.024
  256.000    3.707    0.223    0.547   99.298
  256.250    3.797    0.216    0.544   97.659
  256.500    4.067    0.219    0.538   96.932
  256.750    4.301    0.209    0.528   94.987
  257.000    4.488    0.208    0.519   92.981
  257.250    4.502    0.193    0.503   91.219
  257.500    4.400    0.176    0.475   94.028
  257.750    4.141    0.251    0.496   93.850
  258.000    3.890    0.261    0.514   92.454
  258.250    3.634    0.262    0.522   94.775
  258.500    3.401    0.246    0.534   96.243
  258.750    3.286    0.233    0.541   96.249
  259.000    3.260    0.223    0.552   96.620
  259.250    3.289    0.233    0.563   96.077
  259.500    3.419    0.255    0.557   94.071
  259.750    3.542    0.253    0.553   91.394
  260.000    3.655    0.245    0.551   92.131
  260.250    3.799    0.243    0.528   94.758
  260.500    3.862    0.264    0.519   95.555
  260.750    3.918    0.271    0.530   94.464
  261.000    3.975    0.275    0.532   94.165
  261.250    3.996    0.287    0.528   91.367
  261.500    3.949    0.296    0.513   90.640
  261.750    3.737    0.268    0.492   93.876
  262.000    3.693    0.241    0.496   94.612
  262.250    3.769    0.245    0.512   91.997
  262.500    4.207    0.274    0.522   87.310
  262.750    5.248    0.281    0.532   80.610
  263.000    8.016    0.295    0.501   72.204
  263.250   11.045    0.303    0.315   63.189
  263.500   15.389    0.296    0.268   55.941
  263.750   17.639    0.277    0.265   51.497
  264.000   18.756    0.304    0.269   52.599
  264.250   17.003    0.316    0.281   54.373
  264.500   14.735    0.318    0.298   56.633
  264.750   13.183    0.310    0.311   56.394
  265.000   12.041    0.301    0.325   54.571
  265.250   11.206    0.290    0.342   52.565
  265.500   10.527    0.296    0.353   50.255
  265.750   10.020    0.308    0.360   47.274
  266.000    9.645    0.298    0.365   45.023
  266.250    9.658    0.294    0.382   42.408
  266.500    9.800    0.298    0.387   41.255
  266.750    9.887    0.282    0.389   45.528
  267.000    9.935    0.269    0.392   51.810
  267.250    9.856    0.263    0.395   58.765
  267.500    9.723    0.263    0.401   62.427
  267.750    9.663    0.256    0.412   64.261
  268.000    9.749    0.290    0.423   58.477
  268.250    9.892    0.309    0.434   55.251
  268.500    9.757    0.325    0.402   70.982
  268.750    9.323    0.275    0.378   89.517
  269.000    9.007    0.232    0.397   96.958
  269.250    9.070    0.220    0.413  102.266
  269.500    9.169    0.213    0.419  105.624
  269.750    9.337    0.218    0.421  103.009
  270.000    9.508    0.225    0.428   99.418
  270.250    9.521    0.237    0.433   98.631
  270.500    9.499    0.248    0.428   97.539
  270.750    9.352    0.234    0.435   98.337
  271.000    8.969    0.224    0.444  101.085
  271.250    9.117    0.214    0.436  103.590
  271.500    9.302    0.205    0.446  103.778
  271.750    9.176    0.205    0.455  101.467
  272.000    8.916    0.221    0.432   98.181
  272.250    8.632    0.240    0.407   93.859
  272.500    8.403    0.246    0.415   89.355
  272.750    8.462    0.228    0.425   85.275
  273.000    8.930    0.220    0.406   86.683
  273.250    9.389    0.211    0.400   92.357
  273.500    9.816    0.221    0.414   86.511
  273.750   10.168    0.257    0.411   74.936
  274.000   10.277    0.282    0.390   67.383
  274.250   10.214    0.284    0.377   57.453
  274.500    9.963    0.272    0.378   50.875
  274.750    9.412    0.282    0.387   49.174
  275.000    8.516    0.295    0.388   50.338
  275.250    7.807    0.283    0.384   54.854
  275.500    7.144    0.265    0.393   65.343
  275.750    6.538    0.247    0.405   77.965
  276.000    5.938    0.225    0.417   92.233
  276.250    5.292    0.205    0.431  104.063
  276.500    4.735    0.189    0.444  109.737
  276.750    4.325    0.166    0.460  113.400
  277.000    3.913    0.151    0.474  115.174
  277.250    3.608    0.136    0.494  116.580
  277.500    3.332    0.167    0.513  121.767
  277.750    3.154    0.173    0.528  123.783
  278.000    3.031    0.182    0.535  121.168
  278.250    3.162    0.202    0.542  119.771
  278.500    3.531    0.219    0.549  117.156
  278.750    4.404    0.233    0.557  114.784
  279.000    5.503    0.249    0.569  109.608
  279.250    6.916    0.259    0.580  102.848
  279.500    8.955    0.265    0.474   95.418
  279.750   10.169    0.265    0.451   91.522
  280.000   11.142    0.259    0.464   87.566
  280.250   11.306    0.250    0.479   86.291
  280.500   10.700    0.229    0.475   86.357
  280.750   10.223    0.237    0.462   91.970
  281.000    9.623    0.247    0.457   97.767
  281.250    8.838    0.237    0.453  102.587
  281.500    8.012    0.236    0.448  106.554
  281.750    7.373    0.235    0.459  109.850
  282.000    6.849    0.227    0.476  112.172
  282.250    6.362    0.218    0.488  112.543
  282.500    5.843    0.232    0.489  112.244
  282.750    5.521    0.233    0.490  113.652
  283.000    5.167    0.216    0.497  115.668
  283.250    4.854    0.241    0.505  116.892
  283.500    4.629    0.214    0.513  115.984
  283.750    4.557    0.202    0.520  115.258
  284.000    4.828    0.200    0.530  114.531
  284.250    5.400    0.202    0.536  113.379
  284.500    6.296    0.218    0.544  109.544
  284.750    7.423    0.224    0.549  102.663
  285.000    8.381    0.240    0.493   94.195
  285.250    9.046    0.297    0.450   82.315
  285.500    9.458    0.353    0.434   75.128
  285.750    9.705    0.346    0.434   80.254
  286.000    9.773    0.330    0.449   80.746
  286.250    9.749    0.322    0.438   74.596
  286.500    9.707    0.323    0.423   76.734
  286.750    9.557    0.313    0.416   80.641
  287.000    9.114    0.303    0.437   85.767
  287.250    8.807    0.288    0.445   90.467
  287.500    8.510    0.270    0.450   92.238
  287.750    8.331    0.264    0.451   94.012
  288.000    8.694    0.262    0.456   94.749
  288.250    9.089    0.281    0.474   93.352
  288.500    9.344    0.298    0.463   91.650
  288.750    9.534    0.304    0.456   85.011
  289.000    9.636    0.301    0.449   77.337
  289.250    9.488    0.302    0.443   82.097
  289.500    9.168    0.307    0.441   86.857
  289.750    8.678    0.294    0.432   90.336
  290.000    8.137    0.280    0.425   93.267
  290.250    7.473    0.271    0.420   94.552
  290.500    6.994    0.259    0.418   98.398
  290.750    6.861    0.219    0.423  102.487
  291.000    7.053    0.240    0.450  105.113
  291.250    7.528    0.255    0.468   98.536
  291.500    8.264    0.269    0.483   92.995
  291.750    8.837    0.277    0.463   89.769
  292.000    9.326    0.287    0.460   88.861
  292.250    9.462    0.304    0.469   89.354
  292.500    9.510    0.313    0.466   91.310
  292.750    9.381    0.318    0.470   92.840
  293.000    9.185    0.307    0.479   93.089
  293.250    8.992    0.298    0.487   92.850
