~VERSION INFORMATION
 VERS.                 2.0:   CWLS LOG ASCII STANDARD -VERSION 2.0
 WRAP.                  NO:   ONE LINE PER DEPTH STEP
~WELL INFORMATION BLOCK
#MNEM.UNIT           DATA                    DESCRIPTION OF MNEMONIC
#---------    -------------------            -------------------------------
# Generated from Intellog Unique Number	CW_76_78/WELL/993
WELL.         GULF POC DROWNED 11-03         : Well_name    - WELL
LOC .         00/11-03-077-21W4/0            : Location     - LOCATION
UWI .         00/11-03-077-21W4/0            : Uwi          - UNIQUE WELL ID
ENTR.         os                             : Entered      - ENTERED BY
SRVC.         SCHLUMBERGER                   : Scn          - SERVICE COMPANY
DATE.         FEB 1978                       : Date         - LOG DATE
STRT.M        417.576                        : top_depth    - START DEPTH
STOP.M        609.576                        : bot_depth    - STOP DEPTH
STEP.M        0.25                           : increment    - STEP LENGTH
 NULL. -999.2500:NULL Value
~CURVE INFORMATION BLOCK
#MNEM UNIT       ERCB CURVE CODE    CURVE DESCRIPTION
#-----------   ------------------   ----------------------------------
DEPT.M        00 001 00 00         : DEPTH        - DEPTH
ILD .OHMM     00 120 00 00         : RESD         - DEEP RESISTIVITY (DIL)
NPHI.V/V      00 330 00 00         : PHIN         - NEUTRON POROSITY (SANDSTONE)
DPHI.V/V      00 890 00 00         : PHID         - DENSITY POROSITY (SANDSTONE)
GR  .API      00 310 00 00         : GR           - GAMMA RAY
CALI.MM       00 280 01 00         : CAL          - CALIPER
~PARAMETER INFORMATION
#MNEM.UNIT           DATA             DESCRIPTION OF MNEMONIC
#---------         -----------     ------------------------------
GL  .M        745.541              : gl           - GROUND LEVEL ELEVATION
EREF.M        749.503              : kb           - ELEVATION OF DEPTH REFERENCE
DATM.M        749.503              : datum        - DATUM ELEVATION
TDD .M        622.706              : tdd          - TOTAL DEPTH DRILLER
RUN .         ONE                  : Run          - RUN NUMBER
ENG .         GUNN                 : Engineer     - RECORDING ENGINEER
WIT .         ROZENHART            : Witness      - WITNESSED BY
BASE.         EDMONTON             : Branch       - HOME BASE OF LOGGING UNIT
MUD .         GEL CHEM             : Mud_type     - MUD TYPE
MATR.         SANDSTONE            : Logunit      - NEUTRON MATRIX
TMAX.C        26.1111              : BHT          - MAXIMUM RECORDED TEMPERATURE
BHTD.M        623.011              : BHTDEP       - MAXIMUM RECORDED TEMPERATURE
RMT .C        20                   : MDTP         - TEMPERATURE OF MUD
MUDD.KG/M     1116                 : MWT          - MUD DENSITY
NEUT.         1                    : NEUTRON      - NEUTRON TYPE
RESI.         0                    : RESIST       - RESISTIVITY TYPE
RM  .OHMM     5.37                 : RM           - RESISTIVITY OF MUD
RMC .OHMM     0.25                 : RMC          - RESISTIVITY OF MUD CAKE
RMF .OHMM     0.25                 : RMF          - RESISTIVITY OF MUD FILTRATE
SUFT.C        4.5                  : SUFT         - SURFACE TEMPERATURE
~A  DEPTH     RESD     PHIN     PHID       GR      CAL
  417.576    2.580    0.545    0.201   76.612  165.179
  417.826    2.473    0.553    0.203   76.267  166.243
  418.076    2.433    0.542    0.213   79.076  165.767
  418.326    2.403    0.545    0.221   77.463  163.649
  418.576    2.403    0.525    0.201   75.181  164.611
  418.826    2.515    0.507    0.193   73.019  165.269
  419.076    2.777    0.500    0.203   66.499  164.680
  419.326    2.917    0.470    0.208   59.611  161.537
  419.576    2.984    0.434    0.227   56.782  157.678
  419.826    3.134    0.480    0.171   58.439  158.329
  420.076    3.071    0.508    0.110   63.551  162.672
  420.326    2.911    0.519    0.178   64.182  161.274
  420.576    2.748    0.530    0.217   67.656  160.292
  420.826    2.590    0.550    0.210   63.862  161.347
  421.076    2.369    0.578    0.200   64.914  167.023
  421.326    2.163    0.601    0.212   65.357  168.394
  421.576    1.906    0.614    0.240   66.229  167.617
  421.826    1.918    0.626    0.257   63.885  165.598
  422.076    2.098    0.597    0.263   60.451  164.297
  422.326    2.535    0.537    0.278   55.565  161.769
  422.576    2.966    0.467    0.293   52.676  158.117
  422.826    3.796    0.439    0.271   50.033  157.530
  423.076    5.206    0.451    0.240   49.871  156.539
  423.326    6.527    0.481    0.276   47.408  154.729
  423.576    7.483    0.460    0.293   47.792  154.765
  423.826    7.962    0.447    0.281   46.964  153.882
  424.076    8.254    0.441    0.269   44.563  153.920
  424.326    8.396    0.444    0.281   45.314  152.516
  424.576    8.416    0.449    0.290   44.243  152.355
  424.826    8.097    0.456    0.288   48.627  153.720
  425.076    7.935    0.436    0.290   50.772  153.659
  425.326    7.506    0.435    0.268   52.488  156.669
  425.576    7.008    0.442    0.230   56.754  157.629
  425.826    6.507    0.455    0.214   57.805  156.945
  426.076    6.989    0.469    0.227   56.129  153.396
  426.326    7.325    0.486    0.245   52.211  151.575
  426.576    7.301    0.475    0.237   49.686  151.614
  426.826    7.291    0.459    0.257   53.530  154.216
  427.076    7.040    0.443    0.277   57.852  154.156
  427.326    5.954    0.446    0.245   61.997  157.061
  427.576    5.093    0.468    0.206   62.682  162.025
  427.826    4.773    0.462    0.192   61.736  160.931
  428.076    4.229    0.469    0.215   63.877  156.968
  428.326    3.762    0.461    0.218   70.020  158.233
  428.576    3.371    0.468    0.217   79.193  155.083
  428.826    3.567    0.485    0.221   79.335  152.253
  429.076    3.337    0.483    0.208   70.813  155.992
  429.326    3.699    0.458    0.221   64.835  157.966
  429.576    4.249    0.476    0.202   57.279  156.067
  429.826    4.953    0.483    0.235   50.027  156.601
  430.076    5.657    0.447    0.295   44.171  153.869
  430.326    6.271    0.440    0.308   40.495  151.134
  430.576    7.056    0.427    0.297   41.245  151.786
  430.826    7.735    0.415    0.271   46.659  152.960
  431.076    7.988    0.422    0.270   42.923  152.992
  431.326    8.036    0.447    0.286   40.277  153.031
  431.576    8.284    0.443    0.300   39.329  151.930
  431.826    8.813    0.426    0.314   40.322  152.796
  432.076    9.501    0.432    0.306   42.767  152.122
  432.326    9.329    0.446    0.291   44.546  152.561
  432.576    9.008    0.450    0.290   44.695  152.493
  432.826    8.763    0.443    0.276   44.772  151.296
  433.076    8.768    0.429    0.271   45.520  152.050
  433.326    8.903    0.437    0.259   47.118  151.674
  433.576    8.678    0.451    0.248   46.351  151.308
  433.826    8.845    0.468    0.263   46.556  152.272
  434.076    8.336    0.481    0.278   49.061  150.761
  434.326    8.339    0.480    0.279   49.324  151.411
  434.576    7.757    0.463    0.282   51.531  150.423
  434.826    7.546    0.462    0.265   52.641  151.590
  435.076    7.073    0.462    0.275   52.115  151.003
  435.326    7.062    0.441    0.295   51.713  153.304
  435.576    7.375    0.440    0.294   51.856  155.591
  435.826    7.378    0.445    0.265   52.243  154.818
  436.076    7.777    0.454    0.283   51.294  152.074
  436.326    8.077    0.455    0.299   49.255  151.804
  436.576    7.828    0.448    0.291   48.072  154.307
  436.826    8.008    0.439    0.280   48.453  155.063
  437.076    7.834    0.442    0.261   49.381  153.250
  437.326    7.481    0.451    0.253   50.432  151.342
  437.576    7.050    0.432    0.267   52.818  152.806
  437.826    6.342    0.433    0.277   56.173  150.902
  438.076    5.620    0.442    0.288   60.437  152.166
  438.326    5.366    0.454    0.241   64.215  155.484
  438.576    5.429    0.446    0.252   68.601  155.926
  438.826    6.496    0.419    0.262   68.015  152.169
  439.076    7.406    0.416    0.216   72.401  153.434
  439.326    7.619    0.430    0.224   71.696  153.782
  439.576    8.245    0.442    0.219   67.353  153.507
  439.826    8.326    0.438    0.194   63.071  155.701
  440.076    8.423    0.411    0.236   57.761  154.609
  440.326    8.650    0.411    0.250   56.994  153.002
  440.576    9.101    0.416    0.249   51.438  150.372
  440.826    9.258    0.417    0.262   45.642  151.026
  441.076    9.385    0.424    0.270   38.874  151.580
  441.326    9.459    0.419    0.284   35.383  151.410
  441.576    9.463    0.413    0.300   36.130  150.837
  441.826    9.396    0.416    0.292   38.577  150.874
  442.076    9.262    0.420    0.294   42.962  151.310
  442.326    8.993    0.420    0.293   44.618  152.164
  442.576    8.700    0.407    0.272   48.883  152.409
  442.826    8.527    0.408    0.262   49.150  152.443
  443.076    8.248    0.389    0.260   55.776  152.994
  443.326    7.906    0.386    0.268   59.132  152.115
  443.576    7.968    0.399    0.258   63.394  152.254
  443.826    7.839    0.412    0.254   63.477  151.676
  444.076    7.485    0.411    0.245   62.770  150.996
  444.326    7.187    0.420    0.251   65.763  151.326
  444.576    7.231    0.420    0.245   63.361  154.244
  444.826    7.008    0.427    0.203   62.895  156.438
  445.076    6.616    0.452    0.180   66.129  157.910
  445.326    5.596    0.482    0.194   68.456  157.222
  445.576    4.280    0.498    0.229   74.294  154.701
  445.826    3.667    0.541    0.213   82.378  154.430
  446.076    3.107    0.535    0.177   85.671  156.000
  446.326    2.728    0.523    0.180   85.511  156.957
  446.576    2.454    0.525    0.165   84.502  155.559
  446.826    2.339    0.537    0.159   85.799  155.591
  447.076    2.271    0.535    0.171   89.152  156.248
  447.326    2.247    0.546    0.171   92.326  154.645
  447.576    2.206    0.548    0.186   91.499  156.112
  447.826    2.126    0.566    0.180   89.703  156.154
  448.076    2.080    0.571    0.185   90.633  155.266
  448.326    2.124    0.520    0.208   92.895  156.323
  448.576    2.448    0.495    0.224   89.767  155.438
  448.826    2.855    0.459    0.219   85.245  155.884
  449.076    3.347    0.443    0.212   81.082  160.344
  449.326    3.887    0.451    0.203   78.375  161.292
  449.576    4.183    0.464    0.189   80.699  162.977
  449.826    4.303    0.470    0.196   86.420  162.603
  450.076    4.171    0.465    0.232   86.258  160.789
  450.326    4.315    0.462    0.204   80.825  157.443
  450.576    4.695    0.478    0.225   70.968  156.549
  450.826    5.156    0.492    0.237   63.473  154.740
  451.076    5.716    0.476    0.265   58.525  154.576
  451.326    6.325    0.481    0.299   56.063  151.943
  451.576    6.717    0.471    0.312   55.660  151.152
  451.826    6.898    0.482    0.320   57.139  151.394
  452.076    6.939    0.499    0.303   56.188  148.662
  452.326    6.968    0.498    0.304   55.907  149.518
  452.576    6.920    0.486    0.312   57.624  150.792
  452.826    6.795    0.459    0.298   59.163  151.027
  453.076    6.549    0.447    0.286   62.091  153.942
  453.326    6.081    0.458    0.286   66.840  152.233
  453.576    5.583    0.472    0.281   66.076  152.579
  453.826    5.097    0.482    0.268   62.946  153.844
