~VERSION INFORMATION
 VERS.                 2.0:   CWLS LOG ASCII STANDARD -VERSION 2.0
 WRAP.                  NO:   ONE LINE PER DEPTH STEP
~WELL INFORMATION BLOCK
#MNEM.UNIT           DATA                    DESCRIPTION OF MNEMONIC
#---------    -------------------            -------------------------------
# Generated from Intellog Unique Number	CC_84_87/WELL/2338
NULL.         -999.25                        : NULL_VALUE
WELL.         NOVALTA NEWBY                  : Well_name    - WELL              
LOC .         12-05-084-05W4                 : Location     - LOCATION          
UWI .         00/12-05-084-05W400            : Uwi          - UNIQUE WELL ID    
ENTR.         JHS                            : Entered      - ENTERED BY        
SRVC.         SCHLUMBERGER                   : Scn          - SERVICE COMPANY   
DATE.         12 FEB 85                      : Date         - LOG DATE
STRT.M        64                             : top_depth    - START DEPTH       
STOP.M        324.999                        : bot_depth    - STOP DEPTH        
STEP.M        0.3                            : increment    - STEP LENGTH       
~CURVE INFORMATION BLOCK
#MNEM UNIT       ERCB CURVE CODE    CURVE DESCRIPTION
#-----------   ------------------   ----------------------------------
DEPT.M        00 001 00 00         : DEPTH        - DEPTH                       
DPHI.V/V      00 890 00 00         : PHID         - DENSITY POROSITY (LIMESTONE)
NPHI.V/V      00 330 00 00         : PHIN         - NEUTRON POROSITY (LIMESTONE)
GR  .API      00 310 00 00         : GR           - GAMMA RAY                   
ILD .OHMM     00 120 00 00         : RESD         - DEEP RESISTIVITY (DIL)      
~PARAMETER INFORMATION       
#MNEM.UNIT           DATA             DESCRIPTION OF MNEMONIC
#---------         -----------     ------------------------------
GL  .M        490                  : gl           - GROUND LEVEL ELEVATION      
EREF.M        493                  : kb           - ELEVATION OF DEPTH REFERENCE
DATM.M        493                  : datum        - DATUM ELEVATION             
TDD .M        335                  : tdd          - TOTAL DEPTH DRILLER         
RUN .         ONE                  : Run          - RUN NUMBER                  
ENG .         BILL                 : Engineer     - RECORDING ENGINEER          
WIT .         JIM                  : Witness      - WITNESSED BY                
MUD .         GEL                  : Mud_type     - MUD TYPE                    
MATR.         LIMESTONE            : Logunit      - NEUTRON MATRIX              
TMAX.C        25                   : BHT          - MAXIMUM RECORDED TEMPERATURE
BHTD.M        335                  : BHTDEP       - MAXIMUM RECORDED TEMPERATURE
MATR.         1                    : LOGUNIT      - NEUTRON MATRIX              
RMT .C        25                   : MDTP         - TEMPERATURE OF MUD          
NEUT.         1                    : NEUTRON      - NEUTRON TYPE                
RESI.         0                    : RESIST       - RESISTIVITY TYPE            
RMC .OHMM     0.25                 : RMC          - RESISTIVITY OF MUD CAKE     
RMF .OHMM     0.25                 : RMF          - RESISTIVITY OF MUD FILTRATE 
SUFT.C        15                   : SUFT         - SURFACE TEMPERATURE         
~A  DEPTH     PHID     PHIN       GR     RESD
# ...
  116.201    0.337    0.421   50.554   21.016
  116.501    0.342    0.431   51.796   19.112
  116.801    0.336    0.385   52.418   17.715
  117.101    0.336    0.388   55.519   16.108
  117.401    0.326    0.414   59.860   15.214
  117.701    0.316    0.426   56.142   14.643
  118.001    0.326    0.409   59.864   14.365
  118.301    0.330    0.388   62.345   14.091
  118.601    0.316    0.388   60.488   14.086
  118.901    0.325    0.415   61.729   13.817
  119.201    0.325    0.429   65.451   14.077
  119.501    0.312    0.435   66.072   14.616
  119.801    0.313    0.440   61.115   15.759
  120.101    0.322    0.456   61.117   14.606
  120.401    0.326    0.433   59.880   13.537
  120.701    0.325    0.420   56.163   14.596
  121.001    0.300    0.405   59.884   16.976
  121.301    0.276    0.372   58.026   19.375
  121.601    0.320    0.362   50.590   20.892
  121.901    0.328    0.379   49.972   19.361
  122.201    0.318    0.393   57.412   16.635
  122.501    0.301    0.409   64.233   14.845
  122.801    0.285    0.410   70.433   13.501
  123.101    0.275    0.435   74.154   12.047
  123.401    0.276    0.425   74.156   11.817
  123.701    0.275    0.403   72.298   11.592
  124.001    0.273    0.390   71.061   10.948
  124.301    0.279    0.402   71.063   10.146
  124.601    0.275    0.422   69.825   10.337
  124.901    0.270    0.412   71.687   10.531
  125.201    0.276    0.427   75.407   10.729
  125.501    0.282    0.433   78.509   10.524
  125.801    0.281    0.428   79.751    9.940
  126.101    0.281    0.416   75.413    8.224
  126.401    0.281    0.416   68.597    8.867
  126.701    0.281    0.419   64.880   10.916
  127.001    0.297    0.423   67.362   11.995
  127.301    0.303    0.437   65.504   11.546
  127.601    0.305    0.437   66.746   11.112
  127.901    0.302    0.433   64.268   11.109
  128.201    0.306    0.414   58.072   11.978
  128.501    0.305    0.397   57.454   12.675
  128.801    0.316    0.405   52.497   13.666
  129.101    0.332    0.410   50.020   14.189
  129.401    0.329    0.410   51.262   15.011
  129.701    0.305    0.405   54.363   15.292
  130.001    0.292    0.433   51.886   15.581
  130.301    0.300    0.441   51.268   15.872
  130.601    0.311    0.410   50.030   15.868
  130.901    0.318    0.399   46.313   15.565
  131.201    0.333    0.371   50.034   15.269
  131.501    0.334    0.393   56.855   14.421
  131.801    0.329    0.433   58.716   13.366
  132.101    0.316    0.415   56.858   11.927
  132.401    0.320    0.388   57.480   10.846
  132.701    0.317    0.414   60.581   10.052
  133.001    0.307    0.430   67.401    9.674
  133.301    0.306    0.437   74.222    9.672
  133.601    0.321    0.427   69.265   10.042
  133.901    0.326    0.405   56.250   12.839
  134.201    0.337    0.392   49.434   15.805
  134.501    0.373    0.380   40.139   19.092
  134.801    0.366    0.365   39.521   22.630
  135.101    0.375    0.375   35.184   26.316
  135.401    0.376    0.374   37.045   26.812
  135.701    0.375    0.376   40.767   26.301
  136.001    0.383    0.381   45.107   25.314
  136.301    0.381    0.379   48.829   24.367
  136.601    0.378    0.386   50.070   23.900
  136.901    0.370    0.390   43.874   23.891
  137.201    0.364    0.418   42.016   23.887
  137.501    0.361    0.425   45.117   24.334
  137.801    0.370    0.381   40.781   24.327
  138.101    0.380    0.369   39.543   24.782
  138.401    0.386    0.373   40.785   25.731
  138.701    0.384    0.378   42.646   26.210
  139.001    0.378    0.384   43.888   26.205
  139.301    0.373    0.404   41.410   25.703
  139.601    0.373    0.413   40.793   25.214
  139.901    0.366    0.410   42.034   25.685
  140.201    0.366    0.412   40.796   25.678
  140.501    0.369    0.407   41.419   25.187
  140.801    0.366    0.384   43.899   23.790
  141.101    0.352    0.382   43.282   22.049
  141.401    0.363    0.420   42.664   21.221
  141.701    0.379    0.426   43.286   20.815
  142.001    0.370    0.406   45.767   20.811
  142.301    0.371    0.403   49.488   20.413
  142.601    0.384    0.420   48.250   19.648
  142.901    0.392    0.444   46.393   17.868
  143.201    0.381    0.453   47.015   16.250
  143.501    0.368    0.423   48.257   13.701
  143.801    0.354    0.432   50.738    9.560
  144.101    0.281    0.446   56.938    7.615
  144.401    0.311    0.459   81.734    6.668
  144.701    0.318    0.473   85.454    5.622
  145.001    0.297    0.489   87.316    4.478
  145.301    0.282    0.516   89.798    2.952
  145.601    0.286    0.533   91.659    2.489
  145.901    0.300    0.542   91.661    2.396
  146.201    0.304    0.533   91.043    2.734
  146.501    0.298    0.484   91.665    3.004
  146.801    0.302    0.501   92.287    3.302
  147.101    0.302    0.535   89.190    3.628
  147.401    0.300    0.569   89.191    3.839
  147.701    0.300    0.559   86.094    4.061
  148.001    0.293    0.543   82.997    4.297
  148.301    0.299    0.485   80.520    4.904
  148.601    0.308    0.475   82.381    5.390
  148.901    0.324    0.462   76.805    7.022
  149.201    0.335    0.431   65.030   11.056
  149.501    0.351    0.434   57.594   14.134
  149.801    0.363    0.441   52.637   16.439
  150.101    0.356    0.449   52.639   18.065
  150.401    0.353    0.459   46.443   18.755
  150.701    0.359    0.455   27.850   19.104
  151.001    0.360    0.455   10.496   19.101
  151.301    0.354    0.462    1.821   19.095
  151.601    0.354    0.455    4.922   19.821
  151.901    0.360    0.445   12.362   19.815
  152.201    0.365    0.436   45.835   20.190
  152.501    0.365    0.418   46.457   20.183
  152.801    0.358    0.424   50.798   20.176
  153.101    0.349    0.442   48.321   20.169
  153.401    0.353    0.475   49.562   20.160
  153.701    0.365    0.448   50.804   20.538
  154.001    0.361    0.418   47.087   20.534
  154.301    0.348    0.397   44.609   21.727
  154.601    0.344    0.371   46.471   24.331
  154.901    0.280    0.333   44.613   28.839
  155.201    0.056    0.273   39.657   41.305
  155.501    0.000    0.135   36.559   56.961
  155.801    0.007    0.141   35.941   62.593
  156.101    0.147    0.242   35.324   60.246
  156.401    0.299    0.312   39.664   47.092
  156.701    0.349    0.400   46.485   23.372
  157.001    0.364    0.416   48.966   21.254
  157.301    0.361    0.403   47.109   20.457
  157.601    0.351    0.416   47.111   20.069
  157.901    0.354    0.421   46.493   20.061
  158.201    0.366    0.421   47.734   20.054
  158.501    0.365    0.417   50.216   20.045
  158.801    0.354    0.422   51.457   20.041
  159.101    0.366    0.435   52.699   19.660
  159.401    0.369    0.426   53.321   18.921
  159.701    0.360    0.427   50.844   18.560
  160.001    0.364    0.429   48.366   18.553
  160.301    0.362    0.419   46.509   18.547
  160.601    0.359    0.411   46.511   18.544
  160.901    0.339    0.426   47.753   18.536
  161.201    0.343    0.444   49.614   18.884
  161.501    0.346    0.443   52.095   18.525
  161.801    0.349    0.424   47.758   17.829
  162.101    0.346    0.395   47.141   17.161
  162.401    0.345    0.414   50.242   16.518
  162.701    0.355    0.428   50.243   16.203
  163.001    0.354    0.418   50.865   15.895
  163.301    0.334    0.428   57.066   15.592
  163.601    0.329    0.419   57.688   15.295
  163.901    0.344    0.428   52.731   15.000
  164.201    0.344    0.434   54.593   15.283
  164.501    0.343    0.423   55.834   15.277
  164.801    0.344    0.422   55.217   15.273
  165.101    0.348    0.413   56.458   15.268
  165.401    0.344    0.388   59.559   15.554
  165.701    0.331    0.406   57.702   15.258
  166.001    0.323    0.432   55.844   14.967
  166.301    0.331    0.433   57.086   14.682
  166.601    0.336    0.414   58.328   14.677
  166.901    0.333    0.401   58.950   14.671
  167.201    0.334    0.411   58.951   14.667
  167.501    0.336    0.416   57.094   14.941
  167.801    0.338    0.417   57.096   14.936
  168.101    0.329    0.427   59.577   14.651
