~VERSION INFORMATION
 VERS.                 2.0:   CWLS LOG ASCII STANDARD -VERSION 2.0
 WRAP.                  NO:   ONE LINE PER DEPTH STEP
~WELL INFORMATION BLOCK
#MNEM.UNIT           DATA                    DESCRIPTION OF MNEMONIC
#---------    -------------------            -------------------------------
# Generated from Intellog Unique Number	CS_67_68/WELL/813
WELL.         BURNT LAKE                     : Well_name    - WELL
LOC .         00/11-02-068-04W4/0            : Location     - LOCATION
UWI .         00/11-02-068-04W4/0            : Uwi          - UNIQUE WELL ID
ENTR.         SP                             : Entered      - ENTERED BY
SRVC.         SCHLUMBERGER                   : Scn          - SERVICE COMPANY
STRT.M        360                            : top_depth    - START DEPTH
STOP.M        580                            : bot_depth    - STOP DEPTH
STEP.M        0.25                           : increment    - STEP LENGTH
 NULL. -999.2500:NULL Value
~CURVE INFORMATION BLOCK
#MNEM UNIT       ERCB CURVE CODE    CURVE DESCRIPTION
#-----------   ------------------   ----------------------------------
DEPT.M        00 001 00 00         : DEPTH        - DEPTH
GR  .API      00 310 00 00         : GR           - GAMMA RAY
NPHI.V/V      00 330 00 00         : PHIN         - NEUTRON POROSITY (LIMESTONE)
DPHI.V/V      00 890 00 00         : PHID         - DENSITY POROSITY (LIMESTONE)
ILD .OHMM     00 120 00 00         : RESD         - DEEP RESISTIVITY (DIL)
~PARAMETER INFORMATION
#MNEM.UNIT           DATA             DESCRIPTION OF MNEMONIC
#---------         -----------     ------------------------------
GL  .M        705.39               : gl           - GROUND LEVEL ELEVATION
EREF.M        709.24               : kb           - ELEVATION OF DEPTH REFERENCE
DATM.M        705.39               : datum        - DATUM ELEVATION
TDD .M        582                  : tdd          - TOTAL DEPTH DRILLER
RUN .         ONE                  : Run          - RUN NUMBER
ENG .         BILL                 : Engineer     - RECORDING ENGINEER
WIT .         JIM                  : Witness      - WITNESSED BY
MUD .         GEL                  : Mud_type     - MUD TYPE
MATR.         LIMESTONE            : Logunit      - NEUTRON MATRIX
TMAX.C        20                   : BHT          - MAXIMUM RECORDED TEMPERATURE
BHTD.M        582                  : BHTDEP       - MAXIMUM RECORDED TEMPERATURE
MATR.         1                    : LOGUNIT      - NEUTRON MATRIX
RMT .C        25                   : MDTP         - TEMPERATURE OF MUD
NEUT.         1                    : NEUTRON      - NEUTRON TYPE
RESI.         0                    : RESIST       - RESISTIVITY TYPE
RMC .OHMM     0.25                 : RMC          - RESISTIVITY OF MUD CAKE
RMF .OHMM     0.25                 : RMF          - RESISTIVITY OF MUD FILTRATE
SUFT.C        15                   : SUFT         - SURFACE TEMPERATURE
~A  DEPTH       GR     PHIN     PHID     RESD
# ...
  534.000   62.378    0.380    0.323    6.028
  534.250   66.090    0.385    0.327    6.215
  534.500   70.045    0.385    0.329    6.359
  534.750   72.110    0.395    0.316    6.496
  535.000   71.179    0.398    0.312    6.499
  535.250   68.598    0.397    0.318    6.392
  535.500   69.073    0.398    0.328    6.045
  535.750   64.659    0.399    0.339    5.890
  536.000   60.063    0.404    0.347    5.849
  536.250   57.972    0.409    0.351    5.797
  536.500   59.667    0.423    0.354    5.778
  536.750   61.730    0.406    0.349    5.802
  537.000   64.341    0.390    0.345    5.816
  537.250   65.672    0.378    0.352    5.851
  537.500   69.569    0.393    0.362    5.966
  537.750   75.236    0.399    0.350    6.081
  538.000   79.559    0.400    0.319    6.269
  538.250   82.538    0.399    0.278    6.525
  538.500   88.388    0.370    0.229    6.856
  538.750   95.829    0.351    0.204    7.068
  539.000  104.185    0.349    0.188    7.582
  539.250   98.914    0.377    0.179    7.742
  539.500   85.949    0.360    0.189    8.043
  539.750   71.881    0.349    0.206    8.214
  540.000   80.481    0.339    0.212    8.358
  540.250   91.037    0.373    0.205    8.425
  540.500  100.615    0.401    0.211    8.430
  540.750  103.167    0.392    0.220    8.402
  541.000  103.091    0.377    0.209    8.342
  541.250  103.504    0.380    0.196    8.268
  541.500  105.443    0.367    0.184    8.210
  541.750  108.606    0.354    0.180    8.275
  542.000  110.853    0.362    0.179    8.374
  542.250  112.305    0.386    0.198    8.424
  542.500  107.892    0.384    0.195    8.428
  542.750  101.338    0.364    0.179    8.385
  543.000  102.242    0.344    0.162    8.248
  543.250  116.890    0.343    0.148    8.098
  543.500  114.981    0.354    0.162    7.862
  543.750  113.011    0.365    0.174    7.504
  544.000  117.214    0.378    0.181    6.899
  544.250  122.209    0.402    0.184    6.499
  544.500  126.348    0.432    0.190    6.309
  544.750  129.084    0.481    0.195    6.253
  545.000  127.786    0.463    0.179    6.316
  545.250  120.196    0.413    0.175    6.487
  545.500  110.589    0.390    0.193    6.815
  545.750  104.098    0.371    0.209    7.254
  546.000   97.486    0.368    0.240    7.751
  546.250   90.689    0.374    0.237    7.901
  546.500   90.736    0.379    0.235    7.787
  546.750   90.172    0.383    0.233    7.661
  547.000   86.736    0.383    0.242    7.550
  547.250   82.811    0.391    0.258    7.427
  547.500   85.361    0.393    0.270    7.346
  547.750   84.493    0.386    0.267    7.213
  548.000   78.246    0.380    0.271    7.109
  548.250   83.363    0.377    0.290    7.045
  548.500   89.215    0.376    0.273    6.983
  548.750   92.193    0.369    0.259    6.908
  549.000   88.024    0.372    0.247    6.859
  549.250   82.635    0.378    0.263    6.838
  549.500   88.728    0.372    0.271    6.879
  549.750   91.341    0.370    0.258    6.985
  550.000   98.170    0.369    0.249    7.082
  550.250  105.671    0.370    0.238    7.045
  550.500  114.209    0.375    0.228    6.956
  550.750  120.243    0.386    0.214    6.855
  551.000  117.480    0.400    0.214    6.782
  551.250  100.358    0.388    0.250    6.634
  551.500   86.536    0.366    0.280    6.428
  551.750   79.129    0.348    0.300    6.240
  552.000   70.378    0.356    0.314    5.945
  552.250   62.665    0.362    0.327    5.750
  552.500   57.518    0.371    0.344    5.604
  552.750   60.864    0.381    0.345    5.532
  553.000   57.734    0.376    0.334    5.453
  553.250   49.897    0.371    0.324    5.424
  553.500   53.545    0.363    0.331    5.396
  553.750   57.505    0.359    0.341    5.450
  554.000   58.530    0.386    0.342    5.514
  554.250   54.851    0.376    0.338    5.559
  554.500   53.187    0.366    0.320    5.571
  554.750   50.301    0.383    0.302    5.512
  555.000   47.598    0.399    0.317    5.504
  555.250   49.110    0.393    0.321    5.527
  555.500   50.685    0.373    0.313    5.592
  555.750   49.082    0.361    0.320    5.722
  556.000   50.165    0.364    0.324    5.834
  556.250   51.986    0.365    0.318    5.858
  556.500   50.931    0.378    0.328    5.709
  556.750   48.411    0.374    0.337    5.460
  557.000   46.319    0.394    0.343    5.382
  557.250   45.083    0.395    0.339    5.395
  557.500   46.109    0.369    0.336    5.428
  557.750   48.172    0.351    0.329    5.470
  558.000   49.807    0.360    0.316    5.555
  558.250   48.082    0.376    0.305    5.696
  558.500   51.976    0.374    0.315    5.762
  558.750   58.681    0.350    0.326    5.831
  559.000   66.365    0.334    0.316    5.844
  559.250   70.874    0.359    0.309    5.825
  559.500   69.148    0.389    0.306    5.730
  559.750   62.108    0.376    0.321    5.657
  560.000   55.373    0.377    0.334    5.555
  560.250   48.149    0.386    0.345    5.505
  560.500   43.553    0.374    0.334    5.426
  560.750   39.872    0.363    0.324    5.387
  561.000   42.054    0.360    0.335    5.310
  561.250   46.136    0.367    0.343    5.253
  561.500   50.886    0.379    0.327    5.245
  561.750   53.255    0.387    0.320    5.228
  562.000   54.341    0.388    0.326    5.211
  562.250   51.394    0.399    0.337    5.203
  562.500   46.370    0.385    0.345    5.186
  562.750   41.038    0.374    0.352    5.159
  563.000   39.436    0.365    0.354    5.103
  563.250   41.254    0.374    0.360    5.068
  563.500   43.623    0.367    0.365    5.032
  563.750   46.541    0.361    0.362    5.015
  564.000   46.526    0.355    0.354    5.046
  564.250   44.312    0.359    0.344    5.106
  564.500   43.625    0.375    0.345    5.176
  564.750   40.922    0.384    0.351    5.237
  565.000   42.190    0.383    0.351    5.259
  565.250   45.048    0.374    0.348    5.252
  565.500   48.761    0.366    0.347    5.234
  565.750   52.901    0.368    0.343    5.188
  566.000   59.913    0.389    0.332    5.171
  566.250   72.301    0.382    0.309    5.222
  566.500   80.596    0.373    0.283    5.344
  566.750   76.366    0.377    0.274    5.447
  567.000   62.176    0.375    0.303    5.491
  567.250   53.913    0.369    0.318    5.514
  567.500   49.440    0.375    0.336    5.517
  567.750   49.975    0.374    0.348    5.236
  568.000   53.077    0.372    0.352    4.989
  568.250   49.397    0.372    0.349    4.834
  568.500   45.531    0.367    0.346    4.746
  568.750   42.767    0.364    0.354    4.643
  569.000   40.982    0.372    0.358    4.568
  569.250   45.733    0.370    0.361    4.493
  569.500   53.601    0.375    0.363    4.461
  569.750   62.322    0.381    0.363    4.446
  570.000   67.930    0.386    0.362    4.465
  570.250   61.132    0.390    0.360    4.501
  570.500   55.132    0.378    0.360    4.537
  570.750   46.319    0.368    0.362    4.573
  571.000   53.450    0.365    0.352    4.644
  571.250   60.281    0.365    0.344    4.735
  571.500   65.216    0.366    0.339    4.799
  571.750   62.265    0.368    0.344    4.939
  572.000   60.298    0.377    0.350    5.064
  572.250   65.172    0.382    0.353    5.152
  572.500   67.356    0.385    0.330    5.282
  572.750   62.516    0.395    0.311    5.355
  573.000   55.412    0.407    0.302    5.388
  573.250   48.924    0.402    0.325    5.380
  573.500   43.899    0.382    0.337    5.372
  573.750   42.357    0.368    0.333    5.325
  574.000   48.391    0.363    0.334    5.277
  574.250   53.753    0.385    0.335    5.201
  574.500   53.553    0.388    0.336    5.145
  574.750   45.354    0.386    0.340    5.128
  575.000   40.757    0.382    0.347    5.130
  575.250   38.420    0.380    0.357    5.152
  575.500   39.994    0.383    0.363    5.184
  575.750   42.058    0.389    0.355    5.245
  576.000   43.935    0.392    0.344    5.357
  576.250   44.840    0.367    0.337    5.585
  576.500   45.740    0.378    0.332    6.093
  576.750   45.177    0.409    0.331    7.151
  577.000   42.900    0.420    0.344    9.793
  577.250   41.236    0.356    0.264   17.744
