~VERSION INFORMATION
 VERS.                 2.0:   CWLS LOG ASCII STANDARD -VERSION 2.0
 WRAP.                  NO:   ONE LINE PER DEPTH STEP
~WELL INFORMATION BLOCK
#MNEM.UNIT           DATA                    DESCRIPTION OF MNEMONIC
#---------    -------------------            -------------------------------
# Generated from Intellog Unique Number	CC_80_83/WELL/2380
NULL.         -999.25                        : NULL_VALUE
WELL.         BVX ET AL WATCHUSK             : Well_name    - WELL
LOC .         10-27-082-02W4                 : Location     - LOCATION          
UWI .         00/10-27-082-02W400            : Uwi          - UNIQUE WELL ID    
ENTR.         DW                             : Entered      - ENTERED BY        
SRVC.         SCHLUMBERGER                   : Scn          - SERVICE COMPANY   
DATE.         04 FEB 79                      : Date         - LOG DATE
STRT.M        125                            : top_depth    - START DEPTH       
STOP.M        310.099                        : bot_depth    - STOP DEPTH        
STEP.M        0.3                            : increment    - STEP LENGTH       
~CURVE INFORMATION BLOCK
#MNEM UNIT       ERCB CURVE CODE    CURVE DESCRIPTION
#-----------   ------------------   ----------------------------------
DEPT.M        00 001 00 00         : DEPTH        - DEPTH                       
DPHI.V/V      00 890 00 00         : PHID         - DENSITY POROSITY (LIMESTONE)
NPHI.V/V      00 330 00 00         : PHIN         - NEUTRON POROSITY (LIMESTONE)
GR  .API      00 310 00 00         : GR           - GAMMA RAY                   
ILD .OHMM     00 120 00 00         : RESD         - DEEP RESISTIVITY (DIL)      
~PARAMETER INFORMATION       
#MNEM.UNIT           DATA             DESCRIPTION OF MNEMONIC
#---------         -----------     ------------------------------
GL  .M        466                  : gl           - GROUND LEVEL ELEVATION      
EREF.M        469.4                : kb           - ELEVATION OF DEPTH REFERENCE
DATM.M        469.4                : datum        - DATUM ELEVATION             
TDD .M        322                  : tdd          - TOTAL DEPTH DRILLER         
RUN .         ONE                  : Run          - RUN NUMBER                  
ENG .         BILL                 : Engineer     - RECORDING ENGINEER          
WIT .         JIM                  : Witness      - WITNESSED BY                
MUD .         GEL                  : Mud_type     - MUD TYPE                    
MATR.         LIMESTONE            : Logunit      - NEUTRON MATRIX              
TMAX.C        25                   : BHT          - MAXIMUM RECORDED TEMPERATURE
BHTD.M        322                  : BHTDEP       - MAXIMUM RECORDED TEMPERATURE
MATR.         1                    : LOGUNIT      - NEUTRON MATRIX              
RMT .C        25                   : MDTP         - TEMPERATURE OF MUD          
NEUT.         1                    : NEUTRON      - NEUTRON TYPE                
RESI.         0                    : RESIST       - RESISTIVITY TYPE            
RMC .OHMM     0.25                 : RMC          - RESISTIVITY OF MUD CAKE     
RMF .OHMM     0.25                 : RMF          - RESISTIVITY OF MUD FILTRATE 
SUFT.C        15                   : SUFT         - SURFACE TEMPERATURE         
~A  DEPTH     PHID     PHIN       GR     RESD
# ...
  229.401    0.263    0.333   61.719    4.163
  229.701    0.262    0.335   56.159    4.575
  230.001    0.274    0.357   53.695    4.489
  230.301    0.294    0.363   54.328    4.085
  230.601    0.295    0.362   59.304    3.934
  230.901    0.287    0.357   61.797    3.789
  231.201    0.283    0.357   61.806    3.861
  231.501    0.268    0.345   63.063    3.934
  231.801    0.254    0.337   63.079    4.164
  232.101    0.250    0.348   61.231    4.324
  232.401    0.290    0.358   55.052    4.010
  232.701    0.306    0.376   45.781    3.649
  233.001    0.324    0.375   39.597    3.197
  233.301    0.334    0.369   39.613    3.079
  233.601    0.335    0.366   42.107    3.022
  233.901    0.330    0.376   44.601    2.965
  234.201    0.334    0.385   43.998    2.965
  234.501    0.335    0.377   44.008    3.022
  234.801    0.332    0.376   42.785    3.079
  235.101    0.327    0.377   47.139    3.259
  235.401    0.306    0.367   53.344    3.449
  235.701    0.281    0.350   65.128    3.650
  236.001    0.260    0.350   73.815    3.720
  236.301    0.226    0.400   69.494    3.791
  236.601    0.255    0.396   58.359    3.650
  236.901    0.291    0.366   44.127    3.582
  237.201    0.267    0.377   53.435    3.515
  237.501    0.240    0.376   47.875    3.322
  237.801    0.281    0.361   38.598    3.260
  238.101    0.308    0.367   47.906    3.199
  238.401    0.318    0.374   51.639    3.139
  238.701    0.331    0.377   48.554    3.023
  239.001    0.340    0.382   56.003    2.911
  239.301    0.345    0.408   61.591    2.803
  239.601    0.358    0.422   62.226    2.804
  239.901    0.363    0.416   54.188    2.700
  240.201    0.364    0.407   49.872    2.649
  240.501    0.357    0.406   48.029    2.649
  240.801    0.361    0.399   46.186    2.650
  241.101    0.369    0.396   46.196    2.650
  241.401    0.372    0.399   46.211    2.650
  241.701    0.370    0.397   47.467    2.700
  242.001    0.352    0.396   53.676    2.752
  242.301    0.327    0.394   62.986    2.968
  242.601    0.291    0.394   65.477    3.082
  242.901    0.278    0.387   67.350    3.387
  243.201    0.273    0.366   66.127    3.653
  243.501    0.291    0.352   66.139    4.014
  243.801    0.290    0.352   65.537    4.248
  244.101    0.270    0.355   66.166    4.496
  244.401    0.259    0.364   68.667    4.496
  244.701    0.255    0.386   69.914    4.249
  245.001    0.258    0.396   68.073    3.794
  245.301    0.272    0.386   53.219    3.325
  245.601    0.295    0.380   41.467    3.142
  245.901    0.303    0.367   34.667    3.083
  246.201    0.315    0.359   30.966    3.083
  246.501    0.314    0.350   30.361    3.083
  246.801    0.298    0.339   29.137    3.142
  247.101    0.302    0.364   29.774    3.202
  247.401    0.317    0.378   31.647    3.083
  247.701    0.336    0.383   33.519    3.084
  248.001    0.330    0.365   36.630    2.969
  248.301    0.315    0.344   34.170    2.969
  248.601    0.298    0.333   32.325    3.026
  248.901    0.305    0.332   29.244    3.084
  249.201    0.310    0.330   24.925    3.084
  249.501    0.321    0.327   24.938    3.143
  249.801    0.318    0.331   28.050    3.203
  250.101    0.300    0.332   33.021    3.264
  250.401    0.282    0.334   37.371    3.390
  250.701    0.274    0.332   37.391    3.454
  251.001    0.273    0.321   36.168    3.656
  251.301    0.261    0.273   35.560    3.796
  251.601    0.248    0.270   36.193    3.869
  251.901    0.254    0.304   39.302    3.656
  252.201    0.282    0.319   42.416    3.390
  252.501    0.311    0.332   39.953    3.085
  252.801    0.331    0.354   36.869    2.861
  253.101    0.341    0.389   41.221    2.703
  253.401    0.344    0.421   39.997    2.653
  253.701    0.348    0.421   33.199    2.653
  254.001    0.342    0.405   31.978    2.704
  254.301    0.341    0.395   35.089    2.704
  254.601    0.343    0.391   36.342    2.653
  254.901    0.345    0.385   37.596    2.653
  255.201    0.343    0.387   38.229    2.653
  255.501    0.332    0.396   38.864    2.654
  255.801    0.334    0.402   37.021    2.704
  256.101    0.345    0.395   34.556    2.704
  256.401    0.350    0.391   33.335    2.704
  256.701    0.339    0.387   34.591    2.654
  257.001    0.322    0.390   36.468    2.654
  257.301    0.319    0.395   37.716    2.654
  257.601    0.324    0.390   38.969    2.705
  257.901    0.329    0.375   37.746    2.756
  258.201    0.327    0.377   34.663    2.756
  258.501    0.327    0.380   29.107    2.756
  258.801    0.328    0.371   29.742    2.705
  259.101    0.326    0.373   32.237    2.705
  259.401    0.324    0.380   32.245    2.655
  259.701    0.323    0.370   31.644    2.655
  260.001    0.315    0.356   29.801    2.757
  260.301    0.312    0.350   28.577    2.863
  260.601    0.321    0.352   27.968    2.918
  260.901    0.305    0.356   28.607    2.973
  261.201    0.297    0.352   31.720    2.973
  261.501    0.302    0.353   32.973    3.030
  261.801    0.288    0.351   32.367    3.088
  262.101    0.283    0.350   30.520    3.147
  262.401    0.272    0.346   28.684    3.268
  262.701    0.269    0.343   29.937    3.268
  263.001    0.289    0.340   29.947    3.207
  263.301    0.290    0.341   29.344    3.207
  263.601    0.290    0.351   29.979    3.089
  263.901    0.288    0.369   29.997    3.031
  264.201    0.280    0.360   30.012    3.031
  264.501    0.289    0.358   30.023    3.031
  264.801    0.307    0.359   30.657    3.089
  265.101    0.347    0.437   30.060    3.031
  265.401    0.348    0.407   30.068    3.031
  265.701    0.318    0.384   30.704    2.919
  266.001    0.299    0.410   31.957    2.865
  266.301    0.305    0.415   35.070    2.811
  266.601    0.328    0.386   37.561    2.759
  266.901    0.313    0.369   35.098    2.657
  267.201    0.306    0.363   31.397    2.657
  267.501    0.308    0.364   31.410    2.607
  267.801    0.322    0.358   33.284    2.607
  268.101    0.306    0.353   35.157    2.607
  268.401    0.319    0.360   34.552    2.607
  268.701    0.329    0.380   33.333    2.607
  269.001    0.332    0.385   34.589    2.608
  269.301    0.330    0.387   35.843    2.608
  269.601    0.325    0.378   35.856    2.657
  269.901    0.317    0.361   35.255    2.657
  270.201    0.308    0.350   35.880    2.658
  270.501    0.310    0.360   37.135    2.608
  270.801    0.313    0.371   40.868    2.559
  271.101    0.313    0.378   47.694    2.511
  271.401    0.315    0.384   54.523    2.512
  271.701    0.314    0.386   42.770    2.512
  272.001    0.308    0.378   36.592    2.465
  272.301    0.311    0.369   35.991    2.560
  272.601    0.308    0.360   35.382    2.658
  272.901    0.261    0.353   41.592    2.760
  273.201    0.277    0.348   47.799    3.034
  273.501    0.271    0.346   57.106    3.398
  273.801    0.259    0.390   63.317    3.805
  274.101    0.261    0.411   61.473    3.878
  274.401    0.264    0.375   44.142    3.805
  274.701    0.303    0.333   21.243    3.398
  275.001    0.326    0.351   24.360    3.092
  275.301    0.311    0.359   26.845    3.092
  275.601    0.264    0.359   36.772    3.398
  275.901    0.232    0.369   46.695    4.183
  276.201    0.174    0.421   88.829    5.448
  276.500    0.153    0.285   95.039    7.231
  276.800    0.146    0.279   75.852    7.946
  277.100    0.141    0.286   69.676    8.410
  277.400    0.150    0.289   66.592    7.798
  277.700    0.160    0.292   56.698    6.964
  278.000    0.178    0.296   47.419    6.218
  278.300    0.198    0.298   42.482    5.247
  278.600    0.221    0.311   43.742    4.866
  278.900    0.226    0.321   43.135    4.686
  279.200    0.227    0.329   43.766    4.686
  279.500    0.232    0.333   46.260    4.866
  279.800    0.237    0.330   49.371    5.053
  280.100    0.235    0.343   52.482    5.450
  280.400    0.251    0.340   49.398    5.660
  280.700    0.261    0.325   43.840    5.768
  281.000    0.260    0.329   46.331    5.150
  281.300    0.248    0.350   43.870    4.429
