~VERSION INFORMATION
 VERS.                 2.0:   CWLS LOG ASCII STANDARD -VERSION 2.0
 WRAP.                  NO:   ONE LINE PER DEPTH STEP
~WELL INFORMATION BLOCK
#MNEM.UNIT           DATA                    DESCRIPTION OF MNEMONIC
#---------    -------------------            -------------------------------
# Generated from Intellog Unique Number	CS_67_68/WELL/2215
WELL.         BP ATMORE                      : Well_name    - WELL
LOC .         00/13-20-067-17W4/0            : Location     - LOCATION
UWI .         00/13-20-067-17W4/0            : Uwi          - UNIQUE WELL ID
ENTR.         SP                             : Entered      - ENTERED BY
SRVC.         SCHLUMBERGER                   : Scn          - SERVICE COMPANY
STRT.M        345                            : top_depth    - START DEPTH
STOP.M        510                            : bot_depth    - STOP DEPTH
STEP.M        0.25                           : increment    - STEP LENGTH
 NULL. -999.2500:NULL Value
~CURVE INFORMATION BLOCK
#MNEM UNIT       ERCB CURVE CODE    CURVE DESCRIPTION
#-----------   ------------------   ----------------------------------
DEPT.M        00 001 00 00         : DEPTH        - DEPTH
ILD .OHMM     00 120 00 00         : RESD         - DEEP RESISTIVITY (DIL)
DPHI.V/V      00 890 00 00         : PHID         - DENSITY POROSITY (LIMESTONE)
NPHI.V/V      00 330 00 00         : PHIN         - NEUTRON POROSITY (LIMESTONE)
GR  .API      00 310 00 00         : GR           - GAMMA RAY
CALI.MM       00 280 01 00         : CAL          - CALIPER
~PARAMETER INFORMATION
#MNEM.UNIT           DATA             DESCRIPTION OF MNEMONIC
#---------         -----------     ------------------------------
GL  .M        582.64               : gl           - GROUND LEVEL ELEVATION
EREF.M        586.34               : kb           - ELEVATION OF DEPTH REFERENCE
DATM.M        586.34               : datum        - DATUM ELEVATION
TDD .M        537                  : tdd          - TOTAL DEPTH DRILLER
RUN .         ONE                  : Run          - RUN NUMBER
ENG .         BILL                 : Engineer     - RECORDING ENGINEER
WIT .         JIM                  : Witness      - WITNESSED BY
MUD .         GEL                  : Mud_type     - MUD TYPE
MATR.         LIMESTONE            : Logunit      - NEUTRON MATRIX
TMAX.C        13                   : BHT          - MAXIMUM RECORDED TEMPERATURE
BHTD.M        537                  : BHTDEP       - MAXIMUM RECORDED TEMPERATURE
MATR.         1                    : LOGUNIT      - NEUTRON MATRIX
RMT .C        25                   : MDTP         - TEMPERATURE OF MUD
NEUT.         1                    : NEUTRON      - NEUTRON TYPE
RESI.         0                    : RESIST       - RESISTIVITY TYPE
RMC .OHMM     0.25                 : RMC          - RESISTIVITY OF MUD CAKE
RMF .OHMM     0.25                 : RMF          - RESISTIVITY OF MUD FILTRATE
SUFT.C        15                   : SUFT         - SURFACE TEMPERATURE
~A  DEPTH     RESD     PHID     PHIN       GR      CAL
  345.000    2.727    0.210    0.497  105.843  180.601
  345.250    2.876    0.195    0.490   96.686  182.524
  345.500    2.971    0.203    0.499   98.689  183.942
  345.750    3.074    0.201    0.510  100.025  184.956
  346.000    3.122    0.202    0.521   96.934  183.241
  346.250    3.064    0.214    0.506   91.962  177.785
  346.500    2.957    0.206    0.485   91.782  172.228
  346.750    2.837    0.226    0.462   88.933  173.949
  347.000    2.732    0.198    0.490   92.756  177.995
  347.250    2.636    0.213    0.538   94.456  182.345
  347.500    2.563    0.213    0.569   94.154  185.987
  347.750    2.516    0.216    0.543   93.489  186.294
  348.000    2.516    0.218    0.521   92.217  184.679
  348.250    2.585    0.221    0.506   92.461  185.996
  348.500    2.660    0.229    0.511   95.678  183.371
  348.750    2.716    0.227    0.525   95.012  177.511
  349.000    2.774    0.213    0.537   97.440  175.795
  349.250    2.770    0.201    0.549  101.688  171.653
  349.500    2.713    0.204    0.521  105.025  178.126
  349.750    2.608    0.209    0.508  106.240  182.475
  350.000    2.437    0.216    0.498  103.876  184.703
  350.250    2.374    0.231    0.487  102.058  185.312
  350.500    2.443    0.245    0.490  100.362  185.517
  350.750    2.481    0.257    0.481   96.421  187.137
  351.000    2.510    0.269    0.476   92.905  182.288
  351.250    2.515    0.240    0.486   90.602  174.608
  351.500    2.511    0.258    0.494   88.784  180.979
  351.750    2.474    0.276    0.476   87.876  188.463
  352.000    2.447    0.292    0.475   87.392  189.881
  352.250    2.443    0.281    0.496   87.576  183.819
  352.500    2.485    0.297    0.518   89.458  179.778
  352.750    2.562    0.321    0.544   87.458  197.876
  353.000    2.682    0.346    0.481   87.278  211.425
  353.250    2.802    0.343    0.459   86.188  207.991
  353.500    2.928    0.272    0.437   87.160  180.497
  353.750    3.053    0.255    0.421   91.347  163.213
  354.000    3.142    0.236    0.414   93.532  157.858
  354.250    3.233    0.233    0.413   93.109  155.031
  354.500    3.295    0.260    0.412   91.352  152.304
  354.750    3.398    0.247    0.421   89.838  149.679
  355.000    3.516    0.242    0.431   85.169  152.815
  355.250    3.674    0.278    0.418   80.500  157.974
  355.500    4.024    0.264    0.401   76.195  163.638
  355.750    4.518    0.241    0.389   69.829  166.371
  356.000    5.317    0.247    0.390   64.735  166.373
  356.250    6.271    0.259    0.388   59.581  163.647
  356.500    7.536    0.283    0.383   54.670  162.032
  356.750    8.704    0.303    0.391   50.911  161.226
  357.000    9.111    0.299    0.398   48.304  160.522
  357.250    8.322    0.291    0.407   52.006  159.615
  357.500    6.994    0.308    0.405   63.169  157.697
  357.750    5.967    0.240    0.411   75.847  156.790
  358.000    5.338    0.222    0.416   84.583  159.118
  358.250    4.932    0.217    0.428   84.949  163.670
  358.500    4.556    0.224    0.416   81.069  166.200
  358.750    4.413    0.234    0.393   79.433  167.619
  359.000    4.331    0.242    0.383   84.651  166.408
  359.250    4.316    0.171    0.399   87.989  165.906
  359.500    4.342    0.181    0.403   85.807  166.919
  359.750    4.343    0.205    0.390   83.382  167.630
  360.000    4.311    0.203    0.427   81.261  164.702
  360.250    4.216    0.215    0.466   79.746  164.603
  360.500    4.122    0.249    0.516   78.414  161.877
  360.750    4.007    0.337    0.476   77.991  166.429
  361.000    3.948    0.274    0.448   80.116  164.410
  361.250    3.942    0.256    0.437   80.542  160.773
  361.500    3.958    0.246    0.434   77.390  159.159
  361.750    4.012    0.232    0.442   74.783  160.173
  362.000    4.043    0.213    0.450   73.087  159.165
  362.250    4.052    0.215    0.459   71.147  157.651
  362.500    4.099    0.264    0.449   73.394  158.261
  362.750    4.226    0.246    0.441   78.672  159.679
  363.000    4.407    0.225    0.448   76.915  160.389
  363.250    4.518    0.251    0.463   74.005  160.494
  363.500    4.545    0.264    0.473   72.369  160.698
  363.750    4.478    0.274    0.485   71.886  160.803
  364.000    4.208    0.283    0.493   71.948  160.805
  364.250    3.894    0.294    0.477   70.373  160.505
  364.500    3.557    0.287    0.470   69.829  160.306
  364.750    3.261    0.267    0.469   69.952  159.904
  365.000    2.985    0.252    0.465   71.227  159.806
  365.250    2.831    0.243    0.467   72.745  159.708
  365.500    2.722    0.269    0.469   73.718  159.003
  365.750    2.646    0.275    0.449   74.993  158.703
  366.000    2.612    0.260    0.442   76.269  158.706
  366.250    2.688    0.252    0.443   73.723  158.506
  366.500    2.750    0.254    0.453   69.357  158.105
  366.750    2.820    0.262    0.459   66.994  157.501
  367.000    2.901    0.269    0.448   68.027  157.201
  367.250    3.032    0.278    0.440   67.179  157.103
  367.500    3.131    0.282    0.434   62.875  157.207
  367.750    3.235    0.267    0.441   61.602  157.917
  368.000    3.373    0.271    0.449   61.483  158.729
  368.250    3.584    0.275    0.443   62.637  159.035
  368.500    3.816    0.269    0.444   63.306  158.937
  368.750    4.040    0.258    0.440   64.642  158.738
  369.000    4.277    0.250    0.441   66.403  158.437
  369.250    4.182    0.247    0.447   69.619  158.137
  369.500    3.735    0.251    0.453   72.654  157.837
  369.750    3.489    0.245    0.451   74.597  158.042
  370.000    3.193    0.240    0.448   76.660  158.146
  370.250    3.058    0.243    0.434   77.633  157.643
  370.500    2.852    0.252    0.423   73.328  157.444
  370.750    2.752    0.259    0.433   67.871  157.143
  371.000    2.737    0.266    0.437   66.841  156.034
  371.250    2.774    0.244    0.436   67.389  154.015
  371.500    2.926    0.218    0.438   69.392  153.108
  371.750    3.063    0.197    0.433   75.641  155.841
  372.000    3.182    0.174    0.438   81.709  158.775
  372.250    3.349    0.228    0.445   84.986  161.306
  372.500    3.453    0.221    0.438   84.806  163.229
  372.750    3.513    0.171    0.437   86.081  165.254
  373.000    3.475    0.127    0.452   90.814  166.066
  373.250    3.462    0.153    0.462   92.150  164.754
  373.500    3.503    0.180    0.473   95.427  160.815
  373.750    3.544    0.196    0.492  104.042  156.673
  374.000    3.654    0.287    0.509  113.748  170.020
  374.250    3.803    0.275    0.437  118.178  180.536
  374.500    4.003    0.229    0.396  114.722  176.799
  374.750    4.206    0.184    0.394  110.964  166.490
  375.000    4.394    0.202    0.401  108.600  157.698
  375.250    4.514    0.204    0.409  106.539  161.644
  375.500    4.575    0.191    0.413  103.448  163.567
  375.750    4.602    0.184    0.393  103.571  165.087
  376.000    4.569    0.194    0.403  105.756  165.999
  376.250    4.509    0.199    0.408  102.604  166.508
  376.500    4.451    0.203    0.411   98.966  166.409
  376.750    4.410    0.205    0.425   97.330  166.109
  377.000    4.304    0.209    0.442   96.604  165.404
  377.250    4.177    0.214    0.458   98.486  165.306
  377.500    4.023    0.207    0.442  101.035  165.410
  377.750    3.911    0.196    0.426  103.645  165.919
  378.000    3.817    0.204    0.438  104.314  166.225
  378.250    3.789    0.200    0.424  105.226  166.632
  378.500    3.797    0.176    0.457  108.382  167.444
  378.750    3.827    0.182    0.474  112.144  167.851
  379.000    3.901    0.211    0.460  115.057  168.158
  379.250    3.984    0.213    0.445  116.636  167.452
  379.500    4.124    0.211    0.433  112.816  165.939
  379.750    4.180    0.234    0.425  109.907  164.122
  380.000    4.228    0.229    0.416  110.273  161.295
  380.250    4.206    0.178    0.402  112.700  162.713
  380.500    4.066    0.167    0.392  117.736  165.344
  380.750    3.770    0.175    0.409  119.436  166.762
  381.000    3.450    0.189    0.439  118.104  167.473
  381.250    3.194    0.184    0.469  118.288  168.487
