~VERSION INFORMATION
 VERS.                 2.0:   CWLS LOG ASCII STANDARD -VERSION 2.0
 WRAP.                  NO:   ONE LINE PER DEPTH STEP
~WELL INFORMATION BLOCK
#MNEM.UNIT           DATA                    DESCRIPTION OF MNEMONIC
#---------    -------------------            -------------------------------
# Generated from Intellog Unique Number	CC_84_87/WELL/2343
WELL.         HB GORDON LAKE                 : Well_name    - WELL
LOC .         00/15-21-084-03W4/0            : Location     - LOCATION
UWI .         00/15-21-084-03W400            : Uwi          - UNIQUE WELL ID
ENTR.         DW                             : Entered      - ENTERED BY
SRVC.         SCHLUMBERGER                   : Scn          - SERVICE COMPANY
STRT.M        60.96                          : top_depth    - START DEPTH
STOP.M        289.21                         : bot_depth    - STOP DEPTH
STEP.M        0.25                           : increment    - STEP LENGTH
 NULL. -999.2500:NULL Value
~CURVE INFORMATION BLOCK
#MNEM UNIT       ERCB CURVE CODE    CURVE DESCRIPTION
#-----------   ------------------   ----------------------------------
DEPT.M        00 001 00 00         : DEPTH        - DEPTH
GR  .API      00 310 00 00         : GR           - GAMMA RAY
DPHI.V/V      00 890 00 00         : PHID         - DENSITY POROSITY (SANDSTONE)
NPHI.V/V      00 330 00 00         : PHIN         - NEUTRON POROSITY (SANDSTONE)
ILD .OHMM     00 120 00 00         : RESD         - DEEP RESISTIVITY (DIL)
~PARAMETER INFORMATION
#MNEM.UNIT           DATA             DESCRIPTION OF MNEMONIC
#---------         -----------     ------------------------------
GL  .M        456.59               : gl           - GROUND LEVEL ELEVATION
EREF.M        458.419              : kb           - ELEVATION OF DEPTH REFERENCE
DATM.M        458.419              : datum        - DATUM ELEVATION
TDD .M        291.389              : tdd          - TOTAL DEPTH DRILLER
RUN .         ONE                  : Run          - RUN NUMBER
ENG .         BILL                 : Engineer     - RECORDING ENGINEER
WIT .         JIM                  : Witness      - WITNESSED BY
MUD .         GEL                  : Mud_type     - MUD TYPE
MATR.         SANDSTONE            : Logunit      - NEUTRON MATRIX
TMAX.C        18.8889              : BHT          - MAXIMUM RECORDED TEMPERATURE
BHTD.M        291.389              : BHTDEP       - MAXIMUM RECORDED TEMPERATURE
MATR.         1                    : LOGUNIT      - NEUTRON MATRIX
RMT .C        25                   : MDTP         - TEMPERATURE OF MUD
NEUT.         1                    : NEUTRON      - NEUTRON TYPE
RESI.         0                    : RESIST       - RESISTIVITY TYPE
RMC .OHMM     0.25                 : RMC          - RESISTIVITY OF MUD CAKE
RMF .OHMM     0.25                 : RMF          - RESISTIVITY OF MUD FILTRATE
SUFT.C        15                   : SUFT         - SURFACE TEMPERATURE
~A  DEPTH       GR     PHID     PHIN     RESD
# ...
  104.460   57.684    0.328    0.513    9.002
  104.710   57.964    0.331    0.532   14.400
  104.960   56.926    0.332    0.517   17.816
  105.210   54.099    0.340    0.514   19.430
  105.460   54.416    0.351    0.511   19.926
  105.710   55.150    0.344    0.496   19.991
  105.960   58.706    0.313    0.487   19.546
  106.210   63.828    0.326    0.486   18.858
  106.460   65.884    0.343    0.480   18.513
  106.710   62.909    0.319    0.476   18.572
  106.960   58.855    0.338    0.497   18.567
  107.210   58.497    0.362    0.514   18.819
  107.460   58.519    0.342    0.500   19.136
  107.710   61.194    0.316    0.477   19.425
  107.960   66.221    0.319    0.474   19.735
  108.210   67.641    0.329    0.487   19.650
  108.460   66.190    0.344    0.490   18.527
  108.710   64.760    0.351    0.490   17.558
  108.960   62.614    0.355    0.492   17.135
  109.210   60.472    0.356    0.486   16.971
  109.460   59.813    0.346    0.475   17.087
  109.710   60.332    0.330    0.482   17.642
  109.960   63.129    0.323    0.495   17.942
  110.210   65.833    0.312    0.491   18.231
  110.460   66.453    0.301    0.478   18.381
  110.710   64.520    0.297    0.474   18.375
  110.960   61.558    0.304    0.475   18.366
  111.210   60.885    0.328    0.460   18.083
  111.460   62.827    0.339    0.450   18.047
  111.710   63.556    0.337    0.470   17.979
  111.960   62.352    0.332    0.489   17.497
  112.210   61.707    0.330    0.484   17.114
  112.460   62.816    0.332    0.486   17.429
  112.710   64.713    0.336    0.500   17.478
  112.960   66.931    0.341    0.502   17.425
  113.210   67.938    0.337    0.482   17.550
  113.460   66.334    0.322    0.460   17.296
  113.710   64.038    0.309    0.452   16.504
  113.960   65.031    0.306    0.454   16.265
  114.210   66.560    0.312    0.482   16.225
  114.460   65.399    0.314    0.514   16.438
  114.710   65.180    0.308    0.517   16.588
  114.960   66.506    0.303    0.501   16.620
  115.210   64.757    0.307    0.499   16.896
  115.460   63.555    0.325    0.487   16.923
  115.710   63.889    0.327    0.486   16.900
  115.960   64.070    0.316    0.489   16.942
  116.210   63.128    0.316    0.479   16.874
  116.460   62.324    0.323    0.461   16.595
  116.710   63.775    0.312    0.456   16.346
  116.960   67.658    0.298    0.471   16.374
  117.210   70.638    0.293    0.476   16.084
  117.460   71.533    0.304    0.471   15.524
  117.710   70.160    0.314    0.490   15.145
  117.960   67.126    0.303    0.515   14.941
  118.210   66.024    0.308    0.475   14.694
  118.460   65.609    0.316    0.475   14.813
  118.710   65.010    0.311    0.494   15.131
  118.960   66.148    0.299    0.498   15.253
  119.210   69.344    0.300    0.505   15.273
  119.460   71.750    0.313    0.507   15.524
  119.710   74.034    0.310    0.494   15.586
  119.960   73.978    0.302    0.482   15.405
  120.210   72.481    0.301    0.495   15.176
  120.460   70.916    0.311    0.508   14.937
  120.710   69.555    0.323    0.493   14.744
  120.960   70.381    0.326    0.485   14.781
  121.210   72.577    0.327    0.474   14.391
  121.460   70.656    0.319    0.510   14.184
  121.710   66.468    0.316    0.518   14.238
  121.960   64.576    0.325    0.474   14.270
  122.210   63.633    0.321    0.503   14.504
  122.460   63.537    0.321    0.517   14.556
  122.710   67.495    0.336    0.518   14.387
  122.960   70.266    0.347    0.523   14.166
  123.210   69.202    0.344    0.514   13.956
  123.460   67.690    0.334    0.485   13.767
  123.710   67.338    0.327    0.477   13.761
  123.960   72.802    0.331    0.486   13.983
  124.210   76.690    0.340    0.500   14.055
  124.460   75.034    0.343    0.509   14.110
  124.710   71.436    0.341    0.510   14.372
  124.960   69.635    0.340    0.503   14.587
  125.210   69.880    0.322    0.484   14.617
  125.460   71.645    0.317    0.475   14.485
  125.710   73.490    0.323    0.499   14.081
  125.960   73.547    0.324    0.533   13.308
  126.210   71.147    0.322    0.538   12.601
  126.460   68.522    0.316    0.520   12.453
  126.710   69.546    0.307    0.501   11.857
  126.960   70.879    0.310    0.486   12.017
  127.210   70.559    0.323    0.481   12.630
  127.460   70.322    0.334    0.491   12.983
  127.710   70.842    0.335    0.503   13.140
  127.960   69.811    0.335    0.507   12.226
  128.210   69.882    0.334    0.541   11.430
  128.460   70.559    0.329    0.545   10.740
  128.710   71.059    0.323    0.528    9.907
  128.960   73.047    0.319    0.551    9.241
  129.210   77.123    0.321    0.570    9.101
  129.460   78.487    0.340    0.539    9.755
  129.710   76.114    0.331    0.508   10.478
  129.960   73.574    0.303    0.498   11.051
  130.210   72.350    0.293    0.493   11.837
  130.460   72.101    0.304    0.493   12.501
  130.710   75.147    0.303    0.495   11.966
  130.960   76.342    0.300    0.500   11.584
  131.210   76.420    0.302    0.508   10.972
  131.460   78.693    0.305    0.522   10.206
  131.710   82.836    0.297    0.530    9.822
  131.960   85.233    0.283    0.518    9.532
  132.210   84.359    0.277    0.514    9.633
  132.460   80.697    0.294    0.511    9.890
  132.710   77.285    0.298    0.499   10.315
  132.960   75.104    0.277    0.477   10.720
  133.210   73.237    0.271    0.459   10.858
  133.460   73.109    0.293    0.460   11.047
  133.710   75.036    0.285    0.468   10.834
  133.960   78.801    0.262    0.480    9.509
  134.210   83.811    0.255    0.498    7.814
  134.460   93.768    0.260    0.501    6.733
  134.710  107.243    0.265    0.504    5.984
  134.960  104.599    0.270    0.591    5.216
  135.210   99.613    0.253    0.596    4.747
  135.460   97.665    0.242    0.556    4.456
  135.710  100.128    0.260    0.543    4.248
  135.960  107.398    0.276    0.537    4.207
  136.210  110.474    0.245    0.547    4.148
  136.460  110.054    0.237    0.562    4.051
  136.710  110.370    0.265    0.585    3.842
  136.960  108.378    0.288    0.588    3.648
  137.210  104.903    0.297    0.560    3.564
  137.460  106.887    0.314    0.552    3.516
  137.710  109.975    0.307    0.590    3.529
  137.960  111.677    0.288    0.612    3.398
  138.210  111.427    0.275    0.608    3.089
  138.460  112.693    0.276    0.607    2.813
  138.710  114.645    0.285    0.621    2.724
  138.960  110.013    0.282    0.630    2.724
  139.210  106.281    0.280    0.626    2.798
  139.460  108.844    0.272    0.627    2.902
  139.710  113.529    0.264    0.632    2.949
  139.960  111.541    0.265    0.630    3.033
  140.210  102.720    0.270    0.621    3.286
  140.460   98.977    0.268    0.604    3.501
  140.710   96.919    0.275    0.586    3.655
  140.960   95.765    0.252    0.569    3.893
  141.210   96.793    0.226    0.575    4.375
  141.460   98.789    0.253    0.572    4.999
  141.710   99.715    0.290    0.509    5.462
  141.960  100.731    0.276    0.506    5.784
  142.210  101.331    0.258    0.555    5.714
  142.460  101.909    0.248    0.566    5.574
  142.710   99.901    0.254    0.535    5.628
  142.960   93.583    0.277    0.532    5.722
  143.210   89.397    0.268    0.548    5.891
  143.460   88.527    0.274    0.530    6.162
  143.710   90.281    0.284    0.522    6.404
  143.960   91.524    0.287    0.536    6.564
  144.210   89.752    0.291    0.548    6.814
  144.460   86.224    0.291    0.550    7.250
  144.710   83.087    0.290    0.520    7.569
  144.960   81.379    0.296    0.511    8.117
  145.210   83.535    0.298    0.516    8.653
  145.460   88.651    0.296    0.511    8.698
  145.710   92.130    0.296    0.499    8.251
  145.960   92.936    0.284    0.490    7.756
  146.210   96.030    0.273    0.496    7.573
  146.460   96.206    0.276    0.511    7.578
  146.710   93.339    0.287    0.527    7.549
  146.960   92.881    0.292    0.547    7.619
  147.210   93.348    0.288    0.545    8.000
  147.460   88.022    0.272    0.460    8.283
  147.710   92.868    0.264    0.432    8.328
