~VERSION INFORMATION
 VERS.                 2.0:   CWLS LOG ASCII STANDARD -VERSION 2.0
 WRAP.                  NO:   ONE LINE PER DEPTH STEP
~WELL INFORMATION BLOCK
#MNEM.UNIT           DATA                    DESCRIPTION OF MNEMONIC
#---------    -------------------            -------------------------------
# Generated from Intellog Unique Number	CW_79_81/WELL/2464
WELL.         TEXEX WABASCA                  : Well_name    - WELL
LOC .         00/10-07-081-24W4/0            : Location     - LOCATION
UWI .         00/10-07-081-24W4/0            : Uwi          - UNIQUE WELL ID
ENTR.         MAX                            : Entered      - ENTERED BY
SRVC.         WESTERN ATLAS                  : Scn          - SERVICE COMPANY
STRT.M        243.84                         : top_depth    - START DEPTH
STOP.M        453.84                         : bot_depth    - STOP DEPTH
STEP.M        0.25                           : increment    - STEP LENGTH
 NULL. -999.2500:NULL Value
~CURVE INFORMATION BLOCK
#MNEM UNIT       ERCB CURVE CODE    CURVE DESCRIPTION
#-----------   ------------------   ----------------------------------
DEPT.M        00 001 00 00         : DEPTH        - DEPTH
ILD .OHMM     00 120 00 00         : RESD         - DEEP RESISTIVITY (DIL)
NPHI.V/V      00 330 00 00         : PHIN         - NEUTRON POROSITY (SANDSTONE)
DPHI.V/V      00 890 00 00         : PHID         - DENSITY POROSITY (SANDSTONE)
GR  .API      00 310 00 00         : GR           - GAMMA RAY
CALI.MM       00 280 01 00         : CAL          - CALIPER
~PARAMETER INFORMATION
#MNEM.UNIT           DATA             DESCRIPTION OF MNEMONIC
#---------         -----------     ------------------------------
GL  .M        600.761              : gl           - GROUND LEVEL ELEVATION
EREF.M        604.418              : kb           - ELEVATION OF DEPTH REFERENCE
DATM.M        600.761              : datum        - DATUM ELEVATION
TDD .M        457.2                : tdd          - TOTAL DEPTH DRILLER
RUN .         ONE                  : Run          - RUN NUMBER
ENG .         BILL                 : Engineer     - RECORDING ENGINEER
WIT .         JIM                  : Witness      - WITNESSED BY
MUD .         GEL                  : Mud_type     - MUD TYPE
MATR.         SANDSTONE            : Logunit      - NEUTRON MATRIX
TMAX.C        26.6667              : BHT          - MAXIMUM RECORDED TEMPERATURE
BHTD.M        457.2                : BHTDEP       - MAXIMUM RECORDED TEMPERATURE
MATR.         1                    : LOGUNIT      - NEUTRON MATRIX
RMT .C        18.3333              : MDTP         - TEMPERATURE OF MUD
NEUT.         1                    : NEUTRON      - NEUTRON TYPE
RESI.         0                    : RESIST       - RESISTIVITY TYPE
RMC .OHMM     11                   : RMC          - RESISTIVITY OF MUD CAKE
RMF .OHMM     11                   : RMF          - RESISTIVITY OF MUD FILTRATE
SUFT.C        -20.5556             : SUFT         - SURFACE TEMPERATURE
~A  DEPTH     RESD     PHIN     PHID       GR      CAL
# ...
  353.340    9.227    0.380    0.171   60.405  243.321
  353.590    8.643    0.389    0.178   60.194  244.146
  353.840    8.188    0.390    0.202   61.207  244.381
  354.090    8.018    0.392    0.228   64.847  244.419
  354.340    8.150    0.393    0.236   69.421  244.557
  354.590    8.528    0.386    0.204   69.760  245.084
  354.840    8.595    0.373    0.218   67.838  245.536
  355.090    8.534    0.378    0.228   65.760  245.570
  355.340    8.521    0.378    0.246   69.809  245.608
  355.590    8.584    0.372    0.246   73.917  245.841
  355.840    8.600    0.362    0.226   73.122  246.173
  356.090    8.248    0.350    0.196   62.653  246.221
  356.340    8.005    0.344    0.141   58.063  246.269
  356.590    7.778    0.370    0.114   57.379  246.299
  356.840    7.641    0.382    0.154   56.351  246.042
  357.090    7.533    0.385    0.197   55.790  245.689
  357.340    7.453    0.379    0.211   55.870  245.728
  357.590    7.488    0.362    0.189   56.329  247.117
  357.840    7.662    0.354    0.169   57.321  247.980
  358.090    7.888    0.353    0.183   56.879  246.046
  358.340    8.164    0.354    0.219   60.812  244.995
  358.590    8.496    0.353    0.245   63.051  244.836
  358.840    8.922    0.349    0.248   61.380  245.172
  359.090    9.669    0.346    0.228   57.292  245.214
  359.340   10.434    0.339    0.197   56.586  245.250
  359.590   10.511    0.330    0.161   55.906  245.288
  359.840   10.135    0.333    0.125   56.807  245.329
  360.090    9.199    0.350    0.115   58.698  243.984
  360.340    8.159    0.375    0.144   60.528  241.352
  360.590    7.520    0.387    0.214   61.372  239.278
  360.840    7.409    0.387    0.229   64.311  240.557
  361.090    7.411    0.381    0.229   63.869  242.567
  361.340    7.453    0.384    0.232   62.373  241.617
  361.590    7.481    0.392    0.232   61.578  240.467
  361.840    7.483    0.400    0.228   61.776  240.601
  362.090    7.485    0.407    0.226   61.708  242.475
  362.340    7.487    0.410    0.220   61.245  243.746
  362.590    7.488    0.399    0.208   61.968  243.784
  362.840    7.449    0.387    0.196   63.215  243.822
  363.090    7.397    0.376    0.187   63.001  244.060
  363.340    7.346    0.368    0.185   61.622  244.300
  363.590    7.283    0.363    0.198   62.429  243.871
  363.840    7.230    0.370    0.206   66.341  243.495
  364.090    7.180    0.374    0.195   67.766  243.534
  364.340    7.169    0.378    0.188   69.539  243.569
  364.590    7.170    0.384    0.182   68.161  243.609
  364.840    7.158    0.387    0.176   65.209  243.750
  365.090    7.109    0.380    0.182   67.482  244.268
  365.340    7.110    0.374    0.207   68.233  244.727
  365.590    7.112    0.378    0.217   67.558  245.149
  365.840    6.798    0.391    0.228   68.902  244.225
  366.090    6.745    0.401    0.232   68.968  244.121
  366.340    7.068    0.399    0.223   67.722  244.988
  366.590    7.579    0.385    0.194   68.599  244.956
  366.840    8.051    0.375    0.187   69.560  244.924
  367.090    8.773    0.384    0.171   66.503  244.504
  367.340    9.715    0.381    0.163   62.743  244.083
  367.590   11.119    0.369    0.174   61.207  243.662
  367.840   13.284    0.352    0.209   61.720  242.053
  368.090   17.027    0.330    0.266   61.389  237.197
  368.340   20.321    0.318    0.235   63.324  238.821
  368.590   20.158    0.305    0.173   56.523  242.758
  368.840   18.377    0.292    0.136   54.810  241.345
  369.090   15.031    0.307    0.121   54.327  239.536
  369.340   12.018    0.342    0.122   53.785  238.917
  369.590   10.277    0.354    0.142   55.638  237.782
  369.840    9.666    0.362    0.205   61.471  238.167
  370.090    9.450    0.367    0.233   61.925  236.953
  370.340    9.600    0.368    0.239   60.271  233.658
  370.590    9.807    0.366    0.237   59.437  234.620
  370.840    9.926    0.364    0.232   60.709  239.250
  371.090    9.991    0.367    0.210   63.148  240.096
  371.340    9.984    0.366    0.172   60.206  240.482
  371.590    9.759    0.355    0.131   59.256  240.057
  371.840    9.383    0.362    0.150   59.883  239.337
  372.090    8.874    0.376    0.183   63.143  238.123
  372.340    8.403    0.387    0.203   66.172  236.709
  372.590    8.251    0.385    0.205   62.370  235.966
  372.840    8.436    0.378    0.210   63.327  236.358
  373.090    8.553    0.375    0.217   62.142  239.499
  373.340    8.579    0.374    0.218   61.659  240.860
  373.590    8.574    0.371    0.219   61.994  239.449
  373.840    8.568    0.366    0.219   62.915  235.758
  374.090    8.535    0.361    0.213   63.929  233.000
  374.340    8.399    0.364    0.203   64.404  239.164
  374.590    8.334    0.369    0.202   61.111  241.122
  374.840    8.041    0.372    0.203   62.383  241.295
  375.090    7.807    0.373    0.196   63.890  241.466
  375.340    7.717    0.370    0.185   63.641  242.429
  375.590    7.710    0.362    0.186   62.374  243.983
  375.840    7.704    0.379    0.189   64.308  243.959
  376.090    7.699    0.381    0.176   63.591  243.534
  376.340    7.610    0.380    0.174   65.680  243.409
  376.590    7.467    0.382    0.172   66.484  243.383
  376.840    7.287    0.384    0.167   64.715  243.358
  377.090    7.018    0.380    0.164   62.571  243.329
  377.340    6.753    0.373    0.168   65.967  243.302
  377.590    6.554    0.373    0.188   69.462  244.066
  377.840    6.681    0.376    0.198   72.780  245.131
  378.090    7.119    0.379    0.203   73.584  244.907
  378.340    7.839    0.378    0.206   71.346  242.799
  378.590    8.912    0.367    0.204   66.278  238.294
  378.840   10.229    0.357    0.194   60.900  233.730
  379.090   11.467    0.350    0.205   58.778  238.059
  379.340   11.949    0.350    0.236   59.991  238.528
  379.590   11.719    0.352    0.262   60.795  238.304
  379.840   11.152    0.356    0.269   59.434  238.873
  380.090   10.636    0.363    0.257   56.235  239.868
  380.340   10.468    0.373    0.243   56.705  239.012
  380.590   10.384    0.371    0.226   59.499  238.194
  380.840   10.245    0.368    0.238   60.363  238.267
  381.090   10.015    0.363    0.254   59.412  238.639
  381.340    9.775    0.361    0.265   58.576  238.515
  381.590    9.726    0.366    0.265   61.601  236.894
  381.840    9.868    0.356    0.257   61.584  236.872
  382.090   10.829    0.349    0.249   59.931  237.243
  382.340   12.327    0.335    0.242   58.279  237.314
  382.590   14.395    0.322    0.230   56.275  237.683
  382.840   17.123    0.311    0.216   53.861  238.450
  383.090   21.280    0.302    0.211   51.023  239.296
  383.340   24.234    0.295    0.195   49.790  239.679
  383.590   24.574    0.288    0.176   50.944  240.842
  383.840   23.446    0.282    0.142   48.235  241.409
  384.090   18.431    0.274    0.111   46.697  241.978
  384.340   12.917    0.270    0.074   47.795  242.747
  384.590    8.744    0.289    0.016   50.242  243.174
  384.840    7.046    0.305    0.061   54.374  241.499
  385.090    6.541    0.340    0.147   57.399  241.473
  385.340    6.387    0.361    0.178   58.496  241.746
  385.590    6.406    0.368    0.180   59.066  241.720
  385.840    6.484    0.366    0.176   59.694  241.495
  386.090    6.527    0.366    0.186   59.852  241.862
  386.340    6.521    0.362    0.195   58.374  241.832
  386.590    6.518    0.363    0.202   57.657  239.035
  386.840    6.513    0.363    0.187   59.922  237.722
  387.090    6.509    0.367    0.172   62.950  238.487
  387.340    6.516    0.372    0.165   64.923  240.144
  387.590    6.558    0.368    0.164   64.386  239.801
  387.840    6.554    0.371    0.164   64.126  240.184
  388.090    6.597    0.371    0.164   63.879  240.557
  388.340    6.641    0.377    0.163   64.155  240.627
  388.590    6.685    0.383    0.163   65.309  240.400
  388.840    6.753    0.384    0.164   66.991  240.078
  389.090    6.928    0.376    0.164   68.095  240.298
  389.340    7.083    0.374    0.160   67.834  241.512
  389.590    7.183    0.379    0.160   64.540  241.483
