~VERSION INFORMATION
 VERS.                 2.0:   CWLS LOG ASCII STANDARD -VERSION 2.0
 WRAP.                  NO:   ONE LINE PER DEPTH STEP
~WELL INFORMATION BLOCK
#MNEM.UNIT           DATA                    DESCRIPTION OF MNEMONIC
#---------    -------------------            -------------------------------
# Generated from Intellog Unique Number	CW_73_75/WELL/1048
WELL.         CDN SUP ET AL FRANCIS 11-35    : Well_name    - WELL
LOC .         00/11-35-074-20W4/0            : Location     - LOCATION
UWI .         00/11-35-074-20W4/0            : Uwi          - UNIQUE WELL ID
ENTR.         JAYE                           : Entered      - ENTERED BY
SRVC.         SCHLUMBERGER                   : Scn          - SERVICE COMPANY
DATE.         3 MAR 76                       : Date         - LOG DATE
STRT.M        323.088                        : top_depth    - START DEPTH
STOP.M        524.313                        : bot_depth    - STOP DEPTH
STEP.M        0.25                           : increment    - STEP LENGTH
 NULL. -999.2500:NULL Value
~CURVE INFORMATION BLOCK
#MNEM UNIT       ERCB CURVE CODE    CURVE DESCRIPTION
#-----------   ------------------   ----------------------------------
DEPT.M        00 001 00 00         : DEPTH        - DEPTH
GR  .API      00 310 00 00         : GR           - GAMMA RAY
CALI.IN       00 280 01 00         : CAL          - CALIPER
NPHI.V/V      00 330 00 00         : PHIN         - NEUTRON POROSITY (SANDSTONE)
DPHI.V/V      00 890 00 00         : PHID         - DENSITY POROSITY (SANDSTONE)
ILD .OHMM     00 120 00 00         : RESD         - DEEP RESISTIVITY (DLL)
~PARAMETER INFORMATION
#MNEM.UNIT           DATA             DESCRIPTION OF MNEMONIC
#---------         -----------     ------------------------------
GL  .M        640.69               : gl           - GROUND LEVEL ELEVATION
EREF.M        644.652              : kb           - ELEVATION OF DEPTH REFERENCE
DATM.M        640.69               : datum        - DATUM ELEVATION
TDD .M        585.216              : tdd          - TOTAL DEPTH DRILLER
RUN .         ONE                  : Run          - RUN NUMBER
BASE.         EDM                  : Branch       - HOME BASE OF LOGGING UNIT
MUD .         GEL CHEM             : Mud_type     - MUD TYPE
MATR.         SANDSTONE            : Logunit      - NEUTRON MATRIX
TMAX.C        23.8889              : BHT          - MAXIMUM RECORDED TEMPERATURE
BHTD.M        585.826              : BHTDEP       - MAXIMUM RECORDED TEMPERATURE
RMT .C        17.7778              : MDTP         - TEMPERATURE OF MUD
MUDD.KG/M     1164                 : MWT          - MUD DENSITY
NEUT.         1                    : NEUTRON      - NEUTRON TYPE
RESI.         1                    : RESIST       - RESISTIVITY TYPE
RM  .OHMM     1.96                 : RM           - RESISTIVITY OF MUD
RMC .OHMM     0                    : RMC          - RESISTIVITY OF MUD CAKE
RMF .OHMM     2.24                 : RMF          - RESISTIVITY OF MUD FILTRATE
SUFT.C        -17.7778             : SUFT         - SURFACE TEMPERATURE
~A  DEPTH       GR      CAL     PHIN     PHID     RESD
# ...
  359.588   76.431    7.658    0.471    0.337   13.526
  359.838   80.935    7.692    0.488    0.339   13.800
  360.088   83.222    7.722    0.476    0.332   14.979
  360.338   78.805    7.757    0.472    0.322   16.801
  360.588   75.841    7.796    0.484    0.303   19.402
  360.838   72.374    7.843    0.468    0.283   24.859
  361.088   69.221    7.881    0.440    0.241   27.630
  361.338   65.942    7.924    0.422    0.208   27.031
  361.588   67.599    7.963    0.399    0.187   25.920
  361.838   71.404    7.989    0.354    0.167   17.294
  362.088   76.729    7.981    0.327    0.150   13.399
  362.338   80.726    7.965    0.327    0.156   10.984
  362.588   82.445    7.953    0.359    0.243    8.479
  362.838   81.633    7.924    0.469    0.244    7.302
  363.088   77.407    7.900    0.466    0.251    7.698
  363.338   71.596    7.884    0.477    0.255    8.432
  363.588   62.371    7.876    0.495    0.283    9.102
  363.838   57.890    7.864    0.478    0.314    9.389
  364.088   59.293    7.852    0.464    0.318    9.118
  364.338   62.909    7.844    0.457    0.299    8.354
  364.588   65.198    7.828    0.459    0.291    8.026
  364.838   66.032    7.825    0.487    0.303    8.743
  365.088   63.638    7.826    0.476    0.318    9.285
  365.338   59.853    7.818    0.459    0.342    9.788
  365.588   61.508    7.810    0.470    0.341   10.041
  365.838   62.343    7.798    0.463    0.336   10.077
  366.088   61.848    7.795    0.461    0.313    9.913
  366.338   62.111    7.800    0.484    0.294    9.593
  366.588   63.893    7.809    0.493    0.278    9.232
  366.838   65.929    7.818    0.501    0.279    8.885
  367.088   68.280    7.810    0.497    0.288    8.427
  367.338   73.099    7.811    0.482    0.279    7.849
  367.588   77.159    7.812    0.464    0.261    7.377
  367.838   80.459    7.833    0.452    0.236    6.845
  368.088   81.672    7.868    0.443    0.219    6.329
  368.338   81.684    7.881    0.437    0.248    5.970
  368.588   81.188    7.907    0.439    0.267    5.561
  368.838   81.832    8.148    0.467    0.270    5.085
  369.088   83.424    8.562    0.488    0.257    4.676
  369.338   83.372    8.774    0.514    0.268    4.395
  369.588   82.876    8.610    0.547    0.311    4.315
  369.838   83.330    8.303    0.528    0.287    4.788
  370.088   85.366    8.030    0.508    0.261    5.331
  370.338   87.148    8.005    0.491    0.235    5.872
  370.588   88.045    8.035    0.479    0.205    6.134
  370.838   86.284    7.990    0.486    0.196    6.012
  371.088   82.752    7.936    0.497    0.211    5.744
  371.338   78.588    7.827    0.508    0.240    5.871
  371.588   74.928    7.743    0.540    0.272    6.525
  371.838   69.246    7.676    0.572    0.305    7.266
  372.088   65.778    7.635    0.600    0.387    8.239
  372.338   63.384    7.606    0.562    0.430    9.904
  372.588   58.587    7.598    0.526    0.339   13.525
  372.838   54.866    7.612    0.506    0.330   17.777
  373.088   54.561    7.634    0.496    0.323   21.604
  373.338   55.457    7.660    0.486    0.327   23.069
  373.588   56.796    7.673    0.488    0.339   23.110
  373.838   57.566    7.686    0.473    0.331   22.858
  374.088   58.210    7.670    0.464    0.336   22.240
  374.338   58.600    7.663    0.457    0.347   21.288
  374.588   58.485    7.668    0.452    0.337   20.154
  374.838   57.673    7.677    0.446    0.338   19.221
  375.088   56.861    7.703    0.442    0.329   18.364
  375.338   57.062    7.737    0.442    0.342   17.134
  375.588   58.212    7.763    0.449    0.356   15.756
  375.838   60.121    7.789    0.476    0.355   14.728
  376.088   62.473    7.811    0.461    0.342   13.792
  376.338   59.699    7.846    0.437    0.335   12.822
  376.588   55.092    7.863    0.441    0.330   11.985
  376.838   53.206    7.885    0.442    0.347   10.881
  377.088   55.620    7.890    0.440    0.341    9.987
  377.338   56.137    7.895    0.446    0.327    9.336
  377.588   54.947    7.891    0.451    0.310    8.743
  377.838   54.134    7.879    0.468    0.311    8.383
  378.088   55.031    7.876    0.469    0.331    8.353
  378.338   56.436    7.864    0.457    0.340    8.459
  378.588   57.585    7.852    0.444    0.331    8.615
  378.838   58.353    7.836    0.430    0.330    8.773
  379.088   58.806    7.807    0.429    0.334    8.934
  379.338   59.577    7.778    0.441    0.321    9.065
  379.588   60.221    7.754    0.437    0.313    9.147
  379.838   60.295    7.750    0.434    0.316    9.265
  380.088   60.053    7.751    0.450    0.329    9.332
  380.338   59.810    7.747    0.470    0.326    9.383
  380.588   59.378    7.753    0.475    0.319    9.365
  380.838   58.694    7.757    0.479    0.311    9.263
  381.088   58.072    7.766    0.482    0.322    9.129
  381.338   57.766    7.776    0.475    0.332    8.996
  381.588   57.714    7.785    0.463    0.339    8.785
  381.838   58.422    7.785    0.460    0.351    8.517
  382.088   59.064    7.791    0.476    0.371    8.348
  382.338   59.328    7.800    0.474    0.369    8.211
  382.588   58.771    7.800    0.474    0.362    8.181
  382.838   57.831    7.793    0.496    0.345    8.181
  383.088   56.262    7.789    0.494    0.342    8.241
  383.338   55.197    7.786    0.502    0.357    8.407
  383.588   53.625    7.782    0.537    0.373    8.577
  383.838   52.245    7.791    0.530    0.388    8.831
  384.088   53.837    7.796    0.513    0.372    8.960
  384.338   54.797    7.805    0.507    0.365    8.960
  384.588   54.175    7.806    0.493    0.370    8.910
  384.838   52.795    7.811    0.488    0.362    8.733
  385.088   50.085    7.808    0.477    0.339    8.359
  385.338   48.008    7.787    0.464    0.318    8.030
  385.588   45.552    7.729    0.458    0.300    7.813
  385.838   43.792    7.687    0.474    0.315    7.714
  386.088   42.979    7.642    0.468    0.349    7.658
  386.338   42.486    7.600    0.455    0.350    7.616
  386.588   42.179    7.580    0.434    0.357    7.615
  386.838   41.749    7.568    0.453    0.347    7.685
  387.088   41.697    7.560    0.473    0.341    7.826
  387.338   41.769    7.557    0.486    0.320    7.970
  387.588   42.033    7.549    0.495    0.321    8.101
  387.838   42.234    7.550    0.473    0.332    8.190
  388.088   42.309    7.559    0.468    0.339    8.310
  388.338   42.446    7.568    0.468    0.337    8.325
  388.588   42.583    7.598    0.466    0.329    8.249
  388.838   42.720    7.671    0.468    0.326    8.174
  389.088   42.414    7.718    0.460    0.322    8.114
  389.338   41.919    7.685    0.470    0.315    8.070
  389.588   41.868    7.568    0.463    0.317    8.025
  389.838   41.689    7.442    0.459    0.317    7.981
  390.088   41.699    7.375    0.466    0.312    7.909
  390.338   41.584    7.359    0.457    0.312    7.865
  390.588   41.659    7.372    0.450    0.314    7.836
  390.838   41.542    7.415    0.461    0.309    7.822
  391.088   41.426    7.505    0.473    0.318    7.850
  391.338   41.437    7.564    0.480    0.328    7.864
  391.588   41.321    7.624    0.468    0.327    7.892
  391.838   41.269    7.663    0.453    0.315    7.892
  392.088   41.090    7.680    0.446    0.303    7.877
  392.338   40.848    7.656    0.453    0.331    7.906
  392.588   41.112    7.619    0.453    0.330    7.949
  392.838   41.312    7.577    0.446    0.322    7.978
  393.088   41.576    7.561    0.448    0.319    7.977
  393.338   41.651    7.553    0.438    0.312    7.963
  393.588   41.726    7.550    0.441    0.311    7.962
  393.838   41.800    7.555    0.451    0.305    8.020
  394.088   41.746    7.572    0.455    0.296    8.064
  394.338   41.885    7.586    0.448    0.304    8.108
  394.588   41.895    7.599    0.455    0.324    8.167
  394.838   42.096    7.625    0.461    0.317    8.226
  395.088   42.233    7.655    0.446    0.308    8.271
  395.338   42.117    7.690    0.454    0.302    8.316
  395.588   41.874    7.707    0.456    0.295    8.361
  395.838   41.570    7.721    0.441    0.311    8.392
