~VERSION INFORMATION
 VERS.                 2.0:   CWLS LOG ASCII STANDARD -VERSION 2.0
 WRAP.                  NO:   ONE LINE PER DEPTH STEP
~WELL INFORMATION BLOCK
#MNEM.UNIT           DATA                    DESCRIPTION OF MNEMONIC
#---------    -------------------            -------------------------------
# Generated from Intellog Unique Number	CC_80_83/WELL/2332
NULL.         -999.25                        : NULL_VALUE
WELL.         PEX HOUSE                      : Well_name    - WELL
LOC .         10-03-081-16W4                 : Location     - LOCATION          
UWI .         00/10-03-081-16W400            : Uwi          - UNIQUE WELL ID    
ENTR.         DW                             : Entered      - ENTERED BY        
SRVC.         SCHLUMBERGER                   : Scn          - SERVICE COMPANY   
DATE.         06 JAN 82                      : Date         - LOG DATE
STRT.M        170                            : top_depth    - START DEPTH       
STOP.M        364.996                        : bot_depth    - STOP DEPTH        
STEP.M        0.3                            : increment    - STEP LENGTH       
~CURVE INFORMATION BLOCK
#MNEM UNIT       ERCB CURVE CODE    CURVE DESCRIPTION
#-----------   ------------------   ----------------------------------
DEPT.M        00 001 00 00         : DEPTH        - DEPTH                       
DPHI.V/V      00 890 00 00         : PHID         - DENSITY POROSITY (LIMESTONE)
NPHI.V/V      00 330 00 00         : PHIN         - NEUTRON POROSITY (LIMESTONE)
GR  .API      00 310 00 00         : GR           - GAMMA RAY                   
ILD .OHMM     00 120 00 00         : RESD         - DEEP RESISTIVITY (DIL)      
~PARAMETER INFORMATION       
#MNEM.UNIT           DATA             DESCRIPTION OF MNEMONIC
#---------         -----------     ------------------------------
GL  .M        563.09               : gl           - GROUND LEVEL ELEVATION      
EREF.M        566.89               : kb           - ELEVATION OF DEPTH REFERENCE
DATM.M        566.89               : datum        - DATUM ELEVATION             
TDD .M        422                  : tdd          - TOTAL DEPTH DRILLER         
RUN .         ONE                  : Run          - RUN NUMBER                  
ENG .         BILL                 : Engineer     - RECORDING ENGINEER          
WIT .         JIM                  : Witness      - WITNESSED BY                
MUD .         GEL                  : Mud_type     - MUD TYPE                    
MATR.         LIMESTONE            : Logunit      - NEUTRON MATRIX              
TMAX.C        15                   : BHT          - MAXIMUM RECORDED TEMPERATURE
BHTD.M        422                  : BHTDEP       - MAXIMUM RECORDED TEMPERATURE
MATR.         1                    : LOGUNIT      - NEUTRON MATRIX              
RMT .C        25                   : MDTP         - TEMPERATURE OF MUD          
NEUT.         1                    : NEUTRON      - NEUTRON TYPE                
RESI.         0                    : RESIST       - RESISTIVITY TYPE            
RMC .OHMM     0.25                 : RMC          - RESISTIVITY OF MUD CAKE     
RMF .OHMM     0.25                 : RMF          - RESISTIVITY OF MUD FILTRATE 
SUFT.C        15                   : SUFT         - SURFACE TEMPERATURE         
~A  DEPTH     PHID     PHIN       GR     RESD
  170.000    0.270    0.404   77.471    9.991
  170.300    0.289    0.376   73.165   12.318
  170.600    0.303    0.358   68.237   14.344
  170.900    0.304    0.355   67.633   15.777
  171.200    0.290    0.395   74.439   16.081
  171.500    0.268    0.430   78.156   15.482
  171.800    0.257    0.428   80.639   14.079
  172.100    0.274    0.415   78.184   13.554
  172.400    0.284    0.420   74.494   14.628
  172.700    0.289    0.424   76.976   15.785
  173.000    0.264    0.400   79.460   15.489
  173.300    0.270    0.413   80.708   15.199
  173.600    0.249    0.430   81.339   15.200
  173.900    0.256    0.447   75.179   15.791
  174.200    0.281    0.441   38.768   17.041
  174.500    0.298    0.370   34.460   17.703
  174.800    0.292    0.355   36.944   17.044
  175.100    0.246    0.414   57.330   15.499
  175.400    0.244    0.386   69.694   13.568
  175.700    0.204    0.390   77.114   12.575
  176.000    0.164    0.388   86.388   11.879
  176.300    0.183    0.368   90.723   10.802
  176.600    0.205    0.378   76.537   10.599
  176.900    0.234    0.397   70.996   10.401
  177.200    0.235    0.408   77.184   10.402
  177.500    0.157    0.446   98.189    9.826
  177.800    0.164    0.504  101.906    9.281
  178.100    0.131    0.501   93.893    7.249
  178.400    0.144    0.486   94.526    6.226
  178.700    0.184    0.507  102.564    5.051
  179.000    0.189    0.563  107.519    4.771
  179.300    0.209    0.568  108.152    4.593
  179.600    0.189    0.548  107.543    4.594
  179.900    0.159    0.552  102.620    4.772
  180.200    0.065    0.557   89.667    4.773
  180.500    0.029    0.530   76.098    4.595
  180.800    0.114    0.482   81.051    4.424
  181.100    0.235    0.487  108.847    4.341
  181.400    0.235    0.437  105.774    5.055
  181.700    0.264    0.439   89.737    5.667
  182.000    0.253    0.451   87.898    7.683
  182.300    0.199    0.450   91.000    9.655
  182.600    0.192    0.430   95.334   10.619
  182.900    0.226    0.410   99.672   10.620
  183.200    0.252    0.419  100.300    9.657
  183.500    0.231    0.433   96.609    9.122
  183.800    0.191    0.469   92.919    8.139
  184.100    0.195    0.477   97.255    7.689
  184.400    0.234    0.457   97.887    7.987
  184.700    0.266    0.395   91.109    9.480
  185.000    0.292    0.406   84.334   11.039
  185.300    0.297    0.419   82.492   12.375
  185.600    0.284    0.416   80.039   12.613
  185.900    0.275    0.431   82.519   12.377
  186.200    0.254    0.455   83.769   12.145
  186.500    0.265    0.446   82.548   12.146
  186.800    0.295    0.415   62.805   13.107
  187.100    0.333    0.424   52.943   14.416
  187.400    0.347    0.420   54.189   15.856
  187.700    0.319    0.405   56.672   17.111
  188.000    0.328    0.401   53.604   17.442
  188.300    0.322    0.414   51.145   17.444
  188.600    0.301    0.404   55.482   16.794
  188.900    0.283    0.402   59.818   15.271
  189.200    0.275    0.443   59.828   14.426
  189.500    0.266    0.401   53.672   13.889
  189.800    0.275    0.409   53.683   13.120
  190.100    0.273    0.459   62.956   11.930
  190.400    0.241    0.427   70.997   11.486
  190.700    0.251    0.433   69.159   11.932
  191.000    0.283    0.480   51.268   13.633
  191.300    0.296    0.421   48.812   15.283
  191.600    0.307    0.387   53.152   16.810
  191.900    0.322    0.380   53.781   17.134
  192.200    0.322    0.406   48.852   17.800
  192.500    0.307    0.432   48.249   18.143
  192.800    0.294    0.424   50.732   18.494
  193.100    0.303    0.435   53.216   18.146
  193.400    0.315    0.442   55.085   17.471
  193.700    0.308    0.425   54.482   17.143
  194.000    0.310    0.402   53.258   16.504
  194.300    0.314    0.427   50.804   16.196
  194.600    0.315    0.465   50.199   15.891
  194.900    0.318    0.420   51.447   15.893
  195.200    0.324    0.428   53.312   16.200
  195.500    0.322    0.460   49.007   16.512
  195.800    0.314    0.425   51.491   16.831
  196.100    0.326    0.415   53.976   16.832
  196.400    0.321    0.409   54.602   16.206
  196.700    0.315    0.398   52.763   15.902
  197.000    0.329    0.399   49.690   15.903
  197.300    0.320    0.442   54.643   15.605
  197.600    0.266    0.444   59.597   14.741
  197.900    0.255    0.442   61.461   12.904
  198.200    0.273    0.436   61.475   11.734
  198.500    0.278    0.445   58.403   10.671
  198.800    0.299    0.472   54.096   10.080
  199.100    0.313    0.477   55.344    9.891
  199.400    0.308    0.468   56.592   10.082
  199.700    0.302    0.445   55.991   10.276
  200.000    0.300    0.429   54.766   10.881
  200.300    0.308    0.463   54.164   11.091
  200.600    0.296    0.461   54.799   11.092
  200.900    0.293    0.415   55.426   10.883
  201.200    0.303    0.431   54.821   10.680
  201.500    0.297    0.446   54.839   10.886
  201.800    0.286    0.445   57.321   10.887
  202.100    0.250    0.443   59.801    9.900
  202.400    0.251    0.439   62.903    8.503
  202.700    0.261    0.442   66.620    8.186
  203.000    0.255    0.462   69.104    8.668
  203.300    0.265    0.475   73.438    9.178
  203.600    0.252    0.464   72.219    9.535
  203.900    0.255    0.428   74.701    9.905
  204.200    0.253    0.436   82.124    9.906
  204.500    0.235    0.476   85.842    9.008
  204.800    0.257    0.484   78.445    8.673
  205.100    0.293    0.474   74.758    8.674
  205.400    0.242    0.488   77.856    9.184
  205.700    0.246    0.480   73.548    9.911
  206.000    0.297    0.454   65.538   11.110
  206.300    0.313    0.470   61.846   12.693
  206.600    0.305    0.427   57.538   14.230
  206.900    0.340    0.422   51.380   15.067
  207.200    0.363    0.448   48.922   15.652
  207.500    0.350    0.441   48.939   16.261
  207.800    0.327    0.424   52.656   16.262
  208.100    0.332    0.445   58.226   16.895
  208.400    0.344    0.456   56.386   16.896
  208.700    0.341    0.464   56.402   16.897
  209.000    0.337    0.460   59.502   16.899
  209.300    0.324    0.452   61.983   16.582
  209.600    0.319    0.449   61.998   16.902
  209.900    0.333    0.433   52.749   16.904
  210.200    0.343    0.423   46.591   17.230
  210.500    0.325    0.431   45.372   17.562
  210.800    0.307    0.423   46.003   17.901
  211.100    0.301    0.410   47.866   17.903
  211.400    0.322    0.424   49.734   17.905
  211.700    0.327    0.450   46.042   17.906
  212.000    0.320    0.414   50.379   17.909
  212.300    0.327    0.375   52.242   17.910
  212.600    0.312    0.429   46.083   17.911
  212.900    0.323    0.440   44.862   17.913
  213.200    0.336    0.403   49.197   17.914
  213.500    0.333    0.399   48.593   17.578
  213.800    0.331    0.433   46.142   17.249
  214.100    0.331    0.466   46.152   17.250
  214.400    0.323    0.449   43.700   17.584
  214.700    0.290    0.454   44.327   17.585
  215.000    0.303    0.447   50.515   17.255
  215.300    0.333    0.441   54.850   16.613
  215.600    0.354    0.433   49.925   15.692
  215.900    0.344    0.431   48.705   15.694
  216.200    0.334    0.457   51.805   15.996
  216.500    0.338    0.446   54.289   17.263
  216.800    0.338    0.433   47.511   17.934
  217.100    0.305    0.423   43.204   18.990
  217.400    0.299    0.401   45.685   19.356
  217.700    0.303    0.433   50.641   19.357
  218.000    0.235    0.397   47.567   19.360
  218.300    0.268    0.416   45.729   18.996
  218.600    0.344    0.468   45.743   18.289
  218.900    0.357    0.469   45.753   17.607
  219.201    0.359    0.458   46.388   16.632
  219.501    0.355    0.474   48.251   15.415
  219.801    0.354    0.460   48.266   14.561
  220.101    0.349    0.451   49.513   14.020
  220.401    0.355    0.455   48.291   14.021
  220.701    0.357    0.476   46.454   14.022
  221.001    0.351    0.462   45.852   14.293
  221.301    0.326    0.459   45.865   14.568
  221.601    0.340    0.476   45.877   14.295
  221.901    0.341    0.472   45.274   14.296
