~VERSION INFORMATION
 VERS.                 2.0:   CWLS LOG ASCII STANDARD -VERSION 2.0
 WRAP.                  NO:   ONE LINE PER DEPTH STEP
~WELL INFORMATION BLOCK
#MNEM.UNIT           DATA                    DESCRIPTION OF MNEMONIC
#---------    -------------------            -------------------------------
# Generated from Intellog Unique Number	CS_67_68/WELL/844
WELL.         DOME PETROLEUM LIMITED         : Well_name    - WELL
LOC .         00/11-29-068-02W4/0            : Location     - LOCATION
UWI .         00/11-29-068-02W4/0            : Uwi          - UNIQUE WELL ID
ENTR.         SP                             : Entered      - ENTERED BY
SRVC.         SCHLUMBERGER                   : Scn          - SERVICE COMPANY
STRT.M        390                            : top_depth    - START DEPTH
STOP.M        630                            : bot_depth    - STOP DEPTH
STEP.M        0.25                           : increment    - STEP LENGTH
 NULL. -999.2500:NULL Value
~CURVE INFORMATION BLOCK
#MNEM UNIT       ERCB CURVE CODE    CURVE DESCRIPTION
#-----------   ------------------   ----------------------------------
DEPT.M        00 001 00 00         : DEPTH        - DEPTH
ILD .OHMM     00 120 00 00         : RESD         - DEEP RESISTIVITY (DIL)
DPHI.V/V      00 890 00 00         : PHID         - DENSITY POROSITY (LIMESTONE)
NPHI.V/V      00 330 00 00         : PHIN         - NEUTRON POROSITY (LIMESTONE)
GR  .API      00 310 00 00         : GR           - GAMMA RAY
~PARAMETER INFORMATION
#MNEM.UNIT           DATA             DESCRIPTION OF MNEMONIC
#---------         -----------     ------------------------------
GL  .M        724.6                : gl           - GROUND LEVEL ELEVATION
EREF.M        729.1                : kb           - ELEVATION OF DEPTH REFERENCE
DATM.M        724.6                : datum        - DATUM ELEVATION
TDD .M        637                  : tdd          - TOTAL DEPTH DRILLER
RUN .         ONE                  : Run          - RUN NUMBER
ENG .         BILL                 : Engineer     - RECORDING ENGINEER
WIT .         JIM                  : Witness      - WITNESSED BY
MUD .         GEL                  : Mud_type     - MUD TYPE
MATR.         LIMESTONE            : Logunit      - NEUTRON MATRIX
TMAX.C        28.3                 : BHT          - MAXIMUM RECORDED TEMPERATURE
BHTD.M        6372                 : BHTDEP       - MAXIMUM RECORDED TEMPERATURE
MATR.         1                    : LOGUNIT      - NEUTRON MATRIX
RMT .C        25                   : MDTP         - TEMPERATURE OF MUD
NEUT.         1                    : NEUTRON      - NEUTRON TYPE
RESI.         0                    : RESIST       - RESISTIVITY TYPE
RMC .OHMM     0.25                 : RMC          - RESISTIVITY OF MUD CAKE
RMF .OHMM     0.25                 : RMF          - RESISTIVITY OF MUD FILTRATE
SUFT.C        15                   : SUFT         - SURFACE TEMPERATURE
~A  DEPTH     RESD     PHID     PHIN       GR
# ...
  520.500    2.398    0.227    0.482   90.499
  520.750    2.512    0.234    0.497   95.019
  521.000    2.840    0.244    0.517   97.463
  521.250    3.441    0.240    0.546   96.793
  521.500    4.408    0.228    0.559   92.461
  521.750    5.173    0.245    0.518   87.152
  522.000    5.604    0.261    0.475   81.965
  522.250    5.772    0.276    0.440   77.022
  522.500    5.913    0.279    0.411   73.910
  522.750    6.045    0.248    0.428   75.256
  523.000    6.709    0.235    0.445   72.877
  523.250    7.729    0.277    0.469   71.291
  523.500    9.258    0.317    0.489   68.547
  523.750   11.174    0.341    0.514   66.351
  524.000   12.847    0.326    0.473   63.972
  524.250   14.258    0.319    0.453   62.203
  524.500   14.387    0.314    0.449   63.305
  524.750   14.068    0.312    0.459   65.993
  525.000   12.648    0.313    0.471   66.911
  525.250   11.287    0.307    0.483   65.997
  525.500    9.436    0.283    0.472   68.869
  525.750    8.053    0.265    0.468   71.496
  526.000    6.976    0.257    0.481   72.475
  526.250    5.953    0.260    0.489   71.134
  526.500    5.382    0.255    0.474   69.976
  526.750    5.117    0.251    0.461   69.796
  527.000    4.919    0.266    0.462   70.408
  527.250    4.801    0.279    0.467   71.753
  527.500    4.712    0.278    0.470   72.733
  527.750    4.658    0.266    0.472   73.101
  528.000    4.666    0.273    0.479   72.919
  528.250    4.692    0.263    0.485   72.373
  528.500    4.770    0.252    0.471   70.909
  528.750    4.886    0.240    0.479   69.812
  529.000    5.005    0.231    0.485   69.692
  529.250    5.156    0.243    0.459   69.633
  529.500    5.232    0.249    0.445   70.612
  529.750    5.280    0.234    0.437   75.010
  530.000    5.299    0.237    0.449   78.615
  530.250    5.338    0.261    0.438   78.433
  530.500    5.357    0.270    0.426   71.842
  530.750    5.436    0.261    0.432   69.646
  531.000    5.538    0.265    0.442   72.457
  531.250    5.694    0.273    0.444   72.337
  531.500    5.887    0.275    0.444   70.263
  531.750    6.019    0.274    0.444   69.167
  532.000    6.143    0.269    0.447   69.657
  532.250    6.268    0.263    0.456   71.247
  532.500    6.361    0.258    0.465   72.348
  532.750    6.468    0.254    0.444   74.243
  533.000    6.552    0.258    0.434   75.954
  533.250    6.661    0.259    0.444   76.200
  533.500    6.710    0.259    0.447   72.906
  533.750    6.760    0.260    0.438   70.588
  534.000    6.783    0.257    0.444   70.956
  534.250    6.757    0.250    0.458   72.302
  534.500    6.582    0.244    0.445   74.196
  534.750    6.328    0.237    0.429   76.702
  535.000    5.950    0.231    0.434   78.108
  535.250    5.532    0.229    0.442   78.171
  535.500    5.134    0.247    0.454   77.074
  535.750    5.104    0.264    0.477   76.283
  536.000    5.238    0.283    0.494   75.491
  536.250    5.486    0.282    0.470   72.319
  536.500    5.558    0.261    0.456   67.498
  536.750    5.768    0.247    0.438   69.698
  537.000    5.930    0.247    0.436   74.706
  537.250    6.018    0.253    0.434   80.142
  537.500    6.085    0.101    0.439   84.112
  537.750    6.107    0.064    0.451   86.435
  538.000    6.060    0.072    0.391   87.474
  538.250    5.947    0.106    0.325   88.942
  538.500    5.837    0.142    0.391   83.694
  538.750    5.739    0.191    0.436   79.056
  539.000    5.590    0.244    0.455   76.555
  539.250    5.445    0.272    0.461   75.336
  539.500    5.225    0.256    0.446   75.826
  539.750    4.526    0.248    0.433   78.332
  540.000    3.519    0.236    0.476   81.081
  540.250    2.767    0.230    0.503   79.435
  540.500    2.361    0.262    0.532   74.920
  540.750    2.041    0.281    0.546   73.884
  541.000    1.923    0.306    0.557   72.360
  541.250    1.862    0.315    0.558   71.996
  541.500    1.841    0.299    0.549   72.120
  541.750    1.821    0.294    0.543   72.977
  542.000    1.800    0.300    0.560   75.726
  542.250    1.793    0.302    0.574   77.071
  542.500    1.813    0.293    0.569   76.768
  542.750    1.871    0.292    0.561   75.122
  543.000    1.985    0.294    0.570   74.209
  543.250    2.127    0.297    0.561   74.516
  543.500    2.240    0.295    0.547   75.495
  543.750    2.312    0.283    0.520   76.901
  544.000    2.491    0.274    0.501   77.941
  544.250    2.928    0.268    0.523   79.286
  544.500    3.380    0.292    0.545   78.739
  544.750    3.871    0.309    0.532   74.406
  545.000    4.265    0.304    0.496   71.112
  545.250    4.680    0.271    0.455   68.977
  545.500    4.948    0.249    0.436   70.689
  545.750    5.078    0.235    0.424   72.522
  546.000    5.068    0.251    0.465   73.074
  546.250    4.927    0.246    0.483   73.320
  546.500    4.764    0.229    0.472   75.459
  546.750    4.572    0.226    0.462   79.125
  547.000    4.371    0.233    0.456   81.691
  547.250    3.945    0.224    0.460   84.135
  547.500    3.586    0.232    0.498   86.396
  547.750    3.066    0.252    0.511   86.215
  548.000    2.798    0.257    0.512   82.676
  548.250    2.726    0.239    0.506   79.687
  548.500    2.725    0.229    0.502   79.689
  548.750    2.740    0.237    0.514   82.194
  549.000    2.765    0.244    0.521   84.882
  549.250    2.817    0.247    0.510   86.777
  549.500    3.051    0.247    0.505   86.535
  549.750    3.281    0.240    0.501   85.072
  550.000    3.689    0.233    0.503   83.670
  550.250    4.056    0.226    0.489   81.780
  550.500    4.535    0.225    0.472   75.250
  550.750    5.042    0.243    0.459   71.711
  551.000    5.472    0.243    0.448   70.858
  551.250    5.742    0.240    0.437   70.006
  551.500    5.959    0.248    0.421   67.200
  551.750    6.184    0.260    0.431   65.065
  552.000    6.335    0.266    0.430   64.090
  552.250    6.538    0.273    0.399   60.795
  552.500    6.722    0.277    0.397   64.278
  552.750    7.041    0.279    0.403   65.867
  553.000    7.642    0.250    0.393   63.183
  553.250    8.481    0.044    0.276   57.080
  553.500    9.238    0.040    0.252   49.939
  553.750    9.877    0.071    0.235   49.148
  554.000   10.137    0.136    0.365   54.400
  554.250    9.131    0.213    0.380   60.996
  554.500    8.395    0.213    0.393   63.928
  554.750    7.908    0.207    0.378   64.602
  555.000    7.560    0.225    0.366   62.224
  555.250    7.242    0.240    0.382   60.089
  555.500    6.976    0.261    0.406   57.466
  555.750    6.694    0.272    0.409   56.125
  556.000    6.259    0.276    0.395   55.699
  556.250    6.006    0.257    0.388   57.838
  556.500    5.732    0.241    0.394   61.809
  556.750    5.399    0.267    0.407   59.369
  557.000    5.134    0.279    0.419   62.790
  557.250    4.963    0.289    0.405   71.400
  557.500    4.944    0.265    0.414   77.263
  557.750    4.999    0.248    0.432   81.295
  558.000    5.325    0.232    0.444   76.352
  558.250    5.800    0.259    0.456   68.112
  558.500    6.509    0.277    0.425   62.009
  558.750    7.051    0.292    0.402   58.654
  559.000    7.414    0.310    0.384   58.656
  559.250    7.680    0.306    0.381   57.742
  559.500    7.867    0.299    0.379   57.500
  559.750    7.939    0.303    0.378   58.113
  560.000    7.893    0.309    0.387   59.580
  560.250    7.892    0.318    0.393   60.681
  560.500    7.949    0.316    0.387   62.148
  560.750    8.023    0.310    0.385   63.921
  561.000    8.111    0.319    0.389   65.389
  561.250    8.171    0.325    0.396   67.406
  561.500    8.184    0.310    0.407   68.018
  561.750    8.168    0.296    0.418   64.845
  562.000    8.151    0.293    0.401   64.543
  562.250    8.104    0.293    0.385   69.734
  562.500    8.088    0.287    0.368   73.277
  562.750    8.162    0.278    0.379   72.302
  563.000    8.283    0.275    0.390   67.725
  563.250    8.391    0.281    0.378   67.423
  563.500    8.468    0.276    0.367   70.782
  563.750    8.498    0.255    0.364   74.997
