~VERSION INFORMATION
 VERS.                 2.0:   CWLS LOG ASCII STANDARD -VERSION 2.0
 WRAP.                  NO:   ONE LINE PER DEPTH STEP
~WELL INFORMATION BLOCK
#MNEM.UNIT           DATA                    DESCRIPTION OF MNEMONIC
#---------    -------------------            -------------------------------
# Generated from Intellog Unique Number	CS_71_72/WELL/894
WELL.         GERC ET AL WANDER              : Well_name    - WELL
LOC .         00/11-10-071-13W4/0            : Location     - LOCATION
UWI .         00/11-10-071-13W4/0            : Uwi          - UNIQUE WELL ID
ENTR.         SP                             : Entered      - ENTERED BY
SRVC.         SCHLUMBERGER                   : Scn          - SERVICE COMPANY
STRT.M        304.8                          : top_depth    - START DEPTH
STOP.M        539.3                          : bot_depth    - STOP DEPTH
STEP.M        0.25                           : increment    - STEP LENGTH
 NULL. -999.2500:NULL Value
~CURVE INFORMATION BLOCK
#MNEM UNIT       ERCB CURVE CODE    CURVE DESCRIPTION
#-----------   ------------------   ----------------------------------
DEPT.M        00 001 00 00         : DEPTH        - DEPTH
GR  .API      00 310 00 00         : GR           - GAMMA RAY
DPHI.V/V      00 890 00 00         : PHID         - DENSITY POROSITY (SANDSTONE)
NPHI.V/V      00 330 00 00         : PHIN         - NEUTRON POROSITY (SANDSTONE)
ILD .OHMM     00 120 00 00         : RESD         - DEEP RESISTIVITY (DIL)
~PARAMETER INFORMATION
#MNEM.UNIT           DATA             DESCRIPTION OF MNEMONIC
#---------         -----------     ------------------------------
GL  .M        630.326              : gl           - GROUND LEVEL ELEVATION
EREF.M        634.289              : kb           - ELEVATION OF DEPTH REFERENCE
DATM.M        630.326              : datum        - DATUM ELEVATION
TDD .M        545.592              : tdd          - TOTAL DEPTH DRILLER
RUN .         ONE                  : Run          - RUN NUMBER
ENG .         BILL                 : Engineer     - RECORDING ENGINEER
WIT .         JIM                  : Witness      - WITNESSED BY
MUD .         GEL                  : Mud_type     - MUD TYPE
MATR.         SANDSTONE            : Logunit      - NEUTRON MATRIX
TMAX.C        20                   : BHT          - MAXIMUM RECORDED TEMPERATURE
BHTD.M        545.592              : BHTDEP       - MAXIMUM RECORDED TEMPERATURE
MATR.         1                    : LOGUNIT      - NEUTRON MATRIX
RMT .C        25                   : MDTP         - TEMPERATURE OF MUD
NEUT.         1                    : NEUTRON      - NEUTRON TYPE
RESI.         0                    : RESIST       - RESISTIVITY TYPE
RMC .OHMM     0.25                 : RMC          - RESISTIVITY OF MUD CAKE
RMF .OHMM     0.25                 : RMF          - RESISTIVITY OF MUD FILTRATE
SUFT.C        15                   : SUFT         - SURFACE TEMPERATURE
~A  DEPTH       GR     PHID     PHIN     RESD
  304.800   79.639    0.223    0.423    2.589
  305.050   82.301    0.225    0.443    2.564
  305.300   80.027    0.211    0.425    2.544
  305.550   81.451    0.208    0.419    2.501
  305.800   84.967    0.233    0.420    2.451
  306.050   87.966    0.234    0.422    2.433
  306.300   85.623    0.230    0.432    2.430
  306.550   81.967    0.238    0.425    2.451
  306.800   77.162    0.234    0.415    2.484
  307.050   81.040    0.219    0.416    2.522
  307.300   83.566    0.206    0.399    2.523
  307.550   83.077    0.206    0.389    2.517
  307.800   82.079    0.224    0.390    2.479
  308.050   79.828    0.228    0.382    2.409
  308.300   77.925    0.228    0.399    2.344
  308.550   82.467    0.237    0.418    2.289
  308.800   83.222    0.249    0.422    2.232
  309.050   81.368    0.235    0.412    2.201
  309.300   84.272    0.232    0.435    2.211
  309.550   86.032    0.246    0.454    2.243
  309.800   84.763    0.239    0.436    2.284
  310.050   83.871    0.225    0.423    2.327
  310.300   84.860    0.212    0.426    2.315
  310.550   86.404    0.229    0.443    2.284
  310.800   87.878    0.240    0.436    2.287
  311.050   87.097    0.236    0.461    2.291
  311.300   87.190    0.245    0.460    2.319
  311.550   85.406    0.255    0.463    2.393
  311.800   83.636    0.233    0.454    2.456
  312.050   83.339    0.198    0.443    2.520
  312.300   85.503    0.185    0.445    2.522
  312.550   87.118    0.194    0.430    2.504
  312.800   85.406    0.189    0.414    2.489
  313.050   85.487    0.196    0.417    2.479
  313.300   87.325    0.200    0.421    2.493
  313.550   89.856    0.196    0.433    2.503
  313.800   88.882    0.195    0.435    2.514
  314.050   88.031    0.194    0.429    2.564
  314.300   90.243    0.181    0.382    2.657
  314.550   91.599    0.193    0.375    2.778
  314.800   88.767    0.185    0.387    2.893
  315.050   86.346    0.194    0.385    2.983
  315.300   82.971    0.186    0.390    3.079
  315.550   80.889    0.197    0.402    3.135
  315.800   83.696    0.204    0.410    3.097
  316.050   86.248    0.185    0.395    3.050
  316.300   87.621    0.193    0.386    2.941
  316.550   85.875    0.210    0.388    2.827
  316.800   82.174    0.190    0.401    2.661
  317.050   80.291    0.192    0.401    2.543
  317.300   84.797    0.207    0.406    2.484
  317.550   88.101    0.209    0.417    2.467
  317.800   90.436    0.212    0.414    2.493
  318.050   87.681    0.203    0.404    2.582
  318.300   80.255    0.198    0.393    2.656
  318.550   78.543    0.196    0.391    2.784
  318.800   82.220    0.219    0.383    2.855
  319.050   86.980    0.225    0.377    2.854
  319.300   91.887    0.214    0.396    2.798
  319.550   92.185    0.206    0.393    2.737
  319.800   88.280    0.197    0.379    2.680
  320.050   84.958    0.199    0.387    2.647
  320.300   80.284    0.206    0.397    2.623
  320.550   77.597    0.184    0.412    2.605
  320.800   78.003    0.192    0.412    2.685
  321.050   75.006    0.210    0.421    2.747
  321.300   75.047    0.226    0.440    2.829
  321.550   75.490    0.229    0.430    2.927
  321.800   69.117    0.202    0.410    3.123
  322.050   62.948    0.175    0.369    3.334
  322.300   59.046    0.144    0.284    3.504
  322.550   59.355    0.088    0.264    3.622
  322.800   69.570    0.203    0.285    3.742
  323.050   79.175    0.196    0.317    3.802
  323.300   83.958    0.175    0.352    3.813
  323.550   80.734    0.220    0.326    3.795
  323.800   78.543    0.245    0.300    3.788
  324.050   80.309    0.287    0.302    3.868
  324.300   76.899    0.334    0.379    3.954
  324.550   69.033    0.373    0.421    4.005
  324.800   60.386    0.416    0.580    4.000
  325.050   53.923    0.325    0.536    3.935
  325.300   50.243    0.289    0.496    3.763
  325.550   42.634    0.276    0.365    3.607
  325.800   33.961    0.287    0.331    3.489
  326.050   37.326    0.289    0.318    3.410
  326.300   39.693    0.299    0.316    3.419
  326.550   41.609    0.303    0.313    3.436
  326.800   42.996    0.300    0.318    3.391
  327.050   43.751    0.296    0.310    3.323
  327.300   48.399    0.289    0.304    3.233
  327.550   53.115    0.286    0.314    3.227
  327.800   57.842    0.288    0.324    3.363
  328.050   63.442    0.286    0.342    3.671
  328.300   68.483    0.278    0.343    3.909
  328.550   76.010    0.272    0.337    4.112
  328.800   80.703    0.271    0.318    4.354
  329.050   85.075    0.205    0.309    4.543
  329.300   86.989    0.222    0.320    4.651
  329.550   86.922    0.209    0.337    4.740
  329.800   86.347    0.212    0.344    4.811
  330.050   86.407    0.202    0.347    4.840
  330.300   88.340    0.203    0.364    4.843
  330.550   91.010    0.215    0.383    4.776
  330.800   92.047    0.219    0.414    4.648
  331.050   91.630    0.242    0.435    4.512
  331.300   91.908    0.256    0.441    4.438
  331.550   93.553    0.223    0.435    4.373
  331.800   88.865    0.197    0.405    4.331
  332.050   84.768    0.223    0.377    4.333
  332.300   77.496    0.243    0.366    4.395
  332.550   74.105    0.238    0.367    4.519
  332.800   72.924    0.239    0.356    4.641
  333.050   71.863    0.241    0.334    4.780
  333.300   73.648    0.237    0.317    4.885
  333.550   77.741    0.242    0.302    4.941
  333.800   80.120    0.234    0.306    4.973
  334.050   80.396    0.235    0.320    4.957
  334.300   78.897    0.240    0.333    4.896
  334.550   76.697    0.237    0.333    4.824
  334.800   73.937    0.233    0.313    4.725
  335.050   73.169    0.230    0.301    4.631
  335.300   75.072    0.228    0.303    4.562
  335.550   74.806    0.227    0.308    4.539
  335.800   72.070    0.231    0.325    4.539
  336.050   70.021    0.236    0.310    4.573
  336.300   69.769    0.232    0.312    4.643
  336.550   71.681    0.248    0.313    4.889
  336.800   64.375    0.269    0.374    5.170
  337.050   55.405    0.347    0.418    5.405
  337.300   47.081    0.417    0.468    5.620
  337.550   47.260    0.471    0.427    5.761
  337.800   58.047    0.439    0.368    5.668
  338.050   69.739    0.336    0.335    5.434
  338.300   78.982    0.212    0.322    5.068
  338.550   73.467    0.229    0.333    4.799
  338.800   69.877    0.237    0.341    4.768
  339.050   70.843    0.209    0.348    4.866
  339.300   73.752    0.182    0.350    4.939
  339.550   75.587    0.171    0.340    4.979
  339.800   77.087    0.200    0.338    5.000
  340.050   79.485    0.210    0.347    4.921
  340.300   82.289    0.198    0.345    4.889
  340.550   84.781    0.199    0.361    4.747
  340.800   75.865    0.224    0.361    4.629
  341.050   72.323    0.221    0.346    4.591
  341.300   75.380    0.203    0.331    4.630
  341.550   77.462    0.214    0.333    4.815
  341.800   78.608    0.235    0.344    4.885
  342.050   75.156    0.221    0.330    4.941
  342.300   71.890    0.208    0.332    4.928
  342.550   73.944    0.203    0.327    4.834
  342.800   77.633    0.205    0.342    4.633
  343.050   81.449    0.218    0.393    4.394
  343.300   83.405    0.269    0.483    4.137
  343.550   85.485    0.297    0.518    3.876
  343.800   86.624    0.296    0.484    3.679
  344.050   88.116    0.282    0.494    3.542
  344.300   90.637    0.268    0.532    3.511
  344.550   91.970    0.284    0.537    3.582
  344.800   91.029    0.305    0.473    3.821
  345.050   91.883    0.334    0.460    4.074
  345.300   95.411    0.279    0.449    4.323
  345.550   98.240    0.307    0.424    4.612
  345.800  100.264    0.246    0.393    4.812
  346.050   99.970    0.235    0.360    5.014
  346.300   96.148    0.237    0.338    5.118
  346.550   90.698    0.245    0.320    5.091
  346.800   85.870    0.254    0.320    4.908
  347.050   83.015    0.266    0.330    4.727
  347.300   82.118    0.281    0.329    4.427
  347.550   80.468    0.289    0.337    4.230
  347.800   75.917    0.289    0.344    4.142
  348.050   72.217    0.286    0.341    4.092
