~VERSION INFORMATION
 VERS.                 2.0:   CWLS LOG ASCII STANDARD -VERSION 2.0
 WRAP.                  NO:   ONE LINE PER DEPTH STEP
~WELL INFORMATION BLOCK
#MNEM.UNIT           DATA                    DESCRIPTION OF MNEMONIC
#---------    -------------------            -------------------------------
# Generated from Intellog Unique Number	CW_70_72/WELL/1044
NULL.         -999.25                        : NULL_VALUE
WELL.         UNIGAS ET AL SMITH 10-31       : Well_name    - WELL              
LOC .         10-31-071-24W4                 : Location     - LOCATION          
UWI .         00/10-31-071-24W4/0            : Uwi          - UNIQUE WELL ID    
ENTR.         JAYE                           : Entered      - ENTERED BY        
SRVC.         SCHLUMBERGER                   : Scn          - SERVICE COMPANY   
DATE.         14 NOV 71                      : Date         - LOG DATE          
STRT.M        435.254                        : top_depth    - START DEPTH       
STOP.M        635.254                        : bot_depth    - STOP DEPTH        
STEP.M        0.25                           : increment    - STEP LENGTH       
~CURVE INFORMATION BLOCK
#MNEM UNIT       ERCB CURVE CODE    CURVE DESCRIPTION
#-----------   ------------------   ----------------------------------
DEPT.M        00 001 00 00         : DEPTH        - DEPTH                       
DPHI.V/V      00 890 00 00         : PHID         - DENSITY POROSITY (SANDSTONE)
NPHI.V/V      00 330 00 00         : PHIN         - NEUTRON POROSITY (SANDSTONE)
CALI.MM       00 280 01 00         : CAL          - CALIPER                     
ILD .OHMM     00 120 00 00         : RESD         - DEEP RESISTIVITY (DIL)      
GR  .API      00 310 00 00         : GR           - GAMMA RAY                   
~PARAMETER INFORMATION       
#MNEM.UNIT           DATA             DESCRIPTION OF MNEMONIC
#---------         -----------     ------------------------------
GL  .M        656.783              : gl           - GROUND LEVEL ELEVATION      
EREF.M        659.221              : kb           - ELEVATION OF DEPTH REFERENCE
DATM.M        656.783              : datum        - DATUM ELEVATION             
TDD .M        645.566              : tdd          - TOTAL DEPTH DRILLER         
RUN .         ONE                  : Run          - RUN NUMBER                  
BASE.         EDM                  : Branch       - HOME BASE OF LOGGING UNIT   
MATR.         SANDSTONE            : Logunit      - NEUTRON MATRIX              
TMAX.C        22.2222              : BHT          - MAXIMUM RECORDED TEMPERATURE
BHTD.M        645.262              : BHTDEP       - MAXIMUM RECORDED TEMPERATURE
RMT .C        18.3333              : MDTP         - TEMPERATURE OF MUD          
MUDD.KG/M     0                    : MWT          - MUD DENSITY                 
NEUT.         1                    : NEUTRON      - NEUTRON TYPE                
RESI.         0                    : RESIST       - RESISTIVITY TYPE            
RM  .OHMM     2.03                 : RM           - RESISTIVITY OF MUD          
RMC .OHMM     0                    : RMC          - RESISTIVITY OF MUD CAKE     
RMF .OHMM     2.43                 : RMF          - RESISTIVITY OF MUD FILTRATE 
SUFT.C        -17.7778             : SUFT         - SURFACE TEMPERATURE         
~A  DEPTH     PHID     PHIN      CAL     RESD       GR
# ...
  544.754    0.369    0.516  155.548    5.977   67.813
  545.004    0.389    0.530  154.630    5.456   69.071
  545.254    0.403    0.543  154.338    4.802   70.328
  545.504    0.404    0.552  154.575    4.407   72.145
  545.754    0.403    0.556  154.704    4.241   72.597
  546.004    0.401    0.547  154.102    4.304   74.537
  546.254    0.399    0.537  153.919    4.513   80.641
  546.504    0.396    0.533  154.260    4.716   83.888
  546.754    0.396    0.536  155.337    4.838   85.519
  547.004    0.402    0.541  157.992    4.945   87.832
  547.254    0.411    0.550  161.594    5.037   91.765
  547.504    0.417    0.562  162.987    5.120   88.609
  547.754    0.415    0.571  163.122    5.244   84.772
  548.004    0.408    0.567  163.148    5.350   84.477
  548.254    0.392    0.546  162.750    5.459   87.598
  548.504    0.379    0.517  162.674    5.519   88.049
  548.754    0.370    0.503  162.695    5.560   88.001
  549.004    0.378    0.516  162.303    5.581   89.446
  549.254    0.407    0.535  162.329    5.490   91.139
  549.504    0.422    0.558  162.883    5.342   94.883
  549.754    0.435    0.583  163.853    5.198   96.886
  550.004    0.443    0.599  164.720    4.984   93.795
  550.254    0.447    0.605  164.954    4.885   91.325
  550.504    0.449    0.605  165.194    4.788   90.532
  550.754    0.445    0.597  164.377    4.694   93.343
  551.004    0.438    0.583  163.032    4.626   98.329
  551.254    0.419    0.564  160.431    4.517   90.888
  551.504    0.412    0.558  158.035    4.404   83.136
  551.754    0.425    0.567  160.800    4.261   86.755
  552.004    0.420    0.580  162.926    4.139   87.391
  552.254    0.411    0.572  161.481    4.035   89.581
  552.504    0.401    0.552  156.770    4.020   81.643
  552.754    0.388    0.534  153.325    4.013   72.400
  553.004    0.375    0.514  150.296    4.028   72.167
  553.254    0.363    0.500  147.482    4.102   70.815
  553.504    0.350    0.481  145.193    4.178   67.475
  553.754    0.345    0.470  143.432    4.209   67.863
  554.004    0.352    0.482  143.457    4.286   69.742
  554.254    0.365    0.492  144.957    4.382   74.232
  554.504    0.373    0.504  146.139    4.536   73.377
  554.754    0.361    0.516  147.638    4.889   66.929
  555.004    0.337    0.449  149.031    5.465   61.602
  555.254    0.306    0.417  148.529    6.154   59.007
  555.504    0.298    0.410  147.611    6.930   59.208
  555.754    0.326    0.432  147.213    7.718   63.200
  556.004    0.370    0.489  154.920    6.943   71.915
  556.254    0.392    0.539  152.843    5.913   70.687
  556.504    0.428    0.571  145.291    5.185   74.741
  556.754    0.426    0.578  151.000    4.639   80.597
  557.004    0.415    0.558  156.603    4.297   81.669
  557.254    0.402    0.538  159.995    4.173   76.715
  557.504    0.388    0.529  157.918    4.038   77.972
  557.754    0.399    0.541  156.574    3.929   81.529
  558.004    0.406    0.549  155.760    3.866   84.962
  558.254    0.409    0.551  154.941    3.887   86.158
  558.504    0.413    0.556  151.602    3.923   85.862
  558.754    0.415    0.562  146.260    3.995   86.808
  559.004    0.416    0.566  145.240    3.966   86.948
  559.254    0.418    0.570  146.103    3.845   84.105
  559.504    0.418    0.573  149.601    3.762   83.561
  559.754    0.418    0.572  155.518    3.755   86.496
  560.004    0.418    0.570  159.752    3.769   86.078
  560.254    0.418    0.569  160.624    3.867   87.211
  560.504    0.419    0.568  160.335    4.040   90.023
  560.754    0.423    0.571  160.146    4.222   91.467
  561.004    0.427    0.578  159.860    4.379   89.494
  561.254    0.425    0.581  159.461    4.484   92.306
  561.504    0.422    0.581  158.966    4.542   91.512
  561.754    0.419    0.574  158.355    4.559   88.917
  562.004    0.417    0.567  158.699    4.584   91.356
  562.254    0.418    0.568  158.409    4.584   91.558
  562.504    0.422    0.572  158.432    4.559   89.337
  562.754    0.427    0.578  158.248    4.560   91.154
  563.004    0.431    0.585  157.958    4.602   94.524
  563.254    0.432    0.587  157.251    4.610   96.527
  563.504    0.431    0.585  156.956    4.602   93.870
  563.754    0.426    0.582  157.088    4.585   96.123
  564.004    0.422    0.577  157.114    4.619   97.691
  564.254    0.418    0.570  156.932    4.696   92.736
  564.504    0.415    0.563  156.954    4.774   87.718
  564.754    0.411    0.554  156.875    4.792   86.181
  565.004    0.410    0.557  158.900    4.801   87.314
  565.254    0.414    0.565  165.137    4.836   87.329
  565.504    0.413    0.561  171.787    4.827   89.084
  565.754    0.410    0.553  166.871    4.845   93.883
  566.004    0.409    0.557  162.161    4.845   90.233
  566.254    0.412    0.559  164.293    4.846   89.937
  566.504    0.409    0.560  166.525    4.846   88.027
  566.754    0.414    0.557  168.655    4.864   86.053
  567.004    0.411    0.554  169.840    4.855   87.498
  567.254    0.405    0.552  170.391    4.846   91.675
  567.504    0.407    0.554  170.738    4.829   95.918
  567.754    0.411    0.556  170.866    4.820   99.847
  568.004    0.416    0.560  170.891    4.777  101.601
  568.254    0.416    0.564  171.020    4.803   99.630
  568.504    0.415    0.552  171.153    4.830   99.022
  568.754    0.403    0.538  170.758    4.937   95.060
  569.004    0.389    0.505  171.099    5.529   87.681
  569.254    0.339    0.475  171.018    7.231   80.675
  569.504    0.207    0.301  171.154    9.219   73.358
  569.754    0.163    0.225  171.178   12.256   62.500
  570.004    0.149    0.225  171.624   12.829   55.928
  570.254    0.170    0.269  171.971   10.650   55.322
  570.504    0.267    0.324  171.992    8.477   64.286
  570.754    0.343    0.470  172.225    7.326   84.433
  571.004    0.371    0.521  172.148    6.699  100.169
  571.254    0.388    0.538  172.066    6.138  106.770
  571.504    0.400    0.547  171.251    6.194   98.707
  571.754    0.368    0.400  170.750    6.639   90.086
  572.004    0.280    0.354  170.354    7.065   83.514
  572.254    0.236    0.321  170.802    7.208   78.000
  572.504    0.230    0.333  171.562    7.014   73.168
  572.754    0.249    0.365  172.012    6.628   68.462
  573.004    0.356    0.442  172.458    6.241   67.296
  573.254    0.401    0.501  172.593    5.781   87.630
  573.504    0.421    0.552  172.719    5.364   95.351
  573.754    0.422    0.575  172.957    4.941   96.980
  574.004    0.421    0.579  172.879    4.747   92.273
  574.254    0.416    0.576  172.799    4.636   90.983
  574.504    0.413    0.570  172.716    4.653   91.497
  574.754    0.408    0.558  172.640    4.774   90.145
  575.004    0.403    0.548  172.875    4.897   91.091
  575.254    0.401    0.547  173.110    5.006   96.264
  575.504    0.409    0.552  172.925    5.136   99.448
  575.754    0.420    0.568  172.638    5.212   94.306
  576.004    0.425    0.580  172.241    5.269   93.204
  576.254    0.416    0.586  171.949    5.270   95.828
  576.504    0.414    0.574  171.554    5.241   98.204
  576.754    0.412    0.553  171.161    5.338   97.910
  577.004    0.393    0.478  170.556    5.496   90.904
  577.254    0.328    0.445  169.954    5.795   82.032
  577.504    0.268    0.413  169.553    6.212   74.343
  577.754    0.284    0.389  168.739    6.881   70.319
  578.004    0.359    0.409  168.342    7.920   69.527
  578.254    0.374    0.441  167.949    7.389   71.903
  578.504    0.388    0.504  167.977    6.832   80.927
  578.754    0.401    0.537  167.999    6.328   86.847
  579.004    0.407    0.551  167.919    5.980   88.167
  579.254    0.407    0.552  168.260    5.399   94.643
  579.504    0.396    0.547  169.129    5.056   89.751
  579.754    0.386    0.536  171.574    5.010   84.858
  580.004    0.392    0.520  172.233    5.010   87.233
  580.254    0.406    0.535  172.259    5.010   92.219
  580.504    0.411    0.553  172.287    5.075   95.404
  580.754    0.408    0.568  171.888    5.085   97.532
  581.004    0.402    0.556  171.598    5.131   98.913
