~VERSION INFORMATION
 VERS.                 2.0:   CWLS LOG ASCII STANDARD -VERSION 2.0
 WRAP.                  NO:   ONE LINE PER DEPTH STEP
~WELL INFORMATION BLOCK
#MNEM.UNIT           DATA                    DESCRIPTION OF MNEMONIC
#---------    -------------------            -------------------------------
# Generated from Intellog Unique Number	CN_91_93/WELL/2621
WELL.         PETRO-CANADA INC.              : Well_name    - WELL
LOC .         00/11-30-091-17W4/0            : Location     - LOCATION
UWI .         00/11-30-091-17W400            : Uwi          - UNIQUE WELL ID
ENTR.         JOETTE                         : Entered      - ENTERED BY
SRVC.         SCHLUMBERGER                   : Scn          - SERVICE COMPANY
DATE.         02/05/92                       : Date         - LOG DATE
STRT.M        75                             : top_depth    - START DEPTH
STOP.M        255                            : bot_depth    - STOP DEPTH
STEP.M        0.25                           : increment    - STEP LENGTH
 NULL. -999.2500:NULL Value
~CURVE INFORMATION BLOCK
#MNEM UNIT       ERCB CURVE CODE    CURVE DESCRIPTION
#-----------   ------------------   ----------------------------------
DEPT.M        00 001 00 00         : DEPTH        - DEPTH
GR  .API      00 310 00 00         : GR           - GAMMA RAY
CALI.MM       00 280 01 00         : CAL          - CALIPER
NPHI.V/V      00 330 00 00         : PHIN         - NEUTRON POROSITY (SANDSTONE)
DPHI.V/V      00 890 00 00         : PHID         - DENSITY POROSITY (SANDSTONE)
ILD .OHMM     00 120 00 00         : RESD         - DEEP RESISTIVITY (DIL)
~PARAMETER INFORMATION
#MNEM.UNIT           DATA             DESCRIPTION OF MNEMONIC
#---------         -----------     ------------------------------
GL  .M        513.2                : gl           - GROUND LEVEL ELEVATION
EREF.M        516.6                : kb           - ELEVATION OF DEPTH REFERENCE
DATM.M        516.6                : datum        - DATUM ELEVATION
TDD .M        260.5                : tdd          - TOTAL DEPTH DRILLER
RUN .         ONE                  : Run          - RUN NUMBER
ENG .         BILL                 : Engineer     - RECORDING ENGINEER
WIT .         JIM                  : Witness      - WITNESSED BY
MUD .         GEL                  : Mud_type     - MUD TYPE
MATR.         SANDSTONE            : Logunit      - NEUTRON MATRIX
TMAX.C        28                   : BHT          - MAXIMUM RECORDED TEMPERATURE
BHTD.M        260.5                : BHTDEP       - MAXIMUM RECORDED TEMPERATURE
RMT .C        8.33333              : MDTP         - TEMPERATURE OF MUD
MUDD.KG/M     1030                 : MWT          - MUD DENSITY
NEUT.         1                    : NEUTRON      - NEUTRON TYPE
RESI.         0                    : RESIST       - RESISTIVITY TYPE
RM  .OHMM     6.97                 : RM           - RESISTIVITY OF MUD
RMC .OHMM     6.97                 : RMC          - RESISTIVITY OF MUD CAKE
RMF .OHMM     6.97                 : RMF          - RESISTIVITY OF MUD FILTRATE
SUFT.C        4                    : SUFT         - SURFACE TEMPERATURE
~A  DEPTH       GR      CAL     PHIN     PHID     RESD
   75.000   65.354  160.644    0.509    0.331    5.700
   75.250   71.726  168.740    0.489    0.316    5.840
   75.500   67.245  162.283    0.494    0.343    6.212
   75.750   60.055  162.350    0.488    0.362    6.509
   76.000   53.170  166.950    0.470    0.373    6.571
   76.250   60.742  164.507    0.443    0.375    6.587
   76.500   64.997  163.069    0.458    0.365    6.551
   76.750   68.063  164.139    0.474    0.353    6.467
   77.000   69.904  169.215    0.488    0.347    6.339
   77.250   73.859  169.299    0.480    0.317    6.303
   77.500   77.818  166.857    0.450    0.261    6.509
   77.750   78.159  164.406    0.455    0.299    6.620
   78.000   71.570  161.964    0.473    0.306    6.683
   78.250   58.358  161.537    0.437    0.340    6.598
   78.500   58.398  161.604    0.421    0.335    6.372
   78.750   71.093  159.672    0.428    0.299    6.106
   79.000   70.832  162.256    0.491    0.281    5.723
   79.250   74.485  163.812    0.488    0.289    5.324
   79.500   81.149  163.887    0.482    0.314    5.025
   79.750   88.119  162.448    0.491    0.320    4.746
   80.000   90.271  160.500    0.532    0.321    4.719
   80.250   93.016  157.556    0.534    0.321    4.729
   80.500   94.270  163.669    0.559    0.320    4.918
   80.750   91.601  164.723    0.552    0.310    5.351
   81.000   88.324  162.280    0.508    0.299    5.648
   81.250   84.149  159.847    0.472    0.295    5.831
   81.500   79.673  161.427    0.498    0.301    5.844
   81.750   78.810  163.501    0.489    0.300    5.771
   82.000   86.979  166.077    0.469    0.299    5.785
   82.250   90.938  169.656    0.481    0.299    5.879
   82.500   83.150  169.723    0.494    0.299    6.024
   82.750   75.357  169.288    0.490    0.301    6.456
   83.000   66.967  164.839    0.478    0.304    7.505
   83.250   54.663  162.396    0.480    0.359    8.663
   83.500   47.773  162.973    0.472    0.394    9.852
   83.750   47.221  167.046    0.418    0.406   10.798
   84.000   43.950  173.151    0.404    0.417   11.308
   84.250   43.688  174.222    0.414    0.408   12.208
   84.500   40.713  169.764    0.463    0.382   14.520
   84.750   40.753  161.308    0.471    0.379   14.993
   85.000   38.685  160.865    0.479    0.393   15.469
   85.250   39.027  163.441    0.490    0.398   16.088
   85.500   36.056  167.037    0.481    0.399   16.740
   85.750   35.795  167.597    0.425    0.398   17.148
   86.000   36.442  165.657    0.422    0.395   17.576
   86.250   38.289  163.215    0.441    0.394   17.739
   86.500   40.140  163.281    0.455    0.397   18.042
   86.750   41.084  159.334    0.457    0.401   18.487
   87.000   41.124  158.405    0.471    0.404   19.094
   87.250   40.265  163.490    0.465    0.405   19.559
   87.500   39.703  168.073    0.439    0.401   20.347
   87.750   39.738  165.631    0.438    0.407   20.843
   88.000   40.687  167.705    0.451    0.411   20.125
   88.250   42.834  177.314    0.460    0.410   18.723
   88.500   42.879  177.883    0.465    0.405   17.553
   88.750   42.613  174.437    0.460    0.396   17.198
   89.000   42.056  160.972    0.452    0.393   18.840
   89.250   41.188  160.520    0.441    0.395   20.190
   89.500   38.519  160.587    0.431    0.390   20.997
   89.750   37.962  163.188    0.429    0.389   21.361
   90.000   37.399  163.748    0.447    0.390   21.731
   90.250   35.633  163.806    0.453    0.392   21.933
   90.500   36.877  164.400    0.438    0.387   22.137
   90.750   35.417  164.442    0.434    0.381   22.189
   91.000   35.457  164.534    0.446    0.378   22.406
   91.250   37.911  164.592    0.455    0.379   22.620
   91.500   36.742  163.647    0.445    0.378   22.830
   91.750   35.582  161.706    0.431    0.377   23.048
   92.000   36.827  161.280    0.436    0.373   23.629
   92.250   38.673  160.335    0.445    0.364   24.026
   92.500   40.219  160.410    0.442    0.364   24.443
   92.750   38.452  159.983    0.434    0.368   24.443
   93.000   37.890  160.050    0.430    0.374   24.734
   93.250   37.930  159.607    0.427    0.370   25.149
   93.500   36.766  158.670    0.414    0.362   25.383
   93.750   36.806  158.235    0.405    0.353   25.632
   94.000   37.147  157.808    0.412    0.357   25.685
   94.250   37.192  161.898    0.419    0.369   25.738
   94.500   38.738  161.463    0.421    0.373   25.792
   94.750   38.482  163.035    0.417    0.377   25.846
   95.000   38.221  165.109    0.412    0.378   25.906
   95.250   37.659  165.184    0.415    0.378   25.946
   95.500   35.897  164.239    0.424    0.380   25.808
   95.750   36.535  161.805    0.436    0.392   25.670
   96.000   38.386  158.853    0.444    0.411   25.351
   96.250   37.217  156.419    0.444    0.421   25.410
   96.500   37.262  155.984    0.457    0.408   25.267
   96.750   37.904  160.583    0.454    0.381   25.333
   97.000   37.944  162.139    0.447    0.373   25.386
   97.250   38.893  160.709    0.455    0.374   25.425
   97.500   40.137  158.768    0.455    0.375   25.296
   97.750   39.881  157.321    0.433    0.369   25.355
   98.000   39.620  155.389    0.420    0.357   25.395
   98.250   40.257  154.452    0.418    0.345   25.272
   98.500   42.104  155.021    0.416    0.326   25.311
   98.750   40.036  157.597    0.410    0.329   25.003
   99.000   38.280  160.674    0.420    0.344   24.857
   99.250   38.310  161.243    0.452    0.366   24.908
   99.500   38.360  158.316    0.474    0.373   24.775
   99.750   38.696  157.872    0.470    0.383   24.643
  100.000   39.639  160.448    0.455    0.383   24.518
  100.250   41.185  162.028    0.430    0.386   24.200
  100.500   41.832  160.088    0.416    0.385   23.716
  100.750   39.775  164.178    0.433    0.393   23.241
  101.000   40.106  169.262    0.444    0.382   22.788
  101.250   41.355  169.823    0.446    0.377   22.499
  101.500   41.400  165.382    0.459    0.386   22.379
  101.750   41.736  162.939    0.465    0.392   22.254
  102.000   42.379  159.987    0.453    0.381   22.140
  102.250   42.720  158.055    0.434    0.380   21.686
  102.500   42.464  159.125    0.431    0.380   21.095
  102.750   44.611  160.698    0.422    0.379   20.073
  103.000   44.963  160.764    0.423    0.385   18.809
  103.250   44.391  159.836    0.423    0.386   17.499
  103.500   45.936  163.424    0.429    0.379   16.280
  103.750   56.820  164.987    0.458    0.339   15.483
  104.000   64.392  164.569    0.454    0.220   14.620
  104.250   59.615  161.608    0.453    0.158   13.912
  104.500   56.644  162.679    0.484    0.158   14.041
  104.750   55.179  163.256    0.489    0.227   15.276
  105.000   55.224  160.822    0.479    0.365   16.241
  105.250   58.571  157.376    0.446    0.382   17.143
  105.500   58.310  159.450    0.451    0.374   17.570
  105.750   54.742  160.512    0.477    0.359   17.343
  106.000   55.083  160.085    0.448    0.272   16.376
  106.250   62.048  161.658    0.428    0.325   14.250
  106.500   67.206  164.735    0.428    0.346   12.034
  106.750   79.294  165.822    0.446    0.364   10.088
  107.000  103.129  164.869    0.494    0.341    8.393
  107.250  105.879  162.427    0.509    0.292    7.358
  107.500  103.817  162.008    0.496    0.278    6.594
  107.750  103.556  163.572    0.505    0.281    5.824
  108.000  106.908  165.144    0.536    0.282    5.337
  108.250  109.356  165.729    0.547    0.284    5.233
  108.500  108.493  165.796    0.563    0.285    5.243
  108.750  110.947  163.856    0.553    0.285    5.455
  109.000  108.874  162.409    0.519    0.297    5.545
  109.250  105.904  160.477    0.499    0.298    5.682
  109.500  105.046  159.540    0.508    0.306    5.738
  109.750  105.989  163.119    0.535    0.293    5.707
  110.000  105.427  164.190    0.527    0.274    5.593
  110.250  104.263  162.249    0.518    0.275    5.522
  110.500  104.303  159.807    0.504    0.285    5.450
  110.750  105.858  159.372    0.502    0.291    5.463
  111.000  107.103  159.447    0.505    0.295    5.476
  111.250  106.540  160.016    0.537    0.286    5.444
