~VERSION INFORMATION
 VERS.                 2.0:   CWLS LOG ASCII STANDARD -VERSION 2.0
 WRAP.                  NO:   ONE LINE PER DEPTH STEP
~WELL INFORMATION BLOCK
#MNEM.UNIT           DATA                    DESCRIPTION OF MNEMONIC
#---------    -------------------            -------------------------------
# Generated from Intellog Unique Number	CW_76_78/WELL/2807
WELL.         10-21-078-26W4                 : Well_name    - WELL
LOC .         00/10-21-078-26W4/0            : Location     - LOCATION
UWI .         00/10-21-078-26W4/0            : Uwi          - UNIQUE WELL ID
ENTR.         JJ                             : Entered      - ENTERED BY
SRVC.         SCHLUMBERGER                   : Scn          - SERVICE COMPANY
DATE.         18 FEB 65                      : Date         - LOG DATE
STRT.M        411.48                         : top_depth    - START DEPTH
STOP.M        539.48                         : bot_depth    - STOP DEPTH
STEP.M        0.25                           : increment    - STEP LENGTH
 NULL. -999.2500:NULL Value
~CURVE INFORMATION BLOCK
#MNEM UNIT       ERCB CURVE CODE    CURVE DESCRIPTION
#-----------   ------------------   ----------------------------------
DEPT.M        00 001 00 00         : DEPTH        - DEPTH
DELT.US/F     00 520 00 00         : DELT         - SONIC TRAVEL TIME
GR  .API      00 310 00 00         : GR           - GAMMA RAY
ILD .OHMM     00 120 00 00         : RESD         - DEEP RESISTIVITY (DIL)
~PARAMETER INFORMATION
#MNEM.UNIT           DATA             DESCRIPTION OF MNEMONIC
#---------         -----------     ------------------------------
GL  .M        591.922              : gl           - GROUND LEVEL ELEVATION
EREF.M        595.274              : kb           - ELEVATION OF DEPTH REFERENCE
DATM.M        591.922              : datum        - DATUM ELEVATION
TDD .M        566.928              : tdd          - TOTAL DEPTH DRILLER
RUN .         ONE                  : Run          - RUN NUMBER
ENG .         HAMILTON             : Engineer     - RECORDING ENGINEER
WIT .         BYERS                : Witness      - WITNESSED BY
BASE.         SL                   : Branch       - HOME BASE OF LOGGING UNIT
MUD .         GEL                  : Mud_type     - MUD TYPE
MATR.         SANDSTONE            : Logunit      - NEUTRON MATRIX
TMAX.C        23.8889              : BHT          - MAXIMUM RECORDED TEMPERATURE
BHTD.M        567.538              : BHTDEP       - MAXIMUM RECORDED TEMPERATURE
RMT .C        23.3333              : MDTP         - TEMPERATURE OF MUD
MUDD.KG/M     1104                 : MWT          - MUD DENSITY
NEUT.         1                    : NEUTRON      - NEUTRON TYPE
RESI.         0                    : RESIST       - RESISTIVITY TYPE
RM  .OHMM     4.76                 : RM           - RESISTIVITY OF MUD
RMC .OHMM     3.57                 : RMC          - RESISTIVITY OF MUD CAKE
RMF .OHMM     5.08                 : RMF          - RESISTIVITY OF MUD FILTRATE
SUFT.C        5                    : SUFT         - SURFACE TEMPERATURE
~A  DEPTH     DELT       GR     RESD
# ...
  465.730  264.353   43.347   48.383
  465.980  259.203   44.642   45.514
  466.230  266.991   43.969   39.917
  466.480  280.695   43.853   35.071
  466.730  296.874   47.437   32.211
  466.980  294.151   51.368   28.586
  467.230  293.242   52.439   24.149
  467.480  287.025   50.490   20.065
  467.730  273.959   49.526   17.460
  467.980  289.814   55.830   15.284
  468.230  321.647   63.084   13.377
  468.480  334.649   61.444   12.025
  468.730  340.878   62.084   11.825
  468.980  342.172   65.747   12.265
  469.230  343.276   67.862   12.434
  469.480  338.500   69.804   12.326
  469.730  332.602   67.747   12.020
  469.980  329.293   69.664   11.491
  470.230  331.664   75.022   11.044
  470.480  338.224   72.302   10.736
  470.730  337.826   72.932   10.166
  470.980  339.124   75.567    9.720
  471.230  344.505   76.537    9.479
  471.480  349.650   78.085   10.013
  471.730  352.685   81.777   12.268
  471.980  338.833   75.432   15.309
  472.230  330.261   64.347   20.766
  472.480  297.881   57.581   26.878
  472.730  261.412   52.986   29.181
  472.980  254.615   49.483   30.188
  473.230  277.385   59.948   27.640
  473.480  303.814   64.620   24.680
  473.730  321.521   65.841   22.406
  473.980  321.007   67.289   21.004
  474.230  316.412   71.669   20.246
  474.480  313.441   71.959   19.852
  474.730  312.194   71.049   19.369
  474.980  310.887   70.831   18.602
  475.230  308.602   70.292   17.623
  475.480  311.702   71.194   16.619
  475.730  318.420   72.508   15.203
  475.980  323.839   76.591   14.030
  476.230  330.575   80.235   12.932
  476.480  337.677   86.392   12.312
  476.730  341.191   90.257   12.643
  476.980  334.561   84.866   13.063
  477.230  322.089   75.584   13.893
  477.480  318.140   69.997   15.495
  477.730  325.112   71.570   16.351
  477.980  333.787   70.789   16.143
  478.230  331.861   68.194   15.577
  478.480  331.023   70.871   15.949
  478.730  322.891   73.308   17.228
  478.980  301.491   69.127   17.073
  479.230  308.168   62.264   15.746
  479.480  319.685   60.607   14.563
  479.730  345.763   74.451   13.718
  479.980  355.573   82.927   13.136
  480.230  353.445   74.929   14.248
  480.480  359.483   63.451   19.012
  480.730  368.267   54.755   26.689
  480.980  375.271   41.546   34.476
  481.230  378.427   31.333   40.246
  481.480  377.661   19.723   53.311
  481.730  370.596   17.509   72.434
  481.980  367.606   19.564   89.949
  482.230  367.221   19.823   96.021
  482.480  361.426   19.517   96.233
  482.730  357.582   18.393   95.360
  482.980  357.999   18.559   93.882
  483.230  363.091   18.793   92.145
  483.480  363.438   18.975   90.296
  483.730  360.500   17.833   88.685
  483.980  358.377   16.113   86.595
  484.230  358.733   16.400   85.088
  484.480  356.609   17.805   80.388
  484.730  353.428   17.878   74.797
  484.980  349.024   16.711   68.641
  485.230  345.357   17.929   61.285
  485.480  343.956   17.119   54.492
  485.730  342.667   17.982   49.294
  485.980  344.459   19.535   46.101
  486.230  347.731   18.510   42.958
  486.480  348.431   17.538   40.800
  486.730  347.184   17.836   38.245
  486.980  345.697   18.929   35.708
  487.230  344.635   20.418   33.688
  487.480  347.010   21.817   32.219
  487.730  353.061   22.340   30.526
  487.980  359.576   19.692   29.163
  488.230  364.856   17.596   28.040
  488.480  367.398   19.512   27.375
  488.730  362.252   23.708   26.761
  488.980  356.259   23.549   25.908
  489.230  352.497   22.194   24.753
  489.480  351.281   22.031   23.371
  489.730  349.501   22.134   22.367
  489.980  349.890   23.150   21.379
  490.230  367.228   25.210   20.335
  490.480  370.402   25.599   19.333
  490.730  344.393   25.457   18.529
  490.980  343.373   25.436   17.796
  491.230  341.226   25.867   16.799
  491.480  336.244   26.997   15.859
  491.730  333.611   29.435   14.462
  491.980  335.556   34.277   13.152
  492.230  341.519   39.425   12.134
  492.480  347.120   43.525   11.099
  492.730  352.022   47.764   10.690
  492.980  351.496   47.403   11.388
  493.230  334.450   42.533   13.294
  493.480  317.245   37.780   15.082
  493.730  294.774   39.579   16.842
  493.980  292.490   42.180   18.700
  494.230  319.064   42.922   18.655
  494.480  341.439   45.658   16.749
  494.730  356.207   48.832   14.912
  494.980  360.532   48.091   13.481
  495.230  358.312   48.081   11.942
  495.480  366.810   49.869   10.370
  495.730  377.141   54.072    9.174
  495.980  385.689   63.582    8.447
  496.230  391.463   71.527    7.606
  496.480  393.072   78.236    7.174
  496.730  369.586   81.825    7.870
  496.980  347.003   83.256    9.393
  497.230  323.806   85.242   10.816
  497.480  297.319   82.805   11.737
  497.730  306.058   74.158   12.341
  497.980  315.397   71.758   12.018
  498.230  343.076   75.321   10.964
  498.480  354.061   77.713    9.943
  498.730  361.338   78.989    9.117
  498.980  376.081   81.155    8.846
  499.230  371.587   82.889    9.299
  499.480  355.196   85.549   10.199
  499.730  327.713   81.065   11.256
  499.980  318.346   67.790   11.890
  500.230  310.816   59.312   11.332
  500.480  328.761   56.462    9.511
  500.730  360.896   62.269    7.565
  500.980  382.419   68.142    6.049
  501.230  396.367   72.767    5.031
  501.480  406.457   78.001    5.071
  501.730  388.278   83.007    5.610
  501.980  359.554   79.540    6.114
  502.230  340.115   71.219    6.609
  502.480  328.242   70.353    7.432
  502.730  354.915   76.599    8.914
  502.980  335.643   71.895    9.059
  503.230  330.751   67.125    8.638
  503.480  319.849   69.342    8.270
  503.730  323.299   67.446    7.980
  503.980  343.301   64.335    7.658
  504.230  339.797   65.605    7.416
  504.480  348.352   75.853    7.349
  504.730  354.850   79.187    7.647
  504.980  373.464   72.320    8.352
  505.230  386.522   63.123    9.264
  505.480  371.061   61.496   10.314
  505.730  368.048   59.699   11.142
  505.980  347.300   61.191   11.835
  506.230  344.947   65.336   11.667
  506.480  374.721   68.213   10.741
  506.730  393.022   71.158    9.538
  506.980  410.527   72.155    8.373
  507.230  420.994   71.718    7.430
  507.480  413.840   73.147    6.814
  507.730  394.312   73.180    6.206
  507.980  382.229   73.065    5.792
  508.230  391.071   72.064    5.447
  508.480  400.933   76.154    5.379
  508.730  410.806   81.022    5.530
  508.980  399.596   85.770    5.779
  509.230  378.411   81.713    6.343
  509.480  349.252   71.947    6.945
  509.730  328.299   65.965    7.639
  509.980  321.370   65.333    8.408
  510.230  358.435   65.775    9.132
  510.480  374.446   70.364    8.517
  510.730  386.534   80.184    7.562
  510.980  397.094   89.584    6.814
  511.230  375.894   88.346    6.080
  511.480  348.673   81.694    6.326
  511.730  330.079   72.822    7.293
  511.980  311.674   65.427    8.453
  512.230  317.338   68.604    9.701
  512.480  328.921   68.589   10.344
  512.730  351.735   69.213   10.352
  512.980  357.414   75.688   10.143
  513.230  361.813   79.437    9.721
  513.480  363.358   80.037    9.334
  513.730  329.359   75.350   10.706
  513.980  294.673   68.976   12.442
  514.230  264.652   60.860   14.179
  514.480  228.935   51.273   15.939
  514.730  240.781   44.097   17.832
  514.980  276.580   50.048   18.940
  515.230  314.850   63.365   17.836
  515.480  339.997   76.102   15.326
  515.730  340.270   80.195   12.354
  515.980  332.127   74.936   10.563
  516.230  327.373   70.255    9.896
  516.480  336.285   63.541   10.536
  516.730  345.255   57.746   11.148
  516.980  352.571   53.795   11.259
  517.230  358.901   61.351   10.650
  517.480  351.558   78.517    9.716
  517.730  347.109   81.656    8.938
  517.980  341.148   71.948    8.053
  518.230  331.029   64.069    7.696
  518.480  333.863   62.388    7.922
  518.730  333.737   60.438    8.199
  518.980  328.990   61.104    8.568
  519.230  324.152   64.348    8.860
  519.480  317.696   63.206    9.135
  519.730  310.786   56.364    9.374
