~VERSION INFORMATION
 VERS.                 2.0:   CWLS LOG ASCII STANDARD -VERSION 2.0
 WRAP.                  NO:   ONE LINE PER DEPTH STEP
~WELL INFORMATION BLOCK
#MNEM.UNIT           DATA                    DESCRIPTION OF MNEMONIC
#---------    -------------------            -------------------------------
# Generated from Intellog Unique Number	CS_73_76/WELL/3275
WELL.         CANADIAN WORLDWIDE ENERGY      : Well_name    - WELL
LOC .         00/13-17-076-04W4/0            : Location     - LOCATION
UWI .         00/13-17-076-04W4/0            : Uwi          - UNIQUE WELL ID
ENTR.         SP                             : Entered      - ENTERED BY
SRVC.         SCHLUMBERGER                   : Scn          - SERVICE COMPANY
STRT.M        150                            : top_depth    - START DEPTH
STOP.M        450                            : bot_depth    - STOP DEPTH
STEP.M        0.25                           : increment    - STEP LENGTH
 NULL. -999.2500:NULL Value
~CURVE INFORMATION BLOCK
#MNEM UNIT       ERCB CURVE CODE    CURVE DESCRIPTION
#-----------   ------------------   ----------------------------------
DEPT.M        00 001 00 00         : DEPTH        - DEPTH
ILD .OHMM     00 120 00 00         : RESD         - DEEP RESISTIVITY (DIL)
GR  .API      00 310 00 00         : GR           - GAMMA RAY
DPHI.V/V      00 890 00 00         : PHID         - DENSITY POROSITY (LIMESTONE)
NPHI.V/V      00 330 00 00         : PHIN         - NEUTRON POROSITY (LIMESTONE)
~PARAMETER INFORMATION
#MNEM.UNIT           DATA             DESCRIPTION OF MNEMONIC
#---------         -----------     ------------------------------
GL  .M        623.19               : gl           - GROUND LEVEL ELEVATION
EREF.M        626.29               : kb           - ELEVATION OF DEPTH REFERENCE
DATM.M        623.19               : datum        - DATUM ELEVATION
TDD .M        453                  : tdd          - TOTAL DEPTH DRILLER
RUN .         ONE                  : Run          - RUN NUMBER
ENG .         BILL                 : Engineer     - RECORDING ENGINEER
WIT .         JIM                  : Witness      - WITNESSED BY
MUD .         GEL                  : Mud_type     - MUD TYPE
MATR.         LIMESTONE            : Logunit      - NEUTRON MATRIX
TMAX.C        18                   : BHT          - MAXIMUM RECORDED TEMPERATURE
BHTD.M        453                  : BHTDEP       - MAXIMUM RECORDED TEMPERATURE
MATR.         1                    : LOGUNIT      - NEUTRON MATRIX
RMT .C        25                   : MDTP         - TEMPERATURE OF MUD
NEUT.         1                    : NEUTRON      - NEUTRON TYPE
RESI.         0                    : RESIST       - RESISTIVITY TYPE
RMC .OHMM     0.25                 : RMC          - RESISTIVITY OF MUD CAKE
RMF .OHMM     0.25                 : RMF          - RESISTIVITY OF MUD FILTRATE
SUFT.C        15                   : SUFT         - SURFACE TEMPERATURE
~A  DEPTH     RESD       GR     PHID     PHIN
# ...
  193.500   78.424   56.927    0.170    0.207
  193.750   73.786   55.112    0.158    0.202
  194.000   74.909   53.903    0.147    0.202
  194.250   78.395   48.443    0.165    0.206
  194.500   82.046   42.983    0.190    0.241
  194.750   84.573   42.990    0.232    0.282
  195.000   88.512   49.071    0.207    0.275
  195.250   91.240   50.897    0.203    0.269
  195.500   94.047   53.939    0.213    0.284
  195.750   96.943   54.553    0.184    0.284
  196.000   98.417   53.344    0.197    0.274
  196.250   95.457   45.455    0.223    0.265
  196.500   91.188   38.173    0.237    0.276
  196.750   87.109   35.750    0.251    0.297
  197.000   85.781   38.186    0.274    0.312
  197.250   84.476   41.835    0.278    0.304
  197.500   83.194   43.056    0.256    0.297
  197.750   83.182   39.418    0.266    0.306
  198.000   83.174   42.461    0.245    0.285
  198.250   83.166   52.791    0.215    0.232
  198.500   87.034   62.514    0.197    0.232
  198.750   88.362   54.625    0.203    0.247
  199.000   88.355   50.987    0.229    0.288
  199.250   89.695   50.993    0.269    0.302
  199.500   86.995   54.036    0.219    0.260
  199.750   85.675   56.471    0.190    0.254
  200.000   83.097   58.907    0.197    0.254
  200.250   80.595   62.557    0.194    0.255
  200.500   79.373   63.778    0.189    0.264
  200.750   75.818   64.391    0.222    0.265
  201.000   74.668   64.397    0.263    0.279
  201.250   71.327   63.796    0.312    0.309
  201.500   70.243   60.158    0.322    0.331
  201.750   70.235   56.520    0.293    0.320
  202.000   71.305   53.489    0.264    0.305
  202.250   71.294   50.459    0.278    0.321
  202.500   71.288   50.464    0.323    0.346
  202.750   72.374   51.078    0.411    0.364
  203.000   73.468   51.087    0.377    0.353
  203.250   74.587   52.305    0.402    0.379
  203.500   74.580   56.563    0.341    0.314
  203.750   74.573   62.035    0.249    0.279
  204.000   74.566   65.078    0.195    0.236
  204.250   73.429   65.083    0.132    0.236
  204.500   72.313   65.088    0.151    0.227
  204.750   72.308   63.880    0.188    0.241
  205.000   72.299   62.065    0.216    0.274
  205.250   73.399   60.855    0.280    0.297
  205.500   73.391   61.471    0.202    0.302
  205.750   72.272   62.690    0.161    0.227
  206.000   72.267   65.126    0.166    0.214
  206.250   70.091   66.953    0.179    0.232
  206.500   70.084   67.566    0.200    0.243
  206.750   67.977   70.002    0.224    0.264
  207.000   64.936   70.008    0.227    0.299
  207.250   59.263   68.799    0.227    0.320
  207.500   51.673   47.549    0.266    0.351
  207.750   50.118   40.268    0.305    0.348
  208.000   56.600   36.022    0.323    0.329
  208.250   64.900   34.815    0.307    0.316
  208.500   73.289   34.213    0.326    0.320
  208.750   74.403   34.220    0.313    0.315
  209.000   75.537   34.227    0.310    0.325
  209.250   74.387   33.624    0.322    0.377
  209.500   74.380   33.630    0.322    0.404
  209.750   73.250   33.636    0.328    0.415
  210.000   73.234   33.642    0.336    0.420
  210.250   71.035   33.648    0.334    0.449
  210.500   69.957   33.655    0.330    0.457
  210.750   69.949   33.661    0.342    0.458
  211.000   68.886   34.274    0.369    0.466
  211.250   67.836   34.886    0.390    0.507
  211.500   67.827   36.715    0.410    0.518
  211.750   68.857   40.364    0.456    0.511
  212.000   68.852   44.015    0.427    0.518
  212.250   67.801   48.273    0.389    0.485
  212.500   67.796   51.923    0.359    0.457
  212.750   66.767   52.535    0.345    0.443
  213.000   66.759   49.504    0.337    0.444
  213.250   66.752   49.512    0.340    0.475
  213.500   66.745   51.339    0.355    0.466
  213.750   65.728   54.382    0.357    0.455
  214.000   64.726   62.283    0.343    0.452
  214.250   64.722   65.932    0.329    0.469
  214.500   65.703   67.760    0.321    0.458
  214.750   65.699   59.264    0.306    0.444
  215.000   70.885   56.235    0.284    0.375
  215.250   75.321   56.240    0.279    0.372
  215.500   75.316   55.639    0.296    0.377
  215.750   74.166   53.824    0.289    0.359
  216.000   74.161   55.043    0.264    0.341
  216.250   74.150   58.086    0.287    0.341
  216.500   73.022   54.448    0.303    0.366
  216.750   74.134   51.417    0.315    0.378
  217.000   71.905   51.424    0.302    0.380
  217.250   69.740   52.645    0.294    0.393
  217.500   67.644   52.044    0.289    0.374
  217.750   63.642   49.622    0.309    0.328
  218.000   62.674   47.197    0.323    0.330
  218.250   60.790   47.203    0.334    0.393
  218.500   57.191   52.674    0.338    0.402
  218.750   54.635   64.219    0.295    0.392
  219.000   46.211   76.980    0.260    0.398
  219.250   35.674   97.634    0.274    0.435
  219.500   27.125  110.393    0.280    0.465
  219.750   20.313  103.719    0.260    0.544
  220.000   17.983  101.295    0.272    0.542
  220.250   15.920  104.341    0.275    0.517
  220.500   14.752  106.167    0.280    0.520
  220.750   13.879  105.566    0.280    0.522
  221.000   13.259  100.713    0.281    0.532
  221.250   12.666   97.683    0.300    0.547
  221.500   11.917  100.118    0.303    0.564
  221.750   11.735   98.302    0.288    0.554
  222.000   11.557   97.700    0.284    0.547
  222.250   11.381   98.921    0.279    0.538
  222.500   11.379   98.927    0.271    0.527
  222.750   11.552   99.543    0.272    0.517
  223.000   11.728  100.764    0.271    0.521
  223.250   12.848  101.374    0.271    0.521
  223.500   13.653  107.456    0.271    0.510
  223.750   14.956  106.247    0.270    0.511
  224.000   15.893  101.394    0.266    0.508
  224.250   17.677   97.756    0.261    0.447
  224.500   19.962   92.295    0.259    0.411
  224.750   23.241   88.659    0.246    0.373
  225.000   25.850   92.307    0.233    0.372
  225.250   29.192   99.601    0.218    0.386
  225.500   31.496   98.392    0.243    0.411
  225.750   36.114   88.681    0.255    0.416
  226.000   41.409   74.719    0.240    0.408
  226.250   44.678   65.008    0.208    0.330
  226.500   46.758   60.764    0.145    0.305
  226.750   43.329   75.345    0.127    0.325
  227.000   38.358   88.713    0.211    0.348
  227.250   35.544   91.754    0.226    0.367
  227.500   32.937   82.045    0.236    0.392
  227.750   30.521   80.229    0.261    0.408
  228.000   29.602   86.915    0.259    0.420
  228.250   30.053   97.245    0.250    0.399
  228.500   33.427   97.250    0.258    0.375
  228.750   38.916   88.148    0.277    0.369
  229.000   44.621   83.295    0.283    0.375
  229.250   48.143   84.515    0.293    0.398
  229.500   48.137   93.024    0.293    0.409
  229.750   47.406   99.103    0.280    0.401
  230.000   45.284  101.538    0.245    0.403
  230.250   43.922  100.331    0.238    0.404
  230.500   42.600   98.514    0.252    0.400
  230.750   41.954   96.697    0.272    0.409
  231.000   41.315   94.275    0.269    0.416
  231.250   41.944   90.029    0.256    0.420
  231.500   45.254   80.319    0.256    0.381
  231.750   48.087   73.037    0.258    0.354
  232.000   49.566   64.541    0.309    0.377
  232.250   50.321   53.008    0.326    0.388
  232.500   51.870   54.228    0.328    0.394
  232.750   54.288   57.271    0.310    0.394
  233.000   58.571   58.492    0.289    0.395
  233.250   59.463   62.142    0.287    0.395
  233.500   60.368   65.791    0.287    0.403
  233.750   59.449   65.798    0.314    0.411
  234.000   58.546   62.768    0.329    0.418
  234.250   55.926   63.382    0.328    0.423
  234.500   51.042   65.818    0.327    0.423
  234.750   47.296   67.644    0.326    0.426
  235.000   45.183   72.510    0.315    0.422
  235.250   39.396   83.446    0.282    0.412
  235.500   34.350  100.457    0.268    0.415
  235.750   30.876   99.855    0.247    0.426
  236.000   25.720   99.256    0.242    0.433
  236.250   24.198  103.511    0.240    0.442
  236.500   22.768  101.695    0.234    0.442
  236.750   22.765   86.519    0.231    0.439
