~VERSION INFORMATION
 VERS.                 2.0:   CWLS LOG ASCII STANDARD -VERSION 2.0
 WRAP.                  NO:   ONE LINE PER DEPTH STEP
~WELL INFORMATION BLOCK
#MNEM.UNIT           DATA                    DESCRIPTION OF MNEMONIC
#---------    -------------------            -------------------------------
# Generated from Intellog Unique Number	CW_79_81/WELL/2474
WELL.         GULF AMOCO HOOLE               : Well_name    - WELL
LOC .         00/10-24-081-25W4/0            : Location     - LOCATION
UWI .         00/10-24-081-25W4/0            : Uwi          - UNIQUE WELL ID
ENTR.         MAX                            : Entered      - ENTERED BY
SRVC.         SCHLUMBERGER                   : Scn          - SERVICE COMPANY
STRT.M        198.12                         : top_depth    - START DEPTH
STOP.M        456.87                         : bot_depth    - STOP DEPTH
STEP.M        0.25                           : increment    - STEP LENGTH
 NULL. -999.2500:NULL Value
~CURVE INFORMATION BLOCK
#MNEM UNIT       ERCB CURVE CODE    CURVE DESCRIPTION
#-----------   ------------------   ----------------------------------
DEPT.M        00 001 00 00         : DEPTH        - DEPTH
ILD .OHMM     00 120 00 00         : RESD         - DEEP RESISTIVITY (DIL)
NPHI.V/V      00 330 00 00         : PHIN         - NEUTRON POROSITY (SANDSTONE)
DPHI.V/V      00 890 00 00         : PHID         - DENSITY POROSITY (SANDSTONE)
GR  .API      00 310 00 00         : GR           - GAMMA RAY
CALI.MM       00 280 01 00         : CAL          - CALIPER
~PARAMETER INFORMATION
#MNEM.UNIT           DATA             DESCRIPTION OF MNEMONIC
#---------         -----------     ------------------------------
GL  .M        586.435              : gl           - GROUND LEVEL ELEVATION
EREF.M        589.788              : kb           - ELEVATION OF DEPTH REFERENCE
DATM.M        586.435              : datum        - DATUM ELEVATION
TDD .M        464.515              : tdd          - TOTAL DEPTH DRILLER
RUN .         ONE                  : Run          - RUN NUMBER
ENG .         BILL                 : Engineer     - RECORDING ENGINEER
WIT .         JIM                  : Witness      - WITNESSED BY
MUD .         GEL                  : Mud_type     - MUD TYPE
MATR.         SANDSTONE            : Logunit      - NEUTRON MATRIX
TMAX.C        80                   : BHT          - MAXIMUM RECORDED TEMPERATURE
BHTD.M        1524                 : BHTDEP       - MAXIMUM RECORDED TEMPERATURE
MATR.         1                    : LOGUNIT      - NEUTRON MATRIX
RMT .C        59                   : MDTP         - TEMPERATURE OF MUD
NEUT.         1                    : NEUTRON      - NEUTRON TYPE
RESI.         0                    : RESIST       - RESISTIVITY TYPE
RMC .OHMM     3.71                 : RMC          - RESISTIVITY OF MUD CAKE
RMF .OHMM     3.71                 : RMF          - RESISTIVITY OF MUD FILTRATE
SUFT.C        20                   : SUFT         - SURFACE TEMPERATURE
~A  DEPTH     RESD     PHIN     PHID       GR      CAL
# ...
  234.620   22.917    0.388    0.353   23.784  149.273
  234.870   23.847    0.390    0.359   24.948  149.307
  235.120   24.782    0.396    0.364   25.985  149.537
  235.370   25.450    0.410    0.361   27.236  151.056
  235.620   26.038    0.384    0.359   28.317  154.451
  235.870   26.618    0.377    0.358   28.341  153.277
  236.120   26.923    0.377    0.357   27.790  153.310
  236.370   27.130    0.382    0.355   26.924  153.344
  236.620   27.338    0.386    0.351   26.692  152.874
  236.870   27.554    0.380    0.344   29.116  151.854
  237.120   27.572    0.378    0.342   30.991  150.627
  237.370   27.392    0.377    0.340   31.010  150.661
  237.620   26.918    0.381    0.342   31.029  151.301
  237.870   26.265    0.390    0.348   30.925  152.141
  238.120   25.727    0.405    0.354   30.758  152.677
  238.370   25.897    0.426    0.351   30.780  152.150
  238.620   26.696    0.437    0.348   30.804  151.343
  238.870   29.075    0.444    0.359   31.077  150.977
  239.120   33.316    0.447    0.361   31.542  150.909
  239.370   39.507    0.449    0.357   31.945  151.344
  239.620   46.216    0.451    0.346   31.715  152.184
  239.870   48.143    0.454    0.324   29.647  153.369
  240.120   47.458    0.485    0.307   28.081  155.079
  240.370   44.826    0.497    0.316   27.593  159.946
  240.620   41.888    0.491    0.338   27.297  166.021
  240.870   41.056    0.478    0.354   27.066  169.883
  241.120   42.561    0.468    0.355   26.390  171.026
  241.370   45.114    0.468    0.346   23.962  172.540
  241.620   45.141    0.491    0.337   21.870  175.932
  241.870   44.525    0.499    0.351   22.403  178.788
  242.120   44.153    0.501    0.357   23.313  178.317
  242.370   44.177    0.493    0.360   24.096  175.933
  242.620   44.988    0.472    0.357   24.560  173.350
  242.870   48.094    0.431    0.332   24.627  172.840
  243.120   52.256    0.409    0.327   23.592  174.130
  243.370   60.157    0.397    0.318   22.089  176.178
  243.620   65.249    0.416    0.311   21.919  177.926
  243.870   65.045    0.454    0.324   22.830  178.564
  244.120   61.501    0.486    0.352   24.438  177.288
  244.370   58.388    0.474    0.361   26.660  172.129
  244.620   53.867    0.457    0.357   28.799  166.288
  244.870   39.512    0.481    0.348   28.060  162.700
  245.120   36.467    0.496    0.335   26.557  160.920
  245.370   38.132    0.497    0.336   25.564  160.752
  245.620   42.536    0.489    0.354   25.459  161.393
  245.870   46.490    0.491    0.375   25.948  161.433
  246.120   46.862    0.514    0.367   27.027  161.465
  246.370   46.555    0.525    0.359   29.334  161.503
  246.620   46.001    0.510    0.359   29.927  161.839
  246.870   45.700    0.500    0.361   29.567  162.076
  247.120   45.724    0.501    0.364   28.952  162.212
  247.370   45.410    0.498    0.370   28.725  162.650
  247.620   43.782    0.467    0.360   28.749  162.688
  247.870   43.187    0.448    0.368   30.037  163.524
  248.120   42.827    0.471    0.366   31.518  165.272
  248.370   42.545    0.499    0.362   32.810  167.923
  248.620   42.114    0.511    0.365   34.038  171.178
  248.870   41.129    0.503    0.384   35.837  174.444
  249.120   40.544    0.528    0.384   35.857  174.480
  249.370   39.711    0.535    0.380   35.883  175.319
  249.620   39.946    0.533    0.376   36.094  175.554
  249.870   41.114    0.527    0.367   36.495  174.781
  250.120   42.421    0.520    0.352   37.404  173.002
  250.370   41.430    0.512    0.334   40.514  170.045
  250.620   38.222    0.511    0.334   45.822  167.140
  250.870   34.815    0.465    0.319   51.424  162.338
  251.120   31.550    0.439    0.306   58.930  156.934
  251.370   28.890    0.422    0.298   66.437  151.531
  251.620   27.428    0.397    0.279   70.708  147.436
  251.870   28.565    0.331    0.196   65.013  146.668
  252.120   31.517    0.262    0.067   54.200  146.707
  252.370   34.564    0.214    0.058   47.882  147.144
  252.620   39.097    0.231    0.122   45.555  147.279
  252.870   43.059    0.297    0.200   42.151  147.311
  253.120   44.989    0.390    0.275   36.273  147.545
  253.370   44.922    0.487    0.368   29.891  148.397
  253.620   40.252    0.496    0.379   28.327  148.426
  253.870   28.856    0.494    0.380   29.617  148.459
  254.120   17.841    0.519    0.372   31.668  148.194
  254.370   13.615    0.532    0.362   34.481  148.228
  254.620   12.111    0.531    0.349   37.738  148.764
  254.870   10.834    0.547    0.321   41.282  149.613
  255.120    9.850    0.554    0.306   43.683  149.649
  255.370    9.038    0.543    0.327   44.973  149.683
  255.620    8.576    0.531    0.351   45.693  149.714
  255.870    8.190    0.515    0.357   45.588  149.951
  256.120    7.753    0.500    0.345   44.340  150.292
  256.370    7.058    0.487    0.332   41.101  150.416
  256.620    6.324    0.452    0.329   38.745  150.864
  256.870    6.744    0.442    0.315   39.020  151.304
  257.120    7.532    0.397    0.297   35.679  152.947
  257.370    8.005    0.354    0.280   34.177  153.184
  257.620    7.939    0.348    0.274   37.115  152.115
  257.870    7.827    0.422    0.296   45.302  152.642
  258.120    7.065    0.476    0.308   50.612  153.094
  258.370    6.388    0.468    0.306   54.183  152.322
  258.620    5.618    0.478    0.307   57.951  150.944
  258.870    4.984    0.501    0.311   60.257  150.372
  259.120    4.510    0.525    0.319   60.403  150.909
  259.370    4.121    0.532    0.330   58.549  151.752
  259.620    4.003    0.523    0.333   58.043  151.787
  259.870    4.034    0.534    0.321   60.093  152.231
  260.120    4.130    0.564    0.307   59.858  152.968
  260.370    4.282    0.588    0.305   56.453  152.399
  260.620    4.503    0.572    0.313   51.464  150.722
  260.870    4.946    0.478    0.313   48.109  149.954
  261.120    5.540    0.486    0.315   43.900  149.986
  261.370    6.736    0.457    0.318   40.628  150.422
  261.620    7.741    0.452    0.324   39.062  151.163
  261.870    8.713    0.441    0.331   37.306  152.206
  262.120    9.899    0.415    0.338   34.728  153.347
  262.370   11.836    0.388    0.341   31.854  154.274
  262.620   14.203    0.379    0.340   31.352  154.733
  262.870   17.503    0.416    0.333   37.715  153.965
  263.120   16.925    0.451    0.347   38.561  153.491
  263.370   14.527    0.445    0.358   37.059  153.120
  263.620   12.206    0.403    0.354   36.506  152.654
  263.870    9.862    0.370    0.328   41.608  151.892
  264.120    8.048    0.360    0.311   47.973  151.920
  264.370    6.416    0.375    0.292   50.028  152.763
  264.620    5.784    0.388    0.280   50.555  153.601
  264.870    5.629    0.399    0.280   49.941  154.239
  265.120    5.904    0.407    0.285   48.632  154.577
  265.370    7.208    0.411    0.287   46.712  154.618
  265.620    8.991    0.419    0.296   44.618  154.654
  265.870   10.208    0.446    0.325   41.340  154.684
  266.120   11.895    0.438    0.347   34.638  154.717
  266.370   13.763    0.410    0.359   29.458  154.954
  266.620   15.044    0.389    0.363   27.704  155.292
  266.870   14.602    0.413    0.369   28.452  155.163
  267.120   13.977    0.458    0.390   29.527  154.363
  267.370   12.730    0.484    0.408   31.834  152.782
  267.620   11.537    0.484    0.411   33.378  151.207
  267.870   10.803    0.481    0.405   34.415  150.435
  268.120   10.525    0.479    0.396   35.199  150.467
  268.370   10.486    0.458    0.386   36.195  150.679
  268.620   10.261    0.420    0.386   37.275  151.550
  268.870   10.048    0.401    0.376   37.548  152.392
  269.120    9.947    0.403    0.361   37.063  152.324
  269.370    9.952    0.430    0.348   35.689  152.157
  269.620   10.047    0.462    0.344   33.870  152.194
  269.870   10.214    0.463    0.354   32.840  152.238
  270.120   10.297    0.453    0.357   33.917  152.270
  270.370   10.302    0.443    0.363   35.463  152.300
  270.620   10.253    0.422    0.365   35.865  152.333
  270.870   10.150    0.402    0.366   36.267  152.367
