~VERSION INFORMATION
 VERS.                 2.0:   CWLS LOG ASCII STANDARD -VERSION 2.0
 WRAP.                  NO:   ONE LINE PER DEPTH STEP
~WELL INFORMATION BLOCK
#MNEM.UNIT           DATA                    DESCRIPTION OF MNEMONIC
#---------    -------------------            -------------------------------
# Generated from Intellog Unique Number	CW_76_78/WELL/913
WELL.         PCP MARTEN HILLS 10-28-076     : Well_name    - WELL
LOC .         00/10-28-076-04W5/0            : Location     - LOCATION
UWI .         00/10-28-076-04W5/0            : Uwi          - UNIQUE WELL ID
ENTR.         JAYE                           : Entered      - ENTERED BY
SRVC.         SCHLUMBERGER                   : Scn          - SERVICE COMPANY
DATE.         18 FEB 74                      : Date         - LOG DATE
STRT.M        463.296                        : top_depth    - START DEPTH
STOP.M        704.046                        : bot_depth    - STOP DEPTH
STEP.M        0.25                           : increment    - STEP LENGTH
 NULL. -999.2500:NULL Value
~CURVE INFORMATION BLOCK
#MNEM UNIT       ERCB CURVE CODE    CURVE DESCRIPTION
#-----------   ------------------   ----------------------------------
DEPT.M        00 001 00 00         : DEPTH        - DEPTH
ILD .OHMM     00 120 00 00         : RESD         - DEEP RESISTIVITY (DIL)
NPHI.V/V      00 330 00 00         : PHIN         - NEUTRON POROSITY (SANDSTONE)
DPHI.V/V      00 890 00 00         : PHID         - DENSITY POROSITY (SANDSTONE)
GR  .API      00 310 00 00         : GR           - GAMMA RAY
CALI.MM       00 280 01 00         : CAL          - CALIPER
~PARAMETER INFORMATION
#MNEM.UNIT           DATA             DESCRIPTION OF MNEMONIC
#---------         -----------     ------------------------------
GL  .M        771.754              : gl           - GROUND LEVEL ELEVATION
EREF.M        775.716              : kb           - ELEVATION OF DEPTH REFERENCE
DATM.M        771.754              : datum        - DATUM ELEVATION
TDD .M        717.804              : tdd          - TOTAL DEPTH DRILLER
RUN .         ONE                  : Run          - RUN NUMBER
MATR.         SANDSTONE            : Logunit      - NEUTRON MATRIX
TMAX.C        31.6667              : BHT          - MAXIMUM RECORDED TEMPERATURE
BHTD.M        717.499              : BHTDEP       - MAXIMUM RECORDED TEMPERATURE
RMT .C        20                   : MDTP         - TEMPERATURE OF MUD
MUDD.KG/M     0                    : MWT          - MUD DENSITY
NEUT.         1                    : NEUTRON      - NEUTRON TYPE
RESI.         0                    : RESIST       - RESISTIVITY TYPE
RM  .OHMM     2.52                 : RM           - RESISTIVITY OF MUD
RMC .OHMM     0                    : RMC          - RESISTIVITY OF MUD CAKE
RMF .OHMM     2.67                 : RMF          - RESISTIVITY OF MUD FILTRATE
SUFT.C        -17.7778             : SUFT         - SURFACE TEMPERATURE
~A  DEPTH     RESD     PHIN     PHID       GR      CAL
# ...
  645.796    5.147    0.396    0.191   65.326  221.848
  646.046    5.264    0.414    0.185   66.667  219.696
  646.296    5.424    0.447    0.163   68.698  220.748
  646.546    5.517    0.480    0.154   63.757  221.491
  646.796    5.612    0.460    0.180   57.559  221.505
  647.046    5.697    0.438    0.167   58.414  218.218
  647.296    5.689    0.425    0.191   60.728  217.514
  647.546    5.650    0.404    0.178   63.165  218.151
  647.796    5.811    0.419    0.180   63.087  218.479
  648.046    6.144    0.439    0.166   61.754  218.496
  648.296    6.679    0.422    0.185   60.136  217.376
  648.546    7.661    0.400    0.222   59.288  214.604
  648.796    8.421    0.405    0.199   58.887  211.212
  649.046    8.629    0.426    0.198   57.756  209.993
  649.296    8.427    0.452    0.193   55.287  209.803
  649.546    8.369    0.427    0.132   50.224  210.234
  649.796    8.671    0.391    0.088   45.283  211.182
  650.046    9.152    0.248    0.055   41.071  212.645
  650.296    9.749    0.194    0.027   36.859  214.110
  650.546   10.082    0.207    0.010   37.512  215.987
  650.796    9.865    0.232    0.001   39.745  213.938
  651.046    9.706    0.251    0.031   42.587  212.302
  651.296    9.909    0.270    0.072   41.415  215.834
  651.546   10.517    0.240    0.087   39.109  217.403
  651.796   11.203    0.229    0.039   39.275  217.833
  652.046   10.921    0.297    0.072   42.075  217.954
  652.296   10.395    0.330    0.113   47.186  219.111
  652.546    9.802    0.392    0.197   48.204  220.882
  652.796    8.728    0.390    0.223   48.208  222.347
  653.046    7.961    0.402    0.228   48.495  221.849
  653.296    7.289    0.418    0.235   49.594  221.247
  653.546    6.950    0.433    0.229   48.666  220.542
  653.796    6.713    0.452    0.219   47.088  220.248
  654.046    6.520    0.445    0.254   46.201  219.752
  654.296    6.356    0.441    0.241   46.610  219.667
  654.546    6.208    0.430    0.239   47.222  219.682
  654.796    6.108    0.447    0.233   48.239  220.009
  655.046    5.999    0.406    0.217   50.108  220.132
  655.296    6.068    0.342    0.204   47.395  220.254
  655.546    6.584    0.262    0.172   44.927  219.963
  655.796    7.778    0.222    0.126   43.877  219.668
  656.046    9.838    0.205    0.079   42.746  218.962
  656.296   11.200    0.214    0.053   42.871  218.258
  656.546   11.102    0.249    0.079   44.091  218.276
  656.796   10.015    0.319    0.115   47.581  218.604
  657.046    9.305    0.354    0.166   48.072  219.034
  657.296    7.825    0.383    0.197   47.346  219.571
  657.546    6.283    0.404    0.227   47.714  220.001
  657.796    5.936    0.402    0.240   49.664  220.642
  658.046    6.027    0.407    0.225   51.816  220.966
  658.296    6.303    0.428    0.216   52.834  221.606
  658.546    6.652    0.422    0.204   53.121  222.246
  658.796    6.692    0.407    0.195   54.625  222.468
  659.046    6.523    0.388    0.188   56.209  222.692
  659.296    6.278    0.402    0.194   57.592  222.397
  659.546    5.953    0.402    0.190   58.812  221.898
  659.796    5.750    0.409    0.175   60.113  221.813
  660.046    5.533    0.416    0.161   61.414  221.830
  660.296    5.434    0.420    0.164   60.850  221.540
  660.546    5.426    0.424    0.170   59.557  221.456
  660.796    5.408    0.428    0.169   59.804  221.368
  661.046    5.430    0.417    0.175   60.173  221.181
  661.296    5.433    0.409    0.187   60.622  220.681
  661.546    5.445    0.404    0.182   61.234  220.391
  661.796    5.488    0.411    0.176   61.725  220.303
  662.046    5.510    0.420    0.153   62.296  220.528
  662.296    5.553    0.398    0.158   62.868  220.648
  662.546    5.525    0.372    0.169   63.277  220.564
  662.796    5.486    0.391    0.155   63.281  220.581
  663.046    5.458    0.406    0.161   60.812  220.599
  663.296    5.501    0.393    0.172   59.397  220.926
  663.546    5.523    0.376    0.171   61.509  220.840
  663.796    5.556    0.371    0.179   63.378  220.961
  664.046    5.579    0.383    0.164   61.435  219.635
  664.296    5.591    0.390    0.183   59.859  215.107
  664.546    5.624    0.403    0.169   62.011  216.985
  664.796    5.647    0.409    0.156   66.717  218.552
  665.046    5.671    0.419    0.174   67.451  219.812
  665.296    5.683    0.439    0.171   63.684  220.242
  665.546    5.665    0.422    0.180   60.770  220.259
  665.796    5.667    0.398    0.179   61.949  220.380
  666.046    5.711    0.387    0.162   62.642  219.985
  666.296    5.798    0.412    0.153   62.443  219.177
  666.546    5.953    0.402    0.169   61.434  218.263
  666.796    6.191    0.378    0.168   62.938  212.392
  667.046    6.426    0.373    0.146   65.576  213.858
  667.296    6.770    0.391    0.163   68.620  216.664
  667.546    7.359    0.403    0.176   66.679  219.885
  667.796    8.317    0.368    0.175   63.683  220.522
  668.046    9.521    0.352    0.168   63.889  211.034
  668.296   10.740    0.349    0.169   62.029  209.194
  668.546   11.915    0.343    0.195   60.816  210.038
  668.796   13.440    0.338    0.195   59.321  210.881
  669.046   15.358    0.347    0.176   57.338  210.693
  669.296   17.165    0.358    0.178   53.978  209.056
  669.546   18.937    0.340    0.202   51.550  204.631
  669.796   21.401    0.325    0.217   51.513  201.652
  670.046   23.524    0.313    0.194   51.233  204.152
  670.296   24.105    0.324    0.191   50.548  206.028
  670.546   23.674    0.371    0.200   50.836  207.492
  670.796   22.490    0.354    0.195   52.745  209.063
  671.046   20.705    0.341    0.189   54.816  210.010
  671.296   19.131    0.337    0.174   55.590  210.647
  671.546   18.040    0.333    0.177   55.877  211.697
  671.796   17.490    0.327    0.190   54.909  215.332
  672.046   17.659    0.318    0.133   52.359  215.969
  672.296   17.731    0.297    0.117   52.038  215.573
  672.546   17.804    0.306    0.101   54.920  215.387
  672.796   17.484    0.323    0.163   56.789  214.886
  673.046   16.702    0.345    0.161   57.198  213.251
  673.296   15.838    0.351    0.161   57.526  212.133
  673.546   14.907    0.350    0.163   57.935  214.011
  673.796   14.187    0.337    0.144   58.264  214.957
  674.046   13.528    0.323    0.132   58.673  215.389
  674.296   12.947    0.313    0.144   59.447  215.510
  674.546   12.527    0.341    0.153   61.154  214.391
  674.796   12.033    0.354    0.151   61.279  213.685
  675.046   11.602    0.355    0.151   60.837  214.634
  675.296   11.186    0.350    0.171   61.611  214.858
  675.546   10.844    0.344    0.159   62.669  214.772
  675.796   10.435    0.339    0.152   63.240  214.171
  676.046    9.914    0.334    0.133   63.974  214.187
  676.296    9.228    0.329    0.112   64.910  214.724
  676.546    8.202    0.328    0.111   66.130  215.257
  676.796    7.277    0.341    0.128   66.985  216.102
  677.046    6.327    0.352    0.140   68.975  217.053
  677.296    5.582    0.355    0.165   72.141  217.688
  677.546    5.139    0.365    0.183   76.401  220.908
  677.796    5.066    0.384    0.182   71.865  223.096
  678.046    5.317    0.400    0.174   68.342  224.458
  678.296    5.633    0.421    0.164   65.468  226.231
  678.546    5.956    0.380    0.152   62.391  221.702
  678.796    6.182    0.340    0.142   60.531  211.801
  679.046    6.359    0.362    0.125   62.521  212.853
  679.296    6.468    0.383    0.142   64.430  213.282
  679.546    6.494    0.377    0.177   65.123  212.372
  679.796    6.485    0.365    0.172   65.856  212.595
  680.046    6.428    0.353    0.170   65.374  213.028
  680.296    6.325    0.368    0.174   66.472  213.354
  680.546    6.280    0.371    0.165   67.449  213.477
  680.796    6.271    0.371    0.149   66.196  213.389
  681.046    6.285    0.401    0.150   65.592  213.201
  681.296    6.299    0.388    0.142   66.609  212.703
  681.546    6.255    0.367    0.163   68.924  212.308
  681.796    6.132    0.350    0.151   70.265  212.221
  682.046    5.912    0.361    0.134   67.594  212.036
