~VERSION INFORMATION
 VERS.                 2.0:   CWLS LOG ASCII STANDARD -VERSION 2.0
 WRAP.                  NO:   ONE LINE PER DEPTH STEP
~WELL INFORMATION BLOCK
#MNEM.UNIT           DATA                    DESCRIPTION OF MNEMONIC
#---------    -------------------            -------------------------------
# Generated from Intellog Unique Number	CS_73_76/WELL/3249
WELL.         10-30-076-04W4                 : Well_name    - WELL
LOC .         00/10-30-076-04W4/0            : Location     - LOCATION
UWI .         00/10-30-076-04W4/0            : Uwi          - UNIQUE WELL ID
ENTR.         SP                             : Entered      - ENTERED BY
SRVC.         SCHLUMBERGER                   : Scn          - SERVICE COMPANY
STRT.M        150                            : top_depth    - START DEPTH
STOP.M        415                            : bot_depth    - STOP DEPTH
STEP.M        0.25                           : increment    - STEP LENGTH
 NULL. -999.2500:NULL Value
~CURVE INFORMATION BLOCK
#MNEM UNIT       ERCB CURVE CODE    CURVE DESCRIPTION
#-----------   ------------------   ----------------------------------
DEPT.M        00 001 00 00         : DEPTH        - DEPTH
NPHI.V/V      00 330 00 00         : PHIN         - NEUTRON POROSITY (LIMESTONE)
DPHI.V/V      00 890 00 00         : PHID         - DENSITY POROSITY (LIMESTONE)
GR  .API      00 310 00 00         : GR           - GAMMA RAY
ILD .OHMM     00 120 00 00         : RESD         - DEEP RESISTIVITY (DIL)
~PARAMETER INFORMATION
#MNEM.UNIT           DATA             DESCRIPTION OF MNEMONIC
#---------         -----------     ------------------------------
GL  .M        586                  : gl           - GROUND LEVEL ELEVATION
EREF.M        589.3                : kb           - ELEVATION OF DEPTH REFERENCE
DATM.M        586                  : datum        - DATUM ELEVATION
TDD .M        430                  : tdd          - TOTAL DEPTH DRILLER
RUN .         ONE                  : Run          - RUN NUMBER
ENG .         BILL                 : Engineer     - RECORDING ENGINEER
WIT .         JIM                  : Witness      - WITNESSED BY
MUD .         GEL                  : Mud_type     - MUD TYPE
MATR.         LIMESTONE            : Logunit      - NEUTRON MATRIX
TMAX.C        18.9                 : BHT          - MAXIMUM RECORDED TEMPERATURE
BHTD.M        430                  : BHTDEP       - MAXIMUM RECORDED TEMPERATURE
MATR.         1                    : LOGUNIT      - NEUTRON MATRIX
RMT .C        25                   : MDTP         - TEMPERATURE OF MUD
NEUT.         1                    : NEUTRON      - NEUTRON TYPE
RESI.         0                    : RESIST       - RESISTIVITY TYPE
RMC .OHMM     0.25                 : RMC          - RESISTIVITY OF MUD CAKE
RMF .OHMM     0.25                 : RMF          - RESISTIVITY OF MUD FILTRATE
SUFT.C        15                   : SUFT         - SURFACE TEMPERATURE
~A  DEPTH     PHIN     PHID       GR     RESD
# ...
  367.500    0.408    0.244   69.933   17.792
  367.750    0.422    0.224   69.937   27.315
  368.000    0.383    0.217   71.772   38.209
  368.250    0.388    0.221   70.559   50.543
  368.500    0.382    0.242   68.737   62.051
  368.750    0.376    0.261   60.814   72.050
  369.000    0.382    0.246   48.016   83.666
  369.250    0.397    0.286   43.752   93.585
  369.500    0.411    0.291   44.369  110.705
  369.750    0.390    0.283   49.253  133.422
  370.000    0.384    0.283   51.698  160.797
  370.250    0.383    0.291   46.216  186.701
  370.500    0.383    0.297   48.053  205.003
  370.750    0.381    0.292   52.937  158.042
  371.000    0.378    0.287   59.040  141.388
  371.250    0.378    0.284   66.973  141.454
  371.500    0.381    0.280   73.688  149.656
  371.750    0.372    0.271   70.645  164.307
  372.000    0.361    0.275   56.626  173.823
  372.250    0.353    0.278   48.706  183.894
  372.500    0.355    0.282   43.833  190.952
  372.750    0.366    0.269   40.789  194.626
  373.000    0.383    0.272   42.015  198.357
  373.250    0.383    0.284   45.680  202.185
  373.500    0.376    0.288   48.735  198.541
  373.750    0.378    0.275   45.692  187.819
  374.000    0.388    0.271   48.748  164.950
  374.250    0.388    0.276   53.021  142.191
  374.500    0.382    0.292   54.246  129.593
  374.750    0.387    0.296   51.814  120.347
  375.000    0.394    0.291   58.534  137.169
  375.250    0.403    0.299   55.483  147.831
  375.500    0.405    0.281   54.259  156.379
  375.750    0.401    0.280   51.206  165.443
  376.000    0.391    0.284   40.837  150.798
  376.250    0.382    0.282   38.394  118.427
  376.500    0.375    0.279   43.268   91.295
  376.750    0.366    0.275   50.582   75.814
  377.000    0.377    0.274   60.334   66.579
  377.250    0.382    0.275   61.550   73.108
  377.500    0.392    0.291   59.716   89.762
  377.750    0.394    0.299   53.615  104.221
  378.000    0.398    0.293   48.734  114.439
  378.250    0.392    0.285   46.291   91.576
  378.500    0.383    0.301   42.018   81.922
  378.750    0.380    0.303   40.186   73.293
  379.000    0.406    0.299   36.522   78.997
  379.250    0.419    0.305   35.301   86.736
  379.500    0.404    0.319   32.247   98.860
  379.750    0.392    0.324   31.025  108.560
  380.000    0.398    0.312   29.801  114.842
  380.250    0.416    0.303   32.237  110.692
  380.500    0.416    0.307   35.891   90.224
  380.750    0.417    0.314   34.057   72.186
  381.000    0.414    0.332   31.616   53.615
  381.250    0.454    0.347   38.318   42.104
  381.500    0.466    0.365   41.974   29.572
  381.750    0.450    0.360   52.944   23.225
  382.000    0.435    0.343   57.820   19.649
  382.250    0.485    0.338   60.865   16.319
  382.500    0.462    0.265   62.080   13.553
  382.750    0.416    0.218   64.515   11.682
  383.000    0.382    0.200   68.780   10.451
  383.250    0.392    0.217   73.044    9.179
  383.500    0.412    0.235   71.821    8.366
  383.750    0.391    0.251   73.647    7.768
  384.000    0.376    0.238   83.398    7.488
  384.250    0.389    0.200   90.102    7.217
  384.500    0.372    0.171   91.926    7.087
  384.750    0.355    0.148   97.411    6.960
  385.000    0.397    0.125   99.847    7.093
  385.250    0.403    0.144   95.574    7.231
  385.500    0.373    0.164   79.108    7.507
  385.750    0.368    0.182   66.298    8.091
  386.000    0.389    0.216   62.637    8.884
  386.250    0.403    0.234   65.683   10.708
  386.500    0.411    0.234   66.897   11.757
  386.750    0.398    0.239   65.064   12.910
  387.000    0.388    0.257   62.622   13.157
  387.250    0.396    0.261   64.447   12.218
  387.500    0.379    0.263   68.711   11.136
  387.750    0.374    0.219   71.147    9.964
  388.000    0.401    0.234   68.705    8.751
  388.250    0.419    0.253   69.310    7.976
  388.500    0.422    0.270   71.744    7.271
  388.750    0.425    0.248   73.570    6.878
  389.000    0.420    0.257   74.176    6.270
  389.250    0.426    0.255   72.953    5.822
  389.500    0.413    0.269   71.120    5.611
  389.750    0.407    0.259   69.898    5.309
  390.000    0.397    0.239   68.064    5.024
  390.250    0.408    0.253   65.622    4.932
  390.500    0.413    0.265   60.740    4.844
  390.750    0.401    0.308   58.908    4.845
  391.000    0.394    0.282   61.952    4.847
  391.250    0.416    0.291   64.386    4.760
  391.500    0.423    0.303   66.213    4.763
  391.750    0.427    0.299   68.648    4.764
  392.000    0.414    0.278   69.254    4.766
  392.250    0.399    0.273   69.250    4.768
  392.500    0.404    0.259   71.686    4.770
  392.750    0.422    0.233   74.121    4.772
  393.000    0.434    0.246   74.727    4.774
  393.250    0.418    0.259   74.722    4.957
  393.500    0.424    0.280   77.766    5.443
  393.750    0.421    0.238   80.203    6.090
  394.000    0.402    0.207   84.468    6.442
  394.250    0.412    0.201   87.513    6.689
  394.500    0.421    0.206   85.069    6.946
  394.750    0.409    0.216   83.237    6.949
  395.000    0.365    0.190   82.623    6.824
  395.250    0.375    0.161   79.571    6.826
  395.500    0.344    0.183   72.249    6.703
  395.750    0.335    0.200   67.978    6.584
  396.000    0.342    0.212   63.706    6.586
  396.250    0.360    0.212   64.312    6.467
  396.500    0.363    0.188   64.917    6.350
  396.750    0.363    0.192   65.523    6.236
  397.000    0.367    0.217   66.740    6.238
  397.250    0.382    0.224   71.614    6.126
  397.500    0.411    0.198   77.098    6.129
  397.750    0.446    0.136   88.680    6.019
  398.000    0.491    0.107  113.675    6.021
  398.250    0.532    0.147  112.451    5.912
  398.500    0.498    0.145  110.619    5.805
  398.750    0.486    0.152  111.834    5.701
  399.000    0.475    0.161  110.611    5.598
  399.250    0.479    0.177  107.558    5.395
  399.500    0.491    0.171  108.774    5.201
  399.750    0.502    0.160  106.332    5.107
  400.000    0.515    0.132  100.231    5.015
  400.250    0.528    0.112   95.349    5.017
  400.500    0.474    0.119   91.077    5.113
  400.750    0.445    0.101   87.415    5.311
  401.000    0.415    0.125   81.314    5.412
  401.250    0.400    0.207   73.993    5.517
  401.500    0.391    0.213   70.941    5.519
  401.750    0.386    0.215   71.546    5.521
  402.000    0.385    0.208   76.419    5.523
  402.250    0.387    0.198   78.246    5.630
  402.500    0.399    0.187   78.851    5.738
  402.750    0.404    0.176   77.627    5.848
  403.000    0.391    0.177   76.405    5.851
  403.250    0.381    0.185   78.231    5.963
  403.500    0.401    0.172   78.837    5.965
  403.750    0.411    0.171   75.783    6.080
  404.000    0.384    0.179   74.561    6.198
  404.250    0.367    0.165   72.119    6.200
  404.500    0.353    0.177   68.456    6.319
  404.750    0.345    0.172   66.622    6.321
  405.000    0.364    0.168   66.620    6.444
  405.250    0.362    0.177   69.665    6.446
  405.500    0.359    0.165   75.148    6.449
  405.750    0.358    0.144   78.802    6.452
  406.000    0.373    0.159   80.628    6.454
  406.250    0.384    0.150   81.844    6.578
  406.500    0.398    0.168   81.840    6.581
  406.750    0.400    0.170   80.007    6.707
  407.000    0.393    0.166   78.784    6.965
  407.250    0.398    0.161   76.341    7.232
  407.500    0.386    0.148   72.069    7.651
  407.750    0.377    0.130   67.797    8.246
  408.000    0.384    0.101   64.135    9.755
  408.250    0.401    0.079   61.082   12.666
  408.500    0.368    0.090   62.299   16.140
  408.750    0.349    0.084   61.075   21.752
  409.000    0.229    0.004   54.974   25.731
  409.250    0.173    0.000   50.702   28.783
  409.500    0.169    0.000   51.309   31.605
  409.750    0.178    0.000   53.133   34.068
  410.000    0.182    0.000   54.959   34.723
  410.250    0.188    0.000   55.563   35.392
  410.500    0.191    0.000   55.561   35.405
  410.750    0.189    0.000   54.945   35.424
