~VERSION INFORMATION
 VERS.                 2.0:   CWLS LOG ASCII STANDARD -VERSION 2.0
 WRAP.                  NO:   ONE LINE PER DEPTH STEP
~WELL INFORMATION BLOCK
#MNEM.UNIT           DATA                    DESCRIPTION OF MNEMONIC
#---------    -------------------            -------------------------------
# Generated from Intellog Unique Number	CS_71_72/WELL/928
WELL.         ET AL IPIATIK                  : Well_name    - WELL
LOC .         00/16-34-071-10W4/0            : Location     - LOCATION
UWI .         00/16-34-071-10W4/0            : Uwi          - UNIQUE WELL ID
ENTR.         SP                             : Entered      - ENTERED BY
SRVC.         SCHLUMBERGER                   : Scn          - SERVICE COMPANY
STRT.M        310                            : top_depth    - START DEPTH
STOP.M        518                            : bot_depth    - STOP DEPTH
STEP.M        0.25                           : increment    - STEP LENGTH
 NULL. -999.2500:NULL Value
~CURVE INFORMATION BLOCK
#MNEM UNIT       ERCB CURVE CODE    CURVE DESCRIPTION
#-----------   ------------------   ----------------------------------
DEPT.M        00 001 00 00         : DEPTH        - DEPTH
ILD .OHMM     00 120 00 00         : RESD         - DEEP RESISTIVITY (DIL)
DPHI.V/V      00 890 00 00         : PHID         - DENSITY POROSITY (LIMESTONE)
NPHI.V/V      00 330 00 00         : PHIN         - NEUTRON POROSITY (LIMESTONE)
GR  .API      00 310 00 00         : GR           - GAMMA RAY
~PARAMETER INFORMATION
#MNEM.UNIT           DATA             DESCRIPTION OF MNEMONIC
#---------         -----------     ------------------------------
GL  .M        658.64               : gl           - GROUND LEVEL ELEVATION
EREF.M        662.14               : kb           - ELEVATION OF DEPTH REFERENCE
DATM.M        653.64               : datum        - DATUM ELEVATION
TDD .M        523                  : tdd          - TOTAL DEPTH DRILLER
RUN .         ONE                  : Run          - RUN NUMBER
ENG .         BILL                 : Engineer     - RECORDING ENGINEER
WIT .         JIM                  : Witness      - WITNESSED BY
MUD .         GEL                  : Mud_type     - MUD TYPE
MATR.         LIMESTONE            : Logunit      - NEUTRON MATRIX
TMAX.C        24                   : BHT          - MAXIMUM RECORDED TEMPERATURE
BHTD.M        523                  : BHTDEP       - MAXIMUM RECORDED TEMPERATURE
MATR.         1                    : LOGUNIT      - NEUTRON MATRIX
RMT .C        25                   : MDTP         - TEMPERATURE OF MUD
NEUT.         1                    : NEUTRON      - NEUTRON TYPE
RESI.         0                    : RESIST       - RESISTIVITY TYPE
RMC .OHMM     0.25                 : RMC          - RESISTIVITY OF MUD CAKE
RMF .OHMM     0.25                 : RMF          - RESISTIVITY OF MUD FILTRATE
SUFT.C        15                   : SUFT         - SURFACE TEMPERATURE
~A  DEPTH     RESD     PHID     PHIN       GR
# ...
  353.500    7.815    0.281    0.424   92.541
  353.750    7.568    0.270    0.439   94.173
  354.000    7.370    0.263    0.445   95.257
  354.250    7.218    0.255    0.435   94.526
  354.500    7.269    0.260    0.427   90.883
  354.750    7.378    0.263    0.426   89.061
  355.000    7.530    0.267    0.428   87.904
  355.250    7.699    0.276    0.439   87.717
  355.500    7.726    0.285    0.454   87.469
  355.750    7.609    0.279    0.440   87.343
  356.000    7.452    0.272    0.421   87.762
  356.250    7.422    0.264    0.406   88.483
  356.500    7.365    0.258    0.404   91.024
  356.750    7.308    0.253    0.409   96.534
  357.000    7.198    0.249    0.413   99.922
  357.250    7.075    0.253    0.428  102.463
  357.500    7.047    0.269    0.446  101.548
  357.750    7.032    0.290    0.461   89.725
  358.000    7.083    0.297    0.474   78.508
  358.250    7.352    0.301    0.488   73.109
  358.500    7.631    0.280    0.441   82.133
  358.750    7.729    0.264    0.425   88.430
  359.000    7.627    0.251    0.442   91.335
  359.250    7.525    0.246    0.457   91.391
  359.500    7.453    0.264    0.433   85.991
  359.750    7.218    0.266    0.421   88.350
  360.000    6.583    0.259    0.436   92.890
  360.250    6.004    0.240    0.444   98.035
  360.500    5.664    0.225    0.424  100.333
  360.750    5.716    0.248    0.406   98.025
  361.000    6.311    0.265    0.394   94.202
  361.250    7.033    0.279    0.405   92.560
  361.500    7.607    0.268    0.411   92.374
  361.750    8.045    0.254    0.409   90.671
  362.000    8.652    0.244    0.411   87.636
  362.250    9.015    0.248    0.422   82.660
  362.500    9.569    0.258    0.437   79.201
  362.750   10.044    0.274    0.456   76.590
  363.000   10.444    0.284    0.459   75.858
  363.250   10.720    0.285    0.428   76.276
  363.500   10.960    0.284    0.415   76.574
  363.750   11.019    0.284    0.406   78.569
  364.000   11.037    0.284    0.409   81.897
  364.250   10.952    0.285    0.414   84.861
  364.500   10.786    0.280    0.427   86.614
  364.750   10.524    0.279    0.447   87.882
  365.000   10.172    0.269    0.461   87.634
  365.250   10.037    0.259    0.431   86.294
  365.500   10.054    0.256    0.405   85.563
  365.750   10.280    0.257    0.391   85.437
  366.000   10.669    0.258    0.388   84.946
  366.250   11.012    0.254    0.392   83.789
  366.500   11.322    0.249    0.397   82.148
  366.750   11.384    0.247    0.397   79.777
  367.000   11.531    0.258    0.392   78.926
  367.250   11.572    0.269    0.392   78.436
  367.500   11.439    0.277    0.392   81.884
  367.750   11.139    0.263    0.395   84.546
  368.000   10.931    0.251    0.400   87.510
  368.250   10.467    0.241    0.399   89.685
  368.500   10.042    0.246    0.394   90.288
  368.750    9.544    0.253    0.393   91.858
  369.000    9.157    0.242    0.397   96.702
  369.250    8.851    0.230    0.404  101.787
  369.500    8.603    0.222    0.412  104.933
  369.750    8.269    0.223    0.419  101.231
  370.000    7.889    0.230    0.408   95.286
  370.250    7.115    0.240    0.412   91.220
  370.500    6.297    0.254    0.429   88.973
  370.750    5.679    0.249    0.447   87.877
  371.000    5.258    0.242    0.466   87.326
  371.250    5.741    0.240    0.451   85.927
  371.500    6.730    0.253    0.430   83.195
  371.750    8.009    0.264    0.415   79.370
  372.000    9.407    0.274    0.400   76.577
  372.250   10.503    0.281    0.394   75.118
  372.500   11.191    0.286    0.398   74.871
  372.750   11.923    0.295    0.413   75.169
  373.000   12.238    0.304    0.423   75.769
  373.250   12.678    0.316    0.411   76.309
  373.500   12.914    0.326    0.399   77.153
  373.750   12.960    0.312    0.393   79.451
  374.000   12.716    0.299    0.397   82.052
  374.250   12.315    0.287    0.394   83.501
  374.500   11.748    0.291    0.390   82.466
  374.750   11.165    0.279    0.390   82.520
  375.000   10.873    0.267    0.384   83.304
  375.250   10.730    0.259    0.374   82.450
  375.500   10.707    0.260    0.370   79.293
  375.750   10.947    0.289    0.378   73.954
  376.000   11.534    0.301    0.399   65.465
  376.250   13.022    0.308    0.412   58.187
  376.500   13.367    0.312    0.399   52.000
  376.750   14.215    0.316    0.389   45.813
  377.000   14.810    0.315    0.383   42.051
  377.250   15.751    0.307    0.380   39.621
  377.500   16.750    0.301    0.377   39.130
  377.750   17.257    0.302    0.375   38.943
  378.000   18.044    0.304    0.373   38.818
  378.250   18.450    0.307    0.373   38.933
  378.500   18.655    0.314    0.380   39.170
  378.750   18.930    0.324    0.376   39.711
  379.000   19.139    0.330    0.370   42.066
  379.250   19.244    0.336    0.369   42.609
  379.500   19.384    0.330    0.373   43.210
  379.750   19.414    0.321    0.380   43.811
  380.000   19.301    0.316    0.382   43.804
  380.250   19.116    0.317    0.379   43.801
  380.500   18.932    0.319    0.373   43.491
  380.750   18.822    0.319    0.368   43.122
  381.000   18.713    0.316    0.367   42.876
  381.250   18.600    0.315    0.378   43.655
  381.500   19.128    0.322    0.387   43.956
  381.750   18.804    0.330    0.390   44.617
  382.000   18.624    0.333    0.390   45.580
  382.250   18.515    0.325    0.389   46.302
  382.500   18.510    0.316    0.387   46.661
  382.750   18.610    0.313    0.383   47.262
  383.000   19.099    0.317    0.381   48.410
  383.250   19.675    0.320    0.383   49.495
  383.500   20.155    0.310    0.387   50.460
  383.750   20.264    0.287    0.375   49.121
  384.000   19.995    0.278    0.361   46.389
  384.250   19.075    0.290    0.366   46.867
  384.500   18.507    0.319    0.379   48.924
  384.750   17.788    0.329    0.384   51.947
  385.000   17.162    0.326    0.391   52.913
  385.250   16.159    0.326    0.402   52.787
  385.500   15.387    0.339    0.404   49.508
  385.750   15.182    0.351    0.400   47.685
  386.000   15.700    0.359    0.400   49.497
  386.250   16.602    0.346    0.409   51.129
  386.500   17.008    0.345    0.413   52.758
  386.750   16.972    0.349    0.412   52.876
  387.000   16.872    0.356    0.410   51.839
  387.250   17.059    0.367    0.408   51.048
  387.500   17.673    0.364    0.418   48.797
  387.750   17.735    0.356    0.431   48.370
  388.000   17.336    0.352    0.430   47.209
  388.250   16.915    0.350    0.420   47.086
  388.500   16.626    0.350    0.413   46.899
  388.750   16.653    0.349    0.404   47.075
  389.000   16.806    0.345    0.397   47.738
  389.250   16.991    0.342    0.402   48.642
  389.500   17.084    0.340    0.412   49.120
  389.750   17.205    0.339    0.411   48.813
  390.000   17.200    0.344    0.405   47.839
  390.250   17.163    0.350    0.403   46.560
  390.500   17.159    0.344    0.406   45.464
  390.750   17.188    0.336    0.402   45.034
  391.000   17.249    0.333    0.398   45.028
  391.250   17.245    0.337    0.399   45.509
  391.500   17.047    0.345    0.405   46.474
  391.750   16.948    0.339    0.413   48.165
  392.000   16.850    0.332    0.423   49.373
  392.250   16.783    0.327    0.409   49.913
  392.500   16.559    0.331    0.396   49.120
  392.750   16.400    0.341    0.394   46.993
  393.000   16.396    0.349    0.398   47.170
  393.250   16.453    0.355    0.400   49.950
  393.500   16.481    0.346    0.408   51.401
  393.750   16.538    0.338    0.411   53.455
  394.000   16.504    0.333    0.397   54.239
  394.250   16.468    0.332    0.403   54.780
  394.500   16.434    0.332    0.412   55.803
  394.750   16.337    0.333    0.421   56.648
  395.000   16.180    0.336    0.430   59.184
  395.250   15.996    0.343    0.417   59.606
  395.500   15.902    0.346    0.421   60.388
  395.750   15.869    0.345    0.412   60.747
  396.000   15.835    0.336    0.403   60.135
  396.250   15.860    0.331    0.401   59.344
  396.500   15.885    0.328    0.401   57.763
  396.750   15.942    0.328    0.399   58.364
