~Version Information
VERS.                2.00:
WRAP.                  NO:
~Well Information Block
#MNEM.UNIT       Data Type    Information
#---------    -------------   -------------------
FLD.   :FIELD
FLD.   :FIELD
FLD.   :FIELD
FLD.   :FIELD
STRT.M          1950.0000:
STOP.M          4060.0000:
STEP.M             0.8202:
NULL.           -999.2500:
COMP.  MUTUAL EXPLORATION FUNDS:COMPANY
WELL.  MUTES IOE SEAFORTH:WELL
FLD.   :FIELD
LOC.   15-20-095-20W4:LOCATION
CTRY.  CANADA:COUNTRY
PROV.  ALBERTA:PROVINCE
SRVC.  SCHLUMBERGER:SERVICE COMPANY
DATE.  01 MAR 69:LOG DATE
UWI.   00/15-20-095-20W4/0:UNIQUE WELL ID
~Curve Information Block
#MNEM.UNIT        API CODE    Curve Description
#---------    ------------    -----
DEPT.M                    :   DEPTH
CALI.in                   :   CALI
GR  .API                  :   GR
SNP .V/V                  :   SNP
~A  Depth           CALI          GR         SNP
# ...
2353.5384         9.2792     17.1765      0.1118
2354.3586         9.2822     17.2119      0.0823
2355.1788         9.2855     18.2415      0.0586
2355.9990         9.2890     20.8658      0.0559
2356.8192         9.2925     22.3596      0.0545
2357.6394         9.2959     20.8843      0.0562
2358.4596         9.2994     18.6739      0.0571
2359.2798         9.3029     18.9433      0.0666
2360.1000         9.3064     19.4089      0.0645
2360.9202         9.3099     19.8576      0.0605
2361.7404         9.3134     18.5888      0.0596
2362.5606         9.3169     18.4136      0.0627
2363.3808         9.3204     19.4607      0.0632
2364.2010         9.2877     21.8012      0.0620
2365.0212         9.2872     23.5795      0.0603
2365.8414         9.2539     22.6863      0.0613
2366.6616         9.2535     21.5428      0.0647
2367.4818         9.2566     21.0850      0.0692
2368.3020         9.2601     21.4286      0.0742
2369.1222         9.2636     24.9308      0.0773
2369.9424         9.2671     30.8003      0.0721
2370.7626         9.2706     38.0883      0.0677
2371.5828         9.2740     45.2554      0.0809
2372.4030         9.2775     44.8318      0.0945
2373.2232         9.3191     43.6960      0.1319
2374.0434         9.4812     43.2800      0.1420
2374.8636         9.5703     43.9211      0.1351
2375.6838         9.6401     42.2189      0.1256
2376.5040         9.6607     42.9162      0.1198
2377.3242         9.6643     42.2145      0.1196
2378.1444         9.6678     42.2095      0.1242
2378.9646         9.6713     39.9787      0.1276
2379.7848         9.6420     38.3651      0.1268
2380.6050         9.6064     40.5627      0.1245
2381.4252         9.5371     43.1054      0.1213
2382.2454         9.5262     47.2339      0.1165
2383.0656         9.5269     48.6572      0.1114
2383.8858         9.4969     49.2600      0.1124
2384.7060         9.4611     47.3560      0.1189
2385.5262         9.4038     43.5136      0.1217
2386.3464         9.3182     44.3978      0.1183
2387.1666         9.2715     46.2933      0.1172
2387.9868         9.2395     44.3031      0.1235
2388.8070         9.1963     41.7089      0.1291
2389.6272         9.1906     38.7301      0.1304
2390.4474         9.1922     35.6284      0.1254
2391.2676         9.1625     31.1327      0.1204
2392.0878         9.1596     31.3536      0.1105
2392.9080         9.1619     32.0437      0.0960
2393.7282         9.1986     33.0404      0.0842
2394.5484         9.2080     34.6908      0.0882
2395.3686         9.2126     35.9893      0.0909
2396.1888         9.2162     39.0293      0.0884
2397.0090         9.2198     41.3351      0.1056
2397.8292         9.2575     44.2149      0.1168
2398.6494         9.2664     47.9568      0.1246
2399.4696         9.2708     50.6407      0.1359
2400.2898         9.2744     52.8111      0.1506
2401.1100         9.2779     52.5480      0.1637
2401.9302         9.2814     53.7603      0.1731
2402.7504         9.2849     56.8107      0.1641
2403.5706         9.2884     59.4653      0.1565
2404.3908         9.2919     59.2301      0.1511
2405.2110         9.2954     58.6671      0.1626
2406.0312         9.2988     59.0835      0.1784
2406.8514         9.3384     58.9138      0.1752
2407.6716         9.3453     57.5602      0.1704
2408.4918         9.3499     57.3649      0.1654
2409.3120         9.3535     56.3492      0.1618
2410.1322         9.3570     56.2062      0.1584
2410.9524         9.3975     56.2115      0.1615
2411.7726         9.4796     54.8961      0.1625
2412.5928         9.5653     54.3619      0.1568
2413.4130         9.6124     53.6292      0.1516
2414.2332         9.6182     52.5336      0.1578
2415.0534         9.5831     51.0520      0.1667
2415.8736         9.5228     47.9438      0.1643
2416.6938         9.4188     42.6807      0.1564
2417.5140         9.3148     41.9208      0.1488
2418.3342         9.2732     41.8923      0.1460
2419.1544         9.2357     42.6848      0.1427
2419.9746         9.2365     44.3298      0.1273
2420.7948         9.2398     47.2743      0.1244
2421.6150         9.2123     42.3323      0.1218
2422.4352         9.2067     39.4813      0.1249
2423.2554         9.2097     36.0514      0.1321
2424.0756         9.1745     37.5148      0.1325
2424.8958         9.1374     44.9675      0.1246
2425.7160         9.1708     54.4925      0.1154
2426.5362         9.2619     63.6682      0.1043
2427.3564         9.3318     73.2005      0.2155
2428.1766         9.3931     76.5604      0.2230
2428.9968         9.4294     77.6283      0.2131
2429.8170         9.4393     77.4138      0.2090
2430.6372         9.3785     72.7217      0.2062
2431.4574         9.3715     65.3349      0.2029
2432.2776         9.3381     59.3741      0.2002
2433.0978         9.3016     55.0926      0.1904
2433.9180         9.2714     57.4774      0.1794
2434.7382         9.2365     61.5659      0.1699
2435.5584         9.1920     65.1336      0.1582
2436.3786         9.1605     66.0726      0.1621
2437.1988         9.1526     68.0205      0.1716
2438.0190         9.1186     67.9435      0.1757
2438.8392         9.0887     67.2578      0.1826
2439.6594         9.0792     68.6409      0.1917
2440.4796         9.0574     68.5032      0.1968
2441.2998         9.0459     68.4804      0.1966
2442.1200         9.0467     67.0777      0.1912
2442.9402         9.0497     63.1793      0.1915
2443.7604         9.0253     62.2538      0.1869
2444.5806         9.0181     65.3515      0.1802
2445.4008         9.0198     67.5024      0.1671
2446.2210         9.0230     69.3502      0.1549
2447.0412         8.9924     69.9012      0.1428
2447.8614         8.9920     70.9028      0.1307
2448.6816         8.9936     72.4022      0.1419
2449.5018         8.9966     72.1537      0.1567
2450.3220         8.9998     73.7279      0.1666
2451.1422         9.0033     74.0958      0.1652
2451.9624         9.0067     74.5260      0.1678
2452.7826         8.9815     73.6548      0.1728
2453.6028         8.9765     74.8427      0.1769
2454.4230         8.9770     75.0853      0.1780
2455.2432         8.9802     75.4949      0.1797
2456.0634         8.9590     75.2554      0.1806
2456.8836         8.9484     73.2604      0.1898
2457.7038         8.9505     70.4077      0.1983
2458.5240         8.9535     66.9300      0.1967
2459.3442         8.9569     62.0444      0.2052
2460.1644         8.9604     57.4313      0.2023
2460.9846         8.9639     51.6046      0.1871
2461.8048         8.9674     47.1042      0.1698
2462.6250         8.9709     42.1678      0.1564
2463.4452         8.9378     34.6519      0.1460
2464.2654         8.9376     27.6127      0.1343
2465.0856         8.9408     24.4922      0.1230
2465.9058         8.9442     24.8011      0.1102
2466.7260         8.9477     30.2978      0.0970
2467.5462         8.9512     30.8724      0.0803
2468.3664         8.9547     25.7490      0.0676
2469.1866         8.9961     21.8912      0.0698
2470.0068         9.0017     19.1125      0.0667
2470.8270         9.0057     18.9375      0.0641
2471.6472         9.0093     18.9576      0.0608
2472.4674         9.0128     19.3750      0.0622
2473.2876         9.0163     20.2098      0.0581
2474.1078         9.0198     21.8744      0.0620
2474.9280         9.0233     22.5837      0.0596
2475.7482         9.0268     21.9829      0.0595
2476.5684         9.0303     21.6092      0.0619
2477.3886         9.0338     20.8392      0.0626
2478.2088         9.0372     21.2665      0.0649
2479.0290         9.0407     24.6954      0.0616
2479.8492         9.0442     30.7889      0.0576
2480.6694         9.0477     37.3921      0.0568
2481.4896         9.0241     42.6885      0.0638
2482.3098         9.0167     48.3331      0.0710
2483.1300         9.0181     53.6373      0.0810
2483.9502         8.9939     60.6830      0.1010
2484.7704         8.9896     67.8132      0.1279
2485.5906         8.9892     76.6975      0.1812
2486.4108         8.9917     73.4360      0.2148
2487.2310         8.9945     68.2392      0.2117
