~VERSION INFORMATION
 VERS.                 2.0:   CWLS LOG ASCII STANDARD -VERSION 2.0
 WRAP.                  NO:   ONE LINE PER DEPTH STEP
~WELL INFORMATION BLOCK
#MNEM.UNIT           DATA                    DESCRIPTION OF MNEMONIC
#---------    -------------------            -------------------------------
# Generated from Intellog Unique Number	CW_82_90/WELL/2593
WELL.         IOE GODIN LAKE 11-31           : Well_name    - WELL
LOC .         00/11-31-082-01W5/0            : Location     - LOCATION
UWI .         00/11-31-082-01W5/0            : Uwi          - UNIQUE WELL ID
ENTR.         JJ                             : Entered      - ENTERED BY
SRVC.         SCHLUMBERGER                   : Scn          - SERVICE COMPANY
DATE.         5 MAR 66                       : Date         - LOG DATE
STRT.M        304.8                          : top_depth    - START DEPTH
STOP.M        432.8                          : bot_depth    - STOP DEPTH
STEP.M        0.25                           : increment    - STEP LENGTH
 NULL. -999.2500:NULL Value
~CURVE INFORMATION BLOCK
#MNEM UNIT       ERCB CURVE CODE    CURVE DESCRIPTION
#-----------   ------------------   ----------------------------------
DEPT.M        00 001 00 00         : DEPTH        - DEPTH
DELT.US/F     00 520 00 00         : DELT         - SONIC TRAVEL TIME
ILD .OHMM     00 120 00 00         : RESD         - DEEP RESISTIVITY (DIL)
CALI.MM       00 280 01 00         : CAL          - CALIPER
GR  .API      00 310 00 00         : GR           - GAMMA RAY
~PARAMETER INFORMATION
#MNEM.UNIT           DATA             DESCRIPTION OF MNEMONIC
#---------         -----------     ------------------------------
GL  .M        558.698              : gl           - GROUND LEVEL ELEVATION
EREF.M        561.746              : kb           - ELEVATION OF DEPTH REFERENCE
DATM.M        561.746              : datum        - DATUM ELEVATION
TDD .M        446.532              : tdd          - TOTAL DEPTH DRILLER
RUN .         ONE                  : Run          - RUN NUMBER
ENG .         CRAIN                : Engineer     - RECORDING ENGINEER
WIT .         BYRNES               : Witness      - WITNESSED BY
BASE.         S.L.                 : Branch       - HOME BASE OF LOGGING UNIT
MUD .         GEL                  : Mud_type     - MUD TYPE
MATR.         SANDSTONE            : Logunit      - NEUTRON MATRIX
TMAX.C        26.1111              : BHT          - MAXIMUM RECORDED TEMPERATURE
BHTD.M        445.313              : BHTDEP       - MAXIMUM RECORDED TEMPERATURE
RMT .C        14.4444              : MDTP         - TEMPERATURE OF MUD
MUDD.KG/M     1116                 : MWT          - MUD DENSITY
NEUT.         1                    : NEUTRON      - NEUTRON TYPE
RESI.         0                    : RESIST       - RESISTIVITY TYPE
RM  .OHMM     3.64                 : RM           - RESISTIVITY OF MUD
RMC .OHMM     4.56                 : RMC          - RESISTIVITY OF MUD CAKE
RMF .OHMM     4.2                  : RMF          - RESISTIVITY OF MUD FILTRATE
SUFT.C        5                    : SUFT         - SURFACE TEMPERATURE
~A  DEPTH     DELT     RESD      CAL       GR
# ...
  348.300  291.521   12.853  175.722   36.832
  348.550  328.540   12.360  175.857   42.151
  348.800  377.460   12.774  176.735   49.170
  349.050  362.516   13.497  178.572   60.395
  349.300  366.598   14.221  180.293   68.567
  349.550  350.714   14.758  182.443   77.840
  349.800  356.410   15.069  184.485   73.250
  350.050  368.022   14.885  185.893   66.210
  350.300  363.566   14.763  187.516   65.626
  350.550  370.605   14.578  188.181   63.136
  350.800  356.871   14.332  188.852   70.356
  351.050  354.165   14.147  189.098   66.518
  351.300  357.305   13.963  189.332   63.479
  351.550  364.411   13.820  189.690   64.595
  351.800  371.654   13.759  190.566   71.366
  352.050  374.050   13.719  191.016   94.601
  352.300  369.795   13.720  190.519   98.421
  352.550  366.820   13.825  188.863   92.631
  352.800  364.113   14.012  188.141   87.190
  353.050  363.754   14.240  187.119   80.997
  353.300  366.497   14.551  185.454   90.222
  353.550  371.924   15.377  182.943   95.490
  353.800  372.977   16.741  181.063  100.411
  354.050  366.038   19.239  179.293   96.021
  354.300  360.708   23.327  177.418   88.378
  354.550  354.905   25.370  176.077   80.485
  354.800  346.215   30.386  175.578   82.102
  355.050  354.731   43.553  175.617   90.524
  355.300  357.271   48.693  175.642   85.534
  355.550  332.582   46.424  175.672   79.292
  355.800  286.381   38.439  175.699   56.788
  356.050  254.901   29.691  175.732   51.997
  356.300  215.019   22.470  175.758   47.908
  356.550  207.740   18.385  175.790   42.669
  356.800  223.450   16.694  176.352   34.026
  357.050  231.700   15.065  176.490   40.895
  357.300  243.042   14.180  177.369   39.910
  357.550  261.510   13.789  177.618   45.679
  357.800  283.674   13.522  177.219   57.106
  358.050  330.172   13.338  176.296   67.528
  358.300  348.774   13.318  175.799   69.596
  358.550  359.377   13.319  175.624   78.768
  358.800  357.274   13.383  175.339   75.179
  359.050  352.680   13.445  175.358   68.537
  359.300  350.177   13.467  174.436   78.311
  359.550  350.896   13.469  173.515   72.622
  359.800  360.021   13.449  173.544   70.935
  360.050  371.564   13.224  174.853   73.852
  360.300  374.370   12.792  176.362   80.823
  360.550  370.044   12.463  177.771   76.633
  360.800  364.382   12.072  177.908   76.599
  361.050  356.364   11.929  177.619   71.909
  361.300  363.603   11.909  177.338   76.626
  361.550  371.449   11.952  176.727   71.438
  361.800  382.321   12.056  175.805   75.907
  362.050  381.428   12.140  175.739   75.070
  362.300  384.501   11.977  177.138   70.629
  362.550  390.332   11.771  179.923   73.147
  362.800  392.464   10.858  178.370   66.755
  363.050  387.403   10.696  180.092   66.320
  363.300  379.382   11.133  178.007   61.080
  363.550  370.895   12.501  176.976   66.700
  363.800  371.548   13.509  177.221   74.571
  364.050  377.781   15.246  178.098   78.539
  364.300  383.743   17.321  178.554   79.955
  364.550  376.665   19.980  178.374   83.372
  364.800  371.872   34.930  178.621   76.432
  365.050  366.546   42.173  178.749   72.343
  365.300  333.858   42.983  178.681   64.950
  365.550  316.426   43.623  177.858   57.708
  365.800  324.744   44.984  176.197   55.422
  366.050  276.997   39.111  175.702   51.683
  366.300  269.652   33.541  175.519   44.691
  366.550  269.228   30.117  175.442   57.316
  366.800  273.311   28.735  175.899   68.391
  367.050  310.465   28.840  176.349   59.600
  367.300  355.620   30.141  176.497   54.858
  367.550  370.593   33.485  176.735   57.124
  367.800  375.010   39.223  176.444   63.796
  368.050  375.726   40.545  176.371   60.007
  368.300  373.964   34.356  175.342   53.115
  368.550  366.550   30.148  173.468   52.980
  368.800  301.124   26.703  173.706   58.351
  369.050  280.803   22.184  174.064   53.959
  369.300  259.541   19.235  174.303   49.371
  369.550  233.911   18.225  174.866   53.739
  369.800  281.620   18.804  175.529   61.010
  370.050  299.144   21.303  175.666   68.431
  370.300  341.140   23.182  175.272   66.345
  370.550  355.038   25.618  175.303   64.808
  370.800  362.077   27.043  175.653   68.776
  371.050  360.374   25.414  175.894   75.698
  371.300  360.963   20.318  175.718   70.657
  371.550  361.415   15.677  175.644   63.967
  371.800  356.691   12.438  175.773   60.377
  372.050  290.658   10.850  176.235   55.586
  372.300  283.581    9.531  176.164   52.900
  372.550  301.913    8.831  176.296   67.527
  372.800  343.506    8.543  177.385   75.949
  373.050  367.352    8.214  178.577   74.813
  373.300  384.943    8.092  180.091   73.176
  373.550  395.480    8.010  180.545   76.644
  373.800  396.533    8.115  180.896   70.652
  374.050  394.031    8.260  179.761   66.064
  374.300  383.859    8.737  178.307   70.332
  374.550  377.118    9.006  177.393   67.895
  374.800  381.939    9.565  179.536   76.366
  375.050  391.870   10.371  183.274   79.384
  375.300  386.270   10.971  178.752   83.503
  375.550  395.998   11.673  177.725   92.875
  375.800  393.424   13.140  178.284   81.780
  376.050  385.874   16.360  180.116   72.687
  376.300  375.034   22.015  175.702   68.949
  376.550  365.606   27.279  171.177   64.458
  376.800  353.689   29.158  169.191   59.769
  377.050  335.991   26.848  167.955   56.582
  377.300  322.661   21.278  167.982   52.393
  377.550  296.157   16.946  168.968   46.802
  377.800  267.366   14.801  170.799   51.219
  378.050  277.834   12.615  175.601   64.548
  378.300  300.602   11.048  177.005   68.764
  378.550  324.515   10.450  177.881   76.036
  378.800  356.091   10.700  178.554   80.105
  379.050  374.694   11.361  178.582   75.667
  379.300  381.327   12.043  179.036   73.927
  379.550  378.615   12.870  178.645   76.245
  379.800  377.527   13.780  178.039   73.957
  380.050  380.800   14.297  178.077   72.122
  380.300  381.721   14.546  178.003   79.292
  380.550  382.914   14.547  178.024   79.708
  380.800  380.002   14.259  177.740   77.970
  381.050  377.902   13.662  177.667   74.832
  381.300  372.641   13.024  177.378   75.196
  381.550  374.026   12.715  177.199   69.805
  381.800  376.030   12.717  177.344   80.680
  382.050  380.045   13.193  177.473   80.445
  382.300  383.790   13.503  177.501   80.859
  382.550  386.393   13.670  177.111   73.268
  382.800  374.880   13.382  177.138   71.781
  383.050  370.287   12.599  177.490   74.099
  383.300  365.229   12.023  178.264   80.668
  383.550  375.830   12.313  178.928   86.638
  383.800  373.257   13.099  179.493   86.505
  384.050  375.457   14.028  180.050   86.919
  384.300  387.336   15.474  180.715   85.331
  384.550  394.039   17.642  180.540   78.440
  384.800  336.680   20.223  179.718   68.195
  385.050  326.174   22.226  174.561   61.803
  385.300  303.837   23.919  172.052   68.174
  385.550  329.227   25.159  171.659   67.638
  385.800  340.032   26.646  171.790   69.705
  386.050  308.215   26.049  172.354   61.362
  386.300  290.920   22.232  172.275   54.772
  386.550  278.668   18.540  171.883   54.684
  386.800  274.549   15.466  171.917   59.554
  387.050  300.812   13.899  171.952   68.776
  387.300  369.496   12.229  172.409   62.938
  387.550  406.652   11.467  172.859   62.400
  387.800  410.868   11.035  172.781   65.970
  388.050  427.587   11.119  172.392   65.484
  388.300  445.853   11.306  172.420   66.948
  388.550  362.007   11.513  172.345   69.065
  388.800  362.458   12.340  171.214   65.826
  389.050  379.647   13.415  170.500   64.791
  389.300  393.545   14.468  170.426   58.700
  389.550  393.793   16.347  170.773   57.013
  389.800  398.276   19.217  171.019   60.930
  390.050  399.404   25.471  171.261   56.391
  390.300  348.362   39.319  170.973   50.050
  390.550  295.506   42.312  170.792   50.015
  390.800  239.692   38.950  170.398   47.728
  391.050  210.029   31.419  170.323   39.035
  391.300  201.673   27.107  170.785   39.750
  391.550  238.290   20.196  170.915   43.318
