~VERSION INFORMATION
 VERS.                 2.0:   CWLS LOG ASCII STANDARD -VERSION 2.0
 WRAP.                  NO:   ONE LINE PER DEPTH STEP
~WELL INFORMATION BLOCK
#MNEM.UNIT           DATA                    DESCRIPTION OF MNEMONIC
#---------    -------------------            -------------------------------
# Generated from Intellog Unique Number	CC_80_83/WELL/2430
NULL.         -999.25                        : NULL_VALUE
WELL.         IGCR NEWBY                     : Well_name    - WELL
LOC .         12-17-081-04W4                 : Location     - LOCATION          
UWI .         00/12-17-081-04W4/0            : Uwi          - UNIQUE WELL ID    
ENTR.         DW                             : Entered      - ENTERED BY        
SRVC.         SCHLUMBERGER                   : Scn          - SERVICE COMPANY   
DATE.         01 JAN 93                      : Date         - LOG DATE
STRT.M        95                             : top_depth    - START DEPTH       
STOP.M        271.101                        : bot_depth    - STOP DEPTH        
STEP.M        0.3                            : increment    - STEP LENGTH       
~CURVE INFORMATION BLOCK
#MNEM UNIT       ERCB CURVE CODE    CURVE DESCRIPTION
#-----------   ------------------   ----------------------------------
DEPT.M        00 001 00 00         : DEPTH        - DEPTH                       
DPHI.V/V      00 890 00 00         : PHID         - DENSITY POROSITY (LIMESTONE)
NPHI.V/V      00 330 00 00         : PHIN         - NEUTRON POROSITY (LIMESTONE)
GR  .API      00 310 00 00         : GR           - GAMMA RAY                   
ILD .OHMM     00 120 00 00         : RESD         - DEEP RESISTIVITY (DIL)      
~PARAMETER INFORMATION       
#MNEM.UNIT           DATA             DESCRIPTION OF MNEMONIC
#---------         -----------     ------------------------------
GL  .M        441.6                : gl           - GROUND LEVEL ELEVATION      
EREF.M        445.1                : kb           - ELEVATION OF DEPTH REFERENCE
DATM.M        445.1                : datum        - DATUM ELEVATION             
TDD .M        277                  : tdd          - TOTAL DEPTH DRILLER         
RUN .         ONE                  : Run          - RUN NUMBER                  
ENG .         BILL                 : Engineer     - RECORDING ENGINEER          
WIT .         JIM                  : Witness      - WITNESSED BY                
MUD .         GEL                  : Mud_type     - MUD TYPE                    
MATR.         LIMESTONE            : Logunit      - NEUTRON MATRIX              
TMAX.C        18                   : BHT          - MAXIMUM RECORDED TEMPERATURE
BHTD.M        277                  : BHTDEP       - MAXIMUM RECORDED TEMPERATURE
MATR.         1                    : LOGUNIT      - NEUTRON MATRIX              
RMT .C        25                   : MDTP         - TEMPERATURE OF MUD          
NEUT.         1                    : NEUTRON      - NEUTRON TYPE                
RESI.         0                    : RESIST       - RESISTIVITY TYPE            
RMC .OHMM     0.25                 : RMC          - RESISTIVITY OF MUD CAKE     
RMF .OHMM     0.25                 : RMF          - RESISTIVITY OF MUD FILTRATE 
SUFT.C        15                   : SUFT         - SURFACE TEMPERATURE         
~A  DEPTH     PHID     PHIN       GR     RESD
# ...
  147.201    0.273    0.493   76.929    6.054
  147.501    0.267    0.496   74.431    6.656
  147.801    0.263    0.464   72.552    7.046
  148.101    0.324    0.461   72.550    8.048
  148.401    0.328    0.474   75.659    8.683
  148.701    0.317    0.464   76.900    9.016
  149.001    0.317    0.459   78.766    9.014
  149.301    0.303    0.461   82.499    8.511
  149.601    0.292    0.453   85.611    8.192
  149.901    0.308    0.493   84.357    7.883
  150.201    0.316    0.501   83.729    7.882
  150.501    0.302    0.463   84.970    8.185
  150.801    0.257    0.447   87.459    8.501
  151.101    0.261    0.439   83.089    8.663
  151.401    0.293    0.453   84.330    9.169
  151.701    0.287    0.465   92.428    9.705
  152.001    0.277    0.423   87.436    9.888
  152.301    0.283    0.425   84.312   10.075
  152.601    0.283    0.448   84.930    9.884
  152.901    0.280    0.471   84.926    9.156
  153.201    0.270    0.486   83.050    8.647
  153.501    0.262    0.488   94.265    7.712
  153.801    0.255    0.490   99.246    6.878
  154.101    0.251    0.475   97.992    6.372
  154.401    0.255    0.446   94.870    6.744
  154.701    0.262    0.435   91.748    7.005
  155.001    0.262    0.461   90.496    7.556
  155.301    0.270    0.487   87.373    7.700
  155.601    0.297    0.451   76.147    7.697
  155.901    0.300    0.438   71.778    7.843
  156.201    0.250    0.460   81.123    7.694
  156.501    0.278    0.478  101.688    6.481
  156.801    0.275    0.501   97.942    5.059
  157.101    0.262    0.543   92.948    4.427
  157.401    0.255    0.515   91.696    4.261
  157.701    0.255    0.478   94.809    4.510
  158.001    0.263    0.461   98.542    4.596
  158.301    0.270    0.456   99.160    4.683
  158.601    0.275    0.500   99.779    4.338
  158.901    0.291    0.539   93.538    3.725
  159.201    0.294    0.530   84.805    4.419
  159.501    0.271    0.497   80.437    5.244
  159.801    0.262    0.462   94.769    4.676
  160.101    0.294    0.512  101.620    4.015
  160.401    0.299    0.575   96.004    3.514
  160.701    0.307    0.552   87.894    3.446
  161.001    0.324    0.495   85.395    4.012
  161.301    0.311    0.465   86.013    5.040
  161.601    0.291    0.447   91.618    6.211
  161.901    0.251    0.425   82.885    6.701
  162.201    0.085    0.412   69.788    7.510
  162.501    0.112    0.360   64.795    7.949
  162.801    0.221    0.410   72.270    8.099
  163.101    0.292    0.457   82.861    8.097
  163.401    0.286    0.451   85.350    7.501
  163.701    0.257    0.425   85.343    7.084
  164.001    0.214    0.435   83.469    6.082
  164.301    0.246    0.459   85.332    4.839
  164.601    0.269    0.475   85.951    4.316
  164.901    0.265    0.496   87.190    4.154
  165.201    0.291    0.500   87.185    4.232
  165.501    0.305    0.479   88.427    5.118
  165.801    0.276    0.471   91.537    6.429
  166.101    0.266    0.461   92.155    6.936
  166.401    0.258    0.449   88.409    7.203
  166.701    0.251    0.449   89.024    7.201
  167.001    0.239    0.453   89.644    7.064
  167.301    0.235    0.454   90.886    6.543
  167.601    0.234    0.439   90.879    6.419
  167.901    0.248    0.431   87.133    6.297
  168.201    0.293    0.438   82.141    6.539
  168.501    0.303    0.436   81.512    6.791
  168.801    0.273    0.438   85.245    6.790
  169.101    0.254    0.443   84.617    6.056
  169.401    0.273    0.460   81.495    4.818
  169.701    0.310    0.479   79.618    4.137
  170.001    0.319    0.564   80.859    2.773
  170.301    0.301    0.553   82.100    2.249
  170.601    0.305    0.544   80.850    2.123
  170.901    0.319    0.541   77.727    2.123
  171.201    0.328    0.546   82.084    2.163
  171.501    0.326    0.595   89.560    2.334
  171.801    0.293    0.586   81.450    2.615
  172.101    0.265    0.493   77.080    2.931
  172.401    0.259    0.469   83.309    3.348
  172.701    0.221    0.478   83.303    4.126
  173.001    0.248    0.468   80.803    4.895
  173.301    0.277    0.447   80.798    5.486
  173.601    0.263    0.423   84.531    5.698
  173.901    0.249    0.417   86.397    5.588
  174.201    0.250    0.409   91.378    5.277
  174.501    0.290    0.417   96.982    4.445
  174.801    0.324    0.484   98.224    3.674
  175.101    0.297    0.499   93.854    3.277
  175.401    0.259    0.503   93.225    3.214
  175.701    0.244    0.520   94.466    3.213
  176.001    0.235    0.550   90.096    3.213
  176.301    0.232    0.538   90.715    3.092
  176.601    0.222    0.534   90.709    3.211
  176.901    0.242    0.514   85.093    3.464
  177.201    0.275    0.469   88.203    3.666
  177.501    0.254    0.449   90.692    3.736
  177.801    0.235    0.475   93.180    3.735
  178.101    0.265    0.507   98.162    3.664
  178.401    0.258    0.492   95.661    3.459
  178.701    0.244    0.484   90.044    3.394
  179.001    0.248    0.498   87.546    3.592
  179.301    0.262    0.504   83.176    3.949
  179.601    0.263    0.473   81.924    4.180
  179.901    0.246    0.408   84.413    4.510
  180.201    0.212    0.397   86.899    4.773
  180.501    0.221    0.407   85.647    4.682
  180.801    0.269    0.446   84.396    4.421
  181.101    0.248    0.461   84.390    3.796
  181.401    0.224    0.488   90.619    3.653
  181.701    0.118    0.507   73.158    3.584
  182.001    0.076    0.409   68.788    3.940
  182.301    0.147    0.417   78.756    5.764
  182.601    0.272    0.442   81.245    5.762
  182.901    0.298    0.353   80.616    5.441
  183.201    0.303    0.362   84.350    5.237
  183.501    0.306    0.392   79.358    4.496
  183.801    0.317    0.382   63.766    4.165
  184.101    0.321    0.387   66.879    3.859
  184.401    0.323    0.422   71.860    3.714
  184.701    0.313    0.442   74.347    3.643
  185.001    0.303    0.457   74.964    3.440
  185.301    0.312    0.453   74.959    3.187
  185.601    0.318    0.462   79.317    2.897
  185.901    0.284    0.484   89.286    2.633
  186.201    0.282    0.526   93.021    2.534
  186.501    0.316    0.493   83.041    2.734
  186.801    0.333    0.452   71.814    2.840
  187.101    0.356    0.301   62.458    4.154
  187.401    0.385    0.146   53.101    5.218
  187.701    0.336    0.221   63.693    6.431
  188.001    0.296    0.238   63.063    7.926
  188.301    0.307    0.171   50.591   10.343
  188.601    0.358    0.131   42.482   13.496
  188.901    0.376    0.133   47.460   16.013
  189.201    0.378    0.145   48.079   18.290
  189.501    0.371    0.122   45.581   20.496
  189.801    0.378    0.122   39.342   20.884
  190.101    0.386    0.136   39.960   20.879
  190.401    0.388    0.148   42.447   19.344
  190.701    0.391    0.176   44.934   17.252
  191.001    0.373    0.173   49.916   14.813
  191.301    0.380    0.153   49.287   13.723
  191.601    0.381    0.146   43.669   14.252
  191.901    0.366    0.191   42.418   14.802
  192.201    0.343    0.252   42.412   13.977
  192.501    0.321    0.333   44.277    3.905
  192.801    0.303    0.358   48.636    2.719
  193.101    0.282    0.357   55.487    2.164
  193.401    0.293    0.383   53.610    2.004
  193.701    0.315    0.399   44.254    1.966
  194.001    0.324    0.391   39.262    2.003
  194.301    0.319    0.351   42.997    1.965
  194.601    0.284    0.344   60.445    1.856
  194.901    0.284    0.374   59.193    1.927
  195.201    0.294    0.374   49.212    2.002
  195.501    0.296    0.374   46.090    2.078
  195.801    0.305    0.387   45.462    2.118
  196.101    0.317    0.366   57.923    2.038
  196.401    0.296    0.354   60.411    1.925
  196.701    0.300    0.380   56.041    1.852
  197.001    0.287    0.370   57.283    1.817
  197.301    0.285    0.360   49.797    1.851
  197.601    0.320    0.372   43.557    1.886
  197.901    0.334    0.392   41.058    1.851
  198.201    0.304    0.380   37.934    1.682
  198.501    0.291    0.365   47.280    1.529
  198.801    0.290    0.352   64.106    1.529
  199.101    0.304    0.344   62.852    1.528
