~VERSION INFORMATION
 VERS.                 2.0:   CWLS LOG ASCII STANDARD -VERSION 2.0
 WRAP.                  NO:   ONE LINE PER DEPTH STEP
~WELL INFORMATION BLOCK
#MNEM.UNIT           DATA                    DESCRIPTION OF MNEMONIC
#---------    -------------------            -------------------------------
# Generated from Intellog Unique Number	CW_76_78/WELL/993
WELL.         GULF POC DROWNED 11-03         : Well_name    - WELL
LOC .         00/11-03-077-21W4/0            : Location     - LOCATION
UWI .         00/11-03-077-21W4/0            : Uwi          - UNIQUE WELL ID
ENTR.         os                             : Entered      - ENTERED BY
SRVC.         SCHLUMBERGER                   : Scn          - SERVICE COMPANY
DATE.         FEB 1978                       : Date         - LOG DATE
STRT.M        417.576                        : top_depth    - START DEPTH
STOP.M        609.576                        : bot_depth    - STOP DEPTH
STEP.M        0.25                           : increment    - STEP LENGTH
 NULL. -999.2500:NULL Value
~CURVE INFORMATION BLOCK
#MNEM UNIT       ERCB CURVE CODE    CURVE DESCRIPTION
#-----------   ------------------   ----------------------------------
DEPT.M        00 001 00 00         : DEPTH        - DEPTH
ILD .OHMM     00 120 00 00         : RESD         - DEEP RESISTIVITY (DIL)
NPHI.V/V      00 330 00 00         : PHIN         - NEUTRON POROSITY (SANDSTONE)
DPHI.V/V      00 890 00 00         : PHID         - DENSITY POROSITY (SANDSTONE)
GR  .API      00 310 00 00         : GR           - GAMMA RAY
CALI.MM       00 280 01 00         : CAL          - CALIPER
~PARAMETER INFORMATION
#MNEM.UNIT           DATA             DESCRIPTION OF MNEMONIC
#---------         -----------     ------------------------------
GL  .M        745.541              : gl           - GROUND LEVEL ELEVATION
EREF.M        749.503              : kb           - ELEVATION OF DEPTH REFERENCE
DATM.M        749.503              : datum        - DATUM ELEVATION
TDD .M        622.706              : tdd          - TOTAL DEPTH DRILLER
RUN .         ONE                  : Run          - RUN NUMBER
ENG .         GUNN                 : Engineer     - RECORDING ENGINEER
WIT .         ROZENHART            : Witness      - WITNESSED BY
BASE.         EDMONTON             : Branch       - HOME BASE OF LOGGING UNIT
MUD .         GEL CHEM             : Mud_type     - MUD TYPE
MATR.         SANDSTONE            : Logunit      - NEUTRON MATRIX
TMAX.C        26.1111              : BHT          - MAXIMUM RECORDED TEMPERATURE
BHTD.M        623.011              : BHTDEP       - MAXIMUM RECORDED TEMPERATURE
RMT .C        20                   : MDTP         - TEMPERATURE OF MUD
MUDD.KG/M     1116                 : MWT          - MUD DENSITY
NEUT.         1                    : NEUTRON      - NEUTRON TYPE
RESI.         0                    : RESIST       - RESISTIVITY TYPE
RM  .OHMM     5.37                 : RM           - RESISTIVITY OF MUD
RMC .OHMM     0.25                 : RMC          - RESISTIVITY OF MUD CAKE
RMF .OHMM     0.25                 : RMF          - RESISTIVITY OF MUD FILTRATE
SUFT.C        4.5                  : SUFT         - SURFACE TEMPERATURE
~A  DEPTH     RESD     PHIN     PHID       GR      CAL
# ...
  454.076    4.559    0.489    0.275   61.693  153.278
  454.326    4.378    0.496    0.276   63.475  155.051
  454.576    4.339    0.499    0.267   63.921  155.390
  454.826    4.548    0.507    0.278   62.607  153.481
  455.076    4.749    0.514    0.290   62.024  153.515
  455.326    4.979    0.505    0.304   64.410  154.183
  455.576    4.898    0.452    0.315   68.550  153.993
  455.826    4.801    0.437    0.283   73.481  155.573
  456.076    4.812    0.441    0.268   75.807  156.739
  456.326    4.987    0.451    0.254   73.828  155.748
  456.576    5.356    0.464    0.265   62.817  152.708
  456.826    5.459    0.450    0.306   43.080  150.898
  457.076    5.461    0.453    0.324   41.345  150.732
  457.326    5.333    0.455    0.322   45.306  152.820
  457.576    5.169    0.474    0.298   48.359  152.034
  457.826    4.963    0.473    0.294   47.168  152.485
  458.076    4.801    0.444    0.290   45.552  152.929
  458.326    4.912    0.463    0.297   43.392  152.144
  458.576    5.527    0.465    0.312   44.870  152.590
  458.826    5.751    0.469    0.325   44.707  150.773
  459.076    5.872    0.476    0.329   43.577  150.811
  459.326    6.237    0.473    0.322   44.630  149.524
  459.576    6.914    0.447    0.313   40.531  148.731
  459.826    7.509    0.413    0.293   36.914  151.648
  460.076    8.003    0.326    0.220   33.665  153.937
  460.326   11.782    0.223    0.161   36.233  155.098
  460.576   10.190    0.380    0.082   40.738  153.193
  460.826    8.059    0.415    0.215   42.819  154.356
  461.076    7.088    0.410    0.267   42.599  152.850
  461.326    6.693    0.344    0.232   41.288  153.915
  461.576    6.835    0.368    0.207   42.399  154.776
  461.826    7.177    0.466    0.251   40.906  152.450
  462.076    6.905    0.490    0.316   38.990  151.968
  462.326    6.483    0.475    0.298   39.921  151.501
  462.576    6.031    0.468    0.321   40.849  151.016
  462.826    5.900    0.465    0.338   40.992  150.338
  463.076    5.870    0.464    0.326   39.922  150.678
  463.326    5.960    0.463    0.327   41.217  150.817
  463.576    6.087    0.460    0.328   40.328  151.162
  463.826    6.078    0.455    0.337   37.261  152.432
  464.076    5.968    0.436    0.335   35.947  154.112
  464.326    5.817    0.429    0.325   35.727  154.039
  464.576    5.808    0.436    0.340   38.416  151.930
  464.826    5.888    0.447    0.329   38.618  152.782
  465.076    5.934    0.442    0.333   39.368  151.078
  465.326    5.959    0.434    0.355   41.026  149.876
  465.576    5.939    0.435    0.337   44.197  148.799
  465.826    5.909    0.451    0.343   43.673  147.796
  466.076    5.589    0.463    0.340   42.059  148.445
  466.326    5.248    0.455    0.312   43.055  151.565
  466.576    4.845    0.445    0.306   43.739  154.470
  466.826    4.183    0.469    0.296   46.063  153.794
  467.076    3.972    0.497    0.277   48.509  153.521
  467.326    3.981    0.480    0.290   45.501  153.146
  467.576    4.096    0.465    0.307   45.281  152.363
  467.826    4.541    0.478    0.295   49.000  153.533
  468.076    4.867    0.493    0.284   53.145  152.137
  468.326    5.316    0.505    0.319   54.012  152.580
  468.576    5.358    0.498    0.329   54.643  153.335
  468.826    5.164    0.486    0.322   56.422  153.977
  469.076    5.005    0.491    0.336   56.926  155.556
  469.326    4.805    0.495    0.328   57.614  153.440
  469.576    4.614    0.508    0.314   59.636  153.785
  469.826    4.455    0.518    0.305   63.050  152.381
  470.076    4.278    0.509    0.284   66.951  155.502
  470.326    4.185    0.483    0.245   69.274  157.803
  470.576    4.019    0.487    0.209   68.812  159.161
  470.826    3.888    0.492    0.201   68.594  162.078
  471.076    3.740    0.490    0.203   69.218  162.312
  471.326    3.479    0.489    0.197   72.516  162.354
  471.576    3.297    0.498    0.190   71.628  163.104
  471.826    3.280    0.510    0.212   59.464  162.424
  472.076    3.331    0.534    0.222   47.425  159.285
  472.326    3.505    0.541    0.246   41.569  157.258
  472.576    3.736    0.518    0.312   44.257  154.631
  472.826    4.012    0.471    0.320   47.309  150.558
  473.076    4.261    0.462    0.329   39.329  151.008
  473.326    4.550    0.462    0.348   38.865  152.171
  473.576    4.823    0.464    0.351   39.251  151.286
  473.826    5.018    0.475    0.342   40.365  152.038
  474.076    5.105    0.486    0.340   40.202  151.458
  474.326    5.175    0.484    0.340   42.407  151.188
  474.576    5.245    0.478    0.344   41.762  151.447
  474.826    5.326    0.478    0.337   40.996  150.860
  475.076    5.329    0.483    0.323   40.049  150.275
  475.326    5.301    0.487    0.324   39.523  151.238
  475.576    5.303    0.490    0.331   39.730  151.379
  475.826    5.296    0.493    0.334   43.142  150.694
  476.076    5.298    0.494    0.345   43.891  151.454
  476.326    5.360    0.472    0.329   44.822  151.392
  476.576    5.403    0.466    0.321   45.455  151.219
  476.826    5.415    0.476    0.327   44.623  151.555
  477.076    5.418    0.482    0.316   42.829  151.809
  477.326    5.420    0.483    0.319   43.033  150.913
  477.576    5.464    0.490    0.315   43.292  150.952
  477.826    5.456    0.495    0.312   42.773  150.985
  478.076    5.489    0.487    0.319   43.155  150.711
  478.326    5.532    0.484    0.323   45.117  149.632
  478.576    5.554    0.494    0.333   44.530  149.350
  478.826    5.536    0.479    0.320   43.157  148.048
  479.076    5.488    0.485    0.312   44.150  147.587
  479.326    5.459    0.497    0.312   44.473  148.025
  479.576    5.361    0.487    0.308   48.192  147.962
  479.826    5.234    0.482    0.315   44.215  148.399
  480.076    5.159    0.468    0.324   44.113  150.185
  480.326    5.048    0.463    0.324   45.044  151.964
  480.576    5.011    0.481    0.313   48.100  151.695
  480.826    4.867    0.483    0.289   48.663  150.301
  481.076    4.743    0.483    0.285   51.533  151.045
  481.326    4.554    0.483    0.289   55.072  152.732
  481.576    4.284    0.501    0.283   58.000  154.092
  481.826    3.839    0.599    0.254   62.508  158.344
  482.076    3.473    0.581    0.275   66.893  161.555
  482.326    3.083    0.549    0.287   71.036  159.541
  482.576    2.778    0.521    0.293   69.784  157.011
  482.826    2.858    0.513    0.273   68.659  157.973
  483.076    3.169    0.498    0.238   68.618  158.518
  483.326    3.572    0.490    0.226   66.152  159.275
  483.576    4.050    0.482    0.240   62.840  158.494
  483.826    4.365    0.505    0.253   59.591  159.557
  484.076    4.525    0.502    0.242   61.247  160.310
  484.326    4.502    0.490    0.249   63.029  159.528
  484.576    4.314    0.475    0.255   60.867  156.792
  484.826    4.260    0.463    0.276   52.887  154.569
  485.076    4.343    0.469    0.306   42.302  150.817
  485.326    4.410    0.457    0.340   42.081  149.200
  485.576    4.546    0.451    0.336   43.255  149.347
  485.826    4.572    0.452    0.336   44.675  150.711
  486.076    4.617    0.457    0.334   46.327  151.979
  486.326    4.568    0.473    0.346   46.894  150.793
  486.576    4.527    0.482    0.342   50.190  150.831
  486.826    4.598    0.496    0.344   45.303  151.583
  487.076    4.634    0.488    0.338   44.717  152.648
  487.326    4.671    0.482    0.341   46.617  154.626
  487.576    4.655    0.486    0.341   47.671  154.969
  487.826    4.640    0.494    0.343   45.875  152.137
  488.076    4.643    0.502    0.341   42.137  152.475
  488.326    4.670    0.492    0.337   41.733  152.520
  488.576    4.681    0.492    0.338   41.273  152.553
  488.826    4.622    0.482    0.340   43.533  152.282
  489.076    4.624    0.480    0.339   47.681  152.312
  489.326    4.652    0.487    0.338   48.493  152.462
  489.576    4.760    0.477    0.334   47.846  152.285
  489.826    5.074    0.434    0.318   46.468  153.149
  490.076    5.625    0.319    0.242   45.339  155.338
  490.326    6.200    0.282    0.099   47.059  157.116
