~VERSION INFORMATION
 VERS.                 2.0:   CWLS LOG ASCII STANDARD -VERSION 2.0
 WRAP.                  NO:   ONE LINE PER DEPTH STEP
~WELL INFORMATION BLOCK
#MNEM.UNIT           DATA                    DESCRIPTION OF MNEMONIC
#---------    -------------------            -------------------------------
# Generated from Intellog Unique Number	CN_91_93/WELL/3131
WELL.         PARAMOUNT RESOURCES LTD.       : Well_name    - WELL
LOC .         00/11-04-092-18W4/0            : Location     - LOCATION
UWI .         00/11-04-092-18W400            : Uwi          - UNIQUE WELL ID
ENTR.         JOETTE                         : Entered      - ENTERED BY
SRVC.         COMPUTALOG                     : Scn          - SERVICE COMPANY
DATE.         04/12/92                       : Date         - LOG DATE
STRT.M        70                             : top_depth    - START DEPTH
STOP.M        260                            : bot_depth    - STOP DEPTH
STEP.M        0.25                           : increment    - STEP LENGTH
 NULL. -999.2500:NULL Value
~CURVE INFORMATION BLOCK
#MNEM UNIT       ERCB CURVE CODE    CURVE DESCRIPTION
#-----------   ------------------   ----------------------------------
DEPT.M        00 001 00 00         : DEPTH        - DEPTH
CALI.MM       00 280 01 00         : CAL          - CALIPER
GR  .API      00 310 00 00         : GR           - GAMMA RAY
NPHI.V/V      00 330 00 00         : PHIN         - NEUTRON POROSITY (SANDSTONE)
DPHI.V/V      00 890 00 00         : PHID         - DENSITY POROSITY (SANDSTONE)
ILD .OHMM     00 120 00 00         : RESD         - DEEP RESISTIVITY (DIL)
~PARAMETER INFORMATION
#MNEM.UNIT           DATA             DESCRIPTION OF MNEMONIC
#---------         -----------     ------------------------------
GL  .M        520.6                : gl           - GROUND LEVEL ELEVATION
EREF.M        523.6                : kb           - ELEVATION OF DEPTH REFERENCE
DATM.M        523.6                : datum        - DATUM ELEVATION
TDD .M        262.4                : tdd          - TOTAL DEPTH DRILLER
RUN .         ONE                  : Run          - RUN NUMBER
ENG .         BILL                 : Engineer     - RECORDING ENGINEER
WIT .         JIM                  : Witness      - WITNESSED BY
MUD .         GEL                  : Mud_type     - MUD TYPE
MATR.         SANDSTONE            : Logunit      - NEUTRON MATRIX
TMAX.C        19                   : BHT          - MAXIMUM RECORDED TEMPERATURE
BHTD.M        262.4                : BHTDEP       - MAXIMUM RECORDED TEMPERATURE
RMT .C        11.1                 : MDTP         - TEMPERATURE OF MUD
MUDD.KG/M     1090                 : MWT          - MUD DENSITY
NEUT.         1                    : NEUTRON      - NEUTRON TYPE
RESI.         0                    : RESIST       - RESISTIVITY TYPE
RM  .OHMM     3.9                  : RM           - RESISTIVITY OF MUD
RMC .OHMM     3.9                  : RMC          - RESISTIVITY OF MUD CAKE
RMF .OHMM     4.9                  : RMF          - RESISTIVITY OF MUD FILTRATE
SUFT.C        4                    : SUFT         - SURFACE TEMPERATURE
~A  DEPTH      CAL       GR     PHIN     PHID     RESD
   70.000  173.836  106.605    0.437    0.274    6.228
   70.250  171.737  109.713    0.455    0.269    6.732
   70.500  171.721  109.705    0.447    0.283    7.561
   70.750  175.861  106.578    0.409    0.302    9.520
   71.000  176.879   97.840    0.395    0.319   10.485
   71.250  175.824   77.878    0.384    0.285   12.249
   71.500  172.694   60.412    0.389    0.302   13.252
   71.750  168.522   59.155    0.403    0.331   13.553
   72.000  169.544   66.627    0.414    0.346   13.091
   72.250  172.641   70.981    0.409    0.351   12.192
   72.500  170.542   77.205    0.414    0.327   11.144
   72.750  167.409   87.794    0.423    0.324   10.378
   73.000  164.275   89.029    0.452    0.335    9.684
   73.250  165.298   90.263    0.460    0.338    9.702
   73.500  166.321   89.632    0.448    0.333    9.922
   73.750  168.382   87.752    0.441    0.333    9.603
   74.000  169.405   82.755    0.437    0.344    8.935
   74.250  172.502   78.381    0.440    0.377    8.478
   74.500  177.685   73.384    0.440    0.392    8.053
   74.750  183.903   77.735    0.431    0.403    7.778
   75.000  183.886   80.219    0.430    0.380    7.388
   75.250  176.592   83.327    0.438    0.349    7.143
   75.500  171.385   88.304    0.457    0.349    7.444
   75.750  166.173   95.776    0.480    0.382    8.511
   76.000  180.699   80.803    0.443    0.398   10.313
   76.250  188.995   67.078    0.399    0.394   11.802
   76.500  185.862   51.477    0.371    0.358   15.428
   76.750  177.529   48.976    0.389    0.340   16.675
   77.000  175.434   45.223    0.376    0.338   16.738
   77.250  174.383   45.213    0.377    0.349   15.588
   77.500  173.323   48.323    0.402    0.356   13.997
   77.750  172.272   56.418    0.403    0.347   12.544
   78.000  172.247   73.864    0.400    0.334   10.440
   78.250  168.079   78.219    0.400    0.327    9.714
   78.500  168.054   88.181    0.405    0.323    8.714
   78.750  170.120   96.900    0.422    0.318    7.537
   79.000  172.178  101.254    0.425    0.310    6.761
   79.250  173.208   99.997    0.437    0.303    6.409
   79.500  173.188   93.129    0.448    0.323    6.314
   79.750  170.054   86.885    0.421    0.336    6.338
   80.000  167.956   80.641    0.412    0.350    7.530
   80.250  165.865   73.771    0.378    0.357   10.600
   80.500  164.806   65.033    0.361    0.352   14.920
   80.750  164.781   55.048    0.355    0.343   17.743
   81.000  165.808   46.310    0.357    0.341   21.101
   81.250  165.800   48.168    0.370    0.342   22.828
   81.500  167.853   51.278    0.409    0.345   24.262
   81.750  168.880   50.021    0.405    0.357   24.814
   82.000  168.855   48.759    0.408    0.369   24.884
   82.250  168.847   51.867    0.416    0.374   24.059
   82.500  167.792   54.977    0.420    0.369   23.702
   82.750  165.697   61.825    0.411    0.369   22.938
   83.000  173.989   62.438    0.390    0.385   22.597
   83.250  175.012   56.815    0.400    0.367   21.443
   83.500  174.995   59.922    0.411    0.365   19.970
   83.750  180.174   63.032    0.418    0.385   18.253
   84.000  188.470   74.865    0.420    0.408   16.652
   84.250  187.411   84.830    0.437    0.350   12.386
   84.500  175.969   97.287    0.452    0.342   11.111
   84.750  171.788   90.421    0.466    0.334   10.732
   85.000  171.776   92.282    0.468    0.322   10.194
   85.250  172.794   99.130    0.466    0.310    9.673
   85.500  173.813  101.614    0.452    0.298    9.009
   85.750  173.800  102.227    0.442    0.301    8.234
   86.000  173.784   97.228    0.438    0.305    7.661
   86.250  170.650  100.958    0.434    0.299    7.407
   86.500  167.517  106.559    0.433    0.290    7.029
   86.750  165.422  110.911    0.437    0.286    6.796
   87.000  164.371  113.398    0.442    0.281    6.455
   87.250  165.389  110.894    0.452    0.277    6.241
   87.500  165.373  103.403    0.457    0.274    6.264
   87.750  166.396  107.134    0.455    0.286    6.288
   88.000  167.414  107.121    0.463    0.286    6.306
   88.250  167.402  103.992    0.465    0.272    6.449
   88.500  167.386  108.972    0.423    0.265    6.602
   88.750  167.365  115.820    0.414    0.270    6.752
   89.000  164.227  108.329    0.431    0.237    6.906
   89.250  164.211  103.953    0.448    0.203    6.939
   89.500  166.273  110.801    0.436    0.237    7.090
   89.750  167.299  110.791    0.425    0.262    7.130
   90.000  168.318  108.911    0.430    0.266    7.150
   90.250  168.302  104.537    0.440    0.276    7.037
   90.500  167.250  103.280    0.459    0.279    6.946
   90.750  166.191  106.385    0.459    0.280    6.830
   91.000  166.170  108.869    0.426    0.281    6.741
   91.250  167.193  110.729    0.422    0.280    6.634
   91.500  169.250  111.343    0.439    0.271    6.653
   91.750  170.277  115.076    0.437    0.273    6.560
   92.000  172.335  112.567    0.422    0.254    6.579
   92.250  172.327  108.815    0.422    0.220    6.481
   92.500  170.224  106.939    0.421    0.195    6.385
   92.750  169.173   98.825    0.421    0.239    6.296
   93.000  167.078   99.436    0.417    0.277    6.197
   93.250  164.979  103.169    0.416    0.290    6.104
   93.500  164.963  107.521    0.417    0.288    5.913
   93.750  165.981  106.264    0.424    0.277    5.820
   94.000  167.012  108.748    0.425    0.273    5.627
   94.250  166.988  111.232    0.426    0.273    5.538
   94.500  166.975  113.092    0.434    0.274    5.456
   94.750  167.990  113.083    0.421    0.270    5.487
   95.000  167.978  108.709    0.410    0.265    5.712
   95.250  169.004  102.464    0.397    0.215    6.543
   95.500  170.019   91.230    0.392    0.191    6.825
   95.750  171.046   87.480    0.428    0.171    6.851
   96.000  172.068   95.575    0.460    0.233    6.737
   96.250  169.974  103.670    0.453    0.273    6.643
   96.500  168.918  108.647    0.462    0.261    6.550
   96.750  169.941  114.246    0.465    0.258    6.575
   97.000  168.885  106.757    0.452    0.271    6.593
   97.250  163.665   99.266    0.437    0.286    6.624
   97.500  162.618   95.511    0.432    0.288    6.411
   97.750  162.598  101.114    0.424    0.286    6.310
   98.000  162.581  107.962    0.430    0.291    6.210
   98.250  163.604  107.326    0.445    0.302    6.010
   98.500  164.627  105.446    0.469    0.307    5.811
   98.750  165.645  108.556    0.492    0.308    5.838
   99.000  165.633  116.028    0.501    0.290    5.960
   99.250  165.608  114.771    0.478    0.266    6.328
   99.500  165.596  108.524    0.451    0.239    8.580
   99.750  166.614   77.966    0.425    0.281   11.205
  100.000  166.602   54.889    0.400    0.319   14.911
  100.250  165.543   47.398    0.373    0.339   20.217
  100.500  165.526   43.019    0.371    0.349   22.286
  100.750  165.510   42.386    0.377    0.343   24.590
  101.000  166.537   41.755    0.378    0.339   25.625
  101.250  167.555   41.740    0.369    0.339   26.728
  101.500  167.535   41.735    0.346    0.340   26.854
  101.750  167.526   41.102    0.357    0.338   26.930
  102.000  167.506   39.845    0.365    0.331   27.517
  102.250  168.529   38.586    0.358    0.323   27.647
  102.500  168.508   39.200    0.347    0.308   27.751
  102.750  167.453   42.307    0.354    0.305   27.855
  103.000  167.440   46.038    0.362    0.315   27.961
  103.250  166.385   48.522    0.376    0.326   28.066
  103.500  167.403   46.018    0.373    0.333   28.172
  103.750  169.469   42.267    0.352    0.338   28.813
  104.000  173.601   41.011    0.350    0.339   28.976
  104.250  175.667   39.126    0.353    0.347   29.607
  104.500  175.646   37.869    0.350    0.352   30.309
  104.750  174.595   37.236    0.334    0.363   30.366
  105.000  170.422   38.470    0.309    0.386   31.057
  105.250  163.128   39.712    0.284    0.406   31.764
  105.500  164.155   44.066    0.283    0.368   33.132
  105.750  169.330   44.054    0.297    0.199   33.886
  106.000  165.157   40.301    0.320    0.163   34.013
  106.250  162.019   38.423    0.347    0.266   34.174
