~VERSION INFORMATION
 VERS.                 2.0:   CWLS LOG ASCII STANDARD -VERSION 2.0
 WRAP.                  NO:   ONE LINE PER DEPTH STEP
~WELL INFORMATION BLOCK
#MNEM.UNIT           DATA                    DESCRIPTION OF MNEMONIC
#---------    -------------------            -------------------------------
# Generated from Intellog Unique Number	CS_67_68/WELL/819
WELL.         GULF OIL CANADA LTD            : Well_name    - WELL
LOC .         00/11-07-068-17W4/0            : Location     - LOCATION
UWI .         00/11-07-068-17W4/0            : Uwi          - UNIQUE WELL ID
ENTR.         SP                             : Entered      - ENTERED BY
SRVC.         SCHLUMBERGER                   : Scn          - SERVICE COMPANY
STRT.M        298.704                        : top_depth    - START DEPTH
STOP.M        545.454                        : bot_depth    - STOP DEPTH
STEP.M        0.25                           : increment    - STEP LENGTH
 NULL. -999.2500:NULL Value
~CURVE INFORMATION BLOCK
#MNEM UNIT       ERCB CURVE CODE    CURVE DESCRIPTION
#-----------   ------------------   ----------------------------------
DEPT.M        00 001 00 00         : DEPTH        - DEPTH
GR  .API      00 310 00 00         : GR           - GAMMA RAY
DPHI.V/V      00 890 00 00         : PHID         - DENSITY POROSITY (SANDSTONE)
NPHI.V/V      00 330 00 00         : PHIN         - NEUTRON POROSITY (SANDSTONE)
ILD .OHMM     00 120 00 00         : RESD         - DEEP RESISTIVITY (DIL)
~PARAMETER INFORMATION
#MNEM.UNIT           DATA             DESCRIPTION OF MNEMONIC
#---------         -----------     ------------------------------
GL  .M        176.376              : gl           - GROUND LEVEL ELEVATION
EREF.M        177.595              : kb           - ELEVATION OF DEPTH REFERENCE
DATM.M        176.376              : datum        - DATUM ELEVATION
TDD .M        169.362              : tdd          - TOTAL DEPTH DRILLER
RUN .         ONE                  : Run          - RUN NUMBER
ENG .         BILL                 : Engineer     - RECORDING ENGINEER
WIT .         JIM                  : Witness      - WITNESSED BY
MUD .         GEL                  : Mud_type     - MUD TYPE
MATR.         SANDSTONE            : Logunit      - NEUTRON MATRIX
TMAX.C        20                   : BHT          - MAXIMUM RECORDED TEMPERATURE
BHTD.M        169.362              : BHTDEP       - MAXIMUM RECORDED TEMPERATURE
MATR.         1                    : LOGUNIT      - NEUTRON MATRIX
RMT .C        25                   : MDTP         - TEMPERATURE OF MUD
NEUT.         1                    : NEUTRON      - NEUTRON TYPE
RESI.         0                    : RESIST       - RESISTIVITY TYPE
RMC .OHMM     0.25                 : RMC          - RESISTIVITY OF MUD CAKE
RMF .OHMM     0.25                 : RMF          - RESISTIVITY OF MUD FILTRATE
SUFT.C        15                   : SUFT         - SURFACE TEMPERATURE
~A  DEPTH       GR     PHID     PHIN     RESD
  298.704   82.845    0.204    0.436    3.310
  298.954  131.517    0.210    0.454    3.324
  299.204  129.397    0.215    0.474    3.362
  299.454  130.695    0.212    0.472    3.417
  299.704  133.965    0.209    0.466    3.478
  299.954  135.885    0.213    0.470    3.499
  300.204  136.761    0.217    0.479    3.515
  300.454  135.609    0.212    0.476    3.491
  300.704  132.303    0.212    0.447    3.434
  300.954  129.265    0.217    0.435    3.414
  301.204  126.914    0.219    0.446    3.474
  301.454  122.176    0.222    0.452    3.582
  301.704  115.161    0.233    0.396    3.676
  301.954  104.494    0.237    0.370    3.630
  302.204   89.108    0.237    0.341    3.523
  302.454   73.487    0.243    0.310    3.080
  302.704   49.742    0.242    0.299    2.793
  302.954   45.855    0.256    0.295    2.441
  303.204   43.178    0.253    0.297    2.351
  303.454   49.364    0.247    0.300    2.196
  303.704   57.566    0.241    0.305    2.098
  303.954   71.218    0.205    0.315    2.382
  304.204   81.178    0.144    0.337    2.648
  304.454   84.188    0.149    0.361    2.920
  304.704   84.201    0.213    0.368    3.171
  304.954   81.905    0.249    0.363    3.266
  305.204   77.824    0.245    0.356    3.278
  305.454   73.721    0.240    0.355    3.200
  305.704   71.720    0.237    0.353    3.090
  305.954   71.440    0.235    0.338    2.997
  306.204   78.619    0.239    0.334    2.917
  306.454   86.180    0.242    0.360    2.872
  306.704   91.406    0.228    0.384    2.865
  306.954   96.779    0.237    0.401    2.881
  307.204   99.390    0.231    0.404    2.977
  307.454   95.416    0.225    0.398    3.050
  307.704   88.078    0.220    0.387    3.173
  307.954   80.715    0.221    0.373    3.225
  308.204   92.637    0.243    0.381    3.152
  308.454   96.691    0.233    0.401    3.059
  308.704  101.324    0.230    0.422    3.025
  308.954   98.397    0.230    0.402    2.979
  309.204   90.664    0.239    0.391    3.007
  309.454   81.087    0.250    0.390    3.062
  309.704   78.736    0.241    0.375    3.116
  309.954   83.454    0.238    0.366    3.095
  310.204   86.937    0.237    0.388    3.037
  310.454   89.701    0.232    0.405    2.958
  310.704   91.083    0.234    0.417    2.878
  310.954   85.431    0.247    0.422    2.804
  311.204   79.837    0.258    0.397    2.776
  311.454   84.251    0.253    0.406    2.710
  311.704   91.957    0.242    0.420    2.670
  311.954   97.221    0.235    0.432    2.635
  312.204  101.048    0.235    0.423    2.601
  312.454   94.842    0.237    0.418    2.597
  312.704   86.101    0.243    0.396    2.607
  312.954   82.378    0.249    0.379    2.681
  313.204   83.461    0.245    0.362    2.754
  313.454   85.838    0.245    0.363    2.883
  313.704   85.763    0.251    0.362    3.024
  313.954   89.736    0.243    0.382    3.081
  314.204   94.819    0.236    0.402    3.071
  314.454   99.662    0.232    0.415    2.987
  314.704  101.427    0.229    0.410    2.929
  314.954  101.006    0.233    0.401    2.903
  315.204   97.857    0.233    0.406    2.864
  315.454   93.237    0.225    0.417    2.828
  315.704   89.404    0.234    0.406    2.806
  315.954   86.810    0.242    0.395    2.765
  316.204   86.225    0.246    0.389    2.755
  316.454   88.955    0.233    0.401    2.730
  316.704   95.091    0.219    0.418    2.746
  316.954   99.898    0.218    0.415    2.645
  317.204   95.479    0.237    0.402    2.579
  317.454   87.484    0.254    0.389    2.592
  317.704   82.514    0.260    0.385    2.637
  317.954   81.030    0.243    0.382    2.673
  318.204   85.091    0.226    0.389    2.781
  318.454   87.404    0.211    0.394    2.869
  318.704   83.916    0.203    0.382    2.997
  318.954   78.613    0.201    0.374    3.164
  319.204   76.078    0.212    0.363    3.258
  319.454   76.671    0.233    0.371    3.241
  319.704   81.532    0.246    0.388    3.125
  319.954   85.546    0.248    0.384    2.924
  320.204   91.559    0.248    0.401    2.740
  320.454   95.651    0.242    0.419    2.691
  320.704   96.903    0.239    0.416    2.723
  320.954   91.972    0.246    0.404    2.763
  321.204   88.609    0.249    0.415    2.803
  321.454   97.111    0.235    0.442    2.824
  321.704  103.020    0.224    0.456    2.809
  321.954  107.841    0.216    0.471    2.797
  322.204  110.897    0.214    0.473    2.804
  322.454  113.018    0.215    0.469    2.826
  322.704  112.595    0.213    0.467    2.835
  322.954  112.086    0.207    0.467    2.808
  323.204  115.305    0.210    0.457    2.751
  323.454  116.911    0.217    0.459    2.703
  323.704  117.475    0.216    0.458    2.662
  323.954  116.493    0.212    0.454    2.648
  324.204  114.516    0.212    0.452    2.622
  324.454  112.532    0.212    0.464    2.593
  324.704  111.183    0.212    0.466    2.593
  324.954  110.680    0.203    0.459    2.585
  325.204  111.656    0.209    0.468    2.560
  325.454  114.433    0.215    0.477    2.530
  325.704  116.090    0.218    0.485    2.518
  325.954  115.428    0.222    0.490    2.506
  326.204  110.667    0.224    0.500    2.496
  326.454  108.223    0.220    0.510    2.491
  326.704  107.052    0.230    0.491    2.484
  326.954  107.644    0.238    0.483    2.470
  327.204  109.355    0.244    0.477    2.453
  327.454  111.485    0.244    0.477    2.430
  327.704  113.104    0.237    0.485    2.399
  327.954  113.685    0.236    0.497    2.347
  328.204  113.138    0.239    0.506    2.313
  328.454  111.615    0.242    0.511    2.281
  328.704  110.355    0.244    0.495    2.282
  328.954  110.849    0.245    0.478    2.304
  329.204  112.081    0.245    0.468    2.328
  329.454  112.597    0.243    0.467    2.400
  329.704  111.693    0.240    0.480    2.461
  329.954  110.734    0.237    0.488    2.476
  330.204  111.437    0.236    0.483    2.456
  330.454  113.616    0.237    0.483    2.411
  330.704  114.595    0.238    0.501    2.353
  330.954  113.087    0.237    0.515    2.379
  331.204  109.794    0.235    0.534    2.420
  331.454  107.896    0.230    0.552    2.415
  331.704  106.719    0.219    0.530    2.386
  331.954  105.525    0.207    0.530    2.369
  332.204  105.557    0.201    0.513    2.391
  332.454  106.132    0.232    0.503    2.433
  332.704  107.213    0.237    0.497    2.489
  332.954  110.144    0.238    0.489    2.548
  333.204  112.548    0.238    0.483    2.609
  333.454  114.327    0.234    0.479    2.651
  333.704  114.574    0.226    0.478    2.683
  333.954  114.677    0.223    0.476    2.707
  334.204  114.995    0.225    0.481    2.700
  334.454  115.098    0.230    0.499    2.665
  334.704  115.192    0.232    0.512    2.616
  334.954  114.988    0.229    0.505    2.551
  335.204  114.313    0.223    0.496    2.518
  335.454  113.233    0.218    0.490    2.494
  335.704  112.766    0.212    0.487    2.522
  335.954  112.781    0.206    0.485    2.549
  336.204  113.546    0.202    0.487    2.583
  336.454  115.298    0.203    0.493    2.611
  336.704  116.221    0.211    0.499    2.638
  336.954  115.846    0.218    0.497    2.678
  337.204  115.710    0.213    0.486    2.758
  337.454  115.523    0.197    0.476    2.825
  337.704  114.486    0.185    0.467    2.894
  337.954  112.801    0.172    0.487    2.970
  338.204  110.655    0.161    0.503    3.000
  338.454  107.798    0.154    0.495    3.119
  338.704  105.828    0.152    0.470    3.239
  338.954  106.364    0.172    0.447    3.288
  339.204  109.705    0.188    0.433    3.255
  339.454  110.789    0.201    0.433    3.167
  339.704  110.875    0.207    0.454    2.993
  339.954  110.310    0.212    0.479    2.886
  340.204  110.794    0.215    0.501    2.760
  340.454  114.294    0.214    0.509    2.660
  340.704  116.120    0.211    0.494    2.596
  340.954  116.477    0.207    0.487    2.586
  341.204  115.826    0.211    0.482    2.694
  341.454  115.308    0.225    0.482    2.805
  341.704  112.448    0.238    0.470    2.899
  341.954  110.444    0.227    0.459    2.969
