~VERSION INFORMATION
 VERS.                 2.0:   CWLS LOG ASCII STANDARD -VERSION 2.0
 WRAP.                  NO:   ONE LINE PER DEPTH STEP
~WELL INFORMATION BLOCK
#MNEM.UNIT           DATA                    DESCRIPTION OF MNEMONIC
#---------    -------------------            -------------------------------
# Generated from Intellog Unique Number	CS_77_79/WELL/3306
WELL.         N0RTHSTAR ENERGY CORP.         : Well_name    - WELL
LOC .         00/12-36-079-11W4/0            : Location     - LOCATION
UWI .         00/12-36-079-11W4/0            : Uwi          - UNIQUE WELL ID
ENTR.         JOETTE                         : Entered      - ENTERED BY
SRVC.         SCHLUMBERGER                   : Scn          - SERVICE COMPANY
DATE.         08/24/92                       : Date         - LOG DATE
STRT.M        255                            : top_depth    - START DEPTH
STOP.M        480                            : bot_depth    - STOP DEPTH
STEP.M        0.25                           : increment    - STEP LENGTH
 NULL. -999.2500:NULL Value
~CURVE INFORMATION BLOCK
#MNEM UNIT       ERCB CURVE CODE    CURVE DESCRIPTION
#-----------   ------------------   ----------------------------------
DEPT.M        00 001 00 00         : DEPTH        - DEPTH
GR  .API      00 310 00 00         : GR           - GAMMA RAY
NPHI.V/V      00 330 00 00         : PHIN         - NEUTRON POROSITY (SANDSTONE)
DPHI.V/V      00 890 00 00         : PHID         - DENSITY POROSITY (SANDSTONE)
ILD .OHMM     00 120 00 00         : RESD         - DEEP RESISTIVITY (DIL)
~PARAMETER INFORMATION
#MNEM.UNIT           DATA             DESCRIPTION OF MNEMONIC
#---------         -----------     ------------------------------
GL  .M        682.9                : gl           - GROUND LEVEL ELEVATION
EREF.M        686.3                : kb           - ELEVATION OF DEPTH REFERENCE
DATM.M        686.3                : datum        - DATUM ELEVATION
TDD .M        502                  : tdd          - TOTAL DEPTH DRILLER
RUN .         ONE                  : Run          - RUN NUMBER
ENG .         BILL                 : Engineer     - RECORDING ENGINEER
WIT .         JIM                  : Witness      - WITNESSED BY
MUD .         GEL                  : Mud_type     - MUD TYPE
MATR.         SANDSTONE            : Logunit      - NEUTRON MATRIX
TMAX.C        22                   : BHT          - MAXIMUM RECORDED TEMPERATURE
BHTD.M        502                  : BHTDEP       - MAXIMUM RECORDED TEMPERATURE
MATR.         5.5                  : LOGUNIT      - NEUTRON MATRIX
RMT .C        5.5                  : MDTP         - TEMPERATURE OF MUD
NEUT.         1                    : NEUTRON      - NEUTRON TYPE
RESI.         0                    : RESIST       - RESISTIVITY TYPE
RMC .OHMM     0.33                 : RMC          - RESISTIVITY OF MUD CAKE
RMF .OHMM     0.16                 : RMF          - RESISTIVITY OF MUD FILTRATE
SUFT.C        15                   : SUFT         - SURFACE TEMPERATURE
~A  DEPTH       GR     PHIN     PHID     RESD
# ...
  342.000   68.326    0.443    0.344    8.379
  342.250   67.740    0.444    0.351    8.690
  342.500   67.745    0.454    0.359    8.848
  342.750   68.930    0.450    0.368    8.679
  343.000   70.705    0.448    0.372    8.517
  343.250   73.071    0.454    0.377    8.052
  343.500   73.076    0.451    0.377    7.613
  343.750   71.901    0.439    0.372    7.197
  344.000   71.314    0.427    0.362    6.930
  344.250   68.368    0.432    0.353    6.926
  344.500   65.422    0.443    0.322    6.924
  344.750   62.475    0.438    0.281    7.048
  345.000   64.841    0.435    0.272    7.446
  345.250   69.566    0.441    0.321    7.724
  345.500   68.391    0.442    0.350    8.312
  345.750   63.674    0.437    0.356    8.623
  346.000   59.548    0.425    0.368    9.454
  346.250   57.781    0.409    0.387    9.988
  346.500   56.015    0.422    0.395   10.170
  346.750   53.659    0.434    0.392   10.351
  347.000   48.353    0.442    0.385   10.348
  347.250   51.899    0.446    0.377   10.343
  347.500   55.446    0.461    0.378   10.531
  347.750   54.859    0.437    0.380   10.525
  348.000   54.864    0.430    0.379   10.520
  348.250   58.410    0.405    0.374   10.512
  348.500   63.727    0.404    0.367   10.507
  348.750   64.912    0.408    0.362   10.502
  349.000   61.966    0.404    0.367   11.095
  349.250   57.839    0.372    0.360   11.724
  349.500   57.252    0.344    0.316   11.935
  349.750   60.800    0.339    0.240   11.495
  350.000   62.573    0.363    0.212   10.869
  350.250   64.938    0.391    0.324   10.086
  350.500   63.764    0.405    0.334    9.020
  350.750   61.409    0.425    0.344    8.371
  351.000   60.821    0.425    0.351    7.628
  351.250   64.957    0.435    0.356    6.696
  351.500   67.323    0.452    0.356    6.101
  351.750   67.921    0.449    0.356    5.357
  352.000   71.464    0.424    0.352    4.791
  352.250   76.780    0.422    0.346    4.206
  352.500   81.506    0.457    0.342    3.429
  352.750   85.642    0.476    0.344    2.901
  353.000   92.139    0.480    0.340    2.595
  353.250   95.684    0.474    0.313    2.363
  353.500  101.001    0.503    0.274    2.319
  353.750  103.366    0.497    0.256    2.317
  354.000   98.059    0.497    0.250    2.274
  354.250   97.473    0.529    0.247    2.190
  354.500   95.707    0.547    0.237    2.189
  354.750   92.762    0.553    0.233    2.188
  355.000   93.946    0.520    0.243    2.269
  355.250   97.493    0.491    0.255    2.442
  355.500   98.680    0.497    0.254    2.533
  355.750   98.092    0.497    0.248    2.777
  356.000   95.737    0.486    0.251    2.989
  356.250   93.970    0.478    0.257    3.277
  356.500   92.796    0.471    0.252    3.527
  356.750   93.389    0.453    0.247    3.867
  357.000   96.345    0.452    0.242    4.240
  357.250   98.120    0.482    0.247    4.563
  357.500   96.354    0.472    0.257    4.733
  357.750   96.359    0.460    0.267    4.731
  358.000   92.232    0.453    0.277    4.310
  358.250   84.565    0.454    0.289    3.386
  358.500   84.569    0.452    0.297    2.564
  358.750   79.262    0.455    0.295    2.379
  359.000   79.267    0.466    0.294    2.608
  359.250   83.993    0.460    0.293    2.705
  359.500   88.721    0.463    0.291    2.704
  359.750   90.496    0.469    0.283    2.702
  360.000   92.272    0.476    0.270    2.803
  360.250   94.637    0.493    0.282    3.073
  360.500   93.461    0.487    0.278    3.247
  360.750   92.874    0.495    0.284    3.367
  361.000   92.289    0.478    0.296    3.366
  361.250   90.524    0.473    0.306    3.302
  361.500   91.119    0.490    0.294    3.240
  361.750   91.714    0.487    0.285    3.179
  362.000   89.356    0.481    0.280    3.177
  362.250   84.640    0.471    0.285    3.175
  362.500   85.234    0.472    0.284    3.173
  362.750   89.370    0.476    0.279    3.171
  363.000   92.917    0.484    0.270    3.290
  363.250   91.153    0.485    0.262    3.540
  363.500   88.795    0.485    0.268    3.672
  363.750   88.210    0.482    0.273    3.809
  364.000   89.985    0.473    0.268    4.023
  364.250   88.809    0.460    0.239    4.097
  364.500   87.043    0.426    0.227    4.170
  364.750   86.458    0.435    0.224    4.168
  365.000   89.413    0.450    0.225    4.166
  365.250   95.320    0.456    0.219    4.087
  365.500   97.686    0.468    0.216    4.086
  365.750   92.968    0.479    0.211    4.084
  366.000   85.891    0.479    0.232    4.081
  366.250   87.666    0.453    0.254    3.931
  366.500   88.260    0.448    0.257    3.785
  366.750   87.087    0.448    0.240    3.513
  367.000   87.089    0.453    0.226    3.447
  367.250   87.094    0.450    0.225    3.445
  367.500   91.821    0.450    0.227    3.507
  367.750   95.957    0.480    0.235    3.571
  368.000   98.324    0.491    0.245    3.635
  368.250   97.738    0.480    0.264    3.701
  368.500   94.203    0.475    0.276    3.769
  368.750   93.025    0.471    0.272    3.697
  369.000   93.031    0.478    0.270    3.627
  369.250   96.577    0.486    0.275    3.559
  369.500   98.350    0.492    0.279    3.492
  369.750  100.716    0.502    0.266    3.490
  370.000  100.130    0.516    0.244    3.553
  370.250   96.594    0.521    0.227    3.618
  370.500   93.057    0.495    0.233    3.823
  370.750   92.473    0.474    0.252    4.269
  371.000   88.935    0.458    0.305    4.857
  371.250   83.629    0.426    0.366    5.527
  371.500   87.766    0.450    0.362    6.406
  371.750   87.770    0.440    0.312    6.769
  372.000   74.790    0.410    0.302    7.421
  372.250   70.075    0.382    0.289    7.987
  372.500   65.357    0.321    0.106    8.132
  372.750   58.279    0.274    0.040    8.279
  373.000   48.841    0.274    0.048    8.274
  373.250   53.567    0.330    0.074    7.822
  373.500   81.310    0.376    0.119    7.396
  373.750   89.577    0.427    0.176    6.739
  374.000   90.172    0.444    0.238    5.915
  374.250   88.406    0.440    0.253    5.804
  374.500   89.001    0.445    0.251    5.589
  374.750   87.235    0.449    0.256    5.587
  375.000   84.289    0.452    0.252    5.584
  375.250   87.246    0.450    0.248    5.581
  375.500   89.612    0.442    0.245    5.681
  375.750   90.798    0.430    0.240    5.785
  376.000   91.391    0.428    0.239    5.782
  376.250   95.526    0.434    0.236    5.887
  376.500   96.711    0.435    0.239    5.884
  376.750   94.945    0.441    0.242    5.880
  377.000   91.409    0.439    0.247    5.769
  377.250   92.594    0.428    0.258    5.454
  377.500   95.550    0.410    0.253    5.062
  377.750   93.195    0.418    0.249    4.528
  378.000   90.838    0.436    0.273    4.126
  378.250   92.614    0.457    0.286    3.759
  378.500   95.568    0.454    0.283    3.299
  378.750   98.524    0.453    0.281    3.006
  379.000  101.479    0.498    0.287    2.739
  379.250  100.894    0.488    0.296    2.495
  379.500   97.359    0.486    0.288    2.358
  379.750   95.594    0.494    0.277    2.402
  380.000   96.777    0.505    0.267    2.633
  380.250   97.372    0.496    0.260    2.996
  380.500   97.377    0.484    0.255    3.225
  380.750   95.612    0.473    0.254    3.471
  381.000   93.846    0.464    0.255    3.877
  381.250   95.031    0.448    0.259    3.877
  381.500   95.036    0.447    0.265    4.169
  381.750   95.040    0.453    0.268    4.488
  382.000   93.275    0.461    0.283    4.486
  382.250   92.688    0.457    0.291    4.401
  382.500   90.333    0.453    0.293    4.318
  382.750   89.156    0.446    0.292    4.316
  383.000   89.160    0.446    0.292    4.476
  383.250   90.346    0.453    0.292    4.643
  383.500   89.760    0.455    0.290    5.185
  383.750   91.536    0.443    0.257    5.792
  384.000   99.213    0.425    0.251    6.233
  384.250  110.431    0.413    0.239    6.833
  384.500  107.485    0.423    0.233    6.957
  384.750  102.768    0.417    0.248    6.955
  385.000   96.281    0.406    0.265    6.697
  385.250   91.565    0.415    0.269    6.217
