~VERSION INFORMATION
 VERS.                 2.0:   CWLS LOG ASCII STANDARD -VERSION 2.0
 WRAP.                  NO:   ONE LINE PER DEPTH STEP
~WELL INFORMATION BLOCK
#MNEM.UNIT           DATA                    DESCRIPTION OF MNEMONIC
#---------    -------------------            -------------------------------
# Generated from Intellog Unique Number	CS_77_79/WELL/3305
WELL.         12-28-078-15W4                 : Well_name    - WELL
LOC .         00/12-28-078-15W4/0            : Location     - LOCATION
UWI .         00/12-28-078-15W4/0            : Uwi          - UNIQUE WELL ID
ENTR.         JOETTE                         : Entered      - ENTERED BY
SRVC.         SCHLUMBERGER                   : Scn          - SERVICE COMPANY
DATE.         08/18/92                       : Date         - LOG DATE
STRT.M        250                            : top_depth    - START DEPTH
STOP.M        473                            : bot_depth    - STOP DEPTH
STEP.M        0.25                           : increment    - STEP LENGTH
 NULL. -999.2500:NULL Value
~CURVE INFORMATION BLOCK
#MNEM UNIT       ERCB CURVE CODE    CURVE DESCRIPTION
#-----------   ------------------   ----------------------------------
DEPT.M        00 001 00 00         : DEPTH        - DEPTH
GR  .API      00 310 00 00         : GR           - GAMMA RAY
NPHI.V/V      00 330 00 00         : PHIN         - NEUTRON POROSITY (SANDSTONE)
DPHI.V/V      00 890 00 00         : PHID         - DENSITY POROSITY (SANDSTONE)
ILD .OHMM     00 120 00 00         : RESD         - DEEP RESISTIVITY (DIL)
~PARAMETER INFORMATION
#MNEM.UNIT           DATA             DESCRIPTION OF MNEMONIC
#---------         -----------     ------------------------------
GL  .M        656.5                : gl           - GROUND LEVEL ELEVATION
EREF.M        660.5                : kb           - ELEVATION OF DEPTH REFERENCE
DATM.M        660.5                : datum        - DATUM ELEVATION
TDD .M        476                  : tdd          - TOTAL DEPTH DRILLER
RUN .         ONE                  : Run          - RUN NUMBER
ENG .         BILL                 : Engineer     - RECORDING ENGINEER
WIT .         JIM                  : Witness      - WITNESSED BY
MUD .         GEL                  : Mud_type     - MUD TYPE
MATR.         SANDSTONE            : Logunit      - NEUTRON MATRIX
TMAX.C        31                   : BHT          - MAXIMUM RECORDED TEMPERATURE
BHTD.M        476                  : BHTDEP       - MAXIMUM RECORDED TEMPERATURE
RMT .C        22                   : MDTP         - TEMPERATURE OF MUD
MUDD.KG/M     1120                 : MWT          - MUD DENSITY
NEUT.         1                    : NEUTRON      - NEUTRON TYPE
RESI.         0                    : RESIST       - RESISTIVITY TYPE
RM  .OHMM     5.7                  : RM           - RESISTIVITY OF MUD
RMC .OHMM     3.2                  : RMC          - RESISTIVITY OF MUD CAKE
RMF .OHMM     7.8                  : RMF          - RESISTIVITY OF MUD FILTRATE
SUFT.C        4                    : SUFT         - SURFACE TEMPERATURE
~A  DEPTH       GR     PHIN     PHID     RESD
  250.000   82.887    0.600    0.270    2.837
  250.250   85.284    0.598    0.277    2.783
  250.500   85.281    0.598    0.278    2.781
  250.750   82.872    0.602    0.247    2.779
  251.000   80.466    0.606    0.193    2.727
  251.250   75.654    0.611    0.149    2.725
  251.500   72.647    0.613    0.193    2.723
  251.750   72.642    0.613    0.204    2.773
  252.000   81.046    0.610    0.251    2.823
  252.250   82.843    0.605    0.270    2.875
  252.500   84.038    0.600    0.263    2.927
  252.750   86.437    0.598    0.262    2.981
  253.000   82.829    0.600    0.266    3.093
  253.250   83.425    0.598    0.270    3.209
  253.500   87.624    0.588    0.268    3.329
  253.750   88.220    0.590    0.258    3.454
  254.000   88.215    0.600    0.239    3.651
  254.250   88.210    0.581    0.236    3.788
  254.500   90.608    0.568    0.234    3.929
  254.750   91.203    0.574    0.236    4.002
  255.000   91.198    0.579    0.240    4.151
  255.250   88.191    0.589    0.245    4.148
  255.500   85.782    0.593    0.241    4.147
  255.750   82.773    0.585    0.235    4.143
  256.000   87.575    0.569    0.241    4.065
  256.250   88.171    0.574    0.250    4.216
  256.500   84.562    0.593    0.258    4.294
  256.750   85.157    0.604    0.256    4.454
  257.000   84.551    0.597    0.256    4.537
  257.250   86.950    0.595    0.259    4.450
  257.500   87.546    0.600    0.263    4.283
  257.750   85.137    0.605    0.259    4.203
  258.000   86.334    0.607    0.257    4.046
  258.250   85.128    0.601    0.253    4.119
  258.500   83.322    0.597    0.253    4.353
  258.750   79.712    0.595    0.262    4.351
  259.000   80.309    0.585    0.265    4.349
  259.250   77.301    0.574    0.262    4.267
  259.500   80.900    0.598    0.265    4.185
  259.750   83.297    0.605    0.268    4.182
  260.000   76.685    0.575    0.165    4.676
  260.250   68.271    0.495    0.204    5.427
  260.500   61.057    0.502    0.258    7.879
  260.750   62.254    0.521    0.312    9.145
  261.000   64.051    0.485    0.331   13.029
  261.250   67.048    0.456    0.327   13.519
  261.500   69.446    0.462    0.321   14.025
  261.750   71.246    0.466    0.321   13.760
  262.000   73.043    0.455    0.321   13.248
  262.250   73.038    0.423    0.319   12.518
  262.500   74.234    0.415    0.301   11.829
  262.750   77.233    0.424    0.285   10.972
  263.000   78.429    0.441    0.280    9.988
  263.250   74.820    0.459    0.285    9.092
  263.500   69.410    0.485    0.271    7.973
  263.750   68.804    0.515    0.259    6.991
  264.000   76.007    0.561    0.251    6.131
  264.250   85.611    0.580    0.251    5.377
  264.500   92.213    0.604    0.261    4.987
  264.750   93.410    0.603    0.256    4.801
  265.000   85.597    0.581    0.247    4.055
  265.250   83.189    0.512    0.257    4.052
  265.500   84.386    0.484    0.264    4.530
  265.750   87.985    0.471    0.270    4.789
  266.000   84.376    0.484    0.280    5.254
  266.250   87.373    0.495    0.288    5.451
  266.500   89.771    0.515    0.229    5.550
  266.750   87.966    0.578    0.159    5.759
  267.000   80.752    0.509    0.168    6.438
  267.250   77.745    0.496    0.196    7.065
  267.500   75.338    0.509    0.213    7.898
  267.750   78.336    0.508    0.222    7.893
  268.000   83.737    0.510    0.228    7.743
  268.250   89.138    0.522    0.236    7.316
  268.500   90.935    0.530    0.243    6.914
  268.750   95.132    0.524    0.252    6.656
  269.000   90.924    0.516    0.276    6.776
  269.250   78.306    0.436    0.304    7.438
  269.500   68.090    0.444    0.258   10.598
  269.750   56.073    0.452    0.141   11.629
  270.000   59.071    0.450    0.213   12.762
  270.250   64.472    0.466    0.264   14.536
  270.500   66.268    0.476    0.288   14.802
  270.750   64.462    0.503    0.306   14.519
  271.000   66.860    0.494    0.327   13.720
  271.250   71.060    0.468    0.316   13.208
  271.500   77.061    0.455    0.288   13.198
  271.750   78.858    0.434    0.315   13.443
  272.000   74.049    0.443    0.332   14.473
  272.250   72.842    0.434    0.327   15.301
  272.500   73.438    0.422    0.314   15.876
  272.750   76.435    0.418    0.306   16.777
  273.000   77.031    0.455    0.302   17.085
  273.250   77.025    0.470    0.287   17.076
  273.500   79.423    0.484    0.286   16.438
  273.750   84.224    0.505    0.292   15.830
  274.000   85.421    0.536    0.300   15.237
  274.250   81.812    0.547    0.308   15.232
  274.500   77.602    0.501    0.311   15.800
  274.750   78.196    0.469    0.311   16.084
  275.000   78.194    0.431    0.303   16.078
  275.250   78.189    0.453    0.272   16.068
  275.500   76.382    0.423    0.266   15.764
  275.750   70.971    0.423    0.252   14.894
  276.000   64.360    0.433    0.257   14.074
  276.250   54.144    0.422    0.290   14.068
  276.500   46.331    0.418    0.315   14.868
  276.750   40.319    0.422    0.328   15.718
  277.000   54.129    0.416    0.338   16.925
  277.250   62.533    0.403    0.278   17.235
  277.500   67.331    0.391    0.277   17.225
  277.750   66.728    0.404    0.284   17.217
  278.000   66.121    0.423    0.283   15.966
  278.250   66.718    0.447    0.279   14.808
  278.500   68.515    0.478    0.280   13.478
  278.750   72.114    0.508    0.283   12.980
  279.000   78.115    0.547    0.219   10.563
  279.250   87.120    0.561    0.143    7.829
  279.500   92.521    0.577    0.151    6.371
  279.750   86.510    0.568    0.157    5.483
  280.000   89.507    0.567    0.155    5.085
  280.250   93.106    0.580    0.155    4.896
  280.500   90.698    0.592    0.164    4.627
  280.750   91.895    0.615    0.196    4.538
  281.000   95.495    0.635    0.203    4.536
  281.250  103.299    0.662    0.203    4.617
  281.500  108.099    0.649    0.200    4.704
  281.750  105.090    0.632    0.205    4.789
  282.000  101.481    0.615    0.172    4.969
  282.250  100.274    0.606    0.167    5.058
  282.500  100.870    0.627    0.207    4.871
  282.750  106.872    0.648    0.232    4.603
  283.000  105.065    0.668    0.245    4.269
  283.250  109.265    0.633    0.254    3.814
  283.500  109.261    0.592    0.255    4.264
  283.750  103.249    0.504    0.256    6.308
  284.000   99.040    0.466    0.261    6.794
  284.250   95.430    0.465    0.265    9.155
  284.500   98.430    0.468    0.253   10.046
  284.750  100.828    0.462    0.242   11.441
  285.000   98.420    0.464    0.247   11.871
  285.250   91.808    0.490    0.253   11.216
  285.500   85.197    0.511    0.256   10.023
  285.750   89.396    0.520    0.249    8.309
  286.000   94.797    0.538    0.236    7.424
  286.250  107.403    0.561    0.226    7.995
  286.500  106.799    0.559    0.248    9.453
  286.750   94.781    0.536    0.259   10.568
  287.000   88.170    0.480    0.264   11.594
  287.250   84.560    0.450    0.272   12.255
  287.500   85.756    0.424    0.297   12.713
  287.750   88.155    0.418    0.286   12.709
  288.000   88.750    0.424    0.277   12.466
  288.250   86.342    0.462    0.278   11.345
  288.500   82.734    0.463    0.264   11.132
  288.750   80.928    0.409    0.270   10.716
  289.000   85.128    0.442    0.276   10.513
  289.250   86.925    0.488    0.270   10.702
  289.500   97.131    0.493    0.262   11.105
  289.750  102.532    0.480    0.264   11.100
  290.000  100.124    0.476    0.267   11.088
  290.250   96.516    0.452    0.261   11.084
  290.500   91.104    0.435    0.259   11.079
  290.750   83.892    0.441    0.267   10.869
  291.000   76.679    0.448    0.296   10.081
  291.250   71.269    0.458    0.289    9.523
  291.500   70.062    0.474    0.280    9.521
  291.750   64.652    0.468    0.278    9.877
  292.000   65.248    0.464    0.284   10.440
  292.250   64.641    0.463    0.282   10.631
  292.500   64.037    0.465    0.285   10.825
  292.750   62.831    0.464    0.291   10.616
  293.000   60.423    0.459    0.290   10.222
  293.250   58.615    0.457    0.285    9.478
