~VERSION INFORMATION
 VERS.                 2.0:   CWLS LOG ASCII STANDARD -VERSION 2.0
 WRAP.                  NO:   ONE LINE PER DEPTH STEP
~WELL INFORMATION BLOCK
#MNEM.UNIT           DATA                    DESCRIPTION OF MNEMONIC
#---------    -------------------            -------------------------------
# Generated from Intellog Unique Number	CW_76_78/WELL/1033
WELL.         SUNCOR DROWNED 12-29           : Well_name    - WELL
LOC .         00/12-29-076-22W4/0            : Location     - LOCATION
UWI .         00/12-29-076-22W4/0            : Uwi          - UNIQUE WELL ID
ENTR.         JAYE                           : Entered      - ENTERED BY
SRVC.         SCHLUMBERGER                   : Scn          - SERVICE COMPANY
DATE.         25 FEB 83                      : Date         - LOG DATE
STRT.M        470                            : top_depth    - START DEPTH
STOP.M        690                            : bot_depth    - STOP DEPTH
STEP.M        0.25                           : increment    - STEP LENGTH
 NULL. -999.2500:NULL Value
~CURVE INFORMATION BLOCK
#MNEM UNIT       ERCB CURVE CODE    CURVE DESCRIPTION
#-----------   ------------------   ----------------------------------
DEPT.M        00 001 00 00         : DEPTH        - DEPTH
ILD .OHMM     00 120 00 00         : RESD         - DEEP RESISTIVITY (DIL)
NPHI.V/V      00 330 00 00         : PHIN         - NEUTRON POROSITY (SANDSTONE)
DPHI.V/V      00 890 00 00         : PHID         - DENSITY POROSITY (SANDSTONE)
GR  .API      00 310 00 00         : GR           - GAMMA RAY
CALI.MM       00 280 01 00         : CAL          - CALIPER
~PARAMETER INFORMATION
#MNEM.UNIT           DATA             DESCRIPTION OF MNEMONIC
#---------         -----------     ------------------------------
GL  .M        748.9                : gl           - GROUND LEVEL ELEVATION
EREF.M        752.9                : kb           - ELEVATION OF DEPTH REFERENCE
DATM.M        748.9                : datum        - DATUM ELEVATION
TDD .M        1180                 : tdd          - TOTAL DEPTH DRILLER
RUN .         ONE                  : Run          - RUN NUMBER
ENG .         GAGGING              : Engineer     - RECORDING ENGINEER
WIT .         LYSZKIEWICH          : Witness      - WITNESSED BY
BASE.         EDM                  : Branch       - HOME BASE OF LOGGING UNIT
MUD .         GEL CHEM             : Mud_type     - MUD TYPE
MATR.         SANDSTONE            : Logunit      - NEUTRON MATRIX
TMAX.C        34.4                 : BHT          - MAXIMUM RECORDED TEMPERATURE
BHTD.M        1177                 : BHTDEP       - MAXIMUM RECORDED TEMPERATURE
RMT .C        16.6                 : MDTP         - TEMPERATURE OF MUD
MUDD.KG/M     9.5                  : MWT          - MUD DENSITY
NEUT.         1                    : NEUTRON      - NEUTRON TYPE
RESI.         0                    : RESIST       - RESISTIVITY TYPE
RM  .OHMM     3.648                : RM           - RESISTIVITY OF MUD
RMC .OHMM     0                    : RMC          - RESISTIVITY OF MUD CAKE
RMF .OHMM     2.673                : RMF          - RESISTIVITY OF MUD FILTRATE
SUFT.C        0                    : SUFT         - SURFACE TEMPERATURE
~A  DEPTH     RESD     PHIN     PHID       GR      CAL
# ...
  616.000    9.511    0.335    0.085   71.055  248.487
  616.250    9.435    0.325    0.096   71.245  250.661
  616.500    9.289    0.374    0.124   70.319  252.939
  616.750    8.910    0.391    0.146   71.005  255.527
  617.000    8.545    0.383    0.155   75.222  259.560
  617.250    8.121    0.405    0.164   76.465  264.626
  617.500    7.715    0.422    0.172   75.291  267.524
  617.750    7.181    0.438    0.167   75.418  269.080
  618.000    6.734    0.433    0.151   76.166  269.911
  618.250    6.374    0.419    0.153   78.710  270.950
  618.500    6.102    0.397    0.160   81.626  272.918
  618.750    6.054    0.415    0.165   77.974  274.060
  619.000    6.107    0.405    0.158   77.978  275.202
  619.250    6.173    0.390    0.142   79.654  276.344
  619.500    6.205    0.392    0.141   81.888  277.073
  619.750    6.200    0.403    0.140   80.900  277.699
  620.000    6.185    0.403    0.140   77.497  278.221
  620.250    6.183    0.411    0.137   77.191  278.848
  620.500    6.167    0.433    0.145   78.557  278.956
  620.750    6.176    0.456    0.162   75.835  278.860
  621.000    6.218    0.438    0.160   74.847  278.349
  621.250    6.237    0.425    0.135   76.462  277.117
  621.500    6.029    0.410    0.164   79.935  275.573
  621.750    5.868    0.400    0.206   81.984  272.172
  622.000    5.617    0.424    0.244   81.305  268.874
  622.250    5.190    0.481    0.156   75.051  266.711
  622.500    4.959    0.459    0.059   71.213  264.859
  622.750    4.892    0.391    0.184   74.377  265.175
  623.000    4.843    0.420    0.317   79.585  265.491
  623.250    4.367    0.475    0.365   79.217  265.290
  623.500    3.572    0.527    0.399   76.743  262.714
  623.750    2.646    0.539    0.395   76.189  264.579
  624.000    2.081    0.548    0.377   76.564  257.977
  624.250    1.800    0.561    0.330   73.656  249.722
  624.500    1.648    0.530    0.257   65.977  257.163
  624.750    1.586    0.410    0.191   55.137  269.561
  625.000    1.718    0.362    0.193   54.518  263.347
  625.250    2.067    0.336    0.159   55.769  255.650
  625.500    2.635    0.344    0.132   55.166  247.542
  625.750    6.433    0.370    0.200   50.609  241.593
  626.000    9.125    0.388    0.247   51.925  235.234
  626.250   11.144    0.395    0.233   55.957  234.126
  626.500   11.454    0.407    0.206   62.711  237.449
  626.750   11.048    0.402    0.186   69.711  238.300
  627.000   10.264    0.372    0.189   70.222  234.723
  627.250    8.396    0.447    0.215   73.452  233.719
  627.500    7.076    0.490    0.213   60.860  229.008
  627.750    6.215    0.422    0.186   52.038  219.456
  628.000    5.796    0.376    0.226   46.368  213.816
  628.250    5.664    0.367    0.260   40.512  210.550
  628.500    6.358    0.365    0.284   35.089  208.723
  628.750    8.258    0.362    0.292   32.262  207.621
  629.000   13.455    0.357    0.290   29.067  207.129
  629.250   21.636    0.362    0.281   28.155  206.643
  629.500   32.706    0.368    0.281   28.297  206.567
  629.750   40.693    0.368    0.288   28.869  206.695
  630.000   43.428    0.367    0.283   31.047  206.827
  630.250   44.226    0.369    0.283   31.990  206.646
  630.500   43.383    0.374    0.282   32.439  206.372
  630.750   42.554    0.374    0.275   32.952  206.189
  631.000   40.966    0.368    0.268   33.648  205.903
  631.250   39.143    0.372    0.269   35.209  206.241
  631.500   37.609    0.393    0.272   37.388  206.472
  631.750   36.206    0.409    0.277   38.392  207.125
  632.000   34.596    0.412    0.283   37.050  207.454
  632.250   32.879    0.406    0.292   35.150  207.492
  632.500   31.596    0.408    0.289   32.817  207.827
  632.750   30.186    0.421    0.277   30.609  207.845
  633.000   28.841    0.410    0.273   32.541  207.671
  633.250   27.000    0.382    0.268   37.317  207.283
  633.500   25.269    0.370    0.271   38.075  207.005
  633.750   23.829    0.366    0.276   36.918  206.932
  634.000   21.976    0.388    0.266   38.293  206.960
  634.250   20.300    0.393    0.261   41.029  206.991
  634.500   18.442    0.385    0.258   38.141  207.011
  634.750   16.441    0.384    0.248   36.550  207.136
  635.000   14.521    0.380    0.259   38.298  207.268
  635.250   12.754    0.377    0.258   41.836  207.399
  635.500   11.161    0.380    0.247   45.499  208.253
  635.750    9.969    0.391    0.240   45.331  208.483
  636.000    9.090    0.386    0.248   44.110  208.616
  636.250    8.336    0.371    0.249   44.004  208.850
  636.500    7.862    0.355    0.243   44.207  209.182
  636.750    7.596    0.373    0.233   44.595  209.828
  637.000    7.424    0.381    0.227   44.920  209.856
  637.250    7.363    0.358    0.233   45.614  209.375
  637.500    7.388    0.357    0.237   46.805  209.296
  637.750    7.426    0.381    0.223   48.304  209.216
  638.000    7.462    0.392    0.227   51.597  209.040
  638.250    7.542    0.381    0.229   56.001  208.760
  638.500    7.710    0.367    0.220   58.181  208.578
  638.750    7.895    0.357    0.214   57.209  208.916
  639.000    8.039    0.340    0.220   57.966  210.386
  639.250    8.157    0.321    0.212   59.900  212.367
  639.500    8.228    0.332    0.197   61.461  215.589
  639.750    8.316    0.343    0.181   63.454  220.044
  640.000    8.405    0.330    0.137   61.926  228.621
  640.250    8.495    0.300    0.096   58.604  237.921
  640.500    8.652    0.273    0.065   59.733  246.911
  640.750    8.943    0.301    0.119   66.240  252.297
  641.000    9.455    0.335    0.165   66.998  254.386
  641.250    9.845    0.364    0.186   64.541  255.542
  641.500   10.159    0.356    0.195   65.363  257.425
  641.750   10.020    0.360    0.192   68.593  260.029
  642.000    9.756    0.363    0.177   69.474  262.631
  642.250    9.659    0.350    0.158   69.675  267.498
  642.500    9.213    0.361    0.171   69.816  275.148
  642.750    8.721    0.391    0.187   68.472  272.909
  643.000    8.270    0.366    0.168   68.488  267.167
  643.250    7.932    0.323    0.161   71.100  269.051
  643.500    7.724    0.348    0.183   67.719  270.106
  643.750    7.690    0.378    0.214   60.069  264.677
  644.000    7.860    0.386    0.238   51.001  258.109
  644.250    8.263    0.361    0.257   38.779  248.555
  644.500    9.188    0.337    0.270   29.154  248.894
  644.750   10.489    0.328    0.258   18.477  250.057
  645.000   12.199    0.310    0.199   20.225  251.213
  645.250   16.668    0.283    0.155   21.662  252.788
  645.500   20.739    0.284    0.164   22.422  254.049
  645.750   22.977    0.307    0.181   23.796  254.384
  646.000   23.750    0.309    0.183   26.346  256.884
  646.250   24.551    0.290    0.186   25.436  257.531
  646.500   26.197    0.299    0.213   39.049  253.745
  646.750   26.676    0.353    0.254   71.021  250.682
  647.000   21.944    0.422    0.289   81.174  256.992
  647.250   15.715    0.581    0.311   78.780  262.480
  647.500    9.984    0.603    0.280   71.999  257.459
  647.750    6.260    0.582    0.317   67.255  249.657
  648.000    4.509    0.527    0.406   72.154  248.861
  648.250    4.027    0.533    0.364   80.391  251.361
  648.500    3.995    0.540    0.289   84.053  252.314
  648.750    4.319    0.483    0.260   78.013  248.325
  649.000    4.923    0.426    0.250   72.218  246.497
  649.250    5.321    0.411    0.238   69.453  243.641
  649.500    5.874    0.418    0.290   70.707  243.154
  649.750    6.580    0.414    0.286   70.043  243.284
  650.000    7.262    0.409    0.234   70.986  245.062
  650.250    7.808    0.440    0.222   76.936  248.283
  650.500    7.760    0.458    0.237   86.904  245.941
  650.750    7.387    0.466    0.280   87.787  237.007
  651.000    6.635    0.489    0.329   81.683  227.763
  651.250    6.292    0.531    0.349   67.854  220.991
  651.500    6.653    0.481    0.329   54.211  214.630
  651.750    7.329    0.441    0.309   46.502  208.682
  652.000    8.476    0.409    0.306   47.939  208.093
  652.250   10.428    0.405    0.307   48.822  209.771
