~VERSION INFORMATION
 VERS.                 2.0:   CWLS LOG ASCII STANDARD -VERSION 2.0
 WRAP.                  NO:   ONE LINE PER DEPTH STEP
~WELL INFORMATION BLOCK
#MNEM.UNIT           DATA                    DESCRIPTION OF MNEMONIC
#---------    -------------------            -------------------------------
# Generated from Intellog Unique Number	CW_76_78/WELL/1034
WELL.         OAKPETROREP ET AL MARTEN 16-12 : Well_name    - WELL
LOC .         00/16-12-076-03W5/0            : Location     - LOCATION
UWI .         00/16-12-076-03W5/0            : Uwi          - UNIQUE WELL ID
ENTR.         JAYE                           : Entered      - ENTERED BY
SRVC.         SCHLUMBERGER                   : Scn          - SERVICE COMPANY
DATE.         16 FEB 79                      : Date         - LOG DATE
STRT.M        550                            : top_depth    - START DEPTH
STOP.M        760                            : bot_depth    - STOP DEPTH
STEP.M        0.25                           : increment    - STEP LENGTH
 NULL. -999.2500:NULL Value
~CURVE INFORMATION BLOCK
#MNEM UNIT       ERCB CURVE CODE    CURVE DESCRIPTION
#-----------   ------------------   ----------------------------------
DEPT.M        00 001 00 00         : DEPTH        - DEPTH
ILD .OHMM     00 120 00 00         : RESD         - DEEP RESISTIVITY (DIL)
NPHI.V/V      00 330 00 00         : PHIN         - NEUTRON POROSITY (SANDSTONE)
DPHI.V/V      00 890 00 00         : PHID         - DENSITY POROSITY (SANDSTONE)
GR  .API      00 310 00 00         : GR           - GAMMA RAY
CALI.MM       00 280 01 00         : CAL          - CALIPER
~PARAMETER INFORMATION
#MNEM.UNIT           DATA             DESCRIPTION OF MNEMONIC
#---------         -----------     ------------------------------
GL  .M        834.8                : gl           - GROUND LEVEL ELEVATION
EREF.M        838.8                : kb           - ELEVATION OF DEPTH REFERENCE
DATM.M        834.8                : datum        - DATUM ELEVATION
TDD .M        809                  : tdd          - TOTAL DEPTH DRILLER
RUN .         ONE                  : Run          - RUN NUMBER
ENG .         GILLUS               : Engineer     - RECORDING ENGINEER
WIT .         LILLICO              : Witness      - WITNESSED BY
BASE.         EDM                  : Branch       - HOME BASE OF LOGGING UNIT
MUD .         GEL MUD              : Mud_type     - MUD TYPE
MATR.         SANDSTONE            : Logunit      - NEUTRON MATRIX
TMAX.C        28                   : BHT          - MAXIMUM RECORDED TEMPERATURE
BHTD.M        809.3                : BHTDEP       - MAXIMUM RECORDED TEMPERATURE
RMT .C        20                   : MDTP         - TEMPERATURE OF MUD
MUDD.KG/M     1080                 : MWT          - MUD DENSITY
NEUT.         1                    : NEUTRON      - NEUTRON TYPE
RESI.         0                    : RESIST       - RESISTIVITY TYPE
RM  .OHMM     3.53                 : RM           - RESISTIVITY OF MUD
RMC .OHMM     0                    : RMC          - RESISTIVITY OF MUD CAKE
RMF .OHMM     3.35                 : RMF          - RESISTIVITY OF MUD FILTRATE
SUFT.C        0                    : SUFT         - SURFACE TEMPERATURE
~A  DEPTH     RESD     PHIN     PHID       GR      CAL
# ...
  659.500    4.081    0.461    0.235   78.229  206.319
  659.750    4.458    0.437    0.214   77.383  207.743
  660.000    4.588    0.422    0.213   77.046  209.679
  660.250    4.515    0.450    0.233   77.395  211.721
  660.500    4.376    0.484    0.272   79.559  212.716
  660.750    4.291    0.500    0.237   83.100  210.378
  661.000    4.269    0.500    0.260   88.019  206.575
  661.250    4.288    0.487    0.274   88.054  202.351
  661.500    4.364    0.472    0.255   87.966  201.786
  661.750    4.449    0.463    0.250   91.883  202.565
  662.000    4.510    0.479    0.263   90.103  203.153
  662.250    4.455    0.485    0.256   87.570  203.938
  662.500    4.400    0.486    0.237   87.167  204.627
  662.750    4.289    0.497    0.255   87.765  205.312
  663.000    4.174    0.498    0.269   85.544  205.981
  663.250    4.092    0.479    0.251   84.893  206.041
  663.500    4.064    0.460    0.238   89.311  206.206
  663.750    4.067    0.445    0.242   92.538  206.277
  664.000    4.055    0.444    0.272   92.763  206.540
  664.250    4.042    0.458    0.275   92.170  206.801
  664.500    4.030    0.465    0.258   91.330  207.067
  664.750    4.025    0.447    0.236   92.053  207.543
  665.000    3.997    0.461    0.238   91.776  207.915
  665.250    3.985    0.473    0.232   88.555  208.183
  665.500    4.003    0.475    0.218   88.401  208.355
  665.750    4.067    0.475    0.207   90.378  208.410
  666.000    4.092    0.476    0.210   93.168  208.682
  666.250    4.109    0.479    0.217   96.332  208.947
  666.500    4.136    0.485    0.217   98.998  209.423
  666.750    4.138    0.500    0.212   99.973  210.521
  667.000    4.095    0.506    0.212   99.068  211.002
  667.250    4.052    0.491    0.221  100.232  211.475
  667.500    4.009    0.483    0.221  101.895  211.746
  667.750    3.982    0.475    0.188  101.367  212.223
  668.000    3.963    0.497    0.209  101.023  212.906
  668.250    3.914    0.497    0.208  101.749  215.153
  668.500    3.859    0.485    0.195  102.598  217.719
  668.750    3.790    0.490    0.186  100.756  218.719
  669.000    3.764    0.507    0.209   95.342  219.184
  669.250    3.767    0.515    0.227   91.620  218.626
  669.500    3.798    0.502    0.262   88.836  211.793
  669.750    3.850    0.483    0.249   86.680  207.680
  670.000    3.962    0.460    0.227   88.090  205.856
  670.250    4.092    0.456    0.242   89.381  204.758
  670.500    4.396    0.470    0.235   80.272  204.196
  670.750    5.004    0.474    0.217   71.852  203.633
  671.000    5.476    0.432    0.143   66.629  203.170
  671.250    5.960    0.363    0.153   73.674  202.810
  671.500    6.343    0.407    0.202   75.654  202.238
  671.750    6.726    0.438    0.274   72.683  202.197
  672.000    7.198    0.449    0.269   68.896  202.250
  672.250    7.747    0.406    0.235   66.178  202.417
  672.500    8.229    0.387    0.170   61.953  203.093
  672.750    8.940    0.362    0.129   57.856  203.579
  673.000    9.148    0.307    0.064   61.085  204.260
  673.250    8.639    0.302    0.146   67.508  204.521
  673.500    7.474    0.359    0.232   72.992  204.694
  673.750    6.370    0.448    0.296   74.965  204.958
  674.000    5.541    0.456    0.292   74.251  205.221
  674.250    4.732    0.466    0.288   73.095  205.492
  674.500    4.305    0.485    0.309   72.064  205.751
  674.750    4.292    0.504    0.298   71.475  205.927
  675.000    4.585    0.459    0.286   70.696  206.090
  675.250    4.971    0.443    0.240   71.168  206.345
  675.500    5.291    0.399    0.215   73.646  206.517
  675.750    5.294    0.417    0.192   77.313  206.884
  676.000    4.880    0.445    0.259   81.669  207.261
  676.250    4.350    0.446    0.267   85.400  207.529
  676.500    4.032    0.446    0.245   88.754  207.901
  676.750    3.766    0.450    0.225   92.233  207.021
  677.000    3.623    0.454    0.210   95.836  206.035
  677.250    3.447    0.461    0.194   98.190  215.067
  677.500    3.330    0.474    0.198   99.412  220.972
  677.750    3.282    0.483    0.218  100.889  221.238
  678.000    3.321    0.487    0.223  103.117  215.244
  678.250    3.469    0.497    0.203  107.348  221.145
  678.500    3.624    0.524    0.269   97.427  231.853
  678.750    3.966    0.520    0.280   95.270  214.271
  679.000    4.390    0.509    0.235   98.186  204.624
  679.250    4.509    0.502    0.241  100.098  202.279
  679.500    4.290    0.483    0.260  101.387  201.922
  679.750    4.059    0.478    0.246  101.793  207.928
  680.000    3.834    0.495    0.208  101.330  216.232
  680.250    3.561    0.514    0.251  100.174  214.206
  680.500    3.484    0.487    0.237   99.457  218.646
  680.750    3.539    0.477    0.198   98.930  232.170
  681.000    4.043    0.468    0.229   97.464  232.123
  681.250    5.920    0.420    0.256   93.617  248.151
  681.500    8.244    0.290    0.202   88.328  205.622
  681.750   12.254    0.237    0.074   82.790  206.301
  682.000   16.254    0.227    0.049   73.683  206.264
  682.250   17.428    0.259    0.049   77.036  206.320
  682.500   15.651    0.292    0.067   84.022  206.267
  682.750   12.218    0.330    0.135   89.068  206.127
  683.000   10.106    0.436    0.180   87.162  206.176
  683.250    8.129    0.450    0.187   83.501  205.608
  683.500    7.178    0.427    0.206   88.858  205.151
  683.750    6.581    0.444    0.236   94.468  204.481
  684.000    6.379    0.457    0.238   96.066  204.117
  684.250    6.371    0.471    0.245   97.544  203.554
  684.500    6.459    0.486    0.259  103.653  203.907
  684.750    6.476    0.454    0.246  102.060  204.193
  685.000    6.384    0.432    0.226   99.340  204.565
  685.250    6.189    0.437    0.209   96.181  204.620
  685.500    5.944    0.436    0.198   92.583  204.459
  685.750    5.698    0.421    0.175   96.438  204.419
  686.000    5.534    0.427    0.216   98.916  204.048
  686.250    5.325    0.439    0.221  103.585  204.018
  686.500    5.162    0.445    0.231  102.181  204.179
  686.750    5.089    0.461    0.215   99.021  204.544
  687.000    5.045    0.454    0.233   98.617  204.922
  687.250    5.039    0.435    0.246  100.719  205.702
  687.500    5.043    0.447    0.229  103.195  206.497
  687.750    5.037    0.455    0.211  104.358  206.670
  688.000    5.069    0.444    0.205  105.835  207.039
  688.250    5.071    0.439    0.198  102.924  207.308
  688.500    5.132    0.448    0.191  100.832  207.464
  688.750    5.184    0.452    0.181  101.557  207.319
  689.000    5.226    0.460    0.205  100.903  207.479
  689.250    5.338    0.472    0.209   99.181  207.540
  689.500    5.463    0.450    0.217   97.214  207.808
  689.750    5.792    0.437    0.198   95.185  207.848
  690.000    6.095    0.417    0.181   95.531  208.025
  690.250    6.180    0.400    0.165   99.261  207.661
  690.500    6.081    0.435    0.190   99.235  207.414
  690.750    5.950    0.460    0.210   97.013  207.253
  691.000    5.833    0.472    0.195   96.675  207.211
  691.250    5.892    0.464    0.184   95.457  207.785
  691.500    6.131    0.444    0.180   92.987  207.957
  691.750    6.464    0.410    0.166   89.265  208.113
  692.000    6.867    0.377    0.136   84.792  208.067
  692.250    7.147    0.353    0.123   87.456  208.129
  692.500    7.232    0.376    0.145   91.686  208.090
  692.750    6.907    0.409    0.178   93.222  206.475
  693.000    6.462    0.427    0.205   95.261  204.865
  693.250    5.836    0.449    0.210   97.991  204.405
  693.500    5.440    0.456    0.189   98.465  204.043
  693.750    5.323    0.447    0.177   97.436  204.104
  694.000    5.257    0.434    0.173   98.596  204.465
  694.250    5.291    0.426    0.189  100.449  204.625
  694.500    5.353    0.435    0.195  102.108  204.789
  694.750    5.428    0.445    0.191  103.270  205.062
  695.000    5.482    0.452    0.203  104.061  205.120
  695.250    5.548    0.460    0.205  102.844  204.762
  695.500    5.677    0.445    0.199   98.621  204.502
  695.750    5.798    0.440    0.193   95.209  204.145
