~VERSION INFORMATION
 VERS.                 2.0:   CWLS LOG ASCII STANDARD -VERSION 2.0
 WRAP.                  NO:   ONE LINE PER DEPTH STEP
~WELL INFORMATION BLOCK
#MNEM.UNIT           DATA                    DESCRIPTION OF MNEMONIC
#---------    -------------------            -------------------------------
# Generated from Intellog Unique Number	CS_73_76/WELL/3233
WELL.         10-08-076-08W4                 : Well_name    - WELL
LOC .         00/10-08-076-08W4/0            : Location     - LOCATION
UWI .         00/10-08-076-08W4/0            : Uwi          - UNIQUE WELL ID
ENTR.         SP                             : Entered      - ENTERED BY
SRVC.         SCHLUMBERGER                   : Scn          - SERVICE COMPANY
STRT.M        225                            : top_depth    - START DEPTH
STOP.M        455                            : bot_depth    - STOP DEPTH
STEP.M        0.25                           : increment    - STEP LENGTH
 NULL. -999.2500:NULL Value
~CURVE INFORMATION BLOCK
#MNEM UNIT       ERCB CURVE CODE    CURVE DESCRIPTION
#-----------   ------------------   ----------------------------------
DEPT.M        00 001 00 00         : DEPTH        - DEPTH
ILD .OHMM     00 120 00 00         : RESD         - DEEP RESISTIVITY (DIL)
GR  .API      00 310 00 00         : GR           - GAMMA RAY
DPHI.V/V      00 890 00 00         : PHID         - DENSITY POROSITY (LIMESTONE)
NPHI.V/V      00 330 00 00         : PHIN         - NEUTRON POROSITY (LIMESTONE)
~PARAMETER INFORMATION
#MNEM.UNIT           DATA             DESCRIPTION OF MNEMONIC
#---------         -----------     ------------------------------
GL  .M        630.79               : gl           - GROUND LEVEL ELEVATION
EREF.M        634.29               : kb           - ELEVATION OF DEPTH REFERENCE
DATM.M        630.79               : datum        - DATUM ELEVATION
TDD .M        462                  : tdd          - TOTAL DEPTH DRILLER
RUN .         ONE                  : Run          - RUN NUMBER
ENG .         BILL                 : Engineer     - RECORDING ENGINEER
WIT .         JIM                  : Witness      - WITNESSED BY
MUD .         GEL                  : Mud_type     - MUD TYPE
MATR.         LIMESTONE            : Logunit      - NEUTRON MATRIX
TMAX.C        29                   : BHT          - MAXIMUM RECORDED TEMPERATURE
BHTD.M        462                  : BHTDEP       - MAXIMUM RECORDED TEMPERATURE
MATR.         1                    : LOGUNIT      - NEUTRON MATRIX
RMT .C        25                   : MDTP         - TEMPERATURE OF MUD
NEUT.         1                    : NEUTRON      - NEUTRON TYPE
RESI.         0                    : RESIST       - RESISTIVITY TYPE
RMC .OHMM     0.25                 : RMC          - RESISTIVITY OF MUD CAKE
RMF .OHMM     0.25                 : RMF          - RESISTIVITY OF MUD FILTRATE
SUFT.C        15                   : SUFT         - SURFACE TEMPERATURE
~A  DEPTH     RESD       GR     PHID     PHIN
# ...
  399.000    2.155   92.740    0.223    0.472
  399.250    2.366   98.253    0.233    0.406
  399.500    2.598   97.644    0.242    0.380
  399.750    2.852   95.198    0.235    0.391
  400.000    3.250   93.365    0.203    0.364
  400.250    3.502   85.408    0.226    0.397
  400.500    3.635   88.473    0.232    0.443
  400.750    3.703   90.925    0.219    0.467
  401.000    3.773   88.480    0.195    0.467
  401.250    3.773   85.421    0.204    0.430
  401.500    3.844   89.097    0.219    0.389
  401.750    3.990   95.835    0.232    0.397
  402.000    4.380  101.348    0.245    0.416
  402.250    5.181   90.331    0.250    0.452
  402.500    6.363   82.987    0.253    0.424
  402.750    7.813   80.541    0.255    0.364
  403.000    8.739   81.156    0.256    0.314
  403.250    9.593   81.159    0.261    0.323
  403.500   10.532   86.061    0.256    0.359
  403.750   11.780  102.594    0.299    0.418
  404.000   12.458   96.474    0.309    0.450
  404.250   13.677   76.273    0.283    0.447
  404.500   15.015   43.215    0.283    0.334
  404.750   17.111   38.320    0.287    0.325
  405.000   18.784   44.446    0.280    0.314
  405.250   17.761   51.795    0.297    0.299
  405.500   16.482   55.472    0.282    0.293
  405.750   15.878   63.434    0.240    0.305
  406.000   16.177   73.234    0.232    0.321
  406.250   16.481   75.686    0.209    0.343
  406.500   18.093   70.791    0.200    0.340
  406.750   18.781   73.243    0.245    0.300
  407.000   19.863   63.450    0.266    0.282
  407.250   21.402   59.167    0.276    0.282
  407.500   22.635   56.721    0.238    0.276
  407.750   23.061   60.398    0.251    0.300
  408.000   21.005   62.239    0.264    0.322
  408.250   21.400   64.690    0.258    0.331
  408.500   21.399   68.979    0.250    0.310
  408.750   21.802   70.818    0.240    0.307
  409.000   21.802   72.047    0.229    0.331
  409.250   21.398   64.702    0.244    0.343
  409.500   21.398   63.480    0.262    0.332
  409.750   21.397   72.667    0.229    0.308
  410.000   21.001   74.507    0.232    0.316
  410.250   19.857   75.122    0.231    0.332
  410.500   18.774   69.615    0.234    0.349
  410.750   18.086   64.720    0.242    0.286
  411.000   17.101   95.948    0.226    0.266
  411.250   16.784   97.176    0.217    0.291
  411.500   17.100   92.281    0.224    0.342
  411.750   17.422   85.549    0.245    0.363
  412.000   18.772   80.654    0.266    0.309
  412.250   20.608   77.596    0.297    0.292
  412.500   23.485   70.251    0.276    0.331
  412.750   27.267   57.398    0.257    0.403
  413.000   30.499   48.217    0.298    0.453
  413.250   53.397   49.444    0.314    0.442
  413.500   68.063   48.223    0.308    0.386
  413.750   86.757   48.226    0.306    0.369
  414.000   98.867   39.658    0.317    0.384
  414.250  106.530   42.109    0.316    0.380
  414.500  108.535   52.521    0.311    0.370
  414.750  110.578   46.401    0.304    0.358
  415.000  110.576   51.915    0.310    0.370
  415.250  106.521   51.918    0.309    0.381
  415.500  100.716   54.370    0.300    0.354
  415.750   88.375   51.924    0.304    0.353
  416.000   73.323   54.376    0.306    0.355
  416.250   48.624   53.767    0.319    0.353
  416.500   38.145   59.893    0.310    0.312
  416.750   31.648   69.079    0.298    0.316
  417.000   29.370   77.042    0.274    0.342
  417.250   30.487   77.045    0.271    0.336
  417.500   33.469   67.251    0.263    0.369
  417.750   35.396   62.970    0.287    0.398
  418.000   38.140   61.135    0.312    0.386
  418.250   41.870   60.527    0.308    0.348
  418.500   43.462   60.529    0.316    0.347
  418.750   40.334   60.533    0.306    0.331
  419.000   34.095   66.046    0.292    0.272
  419.250   27.251   58.090    0.120    0.262
  419.500   22.191   57.480    0.161    0.304
  419.750   19.472   67.892    0.216    0.365
  420.000   17.736   74.630    0.272    0.348
  420.250   14.716   75.244    0.290    0.349
  420.500   12.209   82.595    0.284    0.336
  420.750   10.515   78.924    0.274    0.325
  421.000    9.758   74.029    0.263    0.310
  421.250    8.562   88.726    0.263    0.283
  421.500    7.946  106.484    0.234    0.283
  421.750    7.374  111.999    0.201    0.296
  422.000    6.972  113.226    0.209    0.282
  422.250    6.972  113.841    0.212    0.282
  422.500    6.972  110.782    0.207    0.309
  422.750    6.972  105.888    0.202    0.332
  423.000    6.843  121.809    0.209    0.331
  423.250    6.843  114.465    0.206    0.332
  423.500    6.842   99.162    0.201    0.336
  423.750    6.971   88.757    0.224    0.342
  424.000    6.971   85.698    0.252    0.296
  424.250    7.372   88.150    0.267    0.289
  424.500    7.944   91.828    0.266    0.331
  424.750    8.885   77.749    0.279    0.377
  425.000   16.447   90.002    0.256    0.328
  425.250   17.715   90.007    0.226    0.343
  425.500   19.079   74.706    0.216    0.361
  425.750   18.032   60.629    0.310    0.378
  426.000   15.522   59.411    0.254    0.298
  426.250   13.872   71.049    0.228    0.298
  426.500   12.630   80.236    0.211    0.310
  426.750   11.499   93.099    0.207    0.322
  427.000   10.469   91.268    0.206    0.335
  427.250   10.079   86.987    0.210    0.339
  427.500   10.076   86.992    0.224    0.328
  427.750   11.266   78.425    0.238    0.324
  428.000   14.086   66.797    0.252    0.354
  428.250   16.658   57.006    0.272    0.374
  428.500   20.445   52.113    0.286    0.321
  428.750   23.728   56.404    0.280    0.323
  429.000   26.037   63.755    0.273    0.391
  429.250   26.023   59.475    0.285    0.414
  429.500   26.014   46.010    0.296    0.378
  429.750   25.521   39.281    0.313    0.352
  430.000   25.984   49.081    0.286    0.361
  430.250   25.494   55.821    0.281    0.352
  430.500   25.486   53.378    0.268    0.366
  430.750   24.536   56.444    0.274    0.390
  431.000   24.076   50.327    0.302    0.403
  431.250   24.518   43.596    0.290    0.318
  431.500   25.912   47.889    0.253    0.316
  431.750   26.393   52.179    0.252    0.325
  432.000   27.898   57.694    0.286    0.340
  432.250   28.950   52.800    0.308    0.327
  432.500   31.181   50.356    0.306    0.342
  432.750   31.752   50.975    0.318    0.361
  433.000   31.727   38.122    0.330    0.350
  433.250   31.717   32.004    0.328    0.342
  433.500   31.710   32.623    0.330    0.357
  433.750   28.338   41.810    0.311    0.369
  434.000   21.407   37.530    0.309    0.339
  434.250   17.102   32.025    0.318    0.328
  434.500   14.723   28.355    0.326    0.341
  434.750   12.441   33.871    0.335    0.402
  435.000   10.127   36.937    0.335    0.392
  435.250    8.556   33.270    0.322    0.351
  435.500    7.504   34.499    0.306    0.239
  435.750    7.093   43.075    0.290    0.237
  436.000    7.089   65.121    0.254    0.259
  436.250    7.355   84.719    0.170    0.284
  436.500    7.632   81.050    0.186    0.261
  436.750    7.627   81.056    0.197    0.254
  437.000    7.625   76.162    0.206    0.270
  437.250    7.622   67.596    0.217    0.275
  437.500    7.616   63.928    0.213    0.271
  437.750    7.615   65.769    0.213    0.281
  438.000    7.611   70.672    0.215    0.291
  438.250    7.751   69.453    0.219    0.306
  438.500    7.604   70.682    0.213    0.312
  438.750    7.742   74.972    0.227    0.304
  439.000    7.885   71.916    0.245    0.293
  439.250    7.882   68.862    0.254    0.290
  439.500    7.733   67.029    0.234    0.282
  439.750    7.584   68.871    0.227    0.299
  440.000    7.441   74.998    0.235    0.299
  440.250    7.438   82.963    0.199    0.274
  440.500    7.298   89.090    0.175    0.286
  440.750    7.160   89.708    0.176    0.298
  441.000    6.892   87.263    0.191    0.296
  441.250    6.763   79.921    0.194    0.288
  441.500    6.761   86.661    0.182    0.292
  441.750    6.758   87.891    0.196    0.302
  442.000    6.755   86.059    0.210    0.304
  442.250    6.626   89.125    0.205    0.308
