~VERSION INFORMATION
 VERS.                 2.0:   CWLS LOG ASCII STANDARD -VERSION 2.0
 WRAP.                  NO:   ONE LINE PER DEPTH STEP
~WELL INFORMATION BLOCK
#MNEM.UNIT           DATA                    DESCRIPTION OF MNEMONIC
#---------    -------------------            -------------------------------
# Generated from Intellog Unique Number	CW_82_90/WELL/1030
WELL.         AMOCO BRINTNELL 13-16          : Well_name    - WELL
LOC .         00/13-16-084-23W4/0            : Location     - LOCATION
UWI .         00/13-16-084-23W4/0            : Uwi          - UNIQUE WELL ID
ENTR.         JAYE                           : Entered      - ENTERED BY
SRVC.         SCHLUMBERGER                   : Scn          - SERVICE COMPANY
DATE.         25 FEB 86                      : Date         - LOG DATE
STRT.M        190                            : top_depth    - START DEPTH
STOP.M        410                            : bot_depth    - STOP DEPTH
STEP.M        0.25                           : increment    - STEP LENGTH
 NULL. -999.2500:NULL Value
~CURVE INFORMATION BLOCK
#MNEM UNIT       ERCB CURVE CODE    CURVE DESCRIPTION
#-----------   ------------------   ----------------------------------
DEPT.M        00 001 00 00         : DEPTH        - DEPTH
CALI.MM       00 280 01 00         : CAL          - CALIPER
GR  .API      00 310 00 00         : GR           - GAMMA RAY
NPHI.V/V      00 330 00 00         : PHIN         - NEUTRON POROSITY (SANDSTONE)
DPHI.V/V      00 890 00 00         : PHID         - DENSITY POROSITY (SANDSTONE)
ILD .OHMM     00 120 00 00         : RESD         - DEEP RESISTIVITY (DIL)
~PARAMETER INFORMATION
#MNEM.UNIT           DATA             DESCRIPTION OF MNEMONIC
#---------         -----------     ------------------------------
GL  .M        584.4                : gl           - GROUND LEVEL ELEVATION
EREF.M        588                  : kb           - ELEVATION OF DEPTH REFERENCE
DATM.M        584.4                : datum        - DATUM ELEVATION
TDD .M        413                  : tdd          - TOTAL DEPTH DRILLER
RUN .         ONE                  : Run          - RUN NUMBER
ENG .         VERNER               : Engineer     - RECORDING ENGINEER
WIT .         KOSS                 : Witness      - WITNESSED BY
BASE.         S.L.                 : Branch       - HOME BASE OF LOGGING UNIT
MUD .         GEL CHEM             : Mud_type     - MUD TYPE
MATR.         SANDSTONE            : Logunit      - NEUTRON MATRIX
TMAX.C        20                   : BHT          - MAXIMUM RECORDED TEMPERATURE
BHTD.M        413                  : BHTDEP       - MAXIMUM RECORDED TEMPERATURE
RMT .C        18.3                 : MDTP         - TEMPERATURE OF MUD
MUDD.KG/M     1130                 : MWT          - MUD DENSITY
NEUT.         1                    : NEUTRON      - NEUTRON TYPE
RESI.         0                    : RESIST       - RESISTIVITY TYPE
RM  .OHMM     4.13                 : RM           - RESISTIVITY OF MUD
RMC .OHMM     0                    : RMC          - RESISTIVITY OF MUD CAKE
RMF .OHMM     4.22                 : RMF          - RESISTIVITY OF MUD FILTRATE
SUFT.C        0                    : SUFT         - SURFACE TEMPERATURE
~A  DEPTH      CAL       GR     PHIN     PHID     RESD
# ...
  372.500  252.000   82.968    0.391    0.112   11.246
  372.750  252.648   85.747    0.415    0.155   11.235
  373.000  253.720   87.140    0.424    0.186   11.377
  373.250  255.631   86.412    0.417    0.189   11.346
  373.500  256.809   86.045    0.409    0.186   11.192
  373.750  258.508   87.570    0.404    0.180   10.980
  374.000  259.267   89.530    0.401    0.176   10.829
  374.250  259.191   93.370    0.402    0.190   10.680
  374.500  257.549   91.445    0.403    0.182   10.534
  374.750  256.743   86.568    0.406    0.181   10.408
  375.000  256.350   85.957    0.428    0.173   10.080
  375.250  256.377   89.363    0.440    0.184    9.740
  375.500  255.879   93.516    0.429    0.189    9.427
  375.750  253.817   95.166    0.422    0.186    8.908
  376.000  252.173   95.305    0.424    0.183    8.435
  376.250  250.318   97.079    0.425    0.179    8.180
  376.500  248.882   99.166    0.409    0.179    7.893
  376.750  248.180  102.317    0.401    0.183    7.797
  377.000  248.103  106.286    0.414    0.186    8.241
  377.250  247.924  105.673    0.425    0.161    8.193
  377.500  248.898   94.089    0.412    0.113    7.944
  377.750  249.648   90.218    0.381    0.084    8.058
  378.000  250.096   89.731    0.380    0.136    8.773
  378.250  250.749   80.721    0.391    0.158   10.526
  378.500  252.345   75.280    0.401    0.206   12.327
  378.750  256.556   73.037    0.421    0.223   13.854
  379.000  258.462   76.754    0.428    0.220   15.953
  379.250  258.809   83.482    0.433    0.203   16.189
  379.500  256.325   84.563    0.438    0.215   15.756
  379.750  253.429   72.164    0.425    0.230   16.809
  380.000  252.622   69.296    0.415    0.249   19.392
  380.250  252.020   68.622    0.404    0.260   22.376
  380.500  251.523   76.855    0.377    0.255   24.319
  380.750  251.031   80.008    0.356    0.184   25.557
  381.000  249.800   60.334    0.333    0.175   26.610
  381.250  248.476   62.108    0.352    0.185   27.245
  381.500  247.458   63.374    0.379    0.194   27.325
  381.750  246.853   62.325    0.459    0.167   25.579
  382.000  246.463   50.112    0.461    0.221   23.813
  382.250  246.596   48.562    0.443    0.308   24.161
  382.500  247.253   50.083    0.428    0.299   24.462
  382.750  248.428   56.057    0.407    0.281   24.807
  383.000  249.920   70.499    0.413    0.253   25.782
  383.250  250.677   70.390    0.416    0.269   27.667
  383.500  251.128   68.964    0.410    0.279   29.569
  383.750  251.467   68.228    0.391    0.282   31.303
  384.000  251.389   68.997    0.382    0.276   33.139
  384.250  248.909   71.272    0.391    0.252   34.763
  384.500  248.622   71.227    0.405    0.219   33.971
  384.750  249.801   71.493    0.396    0.199   32.163
  385.000  250.665   73.644    0.400    0.209   29.834
  385.250  250.900   73.787    0.418    0.217   26.062
  385.500  249.884   70.541    0.432    0.221   18.861
  385.750  249.703   66.542    0.428    0.231   15.465
  386.000  250.360   64.681    0.410    0.237   11.836
  386.250  251.015   70.401    0.390    0.218   10.076
  386.500  251.038   76.252    0.402    0.181    9.087
  386.750  249.811   75.264    0.416    0.176    8.288
  387.000  249.114   74.091    0.436    0.188    7.760
  387.250  249.243   69.091    0.393    0.198    7.567
  387.500  251.149   71.303    0.384    0.209    7.880
  387.750  253.791   74.577    0.403    0.219    8.327
  388.000  253.820   78.294    0.422    0.212    8.934
  388.250  250.815   64.453    0.413    0.191    9.583
  388.500  249.799   62.964    0.404    0.157   10.262
  388.750  249.410   64.863    0.398    0.168   10.742
  389.000  249.126   74.034    0.398    0.205   10.817
  389.250  249.778   84.084    0.403    0.206   10.649
  389.500  253.984   92.822    0.419    0.184   10.118
  389.750  257.259   88.947    0.443    0.146    9.144
  390.000  256.340   76.547    0.454    0.190    8.371
  390.250  253.864   73.179    0.474    0.236    7.954
  390.500  251.278   70.874    0.488    0.281    7.688
  390.750  250.571   69.452    0.509    0.256    7.473
  391.000  250.494   71.347    0.491    0.225    7.492
  391.250  253.866   80.143    0.472    0.204    7.859
  391.500  261.525   87.938    0.482    0.190    8.091
  391.750  263.226   90.837    0.498    0.196    7.893
  392.000  259.489   95.623    0.499    0.198    7.388
  392.250  248.544   98.397    0.500    0.199    7.034
  392.500  240.520   98.915    0.510    0.203    6.874
  392.750  237.102   95.858    0.511    0.208    7.211
  393.000  235.669   89.854    0.494    0.203    7.607
  393.250  235.592   85.292    0.482    0.203    8.055
  393.500  235.618   83.928    0.468    0.229    8.609
  393.750  238.360   88.775    0.433    0.223    9.287
  394.000  243.097   90.986    0.416    0.209    9.942
  394.250  243.542   86.926    0.384    0.217   10.725
  394.500  245.972   82.429    0.428    0.228   11.400
  394.750  253.526   81.441    0.424    0.242   12.002
  395.000  253.759   77.946    0.413    0.243   12.591
  395.250  252.849   73.323    0.397    0.241   12.941
  395.500  253.085   74.910    0.414    0.227   13.078
  395.750  252.593   78.060    0.404    0.214   13.165
  396.000  252.314   84.033    0.403    0.206   13.085
  396.250  252.333   85.932    0.414    0.197   13.028
  396.500  251.837   83.880    0.392    0.223   12.920
  396.750  251.864   85.275    0.353    0.224   12.301
  397.000  251.788   90.498    0.339    0.218   11.558
  397.250  251.925   96.535    0.357    0.201   10.780
  397.500  251.531  101.255    0.396    0.165    9.831
  397.750  251.557  105.288    0.382    0.143    8.703
  398.000  252.002  106.243    0.368    0.147    8.426
  398.250  251.929  104.635    0.375    0.148    8.374
  398.500  251.431  103.329    0.386    0.144    8.478
  398.750  250.415   93.499    0.379    0.144    8.648
  399.000  249.604   87.619    0.365    0.148    8.789
  399.250  249.009   81.051    0.349    0.161    8.964
  399.500  248.515   77.183    0.339    0.171    9.249
  399.750  248.124   76.008    0.345    0.191    9.557
  400.000  247.732   75.646    0.356    0.179   10.025
  400.250  247.235   75.787    0.376    0.189   10.555
  400.500  247.053   76.119    0.389    0.228   10.990
  400.750  247.816   77.705    0.400    0.245   11.616
  401.000  249.097   80.543    0.396    0.244   12.139
  401.250  250.483   85.888    0.390    0.231   12.663
  401.500  251.451   93.244    0.383    0.214   13.187
  401.750  252.524   92.446    0.381    0.196   13.397
  402.000  253.179   87.945    0.390    0.211   13.747
  402.250  253.208   78.179    0.390    0.229   13.684
  402.500  252.721   75.877    0.381    0.240   13.423
  402.750  245.424   74.701    0.374    0.241   13.515
  403.000  263.011   71.268    0.368    0.235   13.965
  403.250  251.857   68.211    0.394    0.276   14.953
  403.500  252.407   64.279    0.426    0.293   16.434
  403.750  252.958   63.666    0.421    0.287   17.962
  404.000  253.192   65.881    0.409    0.290   19.743
  404.250  253.221   66.521    0.409    0.301   21.582
  404.500  253.142   65.973    0.413    0.303   22.216
  404.750  253.065   68.877    0.412    0.305   21.507
  405.000  252.885   73.282    0.407    0.290   20.324
  405.250  252.494   78.001    0.393    0.248   18.919
  405.500  251.895   76.764    0.378    0.224   19.233
  405.750  249.522   65.304    0.366    0.118   20.441
  406.000  249.548   56.228    0.348    0.081   22.301
  406.250  250.201   48.342    0.285    0.032   23.873
  406.500  251.170   43.593    0.278    0.065   25.897
  406.750  251.199   39.471    0.292    0.085   28.307
  407.000  250.705   36.102    0.382    0.103   31.168
  407.250  249.269   33.108    0.409    0.148   33.807
  407.500  248.042   30.552    0.411    0.160   37.858
  407.750  247.131   25.991    0.415    0.181   43.841
  408.000  246.425   22.871    0.408    0.205   56.367
  408.250  245.931   20.694    0.411    0.217   69.534
  408.500  245.958   19.018    0.422    0.198   89.227
  408.750  246.301   17.779    0.417    0.183   98.616
