~VERSION INFORMATION
 VERS.                 2.0:   CWLS LOG ASCII STANDARD -VERSION 2.0
 WRAP.                  NO:   ONE LINE PER DEPTH STEP
~WELL INFORMATION BLOCK
#MNEM.UNIT           DATA                    DESCRIPTION OF MNEMONIC
#---------    -------------------            -------------------------------
# Generated from Intellog Unique Number	CS_77_79/WELL/979
WELL.         MESA HB THORNBURY              : Well_name    - WELL
LOC .         00/10-32-078-12W4/0            : Location     - LOCATION
UWI .         00/10-32-078-12W4/0            : Uwi          - UNIQUE WELL ID
ENTR.         JHS                            : Entered      - ENTERED BY
SRVC.         SCHLUMBERGER                   : Scn          - SERVICE COMPANY
STRT.M        240                            : top_depth    - START DEPTH
STOP.M        455                            : bot_depth    - STOP DEPTH
STEP.M        0.25                           : increment    - STEP LENGTH
 NULL. -999.2500:NULL Value
~CURVE INFORMATION BLOCK
#MNEM UNIT       ERCB CURVE CODE    CURVE DESCRIPTION
#-----------   ------------------   ----------------------------------
DEPT.M        00 001 00 00         : DEPTH        - DEPTH
DPHI.V/V      00 890 00 00         : PHID         - DENSITY POROSITY (LIMESTONE)
NPHI.V/V      00 330 00 00         : PHIN         - NEUTRON POROSITY (LIMESTONE)
GR  .API      00 310 00 00         : GR           - GAMMA RAY
ILD .OHMM     00 120 00 00         : RESD         - DEEP RESISTIVITY (DIL)
RHOB.KG/M3    00 350 00 00         : DENS         - BULK DENSITY
~PARAMETER INFORMATION
#MNEM.UNIT           DATA             DESCRIPTION OF MNEMONIC
#---------         -----------     ------------------------------
GL  .M        675.6                : gl           - GROUND LEVEL ELEVATION
EREF.M        679.7                : kb           - ELEVATION OF DEPTH REFERENCE
DATM.M        679.7                : datum        - DATUM ELEVATION
TDD .M        470                  : tdd          - TOTAL DEPTH DRILLER
RUN .         ONE                  : Run          - RUN NUMBER
ENG .         BILL                 : Engineer     - RECORDING ENGINEER
WIT .         JIM                  : Witness      - WITNESSED BY
MUD .         GEL                  : Mud_type     - MUD TYPE
MATR.         LIMESTONE            : Logunit      - NEUTRON MATRIX
TMAX.C        26.2                 : BHT          - MAXIMUM RECORDED TEMPERATURE
BHTD.M        470                  : BHTDEP       - MAXIMUM RECORDED TEMPERATURE
MATR.         1                    : LOGUNIT      - NEUTRON MATRIX
RMT .C        25                   : MDTP         - TEMPERATURE OF MUD
NEUT.         1                    : NEUTRON      - NEUTRON TYPE
RESI.         0                    : RESIST       - RESISTIVITY TYPE
RMC .OHMM     0.25                 : RMC          - RESISTIVITY OF MUD CAKE
RMF .OHMM     0.25                 : RMF          - RESISTIVITY OF MUD FILTRATE
SUFT.C        15                   : SUFT         - SURFACE TEMPERATURE
~A  DEPTH     PHID     PHIN       GR     RESD     DENS
# ...
  349.500    0.239    0.492   99.100    5.808    0.000
  349.750    0.229    0.506   98.506    5.598    0.000
  350.000    0.223    0.520   97.308    5.600    0.000
  350.250    0.220    0.501   96.712    5.604    0.000
  350.500    0.220    0.496   95.511    5.607    0.000
  350.750    0.222    0.509   95.523    5.506    0.000
  351.000    0.246    0.536   95.540    5.307    0.000
  351.250    0.275    0.554   96.159    5.021    0.000
  351.500    0.267    0.570   95.569    4.750    0.000
  351.750    0.250    0.556   94.364    4.494    0.000
  352.000    0.246    0.534   95.595    4.332    0.000
  352.250    0.243    0.551   97.430    4.099    0.000
  352.500    0.243    0.554   98.052    4.100    0.000
  352.750    0.227    0.565   96.854    4.181    0.000
  353.000    0.243    0.573   95.043    4.424    0.000
  353.250    0.269    0.555   92.022    4.860    0.000
  353.500    0.273    0.546   88.999    5.239    0.000
  353.750    0.257    0.529   89.618    5.974    0.000
  354.000    0.246    0.514   98.135    6.440    0.000
  354.250    0.238    0.503  104.224    5.448    0.000
  354.500    0.236    0.499  107.275    4.873    0.000
  354.750    0.244    0.509  104.862    4.279    0.000
  355.000    0.261    0.541  101.839    3.827    0.000
  355.250    0.267    0.553  103.672    3.298    0.000
  355.500    0.278    0.571  107.941    2.895    0.000
  355.750    0.265    0.599  107.349    2.495    0.000
  356.000    0.256    0.611  104.933    2.361    0.000
  356.250    0.270    0.625  103.125    2.407    0.000
  356.500    0.275    0.617  102.530    2.453    0.000
  356.750    0.272    0.611  103.152    2.501    0.000
  357.000    0.277    0.603  103.773    2.322    0.000
  357.250    0.272    0.594  103.785    2.039    0.000
  357.500    0.274    0.583  106.228    1.965    0.000
  357.750    0.265    0.573  109.280    2.004    0.000
  358.000    0.260    0.573  106.868    2.120    0.000
  358.250    0.270    0.568  104.451    2.202    0.000
  358.500    0.273    0.573  103.857    2.418    0.000
  358.750    0.290    0.573  103.871    2.707    0.000
  359.000    0.279    0.567  103.884    2.864    0.000
  359.250    0.284    0.579  102.078    2.920    0.000
  359.500    0.285    0.590  100.876    2.922    0.000
  359.750    0.294    0.604   98.460    2.979    0.000
  360.000    0.266    0.597   94.833    3.094    0.000
  360.250    0.261    0.575   93.632    3.274    0.000
  360.500    0.272    0.556   96.683    3.464    0.000
  360.750    0.256    0.550   98.519    3.736    0.000
  361.000    0.248    0.558   96.712    3.879    0.000
  361.250    0.253    0.534   94.295    4.182    0.000
  361.500    0.267    0.511   93.700    4.594    0.000
  361.750    0.279    0.459   91.285    4.953    0.000
  362.000    0.296    0.391   87.047    5.441    0.000
  362.250    0.345    0.358   81.596    5.866    0.000
  362.500    0.364    0.346   76.143    6.565    0.000
  362.750    0.342    0.376   74.942    7.078    0.000
  363.000    0.317    0.430   77.992    7.352    0.000
  363.250    0.313    0.460   75.580    7.356    0.000
  363.500    0.315    0.470   76.198    6.830    0.000
  363.750    0.312    0.464   75.606    6.461    0.000
  364.000    0.299    0.470   75.013    6.229    0.000
  364.250    0.283    0.487   75.029    6.232    0.000
  364.500    0.271    0.504   77.473    6.353    0.000
  364.750    0.227    0.490   78.703    6.722    0.000
  365.000    0.183    0.486   77.499    7.524    0.000
  365.250    0.157    0.460   74.476    7.670    0.000
  365.500    0.203    0.408   71.455    7.123    0.000
  365.750    0.267    0.441   70.253    6.994    0.000
  366.000    0.316    0.486   74.522    6.742    0.000
  366.250    0.309    0.487   77.569    6.379    0.000
  366.500    0.297    0.481   82.443    6.148    0.000
  366.750    0.277    0.477   86.102    5.926    0.000
  367.000    0.272    0.471   87.938    5.929    0.000
  367.250    0.261    0.486   87.954    6.044    0.000
  367.500    0.258    0.508   89.182    6.162    0.000
  367.750    0.262    0.489   91.016    6.282    0.000
  368.000    0.271    0.496   92.248    6.286    0.000
  368.250    0.274    0.500   92.258    6.173    0.000
  368.500    0.260    0.489   90.455    6.177    0.000
  368.750    0.254    0.492   88.645    6.065    0.000
  369.000    0.260    0.500   89.264    6.069    0.000
  369.250    0.259    0.507   91.101    6.073    0.000
  369.500    0.261    0.493   93.543    6.075    0.000
  369.750    0.265    0.482   92.953    6.078    0.000
  370.000    0.252    0.473   90.535    6.082    0.000
  370.250    0.218    0.474   88.727    5.974    0.000
  370.500    0.200    0.484   87.529    5.976    0.000
  370.750    0.196    0.501   86.934    5.869    0.000
  371.000    0.240    0.511   91.808    5.872    0.000
  371.250    0.231    0.522   93.034    5.986    0.000
  371.500    0.241    0.518   93.658    6.104    0.000
  371.750    0.252    0.490   93.672    6.221    0.000
  372.000    0.255    0.456   89.434    6.225    0.000
  372.250    0.247    0.452   87.021    6.229    0.000
  372.500    0.242    0.457   87.641    6.117    0.000
  372.750    0.231    0.468   88.870    6.007    0.000
  373.000    0.246    0.479   91.314    5.899    0.000
  373.250    0.257    0.490   94.362    5.793    0.000
  373.500    0.237    0.468   96.200    5.797    0.000
  373.750    0.242    0.451   96.216    5.799    0.000
  374.000    0.232    0.443   96.231    5.802    0.000
  374.250    0.231    0.456   96.852    5.490    0.000
  374.500    0.255    0.488   98.081    5.097    0.000
  374.750    0.260    0.551   98.704    4.822    0.000
  375.000    0.271    0.564   99.324    4.234    0.000
  375.250    0.298    0.560   99.336    3.649    0.000
  375.500    0.309    0.559   96.922    3.326    0.000
  375.750    0.311    0.566   97.542    3.031    0.000
  376.000    0.307    0.581   99.984    2.976    0.000
  376.250    0.314    0.566   96.962    2.978    0.000
  376.500    0.315    0.547   93.334    3.271    0.000
  376.750    0.297    0.545   92.739    3.527    0.000
  377.000    0.288    0.537   92.143    4.022    0.000
  377.250    0.292    0.522   92.764    4.336    0.000
  377.500    0.247    0.493   93.994    4.675    0.000
  377.750    0.239    0.493   97.045    4.855    0.000
  378.000    0.233    0.505  101.310    4.950    0.000
  378.250    0.238    0.531   99.504    4.861    0.000
  378.500    0.244    0.549   97.696    4.773    0.000
  378.750    0.249    0.539   95.886    4.777    0.000
  379.000    0.254    0.537   93.475    4.869    0.000
  379.250    0.259    0.522   92.881    5.057    0.000
  379.500    0.271    0.498   89.250    5.452    0.000
  379.750    0.279    0.484   86.836    5.878    0.000
  380.000    0.287    0.468   86.240    6.458    0.000
  380.250    0.308    0.456   89.898    6.833    0.000
  380.500    0.312    0.434   92.951    7.098    0.000
  380.750    0.289    0.455   92.357    7.236    0.000
  381.000    0.266    0.482   92.978    7.106    0.000
  381.250    0.257    0.466   94.814    6.978    0.000
  381.500    0.257    0.443   98.474    6.852    0.000
  381.750    0.253    0.453  100.918    6.483    0.000
  382.000    0.256    0.463  102.146    6.368    0.000
  382.250    0.252    0.456  102.159    6.370    0.000
  382.500    0.262    0.457   99.135    6.617    0.000
  382.750    0.258    0.469   95.505    6.497    0.000
  383.000    0.265    0.474   92.483    6.262    0.000
  383.250    0.269    0.456   90.675    6.266    0.000
  383.500    0.278    0.444   84.617    6.508    0.000
  383.750    0.265    0.428   85.235    6.760    0.000
  384.000    0.256    0.400   87.074    7.153    0.000
  384.250    0.286    0.374   88.300    7.712    0.000
  384.500    0.351    0.356   89.531    8.161    0.000
  384.750    0.376    0.343   90.758    8.636    0.000
  385.000    0.385    0.345   90.167    8.803    0.000
  385.250    0.384    0.365   91.396    8.809    0.000
  385.500    0.368    0.399   93.232    8.333    0.000
  385.750    0.357    0.442   90.209    7.455    0.000
