~VERSION INFORMATION
 VERS.                 2.0:   CWLS LOG ASCII STANDARD -VERSION 2.0
 WRAP.                  NO:   ONE LINE PER DEPTH STEP
~WELL INFORMATION BLOCK
#MNEM.UNIT           DATA                    DESCRIPTION OF MNEMONIC
#---------    -------------------            -------------------------------
# Generated from Intellog Unique Number	CS_67_68/WELL/857
WELL.         AEC FISHCREEK                  : Well_name    - WELL
LOC .         00/15-05-068-08W4/0            : Location     - LOCATION
UWI .         00/15-05-068-08W4/0            : Uwi          - UNIQUE WELL ID
ENTR.         SP                             : Entered      - ENTERED BY
SRVC.         SCHLUMBERGER                   : Scn          - SERVICE COMPANY
STRT.M        355                            : top_depth    - START DEPTH
STOP.M        570                            : bot_depth    - STOP DEPTH
STEP.M        0.25                           : increment    - STEP LENGTH
 NULL. -999.2500:NULL Value
~CURVE INFORMATION BLOCK
#MNEM UNIT       ERCB CURVE CODE    CURVE DESCRIPTION
#-----------   ------------------   ----------------------------------
DEPT.M        00 001 00 00         : DEPTH        - DEPTH
ILD .OHMM     00 120 00 00         : RESD         - DEEP RESISTIVITY (DIL)
DPHI.V/V      00 890 00 00         : PHID         - DENSITY POROSITY (LIMESTONE)
NPHI.V/V      00 330 00 00         : PHIN         - NEUTRON POROSITY (LIMESTONE)
GR  .API      00 310 00 00         : GR           - GAMMA RAY
~PARAMETER INFORMATION
#MNEM.UNIT           DATA             DESCRIPTION OF MNEMONIC
#---------         -----------     ------------------------------
GL  .M        668.25               : gl           - GROUND LEVEL ELEVATION
EREF.M        671.52               : kb           - ELEVATION OF DEPTH REFERENCE
DATM.M        668.25               : datum        - DATUM ELEVATION
TDD .M        576                  : tdd          - TOTAL DEPTH DRILLER
RUN .         ONE                  : Run          - RUN NUMBER
ENG .         BILL                 : Engineer     - RECORDING ENGINEER
WIT .         JIM                  : Witness      - WITNESSED BY
MUD .         GEL                  : Mud_type     - MUD TYPE
MATR.         LIMESTONE            : Logunit      - NEUTRON MATRIX
TMAX.C        20                   : BHT          - MAXIMUM RECORDED TEMPERATURE
BHTD.M        576                  : BHTDEP       - MAXIMUM RECORDED TEMPERATURE
MATR.         1                    : LOGUNIT      - NEUTRON MATRIX
RMT .C        25                   : MDTP         - TEMPERATURE OF MUD
NEUT.         1                    : NEUTRON      - NEUTRON TYPE
RESI.         0                    : RESIST       - RESISTIVITY TYPE
RMC .OHMM     0.25                 : RMC          - RESISTIVITY OF MUD CAKE
RMF .OHMM     0.25                 : RMF          - RESISTIVITY OF MUD FILTRATE
SUFT.C        15                   : SUFT         - SURFACE TEMPERATURE
~A  DEPTH     RESD     PHID     PHIN       GR
  355.000    2.881    0.285    0.452  110.159
  355.250    2.937    0.279    0.465  103.996
  355.500    2.955    0.285    0.476  102.880
  355.750    2.984    0.290    0.479  100.904
  356.000    3.088    0.276    0.471  106.748
  356.250    3.172    0.282    0.456  110.868
  356.500    3.227    0.293    0.442  113.386
  356.750    3.284    0.277    0.453  109.932
  357.000    3.354    0.259    0.459  101.921
  357.250    3.425    0.285    0.450   96.927
  357.500    3.426    0.281    0.438   97.722
  357.750    3.401    0.281    0.426  101.533
  358.000    3.358    0.292    0.433  101.835
  358.250    3.302    0.284    0.441   99.674
  358.500    3.248    0.270    0.428  104.778
  358.750    3.194    0.258    0.425  102.371
  359.000    3.195    0.259    0.440   97.377
  359.250    3.118    0.262    0.450   96.262
  359.500    3.027    0.261    0.454   98.166
  359.750    2.960    0.261    0.446   97.913
  360.000    2.883    0.275    0.438  118.596
  360.250    2.830    0.282    0.436  124.133
  360.500    2.789    0.267    0.432  110.765
  360.750    2.753    0.265    0.425  102.938
  361.000    2.738    0.267    0.428  106.072
  361.250    2.734    0.274    0.449  104.281
  361.500    2.740    0.293    0.459   97.501
  361.750    2.756    0.304    0.466   89.120
  362.000    2.773    0.293    0.472   84.127
  362.250    2.784    0.282    0.479   89.293
  362.500    2.791    0.279    0.486   95.258
  362.750    2.813    0.284    0.484   98.578
  363.000    2.878    0.286    0.468  101.344
  363.250    3.018    0.283    0.452  101.707
  363.500    3.106    0.276    0.440  100.901
  363.750    3.172    0.269    0.437  101.388
  364.000    3.234    0.270    0.439  104.890
  364.250    3.315    0.280    0.454  106.794
  364.500    3.392    0.290    0.455  108.081
  364.750    3.458    0.302    0.461  109.306
  365.000    3.579    0.310    0.475  111.148
  365.250    3.718    0.314    0.459   94.886
  365.500    3.907    0.300    0.444   78.500
  365.750    4.120    0.292    0.434   87.730
  366.000    4.354    0.285    0.431   92.835
  366.250    4.557    0.299    0.427   90.120
  366.500    4.770    0.303    0.426   87.158
  366.750    5.098    0.284    0.413   96.326
  367.000    5.479    0.268    0.374  105.311
  367.250    5.833    0.257    0.377  107.336
  367.500    6.661    0.247    0.404  107.639
  367.750    7.663    0.250    0.423   96.795
  368.000    8.699    0.300    0.436   76.100
  368.250   10.474    0.325    0.403   49.370
  368.500   11.427    0.329    0.386   38.834
  368.750   12.492    0.325    0.377   45.663
  369.000   11.631    0.306    0.370   53.784
  369.250    8.649    0.288    0.370   66.278
  369.500    7.797    0.273    0.376   74.400
  369.750    6.898    0.255    0.388   80.675
  370.000    6.091    0.241    0.400   86.334
  370.250    5.660    0.278    0.412   90.638
  370.500    5.652    0.304    0.428   92.417
  370.750    5.761    0.315    0.446   92.289
  371.000    5.985    0.328    0.456   86.987
  371.250    6.396    0.520    0.535   80.085
  371.500    6.900    0.384    0.527   73.675
  371.750    7.572    0.350    0.467   81.304
  372.000    8.500    0.349    0.430   87.455
  372.250    9.118    0.356    0.434   83.632
  372.500    9.491    0.359    0.438   78.515
  372.750    9.351    0.360    0.420   73.889
  373.000    8.543    0.357    0.399   71.914
  373.250    7.473    0.345    0.388   79.790
  373.500    6.513    0.324    0.411   83.417
  373.750    6.155    0.307    0.428   83.534
  374.000    5.581    0.286    0.420   89.807
  374.250    5.080    0.269    0.411   93.004
  374.500    4.641    0.256    0.415   94.106
  374.750    4.321    0.242    0.416   89.975
  375.000    4.076    0.250    0.411   95.326
  375.250    4.009    0.255    0.421  103.446
  375.500    4.002    0.282    0.427  105.658
  375.750    4.088    0.368    0.437   96.292
  376.000    4.215    0.438    0.467   85.941
  376.250    4.387    0.372    0.510   80.025
  376.500    4.413    0.338    0.484   79.587
  376.750    4.406    0.325    0.454   80.134
  377.000    4.261    0.321    0.440   81.237
  377.250    4.182    0.330    0.440   78.768
  377.500    3.990    0.338    0.433   74.329
  377.750    3.793    0.337    0.430   76.601
  378.000    3.716    0.332    0.439   80.906
  378.250    3.711    0.332    0.445   79.052
  378.500    3.718    0.322    0.425   74.428
  378.750    3.741    0.271    0.410   70.357
  379.000    3.785    0.245    0.412   68.874
  379.250    3.815    0.266    0.448   68.129
  379.500    3.794    0.315    0.469   69.539
  379.750    3.669    0.354    0.455   74.151
  380.000    3.587    0.364    0.434   81.288
  380.250    3.528    0.359    0.432   78.325
  380.500    3.483    0.348    0.450   74.132
  380.750    3.432    0.337    0.450   77.206
  381.000    3.407    0.336    0.430   82.248
  381.250    3.389    0.347    0.415   85.137
  381.500    3.371    0.351    0.405   85.623
  381.750    3.372    0.351    0.422   85.556
  382.000    3.373    0.345    0.436   86.041
  382.250    3.374    0.331    0.419   85.297
  382.500    3.388    0.316    0.413   83.752
  382.750    3.376    0.316    0.415   83.068
  383.000    3.378    0.334    0.417   84.478
  383.250    3.378    0.328    0.427   84.719
  383.500    3.424    0.312    0.442   82.804
  383.750    3.598    0.298    0.434   84.090
  384.000    3.795    0.297    0.399   89.442
  384.250    3.957    0.293    0.382   95.039
  384.500    4.049    0.288    0.377   99.528
  384.750    4.112    0.292    0.391  101.308
  385.000    4.152    0.311    0.408   91.203
  385.250    4.178    0.320    0.425   82.207
  385.500    4.179    0.329    0.409   78.445
  385.750    4.180    0.316    0.407   82.379
  386.000    4.158    0.304    0.425   82.866
  386.250    4.136    0.298    0.438   84.338
  386.500    4.153    0.293    0.440   86.425
  386.750    4.266    0.280    0.404   84.572
  387.000    4.398    0.245    0.380   81.364
  387.250    4.664    0.161    0.352   81.789
  387.500    5.346    0.078    0.324   77.103
  387.750    6.197    0.057    0.225   67.984
  388.000    6.623    0.239    0.285   59.357
  388.250    6.932    0.263    0.374   71.543
  388.500    7.013    0.279    0.413   82.682
  388.750    6.146    0.286    0.415   89.573
  389.000    5.148    0.282    0.412   94.616
  389.250    4.520    0.284    0.415   94.055
  389.500    4.297    0.287    0.422   92.325
  389.750    4.405    0.282    0.430   93.674
  390.000    4.465    0.274    0.436   96.377
  390.250    4.526    0.276    0.442   96.310
  390.500    4.579    0.271    0.452   97.350
  390.750    4.563    0.264    0.444  101.162
  391.000    4.505    0.261    0.435  105.836
  391.250    4.481    0.267    0.420  107.739
  391.500    4.448    0.279    0.411  104.961
  391.750    4.400    0.276    0.421  102.554
  392.000    4.352    0.264    0.447  100.516
  392.250    4.263    0.258    0.452  100.694
  392.500    4.185    0.268    0.439  108.878
  392.750    4.139    0.281    0.436  113.797
  393.000    4.094    0.296    0.431  113.422
  393.250    4.041    0.294    0.436  112.616
  393.500    4.012    0.287    0.456  113.411
  393.750    3.991    0.284    0.436  111.433
  394.000    3.962    0.287    0.417  103.545
  394.250    3.978    0.292    0.416   97.752
  394.500    4.078    0.297    0.416   93.004
  394.750    4.229    0.301    0.408   89.427
  395.000    4.319    0.298    0.404  101.859
  395.250    4.386    0.295    0.433   98.959
  395.500    4.446    0.295    0.451   95.996
  395.750    4.473    0.288    0.456   96.422
  396.000    4.474    0.284    0.457   96.847
  396.250    4.459    0.293    0.467   91.792
  396.500    4.444    0.301    0.453   88.769
  396.750    4.436    0.297    0.443   90.240
  397.000    4.430    0.284    0.438   93.621
  397.250    4.448    0.275    0.422   95.523
  397.500    4.466    0.273    0.411   96.995
  397.750    4.476    0.278    0.430   99.083
  398.000    4.461    0.281    0.445  100.309
  398.250    4.420    0.287    0.451   99.193
