~VERSION INFORMATION
 VERS.                 2.0:   CWLS LOG ASCII STANDARD -VERSION 2.0
 WRAP.                  NO:   ONE LINE PER DEPTH STEP
~WELL INFORMATION BLOCK
#MNEM.UNIT           DATA                    DESCRIPTION OF MNEMONIC
#---------    -------------------            -------------------------------
# Generated from Intellog Unique Number	CW_73_75/WELL/993
WELL.         HB MARTEN HILLS 10-27          : Well_name    - WELL
LOC .         00/10-27-074-01W5/0            : Location     - LOCATION
UWI .         00/10-27-074-01W5/0            : Uwi          - UNIQUE WELL ID
ENTR.         JAYE                           : Entered      - ENTERED BY
SRVC.         SCHLUMBERGER                   : Scn          - SERVICE COMPANY
DATE.         3 MAR 75                       : Date         - LOG DATE
STRT.M        466.344                        : top_depth    - START DEPTH
STOP.M        673.594                        : bot_depth    - STOP DEPTH
STEP.M        0.25                           : increment    - STEP LENGTH
 NULL. -999.2500:NULL Value
~CURVE INFORMATION BLOCK
#MNEM UNIT       ERCB CURVE CODE    CURVE DESCRIPTION
#-----------   ------------------   ----------------------------------
DEPT.M        00 001 00 00         : DEPTH        - DEPTH
ILD .OHMM     00 120 00 00         : RESD         - DEEP RESISTIVITY (DIL)
NPHI.V/V      00 330 00 00         : PHIN         - NEUTRON POROSITY (SANDSTONE)
DPHI.V/V      00 890 00 00         : PHID         - DENSITY POROSITY (SANDSTONE)
GR  .API      00 310 00 00         : GR           - GAMMA RAY
CALI.MM       00 280 01 00         : CAL          - CALIPER
~PARAMETER INFORMATION
#MNEM.UNIT           DATA             DESCRIPTION OF MNEMONIC
#---------         -----------     ------------------------------
GL  .M        720.547              : gl           - GROUND LEVEL ELEVATION
EREF.M        730.301              : kb           - ELEVATION OF DEPTH REFERENCE
DATM.M        720.547              : datum        - DATUM ELEVATION
TDD .M        688.848              : tdd          - TOTAL DEPTH DRILLER
RUN .         ONE                  : Run          - RUN NUMBER
ENG .         CROCKFORD            : Engineer     - RECORDING ENGINEER
WIT .         CAMPBELL/GARBIES     : Witness      - WITNESSED BY
BASE.         EDM                  : Branch       - HOME BASE OF LOGGING UNIT
MUD .         GEL CHEM             : Mud_type     - MUD TYPE
MATR.         SANDSTONE            : Logunit      - NEUTRON MATRIX
TMAX.C        25.5556              : BHT          - MAXIMUM RECORDED TEMPERATURE
BHTD.M        690.982              : BHTDEP       - MAXIMUM RECORDED TEMPERATURE
RMT .C        18.3333              : MDTP         - TEMPERATURE OF MUD
MUDD.KG/M     1152                 : MWT          - MUD DENSITY
NEUT.         1                    : NEUTRON      - NEUTRON TYPE
RESI.         0                    : RESIST       - RESISTIVITY TYPE
RM  .OHMM     5.2                  : RM           - RESISTIVITY OF MUD
RMC .OHMM     0                    : RMC          - RESISTIVITY OF MUD CAKE
RMF .OHMM     0                    : RMF          - RESISTIVITY OF MUD FILTRATE
SUFT.C        -17.7778             : SUFT         - SURFACE TEMPERATURE
~A  DEPTH     RESD     PHIN     PHID       GR      CAL
# ...
  539.344    4.997    0.452    0.300   60.933  194.039
  539.594    4.839    0.456    0.311   64.155  194.819
  539.844    4.748    0.453    0.310   65.296  195.604
  540.094    4.589    0.471    0.299   64.774  197.117
  540.344    4.453    0.490    0.291   65.361  199.253
  540.594    4.312    0.486    0.287   67.969  200.971
  540.844    4.085    0.464    0.278   72.910  201.334
  541.094    3.891    0.444    0.266   83.616  201.909
  541.344    3.789    0.464    0.228   88.925  205.083
  541.594    3.786    0.459    0.193   91.232  208.361
  541.844    3.896    0.452    0.186   93.966  209.246
  542.094    3.987    0.459    0.173   92.092  210.238
  542.344    4.006    0.452    0.172   87.587  209.155
  542.594    3.996    0.435    0.163   87.560  207.339
  542.844    3.963    0.418    0.165   89.984  206.880
  543.094    3.909    0.402    0.169   88.668  207.254
  543.344    3.871    0.402    0.157   87.232  207.721
  543.594    3.846    0.417    0.166   87.939  207.882
  543.844    3.836    0.429    0.158   92.695  207.937
  544.094    3.819    0.439    0.173   95.303  207.887
  544.344    3.802    0.448    0.185   94.357  206.801
  544.594    3.785    0.461    0.188   92.794  204.475
  544.844    3.775    0.466    0.203   91.172  202.764
  545.094    3.765    0.446    0.214   90.717  202.089
  545.344    3.769    0.453    0.219   90.995  201.840
  545.594    3.766    0.449    0.208   90.904  201.687
  545.844    3.784    0.444    0.202   90.630  201.640
  546.094    3.774    0.453    0.197   90.236  201.487
  546.344    3.764    0.464    0.196   89.717  201.861
  546.594    3.775    0.476    0.204   90.118  202.533
  546.844    3.772    0.468    0.204   89.967  203.531
  547.094    3.769    0.473    0.205   88.651  204.313
  547.344    3.829    0.486    0.208   86.418  203.645
  547.594    3.991    0.502    0.203   84.734  202.142
  547.844    4.161    0.480    0.202   82.434  200.954
  548.094    4.483    0.487    0.214   78.236  199.758
  548.344    4.875    0.471    0.237   71.767  198.359
  548.594    5.243    0.451    0.250   65.238  198.523
  548.844    5.476    0.437    0.264   59.077  197.853
  549.094    5.235    0.435    0.258   54.817  196.254
  549.344    5.089    0.435    0.255   53.685  195.169
  549.594    4.715    0.427    0.254   55.193  194.595
  549.844    4.345    0.419    0.279   57.188  194.133
  550.094    4.255    0.413    0.284   59.492  194.192
  550.344    4.370    0.407    0.272   61.179  194.148
  550.594    4.431    0.404    0.265   63.176  194.093
  550.844    4.486    0.425    0.272   60.264  194.365
  551.094    4.599    0.429    0.265   57.293  194.420
  551.344    4.595    0.427    0.246   58.002  194.893
  551.594    4.329    0.423    0.239   58.279  195.259
  551.844    4.139    0.416    0.227   57.763  195.623
  552.094    4.151    0.394    0.225   59.943  195.902
  552.344    4.326    0.414    0.234   63.166  195.839
  552.594    4.593    0.438    0.254   65.040  195.905
  552.844    4.950    0.446    0.256   62.313  195.544
  553.094    5.383    0.440    0.257   60.015  195.602
  553.344    5.973    0.427    0.228   57.595  196.378
  553.594    6.495    0.396    0.194   56.830  197.264
  553.844    6.999    0.334    0.175   56.925  198.056
  554.094    7.583    0.322    0.140   56.775  198.419
  554.344    8.492    0.319    0.127   54.171  197.543
  554.594    9.320    0.313    0.108   52.057  197.286
  554.844    9.680    0.295    0.115   53.202  198.590
  555.094    9.408    0.249    0.091   55.072  200.417
  555.344    8.864    0.232    0.070   57.497  201.716
  555.594    7.729    0.235    0.076   59.921  201.044
  555.844    6.993    0.265    0.100   62.838  199.230
  556.094    6.362    0.284    0.135   65.695  197.009
  556.344    5.337    0.340    0.164   68.178  196.124
  556.594    4.603    0.377    0.198   71.463  196.079
  556.844    4.029    0.404    0.233   74.807  196.866
  557.094    3.559    0.417    0.251   78.583  197.858
  557.344    3.353    0.428    0.244   83.155  200.091
  557.594    3.369    0.440    0.214   84.660  203.576
  557.844    3.551    0.445    0.171   85.245  204.981
  558.094    4.020    0.433    0.185   87.429  204.413
  558.344    4.495    0.451    0.199   89.422  203.120
  558.594    5.118    0.453    0.220   92.155  200.894
  558.844    5.892    0.436    0.215   87.840  199.183
  559.094    5.920    0.412    0.226   83.574  198.832
  559.344    5.712    0.387    0.208   71.155  200.441
  559.594    5.410    0.351    0.175   69.231  201.538
  559.844    5.079    0.309    0.114   72.328  201.490
  560.094    4.802    0.326    0.103   77.205  201.032
  560.344    4.441    0.367    0.135   84.598  200.668
  560.594    4.041    0.415    0.177   87.456  200.832
  560.844    3.835    0.417    0.190   88.349  201.090
  561.094    3.659    0.439    0.188   89.610  201.568
  561.344    3.583    0.440    0.215   90.684  201.941
  561.594    3.580    0.435    0.209   90.536  202.203
  561.844    3.578    0.443    0.198   91.122  202.877
  562.094    3.588    0.444    0.200   92.626  203.036
  562.344    3.612    0.454    0.203   95.112  202.469
  562.594    3.656    0.473    0.192   96.250  204.292
  562.844    3.755    0.470    0.211   94.874  201.859
  563.094    3.871    0.457    0.214   95.090  202.026
  563.344    3.940    0.444    0.200   97.208  203.008
  563.594    3.952    0.454    0.188   98.532  204.739
  563.844    3.869    0.466    0.182   98.072  205.411
  564.094    3.740    0.444    0.169   96.509  205.878
  564.344    3.616    0.434    0.165   96.850  206.246
  564.594    3.431    0.443    0.159   97.929  205.994
  564.844    3.280    0.455    0.148   98.083  206.051
  565.094    3.236    0.469    0.153   97.625  206.104
  565.344    3.379    0.476    0.177   96.493  205.860
  565.594    3.568    0.491    0.187   91.987  204.978
  565.844    3.754    0.498    0.194   88.034  202.957
  566.094    3.870    0.470    0.206   87.396  201.865
  566.344    3.953    0.457    0.225   88.040  201.824
  566.594    4.060    0.454    0.213   81.573  202.395
  566.844    4.103    0.460    0.215   81.484  203.074
  567.094    4.122    0.470    0.206   82.927  203.552
  567.344    4.119    0.455    0.196   87.254  203.505
  567.594    4.168    0.438    0.191   88.821  203.040
  567.844    4.290    0.440    0.185   87.262  202.689
  568.094    4.572    0.452    0.197   83.921  202.426
  568.344    4.926    0.461    0.213   80.458  201.757
  568.594    5.125    0.463    0.229   78.099  201.394
  568.844    5.372    0.442    0.243   75.494  200.937
  569.094    5.610    0.436    0.262   71.358  200.580
  569.344    5.699    0.442    0.262   68.570  200.429
  569.594    5.674    0.451    0.255   67.071  200.077
  569.844    5.455    0.445    0.249   66.738  199.604
  570.094    5.036    0.433    0.245   67.632  199.356
  570.344    4.666    0.450    0.243   67.353  199.193
  570.594    4.332    0.466    0.240   66.348  198.738
  570.844    4.149    0.479    0.247   65.889  198.478
  571.094    4.503    0.473    0.265   65.738  198.433
  571.344    4.853    0.447    0.272   66.689  198.281
  571.594    5.133    0.451    0.262   71.386  198.337
  571.844    5.243    0.465    0.247   72.342  198.502
  572.094    5.239    0.439    0.266   69.800  198.768
  572.344    5.149    0.449    0.285   67.686  199.030
  572.594    5.024    0.462    0.266   67.470  199.396
  572.844    4.856    0.462    0.271   68.854  199.351
  573.094    4.669    0.448    0.263   70.604  199.314
  573.344    4.455    0.429    0.248   72.418  199.362
  573.594    4.259    0.412    0.231   74.965  199.214
  573.844    4.125    0.421    0.220   78.678  199.268
  574.094    4.145    0.434    0.209   83.435  199.323
  574.344    4.328    0.427    0.204   84.879  199.685
  574.594    4.689    0.418    0.190   81.358  199.333
  574.844    5.025    0.430    0.168   80.285  198.762
  575.094    5.395    0.445    0.228   75.658  196.434
  575.344    5.728    0.474    0.253   67.899  195.553
  575.594    5.755    0.453    0.270   63.762  194.986
