~VERSION INFORMATION
 VERS.                 2.0:   CWLS LOG ASCII STANDARD -VERSION 2.0
 WRAP.                  NO:   ONE LINE PER DEPTH STEP
~WELL INFORMATION BLOCK
#MNEM.UNIT           DATA                    DESCRIPTION OF MNEMONIC
#---------    -------------------            -------------------------------
# Generated from Intellog Unique Number	CS_67_68/WELL/857
WELL.         AEC FISHCREEK                  : Well_name    - WELL
LOC .         00/15-05-068-08W4/0            : Location     - LOCATION
UWI .         00/15-05-068-08W4/0            : Uwi          - UNIQUE WELL ID
ENTR.         SP                             : Entered      - ENTERED BY
SRVC.         SCHLUMBERGER                   : Scn          - SERVICE COMPANY
STRT.M        355                            : top_depth    - START DEPTH
STOP.M        570                            : bot_depth    - STOP DEPTH
STEP.M        0.25                           : increment    - STEP LENGTH
 NULL. -999.2500:NULL Value
~CURVE INFORMATION BLOCK
#MNEM UNIT       ERCB CURVE CODE    CURVE DESCRIPTION
#-----------   ------------------   ----------------------------------
DEPT.M        00 001 00 00         : DEPTH        - DEPTH
ILD .OHMM     00 120 00 00         : RESD         - DEEP RESISTIVITY (DIL)
DPHI.V/V      00 890 00 00         : PHID         - DENSITY POROSITY (LIMESTONE)
NPHI.V/V      00 330 00 00         : PHIN         - NEUTRON POROSITY (LIMESTONE)
GR  .API      00 310 00 00         : GR           - GAMMA RAY
~PARAMETER INFORMATION
#MNEM.UNIT           DATA             DESCRIPTION OF MNEMONIC
#---------         -----------     ------------------------------
GL  .M        668.25               : gl           - GROUND LEVEL ELEVATION
EREF.M        671.52               : kb           - ELEVATION OF DEPTH REFERENCE
DATM.M        668.25               : datum        - DATUM ELEVATION
TDD .M        576                  : tdd          - TOTAL DEPTH DRILLER
RUN .         ONE                  : Run          - RUN NUMBER
ENG .         BILL                 : Engineer     - RECORDING ENGINEER
WIT .         JIM                  : Witness      - WITNESSED BY
MUD .         GEL                  : Mud_type     - MUD TYPE
MATR.         LIMESTONE            : Logunit      - NEUTRON MATRIX
TMAX.C        20                   : BHT          - MAXIMUM RECORDED TEMPERATURE
BHTD.M        576                  : BHTDEP       - MAXIMUM RECORDED TEMPERATURE
MATR.         1                    : LOGUNIT      - NEUTRON MATRIX
RMT .C        25                   : MDTP         - TEMPERATURE OF MUD
NEUT.         1                    : NEUTRON      - NEUTRON TYPE
RESI.         0                    : RESIST       - RESISTIVITY TYPE
RMC .OHMM     0.25                 : RMC          - RESISTIVITY OF MUD CAKE
RMF .OHMM     0.25                 : RMF          - RESISTIVITY OF MUD FILTRATE
SUFT.C        15                   : SUFT         - SURFACE TEMPERATURE
~A  DEPTH     RESD     PHID     PHIN       GR
# ...
  529.000    3.287    0.311    0.358   47.555
  529.250    3.032    0.321    0.346   45.640
  529.500    2.981    0.331    0.359   46.249
  529.750    2.871    0.334    0.370   46.367
  530.000    2.835    0.305    0.362   50.548
  530.250    2.825    0.291    0.368   62.241
  530.500    2.571    0.294    0.378   69.440
  530.750    2.875    0.299    0.361   72.697
  531.000    3.155    0.304    0.345   72.075
  531.250    3.290    0.298    0.351   65.850
  531.500    3.437    0.281    0.361   62.519
  531.750    3.598    0.284    0.370   65.528
  532.000    3.874    0.295    0.371   66.694
  532.250    4.227    0.307    0.346   73.769
  532.500    4.518    0.256    0.330   89.033
  532.750    4.865    0.232    0.321   97.710
  533.000    5.308    0.215    0.321  102.876
  533.250    5.652    0.203    0.331  107.118
  533.500    5.938    0.194    0.341  108.652
  533.750    6.100    0.199    0.350  100.886
  534.000    6.136    0.210    0.347   95.153
  534.250    6.046    0.208    0.327   92.193
  534.500    6.002    0.194    0.325   94.034
  534.750    6.039    0.186    0.334   92.366
  535.000    6.041    0.193    0.328   88.419
  535.250    5.997    0.200    0.318   86.626
  535.500    5.954    0.193    0.311   88.961
  535.750    5.956    0.191    0.324   96.098
  536.000    6.014    0.190    0.336  102.557
  536.250    6.027    0.192    0.324  102.612
  536.500    6.063    0.194    0.318  103.960
  536.750    6.100    0.194    0.325  103.954
  537.000    6.172    0.206    0.332  101.855
  537.250    6.244    0.220    0.337   97.354
  537.500    6.293    0.218    0.341   96.917
  537.750    6.308    0.201    0.349   98.758
  538.000    6.321    0.193    0.354   96.781
  538.250    6.359    0.187    0.353   92.280
  538.500    6.422    0.197    0.341   88.334
  538.750    6.484    0.218    0.335   86.849
  539.000    6.573    0.146    0.336   87.644
  539.250    6.613    0.089    0.347   87.392
  539.500    6.652    0.092    0.356   85.662
  539.750    6.579    0.123    0.357   83.254
  540.000    6.278    0.159    0.341   80.662
  540.250    5.856    0.218    0.331   80.101
  540.500    5.442    0.224    0.323   80.216
  540.750    5.143    0.235    0.320   80.274
  541.000    4.880    0.244    0.338   81.007
  541.250    4.709    0.241    0.349   85.065
  541.500    4.494    0.237    0.340   89.307
  541.750    4.312    0.245    0.333   91.457
  542.000    4.130    0.256    0.333   86.708
  542.250    4.046    0.268    0.333   81.530
  542.500    3.957    0.271    0.328   78.076
  542.750    3.891    0.259    0.322   74.744
  543.000    3.878    0.252    0.317   73.815
  543.250    3.894    0.248    0.321   81.445
  543.500    3.947    0.254    0.319   85.996
  543.750    3.986    0.262    0.320   86.666
  544.000    3.950    0.261    0.331   85.675
  544.250    3.936    0.251    0.336   82.529
  544.500    3.879    0.248    0.338   78.151
  544.750    3.829    0.261    0.330   74.450
  545.000    3.801    0.267    0.326   72.535
  545.250    3.710    0.258    0.324   72.529
  545.500    3.635    0.253    0.332   73.693
  545.750    3.527    0.267    0.338   71.839
  546.000    3.404    0.277    0.336   67.831
  546.250    3.182    0.289    0.346   63.022
  546.500    3.140    0.320    0.356   54.950
  546.750    3.363    0.327    0.374   46.138
  547.000    3.669    0.242    0.380   42.130
  547.250    4.143    0.202    0.311   49.574
  547.500    4.435    0.173    0.277   61.883
  547.750    4.660    0.169    0.254   75.793
  548.000    4.796    0.200    0.280   83.238
  548.250    4.542    0.233    0.313   90.497
  548.500    4.349    0.250    0.331   94.987
  548.750    4.057    0.235    0.330   98.368
  549.000    3.777    0.217    0.333   97.807
  549.250    3.584    0.226    0.341   98.171
  549.500    3.432    0.240    0.347   95.947
  549.750    3.178    0.257    0.358   86.520
  550.000    3.067    0.272    0.365   77.709
  550.250    2.943    0.282    0.357   75.609
  550.500    2.834    0.288    0.350   79.975
  550.750    2.751    0.278    0.366   82.063
  551.000    2.705    0.286    0.383   79.409
  551.250    2.701    0.317    0.376   71.275
  551.500    2.764    0.335    0.360   79.028
  551.750    2.910    0.276    0.340   93.060
  552.000    3.310    0.244    0.340  101.737
  552.250    4.122    0.195    0.342  108.442
  552.500    4.962    0.184    0.343  109.791
  552.750    5.539    0.180    0.342  111.692
  553.000    5.765    0.176    0.341  113.227
  553.250    6.011    0.172    0.341  114.637
  553.500    5.979    0.177    0.344  115.493
  553.750    5.858    0.182    0.354  113.639
  554.000    5.740    0.188    0.351  110.678
  554.250    5.634    0.195    0.350  103.160
  554.500    5.530    0.200    0.352  101.798
  554.750    5.459    0.205    0.355  108.196
  555.000    5.492    0.193    0.354  112.748
  555.250    5.556    0.175    0.355  116.683
  555.500    5.643    0.169    0.363  118.585
  555.750    5.687    0.171    0.354  118.086
  556.000    5.689    0.171    0.348  115.802
  556.250    5.681    0.168    0.349  109.084
  556.500    5.651    0.167    0.338  106.985
  556.750    5.599    0.178    0.333  106.547
  557.000    5.413    0.183    0.342  104.878
  557.250    5.040    0.182    0.350  103.272
  557.500    4.791    0.191    0.351  101.603
  557.750    4.712    0.201    0.344  104.306
  558.000    4.749    0.197    0.341  107.625
  558.250    4.787    0.195    0.351  112.052
  558.500    4.916    0.201    0.363  115.310
  558.750    5.078    0.211    0.366  116.967
  559.000    5.188    0.213    0.356  117.699
  559.250    5.140    0.205    0.351  118.986
  559.500    4.060    0.200    0.352  120.397
  559.750    3.439    0.226    0.368  114.418
  560.000    2.969    0.276    0.381  103.759
  560.250    2.697    0.304    0.389   89.775
  560.500    2.473    0.314    0.378   83.303
  560.750    2.272    0.305    0.374   78.126
  561.000    2.172    0.314    0.372   69.006
  561.250    2.295    0.320    0.374   64.197
  561.500    2.495    0.318    0.361   72.442
  561.750    2.687    0.300    0.349   85.798
  562.000    2.937    0.267    0.339  104.265
  562.250    3.151    0.245    0.334  129.751
  562.500    3.425    0.236    0.335  137.257
  562.750    3.626    0.239    0.351  134.727
  563.000    3.905    0.258    0.370  124.437
  563.250    4.189    0.281    0.374  109.037
  563.500    4.596    0.230    0.362  116.543
  563.750    5.121    0.201    0.354  125.219
  564.000    5.401    0.178    0.367  131.187
  564.250    5.403    0.196    0.382  135.121
  564.500    5.293    0.214    0.369  125.140
  564.750    5.196    0.221    0.353  117.252
  565.000    5.149    0.180    0.346  111.458
  565.250    5.298    0.160    0.354  116.069
  565.500    5.847    0.171    0.358  120.867
  565.750    6.284    0.175    0.350  125.786
  566.000    6.717    0.172    0.343  126.150
  566.250    7.017    0.175    0.338  121.710
  566.500    7.207    0.175    0.337  118.810
  566.750    7.347    0.021    0.326   92.942
  567.000    7.676   -0.003    0.277   77.727
  567.250    8.731    0.002    0.253   64.852
  567.500   10.491    0.006    0.226   61.890
  567.750   12.024    0.006    0.205   64.161
  568.000   12.802    0.007    0.206   64.710
  568.250   13.099    0.008    0.206   61.933
  568.500   13.054    0.013    0.204   61.619
  568.750   12.911    0.019    0.201   63.892
  569.000   12.746    0.011    0.199   65.362
  569.250   12.846    0.002    0.198   64.986
  569.500   13.295    0.014    0.197   64.735
  569.750   13.995    0.021    0.196   64.668
  570.000   14.872    0.023    0.194   64.477
