~VERSION INFORMATION
 VERS.                 2.0:   CWLS LOG ASCII STANDARD -VERSION 2.0
 WRAP.                  NO:   ONE LINE PER DEPTH STEP
~WELL INFORMATION BLOCK
#MNEM.UNIT           DATA                    DESCRIPTION OF MNEMONIC
#---------    -------------------            -------------------------------
# Generated from Intellog Unique Number	CW_76_78/WELL/875
WELL.         ASHLAND ET AL PORTAGE 10-12    : Well_name    - WELL
LOC .         00/10-12-077-19W4/0            : Location     - LOCATION
UWI .         00/10-12-077-19W4/0            : Uwi          - UNIQUE WELL ID
ENTR.         JAYE                           : Entered      - ENTERED BY
SRVC.         WESTERN ATLAS                  : Scn          - SERVICE COMPANY
DATE.         21 JAN 72                      : Date         - LOG DATE
STRT.M        198.12                         : top_depth    - START DEPTH
STOP.M        377.87                         : bot_depth    - STOP DEPTH
STEP.M        0.25                           : increment    - STEP LENGTH
 NULL. -999.2500:NULL Value
~CURVE INFORMATION BLOCK
#MNEM UNIT       ERCB CURVE CODE    CURVE DESCRIPTION
#-----------   ------------------   ----------------------------------
DEPT.M        00 001 00 00         : DEPTH        - DEPTH
ILD .OHMM     00 120 00 00         : RESD         - DEEP RESISTIVITY (DIL)
NPHI.V/V      00 330 00 00         : PHIN         - NEUTRON POROSITY (SANDSTONE)
DPHI.V/V      00 890 00 00         : PHID         - DENSITY POROSITY (SANDSTONE)
GR  .API      00 310 00 00         : GR           - GAMMA RAY
CALI.MM       00 280 01 00         : CAL          - CALIPER
~PARAMETER INFORMATION
#MNEM.UNIT           DATA             DESCRIPTION OF MNEMONIC
#---------         -----------     ------------------------------
GL  .M        556.26               : gl           - GROUND LEVEL ELEVATION
EREF.M        561.137              : kb           - ELEVATION OF DEPTH REFERENCE
DATM.M        556.26               : datum        - DATUM ELEVATION
TDD .M        399.288              : tdd          - TOTAL DEPTH DRILLER
RUN .         ONE                  : Run          - RUN NUMBER
MATR.         SANDSTONE            : Logunit      - NEUTRON MATRIX
TMAX.C        22.2222              : BHT          - MAXIMUM RECORDED TEMPERATURE
BHTD.M        399.288              : BHTDEP       - MAXIMUM RECORDED TEMPERATURE
RMT .C        23.3333              : MDTP         - TEMPERATURE OF MUD
MUDD.KG/M     0                    : MWT          - MUD DENSITY
NEUT.         1                    : NEUTRON      - NEUTRON TYPE
RESI.         0                    : RESIST       - RESISTIVITY TYPE
RM  .OHMM     2.2                  : RM           - RESISTIVITY OF MUD
RMC .OHMM     2.6                  : RMC          - RESISTIVITY OF MUD CAKE
RMF .OHMM     1.6                  : RMF          - RESISTIVITY OF MUD FILTRATE
SUFT.C        -17.7778             : SUFT         - SURFACE TEMPERATURE
~A  DEPTH     RESD     PHIN     PHID       GR      CAL
  198.120    2.800    0.448    0.233  118.251  193.003
  198.370    2.957    0.441    0.241  122.060  192.438
  198.620    3.116    0.440    0.248  122.843  191.870
  198.870    3.497    0.433    0.224  117.882  190.898
  199.120    3.999    0.423    0.209  115.083  189.401
  199.370    4.666    0.422    0.208  110.736  188.308
  199.620    5.354    0.416    0.206  107.135  187.134
  199.870    7.008    0.413    0.196  100.384  186.146
  200.120    9.379    0.407    0.169   89.372  183.918
  200.370   10.843    0.398    0.125   78.234  181.379
  200.620   10.790    0.382    0.187   71.916  179.244
  200.870   10.251    0.409    0.304   68.130  175.658
  201.120    9.722    0.404    0.329   68.299  172.078
  201.370    9.782    0.383    0.336   69.198  170.149
  201.620   10.424    0.380    0.326   71.772  168.656
  201.870   11.421    0.376    0.313   74.590  168.315
  202.120   12.081    0.367    0.269   78.956  168.366
  202.370   11.671    0.369    0.234   84.120  168.647
  202.620   10.548    0.385    0.257   80.517  168.933
  202.870    8.625    0.368    0.302   73.766  170.041
  203.120    6.834    0.355    0.308   75.290  171.377
  203.370    5.704    0.356    0.305   80.824  172.268
  203.620    5.459    0.373    0.280   89.948  174.223
  203.870    6.173    0.385    0.246   94.310  177.745
  204.120    7.558    0.398    0.229   97.128  182.831
  204.370    8.935    0.411    0.229   88.274  185.932
  204.620    9.717    0.403    0.239   76.707  185.476
  204.870   10.016    0.381    0.294   71.253  184.500
  205.120    8.690    0.385    0.303   68.025  183.429
  205.370    7.186    0.388    0.302   67.076  182.343
  205.620    6.120    0.400    0.288   70.696  181.152
  205.870    5.310    0.410    0.276   75.987  181.341
  206.120    4.871    0.406    0.267   80.969  182.244
  206.370    4.484    0.404    0.262   86.256  183.459
  206.620    4.221    0.406    0.254   95.250  184.582
  206.870    3.973    0.400    0.246  110.110  185.374
  207.120    3.874    0.406    0.234  123.924  186.279
  207.370    4.053    0.416    0.188  127.914  186.975
  207.620    4.523    0.419    0.165  124.374  187.670
  207.870    5.268    0.431    0.168  123.612  188.681
  208.120    6.216    0.440    0.219  122.484  188.959
  208.370    7.597    0.429    0.247  109.491  188.395
  208.620    9.762    0.400    0.294   84.832  182.513
  208.870   12.659    0.383    0.309   74.192  178.294
  209.120   14.393    0.372    0.310   70.407  175.014
  209.370   14.537    0.371    0.308   70.013  172.893
  209.620   13.888    0.374    0.305   71.108  171.704
  209.870   12.691    0.373    0.302   73.057  171.257
  210.120   11.902    0.378    0.300   75.941  171.000
  210.370   12.065    0.387    0.298   77.403  171.071
  210.620   12.320    0.373    0.299   77.508  171.148
  210.870   12.629    0.390    0.303   78.163  171.429
  211.120   12.778    0.392    0.302   76.974  171.493
  211.370   12.810    0.370    0.292   76.331  171.560
  211.620   12.723    0.365    0.276   76.493  171.634
  211.870   12.292    0.379    0.264   78.140  171.602
  212.120   11.657    0.383    0.257   83.430  171.878
  212.370   11.013    0.381    0.249   91.806  172.149
  212.620   10.101    0.378    0.256   96.418  172.542
  212.870    9.078    0.373    0.283   90.036  173.439
  213.120    7.994    0.377    0.282   95.820  174.762
  213.370    7.158    0.390    0.226  102.098  178.390
  213.620    6.553    0.397    0.220  105.039  184.313
  213.870    6.146    0.407    0.222  104.650  190.244
  214.120    6.382    0.409    0.231  104.814  192.193
  214.370    6.877    0.401    0.227  107.261  193.099
  214.620    7.877    0.399    0.218  104.156  193.170
  214.870    9.141    0.396    0.223  106.664  192.077
  215.120   10.109    0.393    0.234  105.965  187.027
  215.370   11.241    0.387    0.249  104.094  183.120
  215.620   11.737    0.369    0.269  103.146  179.117
  215.870   11.659    0.352    0.269  103.620  176.880
  216.120   11.452    0.354    0.245  104.769  178.203
  216.370   11.063    0.358    0.214  108.580  182.566
  216.620   10.627    0.370    0.200  111.707  186.707
  216.870    9.802    0.385    0.210  109.400  188.866
  217.120    8.349    0.399    0.225  107.034  190.087
  217.370    7.151    0.387    0.234  102.750  187.340
  217.620    6.147    0.376    0.235  106.187  184.794
  217.870    5.733    0.395    0.217  103.701  186.429
  218.120    5.600    0.406    0.207  110.098  189.010
  218.370    5.979    0.411    0.203  115.511  189.283
  218.620    6.575    0.406    0.201  114.935  187.900
  218.870    7.258    0.413    0.199  110.220  186.598
  219.120    7.593    0.412    0.197  101.123  184.687
  219.370    7.569    0.400    0.209   94.743  183.391
  219.620    7.367    0.373    0.223   93.424  182.628
  219.870    7.209    0.379    0.238   95.877  183.007
  220.120    7.121    0.387    0.229  100.792  184.438
  220.370    7.178    0.388    0.207  110.159  186.502
  220.620    7.183    0.397    0.184  111.002  188.026
  220.870    7.187    0.407    0.175  110.177  189.352
  221.120    7.219    0.393    0.169  111.641  189.836
  221.370    7.183    0.377    0.168  105.195  189.810
  221.620    6.939    0.381    0.179  104.682  190.198
  221.870    6.630    0.400    0.193  110.465  190.671
  222.120    6.488    0.411    0.192  109.393  191.054
  222.370    6.613    0.415    0.186  112.339  191.541
  222.620    7.246    0.415    0.179  118.059  191.412
  222.870    8.163    0.422    0.171  121.620  190.847
  223.120    9.179    0.409    0.166  116.044  189.668
  223.370   10.132    0.401    0.169  108.055  188.576
  223.620   11.184    0.399    0.179   96.797  184.468
  223.870   12.811    0.381    0.270   86.216  177.847
  224.120   14.299    0.354    0.278   71.500  173.313
  224.370   15.408    0.351    0.281   66.537  170.355
  224.620   15.619    0.360    0.281   65.776  168.643
  224.870   14.168    0.366    0.284   62.978  168.191
  225.120   11.780    0.356    0.291   59.684  168.371
  225.370    9.996    0.346    0.303   56.698  169.266
  225.620    8.690    0.352    0.309   58.777  170.067
  225.870    7.766    0.378    0.294   78.577  171.500
  226.120    7.058    0.376    0.219  116.102  173.454
  226.370    6.681    0.388    0.222  127.934  175.927
  226.620    6.550    0.395    0.226  135.635  181.320
  226.870    6.591    0.397    0.220  133.328  185.678
  227.120    6.818    0.407    0.200  131.330  187.005
  227.370    7.347    0.391    0.198  132.176  183.526
  227.620    8.400    0.372    0.201  131.045  180.555
  227.870    9.622    0.369    0.218  128.121  182.523
  228.120   10.921    0.381    0.236  120.626  183.203
  228.370   12.696    0.373    0.257  113.195  182.227
  228.620   13.937    0.353    0.267  105.393  178.959
  228.870   14.391    0.360    0.272   94.999  176.934
  229.120   14.084    0.373    0.273   91.458  175.116
  229.370   13.381    0.358    0.274   92.302  173.512
  229.620   12.619    0.347    0.280   95.123  172.221
  229.870   11.769    0.359    0.283   98.002  170.829
  230.120   10.875    0.369    0.279  101.506  169.747
  230.370    9.975    0.382    0.276  104.202  169.498
  230.620    9.217    0.398    0.276  107.698  169.259
  230.870    8.904    0.414    0.260  111.072  169.113
  231.120    8.746    0.415    0.264  113.892  171.904
  231.370    8.591    0.403    0.299  117.644  179.396
  231.620    8.424    0.408    0.316  120.581  186.993
  231.870    8.259    0.405    0.298  118.275  181.629
  232.120    8.112    0.384    0.258  121.219  175.426
  232.370    8.117    0.382    0.249  124.038  176.655
  232.620    8.444    0.375    0.241  126.921  178.698
  232.870    8.982    0.375    0.229  129.927  180.762
  233.120   10.044    0.385    0.228  130.151  180.724
  233.370   11.721    0.416    0.239  119.944  179.530
  233.620   13.253    0.405    0.268  111.833  177.928
  233.870   14.629    0.415    0.262  101.253  176.534
  234.120   15.190    0.418    0.288   91.659  173.677
  234.370   14.948    0.407    0.299   86.576  170.821
