~VERSION INFORMATION
 VERS.                 2.0:   CWLS LOG ASCII STANDARD -VERSION 2.0
 WRAP.                  NO:   ONE LINE PER DEPTH STEP
~WELL INFORMATION BLOCK
#MNEM.UNIT           DATA                    DESCRIPTION OF MNEMONIC
#---------    -------------------            -------------------------------
# Generated from Intellog Unique Number	CS_67_68/WELL/2189
WELL.         10-02-067-04W4                 : Well_name    - WELL
LOC .         00/10-02-067-04W4/0            : Location     - LOCATION
UWI .         00/10-02-067-04W4/0            : Uwi          - UNIQUE WELL ID
ENTR.         SP                             : Entered      - ENTERED BY
SRVC.         SCHLUMBERGER                   : Scn          - SERVICE COMPANY
STRT.M        370                            : top_depth    - START DEPTH
STOP.M        590                            : bot_depth    - STOP DEPTH
STEP.M        0.25                           : increment    - STEP LENGTH
 NULL. -999.2500:NULL Value
~CURVE INFORMATION BLOCK
#MNEM UNIT       ERCB CURVE CODE    CURVE DESCRIPTION
#-----------   ------------------   ----------------------------------
DEPT.M        00 001 00 00         : DEPTH        - DEPTH
CALI.MM       00 280 01 00         : CAL          - CALIPER
ILD .OHMM     00 120 00 00         : RESD         - DEEP RESISTIVITY (DIL)
DPHI.V/V      00 890 00 00         : PHID         - DENSITY POROSITY (LIMESTONE)
NPHI.V/V      00 330 00 00         : PHIN         - NEUTRON POROSITY (LIMESTONE)
GR  .API      00 310 00 00         : GR           - GAMMA RAY
~PARAMETER INFORMATION
#MNEM.UNIT           DATA             DESCRIPTION OF MNEMONIC
#---------         -----------     ------------------------------
GL  .M        693.26               : gl           - GROUND LEVEL ELEVATION
EREF.M        697.11               : kb           - ELEVATION OF DEPTH REFERENCE
DATM.M        697.11               : datum        - DATUM ELEVATION
TDD .M        598                  : tdd          - TOTAL DEPTH DRILLER
RUN .         ONE                  : Run          - RUN NUMBER
ENG .         BILL                 : Engineer     - RECORDING ENGINEER
WIT .         JIM                  : Witness      - WITNESSED BY
MUD .         GEL                  : Mud_type     - MUD TYPE
MATR.         LIMESTONE            : Logunit      - NEUTRON MATRIX
TMAX.C        24.5                 : BHT          - MAXIMUM RECORDED TEMPERATURE
BHTD.M        598.6                : BHTDEP       - MAXIMUM RECORDED TEMPERATURE
MATR.         1                    : LOGUNIT      - NEUTRON MATRIX
RMT .C        25                   : MDTP         - TEMPERATURE OF MUD
NEUT.         1                    : NEUTRON      - NEUTRON TYPE
RESI.         0                    : RESIST       - RESISTIVITY TYPE
RMC .OHMM     0.25                 : RMC          - RESISTIVITY OF MUD CAKE
RMF .OHMM     0.25                 : RMF          - RESISTIVITY OF MUD FILTRATE
SUFT.C        15                   : SUFT         - SURFACE TEMPERATURE
~A  DEPTH      CAL     RESD     PHID     PHIN       GR
# ...
  443.000  160.267   11.986    0.338    0.567   67.226
  443.250  160.363   13.419    0.347    0.479   55.120
  443.500  158.753   14.828    0.350    0.409   43.496
  443.750  158.247   15.602    0.338    0.386   37.712
  444.000  158.343   14.858    0.330    0.413   40.178
  444.250  159.242   12.218    0.346    0.430   42.103
  444.500  160.240    9.860    0.354    0.444   43.425
  444.750  160.939    8.387    0.354    0.432   38.786
  445.000  161.738    7.068    0.351    0.405   38.000
  445.250  162.335    6.278    0.343    0.398   36.974
  445.500  162.733    5.747    0.337    0.413   35.044
  445.750  162.728    5.494    0.338    0.435   33.235
  446.000  163.226    5.484    0.349    0.417   36.484
  446.250  163.322    5.495    0.357    0.402   38.288
  446.500  163.317    5.610    0.363    0.423   37.925
  446.750  163.414    5.685    0.359    0.433   37.861
  447.000  163.107    5.707    0.362    0.420   39.183
  447.250  162.903    5.675    0.366    0.413   40.566
  447.500  162.296    5.623    0.353    0.425   41.768
  447.750  162.192    5.623    0.343    0.421   41.525
  448.000  162.188    5.613    0.347    0.421   39.354
  448.250  162.283    5.613    0.358    0.415   38.568
  448.500  162.580    5.614    0.364    0.410   38.687
  448.750  162.978    5.614    0.369    0.406   39.767
  449.000  163.374    5.615    0.371    0.411   40.849
  449.250  163.671    5.594    0.371    0.423   42.592
  449.500  163.868    5.605    0.372    0.433   44.396
  449.750  163.863    5.627    0.378    0.431   45.538
  450.000  163.859    5.659    0.386    0.419   46.620
  450.250  163.854    5.691    0.383    0.407   47.761
  450.500  163.850    5.735    0.377    0.396   48.481
  450.750  163.746    5.757    0.372    0.425   46.311
  451.000  163.640    5.812    0.368    0.447   46.067
  451.250  163.737    5.856    0.369    0.447   46.907
  451.500  163.733    5.901    0.368    0.441   46.002
  451.750  163.828    5.935    0.355    0.443   45.939
  452.000  164.025    5.957    0.348    0.447   49.970
  452.250  163.820    5.969    0.348    0.429   52.016
  452.500  163.816    5.970    0.349    0.417   52.916
  452.750  163.711    5.970    0.337    0.440   48.638
  453.000  163.807    5.948    0.342    0.455   46.589
  453.250  164.004    5.960    0.354    0.419   50.018
  453.500  164.401    5.971    0.360    0.394   52.424
  453.750  164.698    5.972    0.353    0.402   55.131
  454.000  165.095    5.984    0.350    0.417   58.079
  454.250  164.388    5.984    0.353    0.431   61.268
  454.500  163.280    5.973    0.347    0.428   64.457
  454.750  162.572    5.895    0.304    0.429   69.814
  455.000  162.769    5.636    0.279    0.442   80.590
  455.250  163.266    5.287    0.259    0.451   91.607
  455.500  163.865    5.016    0.243    0.465  100.216
  455.750  165.165    4.741    0.234    0.450   99.671
  456.000  166.967    4.566    0.232    0.460   95.634
  456.250  168.668    4.406    0.229    0.475   97.799
  456.500  169.769    4.276    0.228    0.493   98.579
  456.750  171.169    4.220    0.254    0.491   98.878
  457.000  172.168    4.244    0.268    0.480  100.682
  457.250  172.365    4.301    0.258    0.483  103.509
  457.500  170.956    4.342    0.239    0.478  104.892
  457.750  168.642    4.334    0.249    0.464  105.792
  458.000  166.430    4.310    0.266    0.454  104.706
  458.250  164.419    4.222    0.266    0.472  101.452
  458.500  162.708    4.159    0.252    0.490  100.124
  458.750  164.209    4.090    0.247    0.508   96.870
  459.000  165.811    4.052    0.266    0.504   93.013
  459.250  166.810    4.022    0.277    0.486   90.903
  459.500  167.107    4.022    0.258    0.476   88.311
  459.750  166.200    4.053    0.248    0.474   92.765
  460.000  163.987    4.091    0.249    0.493   94.087
  460.250  163.381    4.233    0.255    0.510   89.689
  460.500  164.280    4.470    0.292    0.486   78.365
  460.750  164.075    4.686    0.316    0.460   70.595
  461.000  162.866    5.072    0.338    0.444   61.560
  461.250  162.059    5.541    0.355    0.460   57.282
  461.500  161.652    6.009    0.356    0.471   55.111
  461.750  161.247    6.358    0.358    0.482   52.941
  462.000  160.741    6.578    0.358    0.468   51.854
  462.250  160.134    6.805    0.345    0.457   54.260
  462.500  159.828    6.987    0.341    0.448   57.509
  462.750  160.025    7.283    0.346    0.445   60.096
  463.000  160.021    7.577    0.344    0.438   59.732
  463.250  160.217    7.780    0.346    0.440   58.405
  463.500  160.213    7.943    0.347    0.447   59.305
  463.750  159.907    8.049    0.346    0.436   60.206
  464.000  159.502    8.095    0.340    0.427   61.106
  464.250  159.297    8.066    0.335    0.451   61.827
  464.500  159.191    8.066    0.333    0.460   62.547
  464.750  159.388    8.052    0.340    0.461   62.785
  465.000  159.686    8.052    0.341    0.457   57.243
  465.250  159.781    8.053    0.338    0.451   58.324
  465.500  159.777    8.069    0.338    0.452   60.971
  465.750  159.472    8.009    0.337    0.462   63.437
  466.000  158.866    8.009    0.336    0.449   60.845
  466.250  158.158    8.010    0.333    0.438   59.758
  466.500  157.652    8.011    0.331    0.441   59.877
  466.750  157.447    8.011    0.334    0.442   60.777
  467.000  157.644    8.057    0.338    0.430   63.544
  467.250  158.141    8.103    0.344    0.423   65.227
  467.500  158.839    8.165    0.346    0.416   66.851
  467.750  159.738    8.197    0.346    0.429   63.777
  468.000  160.134    8.213    0.343    0.429   62.812
  468.250  160.833    8.229    0.341    0.420   59.617
  468.500  161.833    8.245    0.339    0.414   59.434
  468.750  162.431    8.261    0.340    0.432   62.623
  469.000  163.028    8.277    0.348    0.454   64.668
  469.250  162.823    8.340    0.338    0.484   66.111
  469.500  162.819    8.515    0.326    0.482   62.555
  469.750  162.413    8.776    0.308    0.411   58.277
  470.000  162.509    9.012    0.297    0.359   59.780
  470.250  162.706    9.046    0.307    0.378   66.340
  470.500  161.497    8.895    0.332    0.402   70.493
  470.750  159.887    8.632    0.344    0.430   72.177
  471.000  159.481    8.408    0.348    0.453   70.970
  471.250  159.778    8.267    0.353    0.457   66.029
  471.500  160.376    8.099    0.356    0.457   64.220
  471.750  160.672    7.904    0.360    0.454   64.338
  472.000  160.869    7.684    0.346    0.459   64.516
  472.250  160.664    7.513    0.334    0.464   62.587
  472.500  160.057    7.415    0.325    0.466   60.477
  472.750  159.551    7.486    0.321    0.470   61.858
  473.000  159.445    7.629    0.327    0.474   63.723
  473.250  159.340    7.804    0.337    0.456   65.105
  473.500  159.335    7.923    0.341    0.440   65.886
  473.750  159.432    8.028    0.325    0.432   66.305
  474.000  159.830    8.090    0.311    0.441   67.085
  474.250  160.126    8.151    0.311    0.437   67.865
  474.500  160.324    8.167    0.314    0.423   67.621
  474.750  160.621    8.092    0.316    0.434   63.765
  475.000  160.516    7.867    0.314    0.442   66.532
  475.250  160.411    7.548    0.272    0.428   67.674
  475.500  160.708    7.216    0.248    0.449   70.743
  475.750  160.803    6.846    0.269    0.507   74.714
  476.000  161.101    6.569    0.292    0.475   78.685
  476.250  161.096    6.374    0.303    0.443   80.129
  476.500  161.092    6.280    0.299    0.445   76.693
  476.750  160.886    6.926    0.302    0.457   69.525
  477.000  160.983    7.315    0.312    0.469   64.464
  477.250  160.878    7.247    0.323    0.461   63.799
  477.500  160.874    7.006    0.314    0.460   66.868
  477.750  161.071    6.941    0.194    0.469   69.033
  478.000  161.668    7.249    0.158    0.434   69.873
  478.250  162.466    7.499    0.131    0.268   72.641
  478.500  162.863    7.155    0.142    0.276   76.311
  478.750  162.458    6.827    0.178    0.351   79.922
  479.000  161.651    6.440    0.242    0.438   82.870
  479.250  162.951    6.179    0.283    0.457   84.132
