~VERSION INFORMATION
 VERS.                 2.0:   CWLS LOG ASCII STANDARD -VERSION 2.0
 WRAP.                  NO:   ONE LINE PER DEPTH STEP
~WELL INFORMATION BLOCK
#MNEM.UNIT           DATA                    DESCRIPTION OF MNEMONIC
#---------    -------------------            -------------------------------
# Generated from Intellog Unique Number	CS_71_72/WELL/917
WELL.         ET AL KIRBY EX                 : Well_name    - WELL
LOC .         00/12-21-071-04W4/0            : Location     - LOCATION
UWI .         00/12-21-071-04W4/0            : Uwi          - UNIQUE WELL ID
ENTR.         SP                             : Entered      - ENTERED BY
SRVC.         SCHLUMBERGER                   : Scn          - SERVICE COMPANY
STRT.M        290                            : top_depth    - START DEPTH
STOP.M        505                            : bot_depth    - STOP DEPTH
STEP.M        0.25                           : increment    - STEP LENGTH
 NULL. -999.2500:NULL Value
~CURVE INFORMATION BLOCK
#MNEM UNIT       ERCB CURVE CODE    CURVE DESCRIPTION
#-----------   ------------------   ----------------------------------
DEPT.M        00 001 00 00         : DEPTH        - DEPTH
ILD .OHMM     00 120 00 00         : RESD         - DEEP RESISTIVITY (DIL)
DPHI.V/V      00 890 00 00         : PHID         - DENSITY POROSITY (LIMESTONE)
NPHI.V/V      00 330 00 00         : PHIN         - NEUTRON POROSITY (LIMESTONE)
GR  .API      00 310 00 00         : GR           - GAMMA RAY
~PARAMETER INFORMATION
#MNEM.UNIT           DATA             DESCRIPTION OF MNEMONIC
#---------         -----------     ------------------------------
GL  .M        674.8                : gl           - GROUND LEVEL ELEVATION
EREF.M        678.4                : kb           - ELEVATION OF DEPTH REFERENCE
DATM.M        674.8                : datum        - DATUM ELEVATION
TDD .M        523.5                : tdd          - TOTAL DEPTH DRILLER
RUN .         ONE                  : Run          - RUN NUMBER
ENG .         BILL                 : Engineer     - RECORDING ENGINEER
WIT .         JIM                  : Witness      - WITNESSED BY
MUD .         GEL                  : Mud_type     - MUD TYPE
MATR.         LIMESTONE            : Logunit      - NEUTRON MATRIX
TMAX.C        17.5                 : BHT          - MAXIMUM RECORDED TEMPERATURE
BHTD.M        523.5                : BHTDEP       - MAXIMUM RECORDED TEMPERATURE
MATR.         1                    : LOGUNIT      - NEUTRON MATRIX
RMT .C        25                   : MDTP         - TEMPERATURE OF MUD
NEUT.         1                    : NEUTRON      - NEUTRON TYPE
RESI.         0                    : RESIST       - RESISTIVITY TYPE
RMC .OHMM     0.25                 : RMC          - RESISTIVITY OF MUD CAKE
RMF .OHMM     0.25                 : RMF          - RESISTIVITY OF MUD FILTRATE
SUFT.C        15                   : SUFT         - SURFACE TEMPERATURE
~A  DEPTH     RESD     PHID     PHIN       GR
# ...
  333.500    6.761    0.254    0.400   68.145
  333.750    6.676    0.242    0.419   70.311
  334.000    6.495    0.248    0.436   72.108
  334.250    6.223    0.269    0.447   75.803
  334.500    5.963    0.271    0.447   78.154
  334.750    5.779    0.270    0.442   78.910
  335.000    5.826    0.279    0.450   80.281
  335.250    6.007    0.280    0.460   81.656
  335.500    6.193    0.274    0.467   82.167
  335.750    6.267    0.268    0.468   82.066
  336.000    6.224    0.264    0.466   81.296
  336.250    6.146    0.263    0.451   80.954
  336.500    6.093    0.260    0.442   82.689
  336.750    6.038    0.252    0.436   86.569
  337.000    6.133    0.246    0.437   89.652
  337.250    6.230    0.241    0.441   91.939
  337.500    6.292    0.239    0.437   93.798
  337.750    6.284    0.243    0.430   95.169
  338.000    6.264    0.246    0.422   95.684
  338.250    6.116    0.243    0.424   93.565
  338.500    6.154    0.248    0.435   89.614
  338.750    6.157    0.258    0.443   87.067
  339.000    6.231    0.261    0.450   85.746
  339.250    6.282    0.262    0.456   87.056
  339.500    6.203    0.260    0.449   87.569
  339.750    6.068    0.255    0.444   86.002
  340.000    5.793    0.250    0.443   85.720
  340.250    5.645    0.245    0.451   88.253
  340.500    5.491    0.241    0.449   87.360
  340.750    5.588    0.250    0.447   82.858
  341.000    5.860    0.269    0.460   78.846
  341.250    6.088    0.294    0.478   73.974
  341.500    6.184    0.314    0.494   72.040
  341.750    6.049    0.322    0.481   71.697
  342.000    5.884    0.316    0.467   70.682
  342.250    5.534    0.312    0.457   68.075
  342.500    5.322    0.325    0.446   65.778
  342.750    5.206    0.332    0.441   66.165
  343.000    5.399    0.329    0.446   67.047
  343.250    5.739    0.322    0.431   67.134
  343.500    5.849    0.308    0.418   66.423
  343.750    5.941    0.280    0.411   66.630
  344.000    5.889    0.262    0.423   67.755
  344.250    5.696    0.261    0.437   68.454
  344.500    5.296    0.269    0.425   67.866
  344.750    4.869    0.301    0.436   63.608
  345.000    4.518    0.328    0.448   59.654
  345.250    4.077    0.348    0.449   55.215
  345.500    3.877    0.353    0.438   51.750
  345.750    3.612    0.356    0.425   48.718
  346.000    3.533    0.356    0.420   47.578
  346.250    3.449    0.360    0.414   46.746
  346.500    3.381    0.366    0.405   43.343
  346.750    3.345    0.367    0.404   50.715
  347.000    3.334    0.363    0.422   55.015
  347.250    3.368    0.359    0.440   59.939
  347.500    3.382    0.356    0.455   62.103
  347.750    3.428    0.353    0.454   55.518
  348.000    3.495    0.352    0.442   46.611
  348.250    3.557    0.352    0.436   47.062
  348.500    3.647    0.352    0.439   52.288
  348.750    3.747    0.350    0.449   56.103
  349.000    3.813    0.346    0.453   58.513
  349.250    3.880    0.342    0.442   54.438
  349.500    3.957    0.338    0.426   53.545
  349.750    3.988    0.336    0.415   56.386
  350.000    4.013    0.331    0.429   58.611
  350.250    4.000    0.326    0.446   59.735
  350.500    3.943    0.332    0.444   59.822
  350.750    3.893    0.341    0.430   61.135
  351.000    3.888    0.349    0.437   62.074
  351.250    3.905    0.347    0.435   62.830
  351.500    3.914    0.337    0.425   63.528
  351.750    3.873    0.331    0.418   63.551
  352.000    3.817    0.328    0.416   63.393
  352.250    3.727    0.326    0.433   63.540
  352.500    3.632    0.328    0.446   62.155
  352.750    3.533    0.328    0.437   58.020
  353.000    3.469    0.333    0.449   60.799
  353.250    3.491    0.337    0.460   62.535
  353.500    3.606    0.335    0.444   63.355
  353.750    3.739    0.330    0.436   62.952
  354.000    3.827    0.322    0.456   65.304
  354.250    3.902    0.317    0.459   67.649
  354.500    3.949    0.317    0.445   70.184
  354.750    3.914    0.314    0.442   70.878
  355.000    3.793    0.303    0.433   69.555
  355.250    3.627    0.295    0.423   58.081
  355.500    3.489    0.297    0.419   50.886
  355.750    3.368    0.315    0.422   51.580
  356.000    3.282    0.326    0.412   52.586
  356.250    3.187    0.336    0.407   49.733
  356.500    3.123    0.334    0.408   51.900
  356.750    3.033    0.328    0.421   53.888
  357.000    2.978    0.330    0.430   54.949
  357.250    2.924    0.336    0.414   56.010
  357.500    2.931    0.340    0.408   55.362
  357.750    2.966    0.342    0.419   53.736
  358.000    3.024    0.346    0.432   53.146
  358.250    3.101    0.352    0.435   54.332
  358.500    3.203    0.344    0.440   58.088
  358.750    3.378    0.330    0.449   62.766
  359.000    3.596    0.317    0.457   65.235
  359.250    3.909    0.312    0.456   66.482
  359.500    4.305    0.312    0.439   68.157
  359.750    4.706    0.309    0.428   66.715
  360.000    4.926    0.269    0.421   64.901
  360.250    4.801    0.214    0.230   59.910
  360.500    4.397    0.190    0.205   55.469
  360.750    3.742    0.218    0.310   55.858
  361.000    3.191    0.257    0.360   58.211
  361.250    2.706    0.313    0.378   56.152
  361.500    2.387    0.335    0.390   51.832
  361.750    2.244    0.344    0.401   49.899
  362.000    2.138    0.350    0.409   49.312
  362.250    2.080    0.353    0.412   48.363
  362.500    2.065    0.351    0.409   47.284
  362.750    2.043    0.342    0.409   46.264
  363.000    2.041    0.336    0.412   46.475
  363.250    2.031    0.332    0.420   47.352
  363.500    1.968    0.333    0.428   46.401
  363.750    1.965    0.341    0.439   45.692
  364.000    1.955    0.343    0.431   46.759
  364.250    1.938    0.341    0.420   47.941
  364.500    1.917    0.340    0.427   49.375
  364.750    1.904    0.339    0.429   50.374
  365.000    1.894    0.339    0.408   50.276
  365.250    1.885    0.340    0.394   46.508
  365.500    1.868    0.340    0.387   44.574
  365.750    1.855    0.342    0.391   44.719
  366.000    1.842    0.345    0.392   45.849
  366.250    1.826    0.347    0.392   46.421
  366.500    1.810    0.345    0.396   46.627
  366.750    1.801    0.342    0.399   45.370
  367.000    1.795    0.340    0.393   44.475
  367.250    1.793    0.337    0.389   44.687
  367.500    1.784    0.336    0.394   45.568
  367.750    1.781    0.336    0.403   46.261
  368.000    1.772    0.337    0.405   46.100
  368.250    1.763    0.340    0.410   45.085
  368.500    1.754    0.345    0.422   44.806
  368.750    1.755    0.342    0.418   45.562
  369.000    1.800    0.341    0.411   46.629
  369.250    1.838    0.350    0.421   47.818
  369.500    1.888    0.360    0.450   48.694
  369.750    1.947    0.370    0.463   50.929
  370.000    2.015    0.357    0.442   52.905
  370.250    2.062    0.346    0.439   55.191
  370.500    2.010    0.340    0.458   56.192
  370.750    1.887    0.339    0.463   56.096
  371.000    1.804    0.350    0.456   54.589
  371.250    1.735    0.360    0.450   51.371
  371.500    1.720    0.365    0.451   49.008
  371.750    1.737    0.368    0.452   48.176
  372.000    1.751    0.370    0.450   48.263
  372.250    1.756    0.373    0.443   48.837
  372.500    1.750    0.372    0.441   49.537
  372.750    1.774    0.356    0.445   50.234
  373.000    1.806    0.236    0.441   50.867
  373.250    1.813    0.211    0.344   51.013
  373.500    1.774    0.212    0.357   48.407
  373.750    1.719    0.256    0.405   49.961
  374.000    1.682    0.310    0.441   51.697
  374.250    1.642    0.352    0.440   52.211
  374.500    1.606    0.356    0.429   54.808
  374.750    1.583    0.359    0.424   57.337
  375.000    1.572    0.360    0.417   61.033
  375.250    1.561    0.357    0.414   65.286
  375.500    1.550    0.353    0.421   66.709
  375.750    1.542    0.351    0.436   63.983
  376.000    1.532    0.357    0.438   60.457
  376.250    1.516    0.356    0.432   57.667
  376.500    1.505    0.353    0.437   54.511
  376.750    1.497    0.350    0.457   51.904
