~VERSION INFORMATION
 VERS.                 2.0:   CWLS LOG ASCII STANDARD -VERSION 2.0
 WRAP.                  NO:   ONE LINE PER DEPTH STEP
~WELL INFORMATION BLOCK
#MNEM.UNIT           DATA                    DESCRIPTION OF MNEMONIC
#---------    -------------------            -------------------------------
# Generated from Intellog Unique Number	CC_80_83/WELL/2332
NULL.         -999.25                        : NULL_VALUE
WELL.         PEX HOUSE                      : Well_name    - WELL
LOC .         10-03-081-16W4                 : Location     - LOCATION          
UWI .         00/10-03-081-16W400            : Uwi          - UNIQUE WELL ID    
ENTR.         DW                             : Entered      - ENTERED BY        
SRVC.         SCHLUMBERGER                   : Scn          - SERVICE COMPANY   
DATE.         06 JAN 82                      : Date         - LOG DATE
STRT.M        170                            : top_depth    - START DEPTH       
STOP.M        364.996                        : bot_depth    - STOP DEPTH        
STEP.M        0.3                            : increment    - STEP LENGTH       
~CURVE INFORMATION BLOCK
#MNEM UNIT       ERCB CURVE CODE    CURVE DESCRIPTION
#-----------   ------------------   ----------------------------------
DEPT.M        00 001 00 00         : DEPTH        - DEPTH                       
DPHI.V/V      00 890 00 00         : PHID         - DENSITY POROSITY (LIMESTONE)
NPHI.V/V      00 330 00 00         : PHIN         - NEUTRON POROSITY (LIMESTONE)
GR  .API      00 310 00 00         : GR           - GAMMA RAY                   
ILD .OHMM     00 120 00 00         : RESD         - DEEP RESISTIVITY (DIL)      
~PARAMETER INFORMATION       
#MNEM.UNIT           DATA             DESCRIPTION OF MNEMONIC
#---------         -----------     ------------------------------
GL  .M        563.09               : gl           - GROUND LEVEL ELEVATION      
EREF.M        566.89               : kb           - ELEVATION OF DEPTH REFERENCE
DATM.M        566.89               : datum        - DATUM ELEVATION             
TDD .M        422                  : tdd          - TOTAL DEPTH DRILLER         
RUN .         ONE                  : Run          - RUN NUMBER                  
ENG .         BILL                 : Engineer     - RECORDING ENGINEER          
WIT .         JIM                  : Witness      - WITNESSED BY                
MUD .         GEL                  : Mud_type     - MUD TYPE                    
MATR.         LIMESTONE            : Logunit      - NEUTRON MATRIX              
TMAX.C        15                   : BHT          - MAXIMUM RECORDED TEMPERATURE
BHTD.M        422                  : BHTDEP       - MAXIMUM RECORDED TEMPERATURE
MATR.         1                    : LOGUNIT      - NEUTRON MATRIX              
RMT .C        25                   : MDTP         - TEMPERATURE OF MUD          
NEUT.         1                    : NEUTRON      - NEUTRON TYPE                
RESI.         0                    : RESIST       - RESISTIVITY TYPE            
RMC .OHMM     0.25                 : RMC          - RESISTIVITY OF MUD CAKE     
RMF .OHMM     0.25                 : RMF          - RESISTIVITY OF MUD FILTRATE 
SUFT.C        15                   : SUFT         - SURFACE TEMPERATURE         
~A  DEPTH     PHID     PHIN       GR     RESD
# ...
  222.201    0.327    0.444   45.288   14.028
  222.501    0.337    0.443   46.538   13.765
  222.801    0.351    0.451   47.786   13.767
  223.101    0.346    0.461   50.271   13.768
  223.401    0.348    0.462   50.898   13.769
  223.701    0.332    0.456   45.357   14.034
  224.001    0.327    0.455   42.900   14.306
  224.301    0.341    0.445   43.532   14.581
  224.601    0.339    0.440   41.696   14.583
  224.901    0.325    0.447   40.472   14.309
  225.201    0.320    0.436   41.104   14.041
  225.501    0.322    0.429   46.057   13.778
  225.801    0.323    0.457   50.395   14.044
  226.101    0.324    0.443   49.173   13.780
  226.401    0.324    0.425   46.715   13.781
  226.701    0.333    0.431   47.350   14.048
  227.001    0.328    0.456   47.363   14.049
  227.301    0.305    0.466   46.757   14.320
  227.601    0.318    0.475   46.156   14.321
  227.901    0.322    0.467   47.401   14.322
  228.201    0.308    0.453   48.651   14.054
  228.501    0.312    0.464   48.662   14.325
  228.801    0.324    0.460   46.827   14.602
  229.101    0.312    0.449   47.458   14.604
  229.401    0.298    0.444   48.088   14.604
  229.701    0.296    0.446   51.807   14.606
  230.001    0.317    0.429   55.522   14.607
  230.301    0.314    0.442   54.303   14.889
  230.601    0.304    0.457   55.550   15.176
  230.901    0.297    0.455   49.391   15.178
  231.201    0.292    0.459   50.021   15.179
  231.501    0.293    0.461   50.653   15.180
  231.801    0.304    0.458   48.814   15.181
  232.101    0.309    0.469   45.123   15.183
  232.401    0.313    0.481   43.902   15.184
  232.701    0.314    0.470   47.620   14.900
  233.001    0.315    0.465   53.190   14.901
  233.301    0.311    0.456   56.291   14.903
  233.601    0.300    0.441   51.986   14.623
  233.901    0.296    0.429   53.232   14.624
  234.201    0.299    0.439   53.867   14.626
  234.501    0.301    0.454   56.964   14.627
  234.801    0.305    0.457   58.830   14.353
  235.101    0.307    0.428   56.992   14.354
  235.401    0.301    0.429   53.303   14.085
  235.701    0.299    0.442   54.550   14.086
  236.001    0.285    0.461   61.355   14.088
  236.301    0.276    0.471   61.984   13.823
  236.601    0.292    0.457   61.999   13.564
  236.901    0.284    0.437   65.716   12.572
  237.201    0.292    0.441   62.644   12.336
  237.501    0.311    0.472   55.251   12.337
  237.801    0.320    0.474   56.498   12.338
  238.101    0.317    0.476   62.068   12.339
  238.401    0.284    0.451   62.697   12.340
  238.701    0.287    0.463   57.777   12.109
  239.001    0.296    0.447   56.553   11.438
  239.301    0.306    0.431   55.333   11.439
  239.601    0.312    0.445   54.730   11.661
  239.901    0.290    0.471   54.124   11.885
  240.201    0.260    0.459   64.632   11.886
  240.501    0.281    0.454   60.942   11.443
  240.801    0.293    0.452   56.635   11.017
  241.101    0.280    0.431   67.763   10.019
  241.401    0.254    0.438   77.035    8.284
  241.701    0.224    0.451   81.372    6.594
  242.001    0.241    0.467   80.150    6.470
  242.301    0.256    0.480   73.989    6.851
  242.601    0.265    0.462   65.977    7.535
  242.901    0.262    0.457   65.377    7.978
  243.201    0.262    0.475   66.004    8.448
  243.501    0.257    0.468   65.403    8.611
  243.801    0.266    0.476   62.329    8.777
  244.101    0.271    0.471   58.640    8.946
  244.401    0.269    0.418   60.505    8.613
  244.701    0.220    0.428   64.841    7.832
  245.001    0.206    0.444   67.940    7.833
  245.301    0.240    0.424   67.335    7.984
  245.601    0.273    0.423   64.262    7.985
  245.901    0.264    0.458   64.281    8.139
  246.201    0.270    0.460   64.292    8.455
  246.501    0.283    0.430   58.748    8.784
  246.801    0.264    0.438   53.823    9.125
  247.101    0.257    0.461   58.776    9.301
  247.401    0.253    0.438   63.113    8.955
  247.701    0.238    0.418   66.830    7.990
  248.001    0.234    0.405   73.016    7.266
  248.301    0.260    0.435   80.437    7.266
  248.601    0.275    0.496   77.984    7.407
  248.901    0.288    0.490   71.205    7.842
  249.201    0.295    0.445   65.662    8.304
  249.501    0.297    0.466   62.588    8.464
  249.801    0.290    0.506   60.133    8.465
  250.101    0.286    0.514   60.150    8.306
  250.401    0.282    0.486   61.398    7.846
  250.701    0.294    0.468   62.026    7.699
  251.001    0.291    0.474   65.129    7.700
  251.301    0.284    0.497   70.697    7.555
  251.601    0.282    0.489   76.269    7.137
  251.901    0.281    0.520   74.430    7.003
  252.201    0.274    0.510   69.505    6.615
  252.501    0.262    0.462   72.606    6.249
  252.801    0.279    0.450   74.469    6.016
  253.101    0.261    0.474   75.103    6.017
  253.401    0.264    0.484   76.967    5.904
  253.701    0.242    0.510   78.833    5.793
  254.001    0.214    0.496   81.318    5.793
  254.301    0.221    0.470   81.330    5.794
  254.601    0.236    0.456   75.787    6.135
  254.901    0.246    0.444   77.653    6.496
  255.201    0.256    0.462   76.431    7.010
  255.501    0.255    0.467   72.124    7.858
  255.801    0.245    0.468   72.755    8.010
  256.101    0.230    0.471   75.241    8.011
  256.401    0.232    0.478   77.108    7.712
  256.701    0.235    0.481   75.885    7.425
  257.001    0.224    0.444   78.985    7.014
  257.301    0.217    0.417   73.441    6.752
  257.601    0.220    0.455   81.481    6.379
  257.901    0.214    0.459   80.261    6.259
  258.201    0.225    0.458   80.274    6.260
  258.501    0.254    0.522   78.438    6.142
  258.801    0.258    0.536   74.128    6.143
  259.101    0.254    0.522   71.054    6.629
  259.401    0.257    0.501   67.364    7.574
  259.701    0.247    0.481   61.822    8.173
  260.001    0.251    0.455   65.539    7.575
  260.301    0.265    0.440   77.283    4.891
  260.601    0.258    0.514   86.558    3.158
  260.901    0.272    0.566   89.659    2.330
  261.201    0.233    0.576   83.499    2.201
  261.501    0.240    0.597   81.044    2.201
  261.801    0.281    0.582   83.526    2.330
  262.101    0.261    0.573   86.626    2.563
  262.401    0.252    0.532   79.851    2.929
  262.701    0.248    0.508   78.628    3.542
  263.001    0.238    0.499   84.197    4.285
  263.301    0.224    0.504   86.683    5.086
  263.601    0.213    0.499   84.845    5.811
  263.901    0.193    0.481   80.537    6.514
  264.201    0.229    0.451   79.314    7.029
  264.501    0.239    0.436   79.331    7.586
  264.801    0.229    0.457   77.495    7.732
  265.100    0.224    0.477   76.888    7.587
  265.400    0.220    0.463   75.666    7.305
  265.700    0.220    0.454   78.150    7.305
  266.000    0.204    0.452   82.483    7.306
  266.300    0.224    0.515   83.733    7.447
  266.600    0.228    0.508   78.190    7.448
  266.900    0.205    0.492   75.119    6.902
  267.200    0.209    0.510   78.218    5.600
  267.500    0.205    0.484   86.874    5.391
  267.800    0.199    0.465   89.975    5.392
  268.100    0.218    0.478   86.900    5.709
  268.400    0.235    0.476   81.358    5.931
  268.700    0.236    0.488   83.223    6.161
  269.000    0.219    0.502   86.324    6.162
  269.300    0.216    0.480   86.338    5.932
  269.600    0.216    0.460   81.416    4.213
  269.900    0.226    0.476   78.956    4.056
  270.200    0.236    0.490   80.824    4.214
  270.500    0.233    0.479   87.013    4.634
  270.800    0.200    0.460   85.789    5.500
  271.100    0.181    0.440   72.839    7.179
  271.400    0.201    0.439   76.558    7.180
  271.700    0.215    0.446   75.955    6.783
  272.000    0.222    0.479   75.971    6.530
  272.300    0.241    0.544   79.070    6.531
  272.600    0.269    0.548   79.698    6.915
  272.900    0.262    0.508   80.330    7.462
  273.200    0.257    0.464   75.404    8.053
  273.500    0.257    0.425   71.715    8.054
  273.800    0.244    0.423   81.606    8.054
  274.100    0.216    0.477   85.323    7.754
