~VERSION INFORMATION
 VERS.                 2.0:   CWLS LOG ASCII STANDARD -VERSION 2.0
 WRAP.                  NO:   ONE LINE PER DEPTH STEP
~WELL INFORMATION BLOCK
#MNEM.UNIT           DATA                    DESCRIPTION OF MNEMONIC
#---------    -------------------            -------------------------------
# Generated from Intellog Unique Number	CW_70_72/WELL/2908
NULL.         -999.25                        : NULL_VALUE
WELL.         NOVALTA RICHMOND               : Well_name    - WELL              
LOC .         16-01-070-20W4                 : Location     - LOCATION          
UWI .         00/16-01-070-20W4/0            : Uwi          - UNIQUE WELL ID    
ENTR.         MAX                            : Entered      - ENTERED BY        
SRVC.         WELEX                          : Scn          - SERVICE COMPANY   
DATE.         04 OCT 85                      : Date         - LOG DATE
STRT.M        325                            : top_depth    - START DEPTH       
STOP.M        490                            : bot_depth    - STOP DEPTH        
STEP.M        0.25                           : increment    - STEP LENGTH       
~CURVE INFORMATION BLOCK
#MNEM UNIT       ERCB CURVE CODE    CURVE DESCRIPTION
#-----------   ------------------   ----------------------------------
DEPT.M        00 001 00 00         : DEPTH        - DEPTH                       
ILD .OHMM     00 120 00 00         : RESD         - DEEP RESISTIVITY (DIL)      
NPHI.V/V      00 330 00 00         : PHIN         - NEUTRON POROSITY (SANDSTONE)
DPHI.V/V      00 890 00 00         : PHID         - DENSITY POROSITY (SANDSTONE)
CALI.MM       00 280 01 00         : CAL          - CALIPER                     
GR  .API      00 310 00 00         : GR           - GAMMA RAY                   
~PARAMETER INFORMATION       
#MNEM.UNIT           DATA             DESCRIPTION OF MNEMONIC
#---------         -----------     ------------------------------
GL  .M        577.31               : gl           - GROUND LEVEL ELEVATION      
EREF.M        580.3                : kb           - ELEVATION OF DEPTH REFERENCE
DATM.M        577.31               : datum        - DATUM ELEVATION             
TDD .M        555.8                : tdd          - TOTAL DEPTH DRILLER         
RUN .         ONE                  : Run          - RUN NUMBER                  
ENG .         BILL                 : Engineer     - RECORDING ENGINEER          
WIT .         JIM                  : Witness      - WITNESSED BY                
MUD .         GEL                  : Mud_type     - MUD TYPE                    
MATR.         SANDSTONE            : Logunit      - NEUTRON MATRIX              
TMAX.C        25                   : BHT          - MAXIMUM RECORDED TEMPERATURE
BHTD.M        555.8                : BHTDEP       - MAXIMUM RECORDED TEMPERATURE
RMT .C        19                   : MDTP         - TEMPERATURE OF MUD          
MUDD.KG/M     1160                 : MWT          - MUD DENSITY                 
NEUT.         1                    : NEUTRON      - NEUTRON TYPE                
RESI.         0                    : RESIST       - RESISTIVITY TYPE            
RM  .OHMM     4.5                  : RM           - RESISTIVITY OF MUD          
RMC .OHMM     3.5                  : RMC          - RESISTIVITY OF MUD CAKE     
RMF .OHMM     4.4                  : RMF          - RESISTIVITY OF MUD FILTRATE 
SUFT.C        -20                  : SUFT         - SURFACE TEMPERATURE         
~A  DEPTH     RESD     PHIN     PHID      CAL       GR
# ...
  398.000    3.959    0.373    0.266  155.717   75.997
  398.250    3.887    0.369    0.279  155.751   79.849
  398.500    3.817    0.371    0.290  155.778   81.046
  398.750    3.747    0.387    0.300  155.799   73.978
  399.000    3.645    0.425    0.308  155.833   69.568
  399.250    3.579    0.410    0.311  155.863   67.516
  399.500    3.514    0.388    0.308  155.884   64.876
  399.750    3.450    0.409    0.292  155.911   66.073
  400.000    3.388    0.424    0.281  155.939   69.929
  400.250    3.388    0.390    0.262  155.966   73.486
  400.500    3.388    0.370    0.264  155.993   75.868
  400.750    3.419    0.364    0.294  156.021   76.179
  401.000    3.450    0.396    0.302  157.032   86.525
  401.250    3.450    0.421    0.299  159.030   95.987
  401.500    3.326    0.409    0.284  168.405  103.680
  401.750    3.236    0.439    0.271  180.732  101.040
  402.000    3.148    0.474    0.246  183.226   93.087
  402.250    3.034    0.452    0.249  181.774   92.219
  402.500    3.007    0.440    0.274  179.830   91.055
  402.750    3.091    0.465    0.258  171.005   89.298
  403.000    3.206    0.449    0.228  169.061   89.905
  403.250    3.450    0.430    0.224  167.616   91.104
  403.500    3.747    0.418    0.197  167.151   88.757
  403.750    4.145    0.431    0.185  166.687   92.023
  404.000    4.183    0.414    0.214  164.746   81.706
  404.250    3.996    0.408    0.279  159.365   74.342
  404.500    3.817    0.435    0.328  158.412   71.704
  404.750    3.579    0.457    0.323  158.432   74.084
  405.000    3.419    0.433    0.311  158.432   74.096
  405.250    3.265    0.428    0.314  157.998   74.707
  405.500    3.206    0.438    0.311  157.042   73.836
  405.750    3.206    0.439    0.309  156.581   72.676
  406.000    3.206    0.432    0.333  157.100   71.212
  406.250    3.236    0.416    0.352  157.619   67.984
  406.500    3.388    0.399    0.338  158.135   71.835
  406.750    3.547    0.406    0.299  158.162   75.984
  407.000    3.679    0.430    0.272  158.193   77.479
  407.250    3.923    0.403    0.244  159.696   81.037
  407.500    4.145    0.416    0.242  163.171   85.481
  407.750    4.420    0.397    0.254  164.175   84.321
  408.000    4.585    0.398    0.251  162.238   85.219
  408.250    4.713    0.404    0.237  160.301   86.418
  408.500    4.713    0.388    0.231  160.332   85.846
  408.750    4.713    0.399    0.225  162.320   86.449
  409.000    4.713    0.425    0.216  163.331   84.991
  409.250    4.670    0.422    0.207  162.870   84.419
  409.500    4.670    0.416    0.210  161.913   85.914
  409.750    4.627    0.418    0.195  163.417   89.173
  410.000    4.627    0.408    0.177  164.425   88.599
  410.250    4.543    0.417    0.193  164.459   84.483
  410.500    4.461    0.407    0.199  163.994   83.025
  410.750    4.461    0.382    0.211  164.018   83.040
  411.000    4.420    0.389    0.203  164.049   83.942
  411.250    4.300    0.374    0.203  164.079   81.008
  411.500    4.300    0.392    0.206  164.100   82.499
  411.750    4.261    0.409    0.206  162.651   80.451
  412.000    4.222    0.421    0.238  159.730   76.043
  412.250    4.222    0.407    0.251  157.294   76.351
  412.500    4.222    0.386    0.235  157.325   78.434
  412.750    4.222    0.403    0.225  158.832   87.601
  413.000    4.145    0.386    0.216  160.823   90.569
  413.250    3.996    0.374    0.231  163.803   95.310
  413.500    3.852    0.375    0.259  164.814   95.034
  413.750    3.547    0.390    0.302  161.893   83.239
  414.000    3.296    0.389    0.327  156.997   62.002
  414.250    3.119    0.382    0.308  154.076   59.066
  414.500    3.007    0.387    0.313  154.076   55.245
  414.750    2.846    0.408    0.332  154.144   52.310
  415.000    2.718    0.402    0.342  154.154   55.280
  415.250    2.596    0.388    0.343  154.684   57.068
  415.500    2.480    0.401    0.349  154.212   57.972
  415.750    2.413    0.394    0.348  154.240   58.283
  416.000    2.369    0.386    0.346  154.762   56.526
  416.250    2.369    0.385    0.352  155.278   51.525
  416.500    2.390    0.370    0.351  155.306   52.133
  416.750    2.435    0.373    0.345  155.333   56.871
  417.000    2.435    0.376    0.336  155.852   56.887
  417.250    2.457    0.382    0.320  155.883   56.018
  417.500    2.526    0.390    0.336  155.917   57.512
  417.750    2.669    0.387    0.348  155.941   60.185
  418.000    2.794    0.375    0.356  155.965   62.270
  418.250    3.119    0.368    0.362  155.992   63.170
  418.500    4.107    0.362    0.353  156.019   63.779
  418.750    4.261    0.350    0.327  155.558   60.841
  419.000    5.767    0.312    0.291  153.614   55.842
  419.250    7.594    0.228    0.181  154.134   53.790
  419.500    9.818    0.202    0.006  159.081   54.103
  419.750   10.761    0.197    0.005  159.115   56.774
  420.000   10.761    0.227    0.060  159.637   62.699
  420.250    9.552    0.313    0.231  160.645   63.896
  420.500    7.594    0.354    0.322  158.213   66.864
  420.750    5.928    0.371    0.314  155.292   70.716
  421.000    5.026    0.396    0.304  155.312   72.800
  421.250    4.340    0.419    0.297  155.838   74.586
  421.500    3.579    0.426    0.295  155.862   73.130
  421.750    3.062    0.425    0.307  155.893   66.649
  422.000    2.952    0.422    0.312  156.405   67.257
  422.250    2.898    0.426    0.313  155.948   71.406
  422.500    2.898    0.414    0.307  155.483   72.308
  422.750    2.979    0.409    0.287  156.983   72.325
  423.000    3.091    0.404    0.271  157.010   74.114
  423.250    3.148    0.398    0.277  157.037   75.309
  423.500    3.148    0.405    0.288  156.573   72.671
  423.750    3.177    0.401    0.309  155.619   73.870
  424.000    3.177    0.396    0.311  154.663   71.822
  424.250    3.148    0.389    0.300  154.195   70.361
  424.500    3.119    0.403    0.299  154.229   71.560
  424.750    3.091    0.437    0.293  154.752   73.641
  425.000    3.091    0.418    0.296  154.772   76.019
  425.250    3.119    0.419    0.296  155.790   71.015
  425.500    3.177    0.418    0.289  156.303   71.621
  425.750    3.206    0.390    0.288  156.825   77.246
  426.000    3.265    0.409    0.282  156.849   77.855
  426.250    3.296    0.400    0.276  156.877   74.920
  426.500    3.296    0.399    0.265  157.403   77.298
  426.750    3.296    0.399    0.281  157.430   75.248
  427.000    3.326    0.395    0.275  157.454   70.246
  427.250    3.388    0.408    0.252  157.481   69.969
  427.500    3.419    0.438    0.234  157.515   72.935
  427.750    3.450    0.442    0.239  157.546   78.265
  428.000    3.482    0.427    0.249  158.055   81.233
  428.250    3.482    0.415    0.282  159.562   80.665
  428.500    3.482    0.444    0.273  163.525   83.925
  428.750    3.388    0.491    0.283  170.932   92.206
  429.000    3.148    0.491    0.303  178.831  101.375
  429.250    2.898    0.605    0.305  184.277  104.344
  429.500    2.693    0.620    0.293  186.757  107.017
  429.750    2.347    0.603    0.296  192.688  102.015
  430.000    2.161    0.564    0.291  197.638  100.851
  430.250    2.045    0.540    0.303  193.234  102.050
  430.500    2.045    0.493    0.296  187.860  102.068
  430.750    2.181    0.470    0.265  183.952  102.968
  431.000    2.743    0.433    0.232  179.053  101.806
  431.250    2.898    0.480    0.247  174.160   98.866
  431.500    3.206    0.465    0.243  171.239   96.816
  431.750    3.547    0.439    0.231  169.787   95.062
  432.000    3.852    0.427    0.238  168.345   90.355
  432.250    3.959    0.419    0.222  165.909   86.829
  432.500    4.070    0.383    0.198  163.480   82.123
  432.750    4.145    0.394    0.195  163.009   85.979
  433.000    4.183    0.394    0.213  163.039   93.670
  433.250    4.183    0.386    0.195  163.555   90.439
  433.500    4.145    0.388    0.186  163.583   87.504
  433.750    4.145    0.417    0.199  164.597   87.815
  434.000    4.145    0.416    0.205  165.120   89.012
  434.250    4.183    0.394    0.217  165.636   89.619
