~VERSION INFORMATION
 VERS.                 2.0:   CWLS LOG ASCII STANDARD -VERSION 2.0
 WRAP.                  NO:   ONE LINE PER DEPTH STEP
~WELL INFORMATION BLOCK
#MNEM.UNIT           DATA                    DESCRIPTION OF MNEMONIC
#---------    -------------------            -------------------------------
# Generated from Intellog Unique Number	CN_94_101/WELL/3622
WELL.         TEXACO CANADA RESOURCES LTD.   : Well_name    - WELL
LOC .         00/11-12-096-18W4/0            : Location     - LOCATION
UWI .         00/11-12-096-18W400            : Uwi          - UNIQUE WELL ID
ENTR.         T                              : Entered      - ENTERED BY
SRVC.         SCHLUMBERGER                   : Scn          - SERVICE COMPANY
DATE.         04/22/92                       : Date         - LOG DATE
STRT.M        275                            : top_depth    - START DEPTH
STOP.M        450                            : bot_depth    - STOP DEPTH
STEP.M        0.25                           : increment    - STEP LENGTH
 NULL. -999.2500:NULL Value
~CURVE INFORMATION BLOCK
#MNEM UNIT       ERCB CURVE CODE    CURVE DESCRIPTION
#-----------   ------------------   ----------------------------------
DEPT.M        00 001 00 00         : DEPTH        - DEPTH
GR  .API      00 310 00 00         : GR           - GAMMA RAY
NPHI.V/V      00 330 00 00         : PHIN         - NEUTRON POROSITY (SANDSTONE)
DPHI.V/V      00 890 00 00         : PHID         - DENSITY POROSITY (SANDSTONE)
ILD .OHMM     00 120 00 00         : RESD         - DEEP RESISTIVITY (DIL)
~PARAMETER INFORMATION
#MNEM.UNIT           DATA             DESCRIPTION OF MNEMONIC
#---------         -----------     ------------------------------
GL  .M        0                    : gl           - GROUND LEVEL ELEVATION
EREF.M        725.6                : kb           - ELEVATION OF DEPTH REFERENCE
DATM.M        725.6                : datum        - DATUM ELEVATION
TDD .M        450                  : tdd          - TOTAL DEPTH DRILLER
RUN .         ONE                  : Run          - RUN NUMBER
ENG .         BILL                 : Engineer     - RECORDING ENGINEER
WIT .         JIM                  : Witness      - WITNESSED BY
MUD .         GEL                  : Mud_type     - MUD TYPE
MATR.         SANDSTONE            : Logunit      - NEUTRON MATRIX
TMAX.C        6                    : BHT          - MAXIMUM RECORDED TEMPERATURE
BHTD.M        450                  : BHTDEP       - MAXIMUM RECORDED TEMPERATURE
RMT .C        6                    : MDTP         - TEMPERATURE OF MUD
MUDD.KG/M     1050                 : MWT          - MUD DENSITY
NEUT.         1                    : NEUTRON      - NEUTRON TYPE
RESI.         0                    : RESIST       - RESISTIVITY TYPE
RM  .OHMM     17                   : RM           - RESISTIVITY OF MUD
RMC .OHMM     17                   : RMC          - RESISTIVITY OF MUD CAKE
RMF .OHMM     17                   : RMF          - RESISTIVITY OF MUD FILTRATE
SUFT.C        4                    : SUFT         - SURFACE TEMPERATURE
~A  DEPTH       GR     PHIN     PHID     RESD
# ...
  362.000   71.591    0.547    0.211    4.752
  362.250   77.791    0.534    0.180    5.028
  362.500   77.170    0.522    0.151    5.421
  362.750   72.828    0.518    0.122    5.629
  363.000   70.967    0.523    0.101    5.845
  363.250   72.207    0.529    0.156    6.069
  363.500   75.306    0.531    0.249    6.421
  363.750   77.785    0.532    0.283    6.543
  364.000   79.645    0.540    0.288    7.054
  364.250   81.504    0.546    0.290    7.605
  364.500   80.883    0.555    0.288    8.046
  364.750   79.021    0.553    0.281    8.354
  365.000   77.780    0.550    0.274    7.898
  365.250   73.439    0.545    0.255    7.328
  365.500   69.097    0.534    0.176    6.928
  365.750   67.856    0.516    0.106    7.059
  366.000   71.576    0.514    0.100    7.330
  366.250   72.815    0.519    0.152    8.360
  366.500   72.194    0.520    0.208    8.845
  366.750   72.193    0.516    0.271   10.087
  367.000   75.912    0.508    0.297    9.717
  367.250   79.632    0.509    0.287    8.364
  367.500   80.871    0.513    0.276    7.335
  367.750   80.250    0.514    0.285    6.806
  368.000   79.629    0.509    0.291    6.680
  368.250   77.768    0.510    0.286    6.807
  368.500   74.046    0.539    0.282    6.808
  368.750   69.085    0.541    0.287    6.809
  369.000   68.463    0.510    0.313    6.683
  369.250   73.423    0.514    0.318    6.318
  369.500   77.763    0.532    0.311    6.201
  369.750   83.343    0.546    0.299    6.561
  370.000   88.922    0.562    0.296    6.812
  370.250   91.402    0.581    0.293    7.208
  370.500   90.161    0.594    0.292    7.345
  370.750   87.059    0.602    0.290    7.346
  371.000   82.098    0.599    0.290    6.815
  371.250   76.516    0.594    0.291    6.206
  371.500   71.554    0.581    0.291    5.242
  371.750   66.592    0.552    0.292    4.108
  372.000   66.592    0.520    0.291    3.603
  372.250   66.591    0.524    0.282    3.884
  372.500   67.830    0.535    0.260    4.266
  372.750   68.449    0.533    0.259    4.687
  373.000   68.448    0.535    0.287    5.148
  373.250   68.447    0.504    0.255    5.983
  373.500   72.167    0.489    0.231    6.823
  373.750   81.467    0.523    0.245    7.085
  374.000   82.086    0.546    0.266    6.954
  374.250   81.465    0.561    0.279    6.699
  374.500   82.704    0.565    0.287    6.453
  374.750   83.323    0.556    0.282    6.216
  375.000   83.942    0.556    0.275    5.987
  375.250   82.701    0.561    0.276    5.767
  375.500   80.220    0.563    0.276    5.453
  375.750   77.739    0.561    0.276    5.453
  376.000   74.017    0.555    0.275    5.454
  376.250   74.636    0.535    0.271    5.557
  376.500   77.115    0.503    0.264    5.771
  376.750   79.595    0.481    0.190    5.881
  377.000   83.934    0.504    0.126    6.106
  377.250   87.654    0.519    0.148    6.583
  377.500   88.893    0.530    0.222    6.835
  377.750   88.272    0.520    0.250    7.097
  378.000   88.272    0.518    0.258    7.509
  378.250   87.650    0.520    0.260    7.652
  378.500   87.649    0.528    0.259    7.511
  378.750   87.648    0.539    0.256    7.372
  379.000   87.647    0.550    0.249    7.101
  379.250   87.646    0.555    0.244    6.841
  379.500   89.506    0.556    0.240    6.467
  379.750   91.365    0.560    0.236    6.347
  380.000   93.224    0.571    0.231    5.672
  380.250   94.463    0.583    0.228    5.263
  380.500   89.502    0.589    0.226    4.975
  380.750   80.200    0.593    0.215    4.446
  381.000   70.897    0.600    0.192    4.125
  381.250   62.835    0.557    0.057    3.974
  381.500   52.913    0.563    0.019    4.049
  381.750   62.833    0.572    0.022    4.284
  382.000   73.994    0.572    0.151    4.533
  382.250   82.674    0.557    0.190    4.796
  382.500   95.075    0.530    0.205    5.368
  382.750   98.174    0.504    0.216    5.896
  383.000   94.453    0.475    0.227    6.477
  383.250   96.932    0.466    0.233    6.726
  383.500   98.171    0.476    0.238    6.726
  383.750   93.210    0.487    0.242    6.602
  384.000   91.348    0.499    0.244    6.359
  384.250   90.107    0.474    0.244    6.360
  384.500   87.006    0.467    0.245    6.856
  384.750   85.765    0.475    0.247    7.532
  385.000   85.764    0.480    0.243    8.430
  385.250   84.523    0.480    0.228    9.088
  385.500   83.901    0.478    0.205    9.616
  385.750   86.381    0.495    0.143    9.799
  386.000   91.961    0.407    0.185    9.800
  386.250   91.960    0.499    0.212    9.987
  386.500   91.339    0.538    0.231   10.370
  386.750   90.718    0.539    0.244   10.567
  387.000   89.476    0.525    0.254   10.768
  387.250   88.235    0.488    0.264   10.180
  387.500   88.234    0.476    0.266    9.098
  387.750   88.233    0.474    0.264    8.601
  388.000   88.232    0.476    0.255    8.442
  388.250   87.611    0.482    0.242    8.442
  388.500   85.750    0.485    0.231    8.603
  388.750   82.028    0.486    0.222    8.767
  389.000   80.167    0.483    0.225    8.934
  389.250   78.926    0.483    0.227    9.104
  389.500   78.305    0.482    0.231    9.278
  389.750   80.784    0.483    0.241    9.634
  390.000   85.744    0.485    0.251   10.004
  390.250   86.363    0.487    0.253   10.194
  390.500   86.362    0.488    0.254   10.585
  390.750   86.361    0.488    0.258   10.586
  391.000   87.600    0.488    0.259   10.390
  391.250   89.460    0.487    0.257    9.823
  391.500   91.319    0.482    0.253    8.944
  391.750   93.178    0.480    0.248    8.456
  392.000   92.557    0.474    0.243    8.145
  392.250   91.316    0.479    0.239    7.700
  392.500   90.075    0.487    0.239    7.701
  392.750   89.454    0.486    0.239    7.702
  393.000   89.453    0.474    0.239    7.703
  393.250   91.932    0.472    0.239    7.704
  393.500   93.791    0.475    0.237    7.704
  393.750   95.651    0.481    0.236    7.851
  394.000   95.030    0.487    0.233    8.001
  394.250   93.789    0.491    0.232    8.002
  394.500   91.308    0.492    0.226    8.155
  394.750   87.586    0.488    0.214    8.155
  395.000   85.105    0.481    0.186    7.710
  395.250   83.864    0.459    0.148    7.289
  395.500   83.243    0.450    0.151    7.154
  395.750   83.242    0.454    0.164    7.022
  396.000   82.621    0.459    0.182    7.155
  396.250   81.999    0.466    0.198    7.292
  396.500   85.719    0.475    0.140    7.293
  396.750   90.058    0.513    0.207    7.432
  397.000   91.298    0.540    0.251    7.026
  397.250   93.777    0.523    0.238    6.642
  397.500   95.636    0.512    0.240    6.398
  397.750   96.875    0.517    0.265    6.049
  398.000   95.634    0.524    0.249    5.826
  398.250   92.533    0.526    0.226    4.830
  398.500   88.811    0.519    0.194    4.157
  398.750   85.710    0.516    0.174    3.646
  399.000   83.849    0.511    0.141    3.647
  399.250   85.088    0.505    0.163    4.081
  399.500   83.847    0.468    0.200    4.743
  399.750   82.606    0.476    0.214    5.616
  400.000   84.465    0.484    0.204    6.527
  400.250   94.386    0.495    0.199    7.169
  400.500   98.105    0.554    0.204    7.875
  400.750   97.484    0.570    0.203    8.982
  401.000   92.522    0.563    0.185    9.682
  401.250   86.940    0.514    0.150   10.837
  401.500   85.079    0.506    0.116   10.838
  401.750   87.559    0.401    0.110    9.329
  402.000   91.278    0.416    0.123    8.029
  402.250   94.998    0.449    0.147    7.042
  402.500   96.857    0.471    0.217    7.592
  402.750   96.856    0.481    0.189    7.883
  403.000   95.615    0.462    0.131    9.161
  403.250   93.754    0.434    0.105    9.512
  403.500   92.512    0.348    0.097   10.064
  403.750   92.511    0.428    0.125    9.878
  404.000   93.131    0.453    0.216    8.827
  404.250   90.029    0.465    0.215    8.664
  404.500   88.168    0.464    0.195    8.997
  404.750   89.407    0.462    0.173    9.168
  405.000   94.987    0.463    0.204    9.520
  405.250   97.466    0.475    0.221    9.701
