~VERSION INFORMATION
 VERS.                 2.0:   CWLS LOG ASCII STANDARD -VERSION 2.0
 WRAP.                  NO:   ONE LINE PER DEPTH STEP
~WELL INFORMATION BLOCK
#MNEM.UNIT           DATA                    DESCRIPTION OF MNEMONIC
#---------    -------------------            -------------------------------
# Generated from Intellog Unique Number	CS_71_72/WELL/889
WELL.         BVX ET AL CALL                 : Well_name    - WELL
LOC .         00/11-08-071-16W4/0            : Location     - LOCATION
UWI .         00/11-08-071-16W4/0            : Uwi          - UNIQUE WELL ID
ENTR.         SP                             : Entered      - ENTERED BY
SRVC.         SCHLUMBERGER                   : Scn          - SERVICE COMPANY
STRT.M        285                            : top_depth    - START DEPTH
STOP.M        479                            : bot_depth    - STOP DEPTH
STEP.M        0.25                           : increment    - STEP LENGTH
 NULL. -999.2500:NULL Value
~CURVE INFORMATION BLOCK
#MNEM UNIT       ERCB CURVE CODE    CURVE DESCRIPTION
#-----------   ------------------   ----------------------------------
DEPT.M        00 001 00 00         : DEPTH        - DEPTH
ILD .OHMM     00 120 00 00         : RESD         - DEEP RESISTIVITY (DIL)
DPHI.V/V      00 890 00 00         : PHID         - DENSITY POROSITY (LIMESTONE)
NPHI.V/V      00 330 00 00         : PHIN         - NEUTRON POROSITY (LIMESTONE)
GR  .API      00 310 00 00         : GR           - GAMMA RAY
~PARAMETER INFORMATION
#MNEM.UNIT           DATA             DESCRIPTION OF MNEMONIC
#---------         -----------     ------------------------------
GL  .M        576                  : gl           - GROUND LEVEL ELEVATION
EREF.M        579.6                : kb           - ELEVATION OF DEPTH REFERENCE
DATM.M        576                  : datum        - DATUM ELEVATION
TDD .M        486                  : tdd          - TOTAL DEPTH DRILLER
RUN .         ONE                  : Run          - RUN NUMBER
ENG .         BILL                 : Engineer     - RECORDING ENGINEER
WIT .         JIM                  : Witness      - WITNESSED BY
MUD .         GEL                  : Mud_type     - MUD TYPE
MATR.         LIMESTONE            : Logunit      - NEUTRON MATRIX
TMAX.C        22                   : BHT          - MAXIMUM RECORDED TEMPERATURE
BHTD.M        486                  : BHTDEP       - MAXIMUM RECORDED TEMPERATURE
MATR.         1                    : LOGUNIT      - NEUTRON MATRIX
RMT .C        25                   : MDTP         - TEMPERATURE OF MUD
NEUT.         1                    : NEUTRON      - NEUTRON TYPE
RESI.         0                    : RESIST       - RESISTIVITY TYPE
RMC .OHMM     0.25                 : RMC          - RESISTIVITY OF MUD CAKE
RMF .OHMM     0.25                 : RMF          - RESISTIVITY OF MUD FILTRATE
SUFT.C        15                   : SUFT         - SURFACE TEMPERATURE
~A  DEPTH     RESD     PHID     PHIN       GR
  285.000    2.827    0.226    0.448  106.707
  285.250    3.153    0.228    0.457  105.735
  285.500    3.311    0.233    0.464  104.700
  285.750    3.418    0.229    0.453  103.849
  286.000    3.542    0.232    0.448  101.895
  286.250    3.656    0.240    0.449   98.408
  286.500    3.767    0.235    0.442   95.534
  286.750    3.874    0.235    0.440  101.062
  287.000    3.984    0.232    0.447  104.995
  287.250    4.059    0.227    0.460  107.211
  287.500    4.065    0.225    0.454  109.304
  287.750    4.026    0.232    0.450  108.944
  288.000    3.913    0.257    0.462  106.561
  288.250    3.696    0.280    0.475  103.933
  288.500    3.505    0.307    0.465  101.304
  288.750    3.406    0.322    0.461   99.043
  289.000    3.323    0.320    0.456   97.211
  289.250    3.254    0.306    0.454   96.422
  289.500    3.198    0.311    0.460   98.577
  289.750    3.120    0.305    0.463  101.958
  290.000    3.090    0.304    0.455  104.419
  290.250    3.042    0.319    0.457  105.470
  290.500    3.031    0.331    0.456  100.695
  290.750    3.018    0.332    0.452  100.398
  291.000    3.017    0.311    0.445  104.147
  291.250    3.028    0.318    0.445  106.055
  291.500    3.067    0.346    0.459  105.389
  291.750    3.196    0.347    0.461  103.498
  292.000    3.300    0.332    0.439  103.383
  292.250    3.757    0.374    0.417  103.392
  292.500    4.020    0.458    0.408  102.049
  292.750    4.587    0.509    0.434   95.373
  293.000    5.233    0.571    0.467   84.649
  293.250    5.792    0.655    0.506   65.341
  293.500    6.104    0.708    0.470   61.853
  293.750    6.196    0.511    0.424   64.498
  294.000    5.733    0.322    0.401   64.691
  294.250    5.080    0.330    0.381   64.699
  294.500    4.212    0.336    0.365   64.217
  294.750    3.958    0.340    0.357   64.104
  295.000    3.513    0.341    0.361   65.337
  295.250    3.239    0.340    0.369   67.493
  295.500    3.025    0.329    0.378   69.647
  295.750    2.907    0.322    0.376   72.783
  296.000    2.928    0.312    0.372   75.550
  296.250    2.995    0.303    0.368   81.264
  296.500    3.091    0.298    0.372   86.239
  296.750    3.221    0.295    0.378   90.416
  297.000    3.459    0.291    0.373   93.797
  297.250    3.538    0.287    0.376   97.362
  297.500    3.743    0.291    0.382   99.456
  297.750    3.915    0.289    0.379   99.586
  298.000    4.042    0.287    0.377   97.448
  298.250    4.180    0.291    0.373   94.390
  298.500    4.291    0.293    0.367   91.884
  298.750    4.298    0.295    0.362   89.562
  299.000    4.264    0.294    0.357   87.608
  299.250    4.207    0.285    0.350   84.918
  299.500    4.151    0.273    0.339   82.718
  299.750    4.118    0.262    0.333   82.665
  300.000    4.252    0.253    0.329   84.882
  300.250    4.489    0.247    0.326   87.158
  300.500    4.714    0.267    0.327   86.615
  300.750    4.921    0.282    0.329   80.490
  301.000    4.939    0.292    0.329   73.692
  301.250    4.909    0.294    0.323   66.770
  301.500    4.577    0.294    0.320   59.910
  301.750    4.048    0.293    0.315   59.673
  302.000    3.586    0.281    0.312   63.422
  302.250    3.275    0.249    0.324   69.808
  302.500    3.135    0.208    0.331   77.484
  302.750    3.129    0.183    0.343   81.047
  303.000    3.175    0.187    0.359   84.919
  303.250    3.340    0.206    0.373   92.593
  303.500    3.547    0.186    0.390  100.512
  303.750    3.731    0.171    0.404  108.862
  304.000    3.903    0.158    0.408  114.388
  304.250    4.037    0.167    0.413  115.256
  304.500    4.128    0.171    0.435  116.982
  304.750    4.206    0.165    0.446  119.135
  305.000    4.244    0.160    0.448  122.519
  305.250    4.235    0.184    0.459  124.490
  305.500    4.202    0.194    0.469  124.435
  305.750    4.138    0.191    0.469  121.990
  306.000    4.090    0.189    0.459  117.951
  306.250    4.028    0.190    0.450  115.383
  306.500    3.893    0.179    0.465  120.175
  306.750    3.790    0.185    0.449  123.924
  307.000    3.761    0.220    0.446  126.079
  307.250    3.696    0.236    0.448  126.210
  307.500    3.538    0.231    0.447  121.189
  307.750    3.374    0.243    0.443  117.519
  308.000    3.194    0.253    0.433  117.772
  308.250    3.075    0.250    0.415  115.572
  308.500    3.097    0.234    0.402  110.981
  308.750    3.295    0.223    0.390  107.433
  309.000    3.600    0.221    0.389  105.233
  309.250    3.940    0.218    0.393  107.450
  309.500    4.280    0.215    0.389  110.094
  309.750    4.614    0.215    0.391  111.574
  310.000    4.853    0.223    0.402  110.846
  310.250    4.991    0.225    0.419  107.851
  310.500    5.056    0.224    0.427  105.958
  310.750    5.045    0.221    0.418  104.923
  311.000    4.978    0.217    0.428  103.705
  311.250    4.865    0.211    0.444  100.096
  311.500    4.605    0.228    0.449   96.178
  311.750    4.484    0.234    0.430   91.158
  312.000    4.390    0.240    0.406   89.572
  312.250    4.389    0.253    0.391   90.684
  312.500    4.429    0.258    0.374   87.627
  312.750    4.496    0.260    0.366   85.242
  313.000    4.580    0.263    0.363   82.614
  313.250    4.613    0.257    0.375   81.027
  313.500    4.595    0.251    0.382   86.005
  313.750    4.559    0.242    0.388   89.568
  314.000    4.524    0.256    0.386   94.730
  314.250    4.480    0.270    0.384   97.986
  314.500    4.495    0.267    0.382  102.964
  314.750    4.623    0.257    0.378  106.834
  315.000    4.809    0.246    0.376  106.965
  315.250    5.002    0.240    0.373  105.808
  315.500    5.173    0.234    0.386  105.510
  315.750    5.340    0.230    0.400  106.377
  316.000    5.440    0.232    0.391  107.612
  316.250    5.490    0.242    0.383  110.012
  316.500    5.499    0.250    0.377  113.209
  316.750    5.487    0.259    0.373  117.143
  317.000    5.455    0.260    0.384  119.665
  317.250    5.372    0.252    0.395  122.126
  317.500    5.289    0.252    0.402  123.852
  317.750    5.308    0.258    0.410  124.413
  318.000    5.327    0.265    0.417  118.042
  318.250    5.376    0.252    0.412  111.488
  318.500    5.477    0.236    0.401  105.058
  318.750    5.611    0.222    0.392  100.956
  319.000    5.695    0.207    0.382  101.333
  319.250    5.813    0.193    0.373  104.776
  319.500    5.877    0.186    0.364  109.567
  319.750    5.876    0.184    0.373  113.930
  320.000    5.797    0.196    0.380  117.679
  320.250    5.644    0.211    0.389  119.710
  320.500    5.413    0.220    0.400  121.191
  320.750    5.038    0.233    0.413  122.732
  321.000    4.662    0.245    0.424  124.274
  321.250    4.330    0.256    0.420  121.094
  321.500    4.160    0.269    0.412  109.512
  321.750    4.128    0.280    0.406  101.118
  322.000    4.142    0.292    0.415   96.097
  322.250    4.165    0.295    0.423   95.185
  322.500    4.187    0.287    0.414   95.255
  322.750    4.194    0.280    0.399   97.043
  323.000    4.233    0.285    0.386   98.092
  323.250    4.264    0.286    0.378   93.809
  323.500    4.319    0.284    0.379   90.627
  323.750    4.400    0.278    0.382   88.673
  324.000    4.474    0.261    0.393   90.951
  324.250    4.680    0.227    0.401   89.978
  324.500    4.831    0.182    0.402   90.538
  324.750    4.969    0.153    0.393   92.693
  325.000    5.110    0.193    0.387   95.216
  325.250    5.186    0.217    0.380   97.554
  325.500    5.214    0.244    0.384   99.279
  325.750    5.144    0.262    0.394   92.605
  326.000    5.143    0.276    0.387   88.135
  326.250    5.288    0.285    0.375   81.949
  326.500    5.368    0.287    0.366   74.292
  326.750    5.987    0.251    0.300   69.026
  327.000    6.817    0.202    0.206   63.944
  327.250    7.925    0.145    0.173   64.688
  327.500    8.674    0.105    0.162   70.523
  327.750    9.211    0.155    0.212   76.602
  328.000    9.261    0.190    0.264   82.252
  328.250    8.346    0.227    0.313   86.554
