~VERSION INFORMATION
 VERS.                 2.0:   CWLS LOG ASCII STANDARD -VERSION 2.0
 WRAP.                  NO:   ONE LINE PER DEPTH STEP
~WELL INFORMATION BLOCK
#MNEM.UNIT           DATA                    DESCRIPTION OF MNEMONIC
#---------    -------------------            -------------------------------
# Generated from Intellog Unique Number	CS_77_79/WELL/997
WELL.         HOME OIL COMPANY LIMITED       : Well_name    - WELL
LOC .         00/11-21-077-07W4/0            : Location     - LOCATION
UWI .         00/11-21-077-07W4/0            : Uwi          - UNIQUE WELL ID
ENTR.         SP                             : Entered      - ENTERED BY
SRVC.         SCHLUMBERGER                   : Scn          - SERVICE COMPANY
STRT.M        124.968                        : top_depth    - START DEPTH
STOP.M        354.218                        : bot_depth    - STOP DEPTH
STEP.M        0.25                           : increment    - STEP LENGTH
 NULL. -999.2500:NULL Value
~CURVE INFORMATION BLOCK
#MNEM UNIT       ERCB CURVE CODE    CURVE DESCRIPTION
#-----------   ------------------   ----------------------------------
DEPT.M        00 001 00 00         : DEPTH        - DEPTH
RHOB.KG/M3    00 350 00 00         : DENS         - BULK DENSITY
GR  .API      00 310 00 00         : GR           - GAMMA RAY
DPHI.V/V      00 890 00 00         : PHID         - DENSITY POROSITY (SANDSTONE)
NPHI.V/V      00 330 00 00         : PHIN         - NEUTRON POROSITY (SANDSTONE)
ILD .OHMM     00 120 00 00         : RESD         - DEEP RESISTIVITY (DIL)
~PARAMETER INFORMATION
#MNEM.UNIT           DATA             DESCRIPTION OF MNEMONIC
#---------         -----------     ------------------------------
GL  .M        556.4                : gl           - GROUND LEVEL ELEVATION
EREF.M        560.4                : kb           - ELEVATION OF DEPTH REFERENCE
DATM.M        571.652              : datum        - DATUM ELEVATION
TDD .M        389.534              : tdd          - TOTAL DEPTH DRILLER
RUN .         ONE                  : Run          - RUN NUMBER
ENG .         BILL                 : Engineer     - RECORDING ENGINEER
WIT .         JIM                  : Witness      - WITNESSED BY
MUD .         GEL                  : Mud_type     - MUD TYPE
MATR.         SANDSTONE            : Logunit      - NEUTRON MATRIX
TMAX.C        23.3333              : BHT          - MAXIMUM RECORDED TEMPERATURE
BHTD.M        389.534              : BHTDEP       - MAXIMUM RECORDED TEMPERATURE
MATR.         1                    : LOGUNIT      - NEUTRON MATRIX
RMT .C        25                   : MDTP         - TEMPERATURE OF MUD
NEUT.         1                    : NEUTRON      - NEUTRON TYPE
RESI.         0                    : RESIST       - RESISTIVITY TYPE
RMC .OHMM     0.25                 : RMC          - RESISTIVITY OF MUD CAKE
RMF .OHMM     0.25                 : RMF          - RESISTIVITY OF MUD FILTRATE
SUFT.C        15                   : SUFT         - SURFACE TEMPERATURE
~A  DEPTH     DENS       GR     PHID     PHIN     RESD
# ...
  270.968    0.000   64.170    0.264    0.457    7.041
  271.218    0.000   64.562    0.270    0.458    6.824
  271.468    0.000   64.889    0.272    0.457    6.615
  271.718   -0.000   65.362    0.266    0.449    6.424
  271.968   -0.000   64.731    0.264    0.444    6.153
  272.218   -0.000   64.341    0.272    0.443    6.015
  272.468    0.000   65.331    0.281    0.474    5.643
  272.718    0.000   66.012    0.288    0.487    5.462
  272.968    0.000   65.941    0.276    0.489    5.293
  273.218   -0.000   67.976    0.258    0.477    5.127
  273.468   -0.000   68.380    0.259    0.480    5.142
  273.718   -0.000   67.096    0.259    0.507    5.199
  273.968    0.000   66.434    0.263    0.511    5.362
  274.218    0.000   67.334    0.269    0.511    5.523
  274.468   -0.000   67.690    0.266    0.497    5.696
  274.718   -0.000   66.686    0.266    0.481    5.695
  274.968   -0.000   65.335    0.279    0.459    5.694
  275.218    0.000   66.364    0.275    0.466    5.700
  275.468    0.000   67.041    0.266    0.479    5.572
  275.718    0.000   67.690    0.261    0.484    5.572
  275.968   -0.000   68.049    0.277    0.472    5.470
  276.218   -0.000   69.921    0.281    0.469    5.433
  276.468   -0.000   68.773    0.283    0.472    5.373
  276.718    0.000   67.825    0.290    0.472    5.370
  276.968    0.000   66.916    0.278    0.475    5.375
  277.218   -0.000   67.596    0.260    0.493    5.268
  277.468   -0.000   68.894    0.265    0.482    5.266
  277.718   -0.000   70.714    0.267    0.473    5.263
  277.968    0.000   70.615    0.271    0.470    5.260
  278.218    0.000   70.823    0.275    0.466    5.261
  278.468    0.000   72.577    0.278    0.457    5.271
  278.718   -0.000   73.558    0.274    0.462    5.364
  278.968   -0.006   77.204    0.266    0.458    5.244
  279.218   -0.019   84.362    0.263    0.471    5.251
  279.468    0.312   90.526    0.254    0.478    5.173
  279.718    3.725   93.969    0.195    0.454    5.160
  279.968    2.938   91.763    0.208    0.458    5.050
  280.218 -247.160   88.552    0.211    0.472    4.987
  280.468 2594.480   85.200    0.210    0.479    4.962
  280.718 2357.200   82.120    0.203    0.477    4.865
  280.968 2339.170   81.130    0.215    0.474    4.918
  281.218 2312.220   80.266    0.232    0.476    4.956
  281.468 2327.880   80.970    0.223    0.476    5.209
  281.718 2310.210   77.239    0.234    0.482    5.369
  281.968 2334.040   71.979    0.220    0.487    5.669
  282.218 2382.670   72.508    0.191    0.469    5.925
  282.468 2370.620   76.130    0.198    0.449    6.250
  282.718 2355.880   79.723    0.207    0.435    6.292
  282.968 2348.690   82.254    0.211    0.440    6.250
  283.218 2336.110   84.224    0.219    0.444    5.679
  283.468 2306.460   86.206    0.236    0.430    5.122
  283.718 2261.530   88.357    0.262    0.434    4.621
  283.968 2208.960   87.920    0.293    0.485    4.456
  284.218 2200.490   91.415    0.298    0.515    4.480
  284.468 2208.720   94.562    0.293    0.521    4.522
  284.718 2428.030   96.089    0.165    0.489    4.669
  284.968 2395.420   97.214    0.184    0.471    4.813
  285.218 2379.710   95.506    0.193    0.478    4.962
  285.468 2376.260   94.556    0.195    0.483    5.114
  285.718 2364.910   94.032    0.202    0.482    5.201
  285.968 2405.410   94.424    0.178    0.480    5.211
  286.218 2401.850   95.840    0.180    0.479    4.997
  286.468 2393.660   95.879    0.185    0.495    4.940
  286.718 2373.950   95.097    0.197    0.502    4.936
  286.968 2384.040   95.794    0.191    0.487    4.994
  287.218 2399.060   96.157    0.182    0.468    5.157
  287.468 2394.140   96.369    0.185    0.457    5.199
  287.718 2391.470   96.441    0.186    0.454    5.279
  287.968 2409.330   94.289    0.176    0.467    5.274
  288.218 2438.650   89.538    0.159    0.466    5.266
  288.468 2445.860   83.019    0.154    0.444    5.017
  288.718 2409.400   78.275    0.176    0.436    4.852
  288.968 2419.890   81.474    0.170    0.459    4.700
  289.218 2389.560   85.866    0.187    0.473    4.577
  289.468 2369.480   87.005    0.199    0.482    4.092
  289.718 2348.920   84.760    0.211    0.489    3.552
  289.968 2299.690   80.790    0.240    0.492    3.080
  290.218 2268.380   79.680    0.258    0.496    2.725
  290.468 2261.880   79.841    0.262    0.534    2.455
  290.718 2289.140   80.831    0.246    0.563    2.209
  290.968 2274.860   81.812    0.254    0.579    2.135
  291.218 2305.630   80.153    0.236    0.563    2.067
  291.468 2277.030   78.106    0.253    0.567    2.063
  291.718 2262.190   76.151    0.262    0.564    2.061
  291.968 2238.440   76.241    0.276    0.573    2.092
  292.218 2324.520   78.169    0.225    0.582    2.094
  292.468 2342.530   83.019    0.215    0.598    2.138
  292.718 2361.440   86.835    0.204    0.603    2.160
  292.968 2368.850   85.000    0.200    0.578    2.215
  293.218 2389.960   84.648    0.187    0.550    2.298
  293.468 2392.090   85.557    0.186    0.525    2.378
  293.718 2379.770   87.170    0.193    0.506    2.716
  293.968 2393.340   87.515    0.185    0.479    2.964
  294.218 2415.170   89.886    0.172    0.487    3.228
  294.468 2410.790   90.638    0.175    0.508    3.449
  294.718 2439.140   87.495    0.158    0.514    3.841
  294.968 2576.160   84.710    0.078    0.497    4.302
  295.218 2631.550   82.088    0.046    0.459    4.503
  295.468 2545.270   82.079    0.096    0.411    4.735
  295.718 2461.150   83.806    0.146    0.430    4.726
  295.968 2416.910   86.412    0.171    0.480    4.484
  296.218 2427.600   89.460    0.165    0.498    4.011
  296.468 2416.190   91.733    0.172    0.495    3.684
  296.718 2422.610   90.750    0.168    0.492    3.516
  296.968 2447.750   89.200    0.153    0.491    3.502
  297.218 2465.520   90.703    0.143    0.507    3.177
  297.468 2473.320   90.193    0.138    0.526    3.204
  297.718 2472.900   88.734    0.139    0.527    3.135
  297.968 2472.840   92.017    0.139    0.521    3.149
  298.218 2468.010   95.049    0.142    0.523    3.258
  298.468 2440.940   96.960    0.157    0.522    3.230
  298.718 2427.430   97.219    0.165    0.512    3.192
  298.968 2429.510   97.214    0.164    0.516    3.196
  299.218 2424.590   97.195    0.167    0.526    3.123
  299.468 2422.490   97.776    0.168    0.524    3.129
  299.718 2445.190  100.125    0.155    0.510    3.066
  299.968 2443.140  100.099    0.156    0.508    3.077
  300.218 2429.210   99.056    0.164    0.489    3.182
  300.468 2417.880   98.338    0.171    0.496    3.243
  300.718 2402.970   98.409    0.180    0.513    3.376
  300.968 2435.880   97.000    0.160    0.518    3.724
  301.218 2482.500   90.599    0.133    0.515    4.089
  301.468 2515.280   84.754    0.114    0.525    4.830
  301.718 2634.470   80.258    0.044    0.497    5.804
  301.968 2600.360   76.087    0.061    0.451    6.780
  302.218 2500.010   72.756    0.121    0.362    7.499
  302.468 2787.720   75.926    0.145    0.350    8.044
  302.718  391.798   74.267    0.174    0.376    8.032
  302.968 2385.060   70.493    0.210    0.371    7.770
  303.218 2351.930   67.678    0.221    0.338    7.764
  303.468 2342.110   68.366    0.216    0.350    7.752
  303.718 2367.230   71.993    0.200    0.364    7.886
  303.968 2391.720   74.961    0.186    0.372    7.896
  304.218 2413.560   77.126    0.173    0.376    7.898
  304.468 2442.420   80.800    0.156    0.376    7.882
  304.718 2470.610   83.002    0.140    0.375    8.103
  304.968 2486.770   85.070    0.131    0.372    8.344
  305.218 2377.150   76.446    0.195    0.382    8.451
  305.468 2369.700   68.869    0.199    0.374    8.476
  305.718 2427.090   69.010    0.165    0.364    8.646
  305.968 2487.840   75.114    0.130    0.369    8.446
  306.218 2521.660   87.878    0.110    0.360    8.114
  306.468 2544.380   93.207    0.097    0.353    7.475
  306.718 2539.670   93.806    0.100    0.356    7.073
  306.968 2513.760   96.795    0.115    0.393    7.031
  307.218 2533.570   99.776    0.103    0.409    7.024
