~VERSION INFORMATION
 VERS.                 2.0:   CWLS LOG ASCII STANDARD -VERSION 2.0
 WRAP.                  NO:   ONE LINE PER DEPTH STEP
~WELL INFORMATION BLOCK
#MNEM.UNIT           DATA                    DESCRIPTION OF MNEMONIC
#---------    -------------------            -------------------------------
# Generated from Intellog Unique Number	CC_80_83/WELL/2330
NULL.         -999.25                        : NULL_VALUE
WELL.         KANDEX ET AL PORTAGE           : Well_name    - WELL              
LOC .         10-03-080-14W4                 : Location     - LOCATION          
UWI .         00/10-03-080-14W4/0            : Uwi          - UNIQUE WELL ID    
ENTR.         DW                             : Entered      - ENTERED BY        
SRVC.         SCHLUMBERGER                   : Scn          - SERVICE COMPANY   
DATE.         14 AUG 77                      : Date         - LOG DATE
STRT.M        274.32                         : top_depth    - START DEPTH       
STOP.M        524.42                         : bot_depth    - STOP DEPTH        
STEP.M        0.3048                         : increment    - STEP LENGTH       
~CURVE INFORMATION BLOCK
#MNEM UNIT       ERCB CURVE CODE    CURVE DESCRIPTION
#-----------   ------------------   ----------------------------------
DEPT.M        00 001 00 00         : DEPTH        - DEPTH                       
DPHI.V/V      00 890 00 00         : PHID         - DENSITY POROSITY (LIMESTONE)
NPHI.V/V      00 330 00 00         : PHIN         - NEUTRON POROSITY (LIMESTONE)
GR  .API      00 310 00 00         : GR           - GAMMA RAY                   
ILD .OHMM     00 120 00 00         : RESD         - DEEP RESISTIVITY (DIL)      
~PARAMETER INFORMATION       
#MNEM.UNIT           DATA             DESCRIPTION OF MNEMONIC
#---------         -----------     ------------------------------
GL  .M        696.773              : gl           - GROUND LEVEL ELEVATION      
EREF.M        701.65               : kb           - ELEVATION OF DEPTH REFERENCE
DATM.M        701.65               : datum        - DATUM ELEVATION             
TDD .M        531.876              : tdd          - TOTAL DEPTH DRILLER         
RUN .         ONE                  : Run          - RUN NUMBER                  
ENG .         BILL                 : Engineer     - RECORDING ENGINEER          
WIT .         JIM                  : Witness      - WITNESSED BY                
MUD .         GEL                  : Mud_type     - MUD TYPE                    
MATR.         LIMESTONE            : Logunit      - NEUTRON MATRIX              
TMAX.C        23.8889              : BHT          - MAXIMUM RECORDED TEMPERATURE
BHTD.M        533.4                : BHTDEP       - MAXIMUM RECORDED TEMPERATURE
MATR.         1                    : LOGUNIT      - NEUTRON MATRIX              
RMT .C        25                   : MDTP         - TEMPERATURE OF MUD          
NEUT.         1                    : NEUTRON      - NEUTRON TYPE                
RESI.         0                    : RESIST       - RESISTIVITY TYPE            
RMC .OHMM     0.25                 : RMC          - RESISTIVITY OF MUD CAKE     
RMF .OHMM     0.25                 : RMF          - RESISTIVITY OF MUD FILTRATE 
SUFT.C        4                    : SUFT         - SURFACE TEMPERATURE         
~A  DEPTH     PHID     PHIN       GR     RESD
# ...
  380.460    0.117    0.344   64.589   14.938
  380.765    0.282    0.502   63.972   14.358
  381.070    0.284    0.482   62.122   13.548
  381.375    0.267    0.459   60.888   12.779
  381.680    0.181    0.418   63.963   12.280
  381.985    0.203    0.430   70.733   12.019
  382.290    0.278    0.427   72.577   11.781
  382.595    0.258    0.428   79.962   11.113
  382.900    0.218    0.443   87.962    9.178
  383.205    0.212    0.453   93.500    7.875
  383.510    0.213    0.470   93.497    7.021
  383.815    0.245    0.451  102.729    6.256
  384.120    0.237    0.467  105.189    5.368
  384.425    0.218    0.534   98.415    3.885
  384.730    0.203    0.601   99.643    3.150
  385.035    0.246    0.579  102.103    2.754
  385.340    0.256    0.579  101.485    2.597
  385.645    0.266    0.572  102.714    2.592
  385.950    0.258    0.563  103.942    2.540
  386.255    0.242    0.585  105.171    2.583
  386.560    0.236    0.588  105.168    2.728
  386.865    0.263    0.569  102.704    2.882
  387.170    0.268    0.593   95.314    3.103
  387.475    0.260    0.598   92.233    3.406
  387.780    0.257    0.540  100.233    3.880
  388.085    0.237    0.518  100.231    4.422
  388.390    0.231    0.524   97.766    5.535
  388.695    0.225    0.515   94.685    5.959
  389.000    0.213    0.510   94.067    5.838
  389.305    0.220    0.515   95.911    5.611
  389.610    0.217    0.523   99.603    5.392
  389.915    0.219    0.502   97.753    5.381
  390.220    0.245    0.487   93.441    5.472
  390.525    0.265    0.471   90.976    5.892
  390.830    0.253    0.485   92.205    6.227
  391.135    0.230    0.498   92.202    6.957
  391.440    0.230    0.493   89.122    7.083
  391.745    0.266    0.482   86.041    7.483
  392.050    0.262    0.469   88.501    8.361
  392.355    0.263    0.458   82.342    8.998
  392.660    0.274    0.466   82.955    9.336
  392.965    0.263    0.481   87.262    9.497
  393.270    0.285    0.463   86.644    8.956
  393.575    0.282    0.435   92.798    7.831
  393.880    0.244    0.424  102.029    6.348
  394.185    0.229    0.518  105.720    5.346
  394.490    0.233    0.534  104.486    4.253
  394.795    0.257    0.560  104.484    3.079
  395.100    0.283    0.581  106.328    2.641
  395.405    0.265    0.597  108.788    2.310
  395.710    0.258    0.571  108.170    2.138
  396.015    0.246    0.579  105.705    1.766
  396.320    0.222    0.573  103.240    1.303
  396.625    0.274    0.573  105.084    0.943
  396.930    0.288    0.602  106.928    0.736
  397.235    0.292    0.599  103.848    0.735
  397.540    0.266    0.579  105.077    0.821
  397.845    0.257    0.568  104.458    1.152
  398.150    0.265    0.566  101.378    1.711
  398.455    0.265    0.565  103.838    2.492
  398.760    0.262    0.586  108.760    3.241
  399.065    0.260    0.560  110.604    3.554
  399.370    0.262    0.545  107.524    3.618
  399.675    0.256    0.543   98.287    3.749
  399.980    0.245    0.562   95.822    3.960
  400.285    0.223    0.531  100.744    4.265
  400.590    0.208    0.514   99.510    4.769
  400.895    0.197    0.515  100.123    5.433
  401.200    0.211    0.495  105.046    5.846
  401.505    0.220    0.506  104.427    5.724
  401.810    0.227    0.493  101.962    5.719
  402.115    0.238    0.509  102.576    5.494
  402.420    0.232    0.532   99.495    5.484
  402.725    0.219    0.513   95.799    5.581
  403.030    0.239    0.511   89.025    5.895
  403.335    0.272    0.498   82.866    6.467
  403.640    0.305    0.450   77.939    6.964
  403.945    0.292    0.415   77.320    7.932
  404.250    0.278    0.399   73.624    9.213
  404.555    0.053    0.368   64.387   10.493
  404.860    0.099    0.308   67.463   10.874
  405.165    0.208    0.383   88.391   10.657
  405.470    0.213    0.485   92.698   10.044
  405.775    0.218    0.480   94.542    9.844
  406.080    0.233    0.481   92.693    8.770
  406.385    0.240    0.490   88.996    7.668
  406.690    0.249    0.476   91.456    7.510
  406.995    0.256    0.474   93.300    7.352
  407.300    0.254    0.474   96.376    7.482
  407.605    0.239    0.471   95.142    7.465
  407.910    0.236    0.446   93.908    7.458
  408.215    0.248    0.460   94.522    7.032
  408.520    0.235    0.475  101.906    6.760
  408.825    0.223    0.464  100.057    7.006
  409.130    0.225    0.469   94.514    7.545
  409.435    0.209    0.464   79.737    8.273
  409.740    0.152    0.414   79.734    8.420
  410.045    0.264    0.423   92.043    8.405
  410.350    0.267    0.464   93.888    7.483
  410.655    0.246    0.454   92.038    7.199
  410.960    0.229    0.470   91.420    6.662
  411.265    0.235    0.471   95.727    5.712
  411.570    0.243    0.475   98.802    5.287
  411.875    0.251    0.514   98.800    5.085
  412.180    0.241    0.529   95.720    4.884
  412.485    0.248    0.521   93.870    4.968
  412.790    0.233    0.480   91.405    5.349
  413.095    0.238    0.475   87.709    5.762
  413.400    0.237    0.466   84.013    6.690
  413.705    0.202    0.415   77.854    8.533
  414.010    0.111    0.366   76.620    9.192
  414.315    0.148    0.377   89.546    9.894
  414.620    0.259    0.422   95.083    9.511
  414.925    0.232    0.437   98.159    8.633
  415.230    0.218    0.459  100.619    7.550
  415.535    0.218    0.482  102.463    6.478
  415.840    0.228    0.473  103.076    6.112
  416.145    0.234    0.468  100.610    5.759
  416.450    0.232    0.471  100.609    5.642
  416.755    0.230    0.484  100.605    5.528
  417.060    0.229    0.484  101.834    5.519
  417.365    0.227    0.478  101.832    5.612
  417.670    0.230    0.479  100.598    5.819
  417.975    0.258    0.481  100.596    6.266
  418.280    0.250    0.484  104.903    7.135
  418.585    0.214    0.458  106.131    7.832
  418.890    0.201    0.435  101.204    8.758
  419.195    0.151    0.425   96.891    9.790
  419.500    0.181    0.408   95.658    9.957
  419.805    0.163    0.392   96.887    9.745
  420.110    0.215    0.401   98.731    9.376
  420.415    0.210    0.454   98.729    8.197
  420.720    0.219    0.442   98.110    7.168
  421.025    0.199    0.443   98.107    6.760
  421.330    0.218    0.460   96.873    6.371
  421.635    0.227    0.448   95.024    6.242
  421.940    0.240    0.448   91.328    6.346
  422.245    0.242    0.449   84.554    6.459
  422.550    0.203    0.449   80.242    6.451
  422.855    0.184    0.447   77.777    6.685
  423.160    0.196    0.437   79.006    7.061
  423.465    0.272    0.441   79.003    7.186
  423.770    0.272    0.457   80.848    7.306
  424.075    0.283    0.489   80.845    7.295
  424.380    0.287    0.453   74.686    7.146
  424.685    0.267    0.462   72.221    7.262
  424.990    0.195    0.448   74.681    7.255
  425.295    0.264    0.458   85.760    7.103
  425.600    0.240    0.438   94.376    6.954
  425.905    0.251    0.460   95.605    6.815
  426.210    0.264    0.476   85.136    6.934
  426.515    0.259    0.452   80.824    7.185
  426.820    0.238    0.465   79.591    7.305
  427.125    0.259    0.442   81.435    7.294
  427.430    0.288    0.441   82.048    7.284
  427.735    0.286    0.445   79.583    7.273
  428.040    0.288    0.461   80.811    7.116
  428.345    0.295    0.459   81.425    7.109
  428.650    0.295    0.467   80.191    7.097
  428.955    0.288    0.477   77.726    7.217
  429.260    0.280    0.473   77.108    7.918
  429.565    0.245    0.457   62.947    9.195
  429.870    0.118    0.430   55.556   11.515
  430.175    0.033    0.226   59.863   12.877
  430.480    0.114    0.301   68.479   14.393
  430.785    0.193    0.354   77.095   16.401
  431.090    0.108    0.287   66.627   17.990
  431.395    0.000    0.161   53.697   19.000
  431.700    0.045    0.197   54.925   18.968
  432.005    0.114    0.260   59.848   18.239
  432.310    0.215    0.338   66.001   15.062
  432.615    0.285    0.421   77.079   12.447
  432.920    0.265    0.446   73.383   10.283
  433.225    0.215    0.453   76.459    8.994
