~VERSION INFORMATION
 VERS.                 2.0:   CWLS LOG ASCII STANDARD -VERSION 2.0
 WRAP.                  NO:   ONE LINE PER DEPTH STEP
~WELL INFORMATION BLOCK
#MNEM.UNIT           DATA                    DESCRIPTION OF MNEMONIC
#---------    -------------------            -------------------------------
# Generated from Intellog Unique Number	CS_71_72/WELL/920
WELL.         AMOCO AEC IPIATIK              : Well_name    - WELL
LOC .         00/12-28-072-06W4/0            : Location     - LOCATION
UWI .         00/12-28-072-06W4/0            : Uwi          - UNIQUE WELL ID
ENTR.         SP                             : Entered      - ENTERED BY
SRVC.         SCHLUMBERGER                   : Scn          - SERVICE COMPANY
STRT.M        340                            : top_depth    - START DEPTH
STOP.M        565                            : bot_depth    - STOP DEPTH
STEP.M        0.25                           : increment    - STEP LENGTH
 NULL. -999.2500:NULL Value
~CURVE INFORMATION BLOCK
#MNEM UNIT       ERCB CURVE CODE    CURVE DESCRIPTION
#-----------   ------------------   ----------------------------------
DEPT.M        00 001 00 00         : DEPTH        - DEPTH
ILD .OHMM     00 120 00 00         : RESD         - DEEP RESISTIVITY (DIL)
DPHI.V/V      00 890 00 00         : PHID         - DENSITY POROSITY (LIMESTONE)
NPHI.V/V      00 330 00 00         : PHIN         - NEUTRON POROSITY (LIMESTONE)
GR  .API      00 310 00 00         : GR           - GAMMA RAY
~PARAMETER INFORMATION
#MNEM.UNIT           DATA             DESCRIPTION OF MNEMONIC
#---------         -----------     ------------------------------
GL  .M        713.57               : gl           - GROUND LEVEL ELEVATION
EREF.M        713.07               : kb           - ELEVATION OF DEPTH REFERENCE
DATM.M        713.57               : datum        - DATUM ELEVATION
TDD .M        580.9                : tdd          - TOTAL DEPTH DRILLER
RUN .         ONE                  : Run          - RUN NUMBER
ENG .         BILL                 : Engineer     - RECORDING ENGINEER
WIT .         JIM                  : Witness      - WITNESSED BY
MUD .         GEL                  : Mud_type     - MUD TYPE
MATR.         LIMESTONE            : Logunit      - NEUTRON MATRIX
TMAX.C        22                   : BHT          - MAXIMUM RECORDED TEMPERATURE
BHTD.M        580.9                : BHTDEP       - MAXIMUM RECORDED TEMPERATURE
MATR.         1                    : LOGUNIT      - NEUTRON MATRIX
RMT .C        25                   : MDTP         - TEMPERATURE OF MUD
NEUT.         1                    : NEUTRON      - NEUTRON TYPE
RESI.         0                    : RESIST       - RESISTIVITY TYPE
RMC .OHMM     0.25                 : RMC          - RESISTIVITY OF MUD CAKE
RMF .OHMM     0.25                 : RMF          - RESISTIVITY OF MUD FILTRATE
SUFT.C        15                   : SUFT         - SURFACE TEMPERATURE
~A  DEPTH     RESD     PHID     PHIN       GR
  340.000    3.113    0.230    0.529   71.374
  340.250    3.171    0.235    0.536   72.601
  340.500    3.230    0.243    0.548   73.216
  340.750    3.289    0.245    0.545   73.837
  341.000    3.350    0.239    0.522   73.857
  341.250    3.413    0.235    0.519   73.868
  341.500    3.476    0.227    0.530   73.879
  341.750    3.540    0.213    0.536   73.293
  342.000    3.606    0.207    0.544   72.099
  342.250    3.672    0.213    0.553   69.696
  342.500    3.811    0.210    0.563   67.896
  342.750    3.881    0.208    0.533   66.699
  343.000    3.953    0.222    0.511   68.529
  343.250    4.026    0.214    0.499   70.354
  343.500    4.025    0.225    0.499   72.187
  343.750    3.877    0.220    0.508   72.199
  344.000    3.734    0.209    0.510   72.214
  344.250    3.665    0.218    0.533   69.810
  344.500    3.529    0.217    0.550   68.010
  344.750    3.464    0.228    0.573   66.817
  345.000    3.463    0.238    0.557   66.829
  345.250    3.462    0.239    0.549   67.450
  345.500    3.592    0.232    0.553   67.463
  345.750    3.659    0.226    0.536   67.478
  346.000    3.796    0.229    0.530   66.890
  346.250    3.939    0.229    0.541   65.697
  346.500    4.012    0.223    0.551   64.499
  346.750    4.087    0.224    0.550   63.908
  347.000    4.162    0.230    0.538   64.532
  347.250    4.239    0.227    0.533   64.542
  347.500    4.008    0.222    0.545   63.956
  347.750    3.860    0.220    0.551   63.363
  348.000    4.006    0.220    0.519   62.169
  348.250    5.008    0.226    0.504   60.367
  348.500    6.744    0.247    0.479   56.754
  348.750    9.426    0.270    0.460   54.349
  349.000   12.932    0.277    0.448   51.944
  349.250   15.575    0.276    0.437   53.169
  349.500   18.071    0.280    0.427   56.209
  349.750   19.104    0.321    0.423   59.854
  350.000   16.454    0.350    0.492   61.683
  350.250   14.712    0.368    0.517   63.519
  350.500   12.911    0.382    0.547   63.528
  350.750   11.331    0.356    0.587   56.886
  351.000   11.118    0.293    0.369   46.013
  351.250   13.390    0.296    0.337   36.355
  351.500   17.699    0.287    0.354   32.133
  351.750   22.124    0.308    0.377   29.126
  352.000   26.153    0.305    0.380   26.119
  352.250   29.236    0.308    0.375   24.312
  352.500   32.079    0.307    0.376   21.303
  352.750   33.289    0.296    0.392   20.110
  353.000   32.063    0.288    0.409   27.383
  353.250   28.137    0.288    0.419   33.446
  353.500   24.237    0.267    0.419   38.298
  353.750   19.379    0.248    0.421   43.759
  354.000   16.693    0.236    0.425   47.403
  354.250   15.204    0.232    0.436   51.651
  354.500   13.849    0.239    0.445   55.292
  354.750   13.092    0.233    0.457   61.359
  355.000   12.611    0.226    0.459   63.791
  355.250   12.375    0.220    0.449   64.411
  355.500   12.841    0.245    0.437   65.034
  355.750   13.575    0.267    0.434   64.444
  356.000   14.352    0.267    0.432   63.252
  356.250   15.171    0.262    0.441   63.261
  356.500   16.039    0.258    0.447   62.067
  356.750   16.643    0.256    0.453   62.083
  357.000   16.951    0.258    0.444   62.703
  357.250   16.947    0.253    0.438   62.720
  357.500   16.942    0.241    0.435   62.733
  357.750   16.625    0.240    0.425   61.537
  358.000   16.315    0.240    0.413   60.339
  358.250   16.009    0.246    0.408   57.937
  358.500   17.241    0.254    0.402   56.134
  358.750   17.892    0.252    0.416   56.158
  359.000   19.631    0.277    0.436   56.774
  359.250   20.372    0.286    0.441   55.575
  359.500   20.750    0.262    0.433   52.566
  359.750   20.744    0.232    0.425   50.161
  360.000   19.612    0.215    0.396   44.130
  360.250   18.198    0.230    0.380   42.931
  360.500   18.884    0.261    0.398   44.764
  360.750   19.964    0.267    0.404   45.380
  361.000   21.904    0.265    0.394   39.349
  361.250   22.730    0.261    0.391   38.156
  361.500   24.028    0.249    0.391   39.382
  361.750   24.474    0.244    0.394   41.207
  362.000   22.291    0.241    0.399   39.411
  362.250   21.472    0.242    0.402   38.217
  362.500   20.302    0.238    0.403   38.227
  362.750   17.816    0.242    0.399   40.660
  363.000   14.785    0.225    0.412   45.513
  363.250   12.500    0.199    0.429   53.390
  363.500   10.374    0.179    0.463   60.663
  363.750    9.275    0.167    0.496   69.750
  364.000    8.293    0.159    0.480   77.025
  364.250    6.881    0.187    0.490   78.854
  364.500    6.152    0.202    0.509   81.894
  364.750    5.710    0.220    0.523   83.116
  365.000    5.105    0.211    0.540   82.526
  365.250    4.737    0.214    0.552   82.547
  365.500    4.315    0.216    0.543   82.565
  365.750    3.930    0.208    0.568   83.788
  366.000    3.786    0.215    0.583   84.403
  366.250    3.579    0.210    0.566   85.633
  366.500    3.383    0.217    0.543   86.851
  366.750    3.259    0.228    0.521   86.263
  367.000    3.258    0.238    0.504   85.065
  367.250    3.444    0.251    0.484   80.844
  367.500    3.923    0.252    0.453   70.577
  367.750    4.725    0.225    0.418   59.705
  368.000    6.362    0.230    0.404   51.252
  368.250    9.404    0.228    0.397   43.406
  368.500   11.975    0.253    0.403   42.212
  368.750   13.639    0.270    0.414   43.434
  369.000   14.690    0.264    0.420   50.714
  369.250   13.889    0.233    0.431   53.745
  369.500   11.963    0.246    0.439   58.602
  369.750   10.304    0.259    0.451   60.429
  370.000    9.742    0.260    0.470   59.234
  370.250    8.710    0.260    0.478   56.834
  370.500    8.235    0.268    0.479   55.636
  370.750    8.081    0.275    0.477   55.648
  371.000    8.078    0.277    0.472   55.662
  371.250    8.076    0.275    0.469   53.261
  371.500    8.226    0.273    0.467   53.885
  371.750    8.379    0.278    0.463   53.894
  372.000    8.857    0.285    0.473   53.915
  372.250    9.363    0.292    0.498   52.716
  372.500    9.898    0.284    0.497   51.518
  372.750   10.082    0.272    0.469   53.958
  373.000    9.711    0.267    0.463   55.175
  373.250    8.844    0.255    0.474   57.613
  373.500    8.680    0.248    0.462   60.047
  373.750    8.055    0.249    0.458   61.270
  374.000    7.474    0.251    0.453   63.104
  374.250    7.335    0.237    0.450   62.508
  374.500    7.470    0.232    0.446   61.317
  374.750    7.897    0.246    0.440   58.911
  375.000    8.044    0.263    0.438   55.299
  375.250    8.826    0.274    0.435   53.495
  375.500    9.685    0.280    0.430   49.886
  375.750   10.430    0.294    0.429   48.085
  376.000   11.027    0.304    0.456   46.281
  376.250   11.443    0.308    0.453   45.092
  376.500   11.874    0.306    0.440   45.104
  376.750   12.094    0.316    0.449   43.909
  377.000   12.316    0.319    0.437   42.712
  377.250   12.314    0.302    0.430   42.731
  377.500   11.860    0.293    0.436   43.344
  377.750   11.425    0.298    0.440   43.965
  378.000   11.004    0.296    0.429   42.166
  378.250   12.300    0.248    0.414   40.370
  378.500   13.004    0.228    0.386   38.570
  378.750   14.268    0.218    0.402   37.976
  379.000   14.806    0.251    0.419   36.790
  379.250   15.946    0.274    0.430   37.404
  379.500   16.547    0.321    0.442   36.213
  379.750   17.170    0.326    0.454   36.220
  380.000   17.486    0.312    0.468   33.213
  380.250   17.482    0.311    0.477   32.024
  380.500   17.479    0.323    0.494   32.636
  380.750   17.473    0.306    0.485   37.495
  381.000   17.147    0.295    0.470   39.317
  381.250   16.517    0.272    0.453   43.569
  381.500   15.326    0.252    0.461   47.822
  381.750   13.959    0.235    0.474   49.648
  382.000   13.447    0.217    0.478   50.870
  382.250   12.022    0.202    0.462   51.492
  382.500   11.366    0.208    0.443   50.902
  382.750   10.547    0.227    0.433   53.943
  383.000   10.158    0.236    0.419   55.163
  383.250    9.968    0.226    0.415   56.999
