~VERSION INFORMATION
 VERS.                 2.0:   CWLS LOG ASCII STANDARD -VERSION 2.0
 WRAP.                  NO:   ONE LINE PER DEPTH STEP
~WELL INFORMATION BLOCK
#MNEM.UNIT           DATA                    DESCRIPTION OF MNEMONIC
#---------    -------------------            -------------------------------
# Generated from Intellog Unique Number	CW_82_90/WELL/901
WELL.         HB ET AL MUSKWA 10-23          : Well_name    - WELL
LOC .         00/10-23-083-03W5/0            : Location     - LOCATION
UWI .         00/10-23-083-03W5/0            : Uwi          - UNIQUE WELL ID
ENTR.         JAYE                           : Entered      - ENTERED BY
SRVC.         WESTERN ATLAS                  : Scn          - SERVICE COMPANY
DATE.         14 MAR 77                      : Date         - LOG DATE
STRT.M        274.32                         : top_depth    - START DEPTH
STOP.M        472.32                         : bot_depth    - STOP DEPTH
STEP.M        0.25                           : increment    - STEP LENGTH
 NULL. -999.2500:NULL Value
~CURVE INFORMATION BLOCK
#MNEM UNIT       ERCB CURVE CODE    CURVE DESCRIPTION
#-----------   ------------------   ----------------------------------
DEPT.M        00 001 00 00         : DEPTH        - DEPTH
CALI.MM       00 280 01 00         : CAL          - CALIPER
GR  .API      00 310 00 00         : GR           - GAMMA RAY
NPHI.V/V      00 330 00 00         : PHIN         - NEUTRON POROSITY (SANDSTONE)
DPHI.V/V      00 890 00 00         : PHID         - DENSITY POROSITY (SANDSTONE)
ILD .OHMM     00 120 00 00         : RESD         - DEEP RESISTIVITY (DLL)
~PARAMETER INFORMATION
#MNEM.UNIT           DATA             DESCRIPTION OF MNEMONIC
#---------         -----------     ------------------------------
GL  .M        624.352              : gl           - GROUND LEVEL ELEVATION
EREF.M        627.522              : kb           - ELEVATION OF DEPTH REFERENCE
DATM.M        624.352              : datum        - DATUM ELEVATION
TDD .M        475.488              : tdd          - TOTAL DEPTH DRILLER
RUN .         ONE                  : Run          - RUN NUMBER
ENG .         GORDON               : Engineer     - RECORDING ENGINEER
WIT .         ROKOSH               : Witness      - WITNESSED BY
BASE.         EDMONTON             : Branch       - HOME BASE OF LOGGING UNIT
MUD .         GEL CHEM             : Mud_type     - MUD TYPE
MATR.         SANDSTONE            : Logunit      - NEUTRON MATRIX
TMAX.C        21.1111              : BHT          - MAXIMUM RECORDED TEMPERATURE
BHTD.M        475.488              : BHTDEP       - MAXIMUM RECORDED TEMPERATURE
RMT .C        18.3333              : MDTP         - TEMPERATURE OF MUD
MUDD.KG/M     9200                 : MWT          - MUD DENSITY
NEUT.         0                    : NEUTRON      - NEUTRON TYPE
RESI.         1                    : RESIST       - RESISTIVITY TYPE
RM  .OHMM     3.2                  : RM           - RESISTIVITY OF MUD
RMC .OHMM     2                    : RMC          - RESISTIVITY OF MUD CAKE
RMF .OHMM     2.2                  : RMF          - RESISTIVITY OF MUD FILTRATE
SUFT.C        -17.7778             : SUFT         - SURFACE TEMPERATURE
~A  DEPTH      CAL       GR     PHIN     PHID     RESD
# ...
  347.320  203.622   73.811    0.427    0.281    6.436
  347.570  203.276   73.205    0.435    0.279    6.552
  347.820  202.729   73.831    0.423    0.275    6.488
  348.070  202.171   76.985    0.393    0.270    6.294
  348.320  201.731   80.075    0.386    0.261    6.015
  348.570  206.061   84.276    0.386    0.253    5.562
  348.820  208.322   89.276    0.382    0.245    5.228
  349.070  211.298   95.079    0.382    0.235    4.780
  349.320  212.629  104.085    0.390    0.232    4.339
  349.570  215.821  109.334    0.396    0.235    3.974
  349.820  219.641  110.020    0.408    0.238    3.647
  350.070  221.687  110.769    0.430    0.239    3.447
  350.320  220.306  109.856    0.425    0.239    3.407
  350.570  218.398  108.570    0.418    0.238    3.513
  350.820  214.622  106.177    0.418    0.237    3.781
  351.070  210.531  104.153    0.418    0.236    4.091
  351.320  207.793  102.190    0.400    0.235    4.282
  351.570  206.831   98.750    0.390    0.233    4.063
  351.820  206.072   97.715    0.397    0.231    3.798
  352.070  205.515   98.337    0.402    0.227    3.390
  352.320  205.279  101.428    0.395    0.225    2.784
  352.570  205.042  105.628    0.395    0.223    2.471
  352.820  204.698  109.027    0.420    0.225    2.289
  353.070  204.136  111.626    0.436    0.229    2.296
  353.320  203.698  111.573    0.425    0.231    2.457
  353.570  202.213  110.228    0.420    0.232    2.643
  353.820  199.469  110.299    0.415    0.233    2.876
  354.070  205.679  108.090    0.411    0.235    3.164
  354.320  208.969  104.957    0.399    0.238    3.600
  354.570  208.640  102.747    0.387    0.241    3.991
  354.820  207.559  100.354    0.387    0.245    4.092
  355.070  207.431   97.530    0.393    0.249    3.868
  355.320  208.230   95.382    0.401    0.251    3.537
  355.570  209.447   93.234    0.408    0.251    3.306
  355.820  211.493   93.368    0.416    0.251    3.267
  356.070  212.710   95.966    0.413    0.254    3.388
  356.320  212.994   97.578    0.401    0.258    3.659
  356.570  212.546   99.189    0.391    0.262    3.866
  356.820  211.475   99.321    0.386    0.264    3.848
  357.070  209.258   96.250    0.383    0.264    3.625
  357.320  207.458   93.856    0.389    0.264    3.357
  357.570  206.077   90.353    0.406    0.266    2.964
  357.820  205.213   91.348    0.413    0.272    2.680
  358.070  204.450   93.700    0.418    0.276    2.292
  358.320  204.212   94.204    0.421    0.279    1.936
  358.570  203.974   95.692    0.425    0.280    1.779
  358.820  207.166   98.905    0.419    0.282    1.695
  359.070  211.601  100.949    0.415    0.282    1.793
  359.320  212.406  103.609    0.408    0.282    1.933
  359.570  213.101  103.618    0.401    0.282    2.224
  359.820  213.071  102.518    0.392    0.280    2.795
  360.070  210.337   99.818    0.377    0.280    3.764
  360.320  205.002   93.849    0.366    0.276    5.029
  360.570  202.782   88.621    0.386    0.266    5.323
  360.820  202.016   86.720    0.388    0.222    5.348
  361.070  201.986   84.757    0.386    0.193    5.798
  361.320  201.850   82.181    0.376    0.187    6.367
  361.570  202.033   83.667    0.356    0.193    6.386
  361.820  202.311   84.663    0.341    0.205    5.862
  362.070  202.077   83.009    0.359    0.254    5.510
  362.320  201.103   85.607    0.387    0.277    5.151
  362.570  200.451   87.836    0.391    0.282    4.879
  362.820  199.067   89.262    0.384    0.281    4.697
  363.070  197.577   89.271    0.382    0.275    4.313
  363.320  196.505   87.618    0.383    0.267    4.183
  363.570  196.363   86.887    0.383    0.260    4.058
  363.820  196.548   89.115    0.380    0.251    4.009
  364.070  197.556   92.515    0.368    0.233    4.029
  364.320  201.056   95.605    0.361    0.218    4.240
  364.570  203.528   95.307    0.369    0.208    4.579
  364.820  206.194   90.634    0.375    0.200    5.020
  365.070  208.135   86.884    0.369    0.195    5.443
  365.320  208.217   86.218    0.359    0.190    5.633
  365.570  207.874   86.473    0.351    0.193    5.681
  365.820  207.321   86.481    0.372    0.211    5.522
  366.070  205.831   84.644    0.379    0.234    5.328
  366.320  204.129   84.529    0.386    0.250    5.168
  366.570  202.753   85.216    0.393    0.260    4.995
  366.820  200.640   86.396    0.412    0.262    4.881
  367.070  199.668   86.406    0.410    0.262    4.824
  367.320  200.162   87.587    0.399    0.259    4.874
  367.570  202.309   88.829    0.390    0.259    5.130
  367.820  202.909   90.566    0.383    0.265    5.469
  368.070  201.528   91.621    0.386    0.268    5.724
  368.320  198.575   92.496    0.390    0.270    4.480
  368.570  197.200   91.641    0.388    0.271    4.014
  368.820  196.544   90.357    0.394    0.269    3.852
  369.070  196.512   89.443    0.414    0.265    3.820
  369.320  198.561   90.683    0.421    0.254    3.831
  369.570  202.169   93.898    0.413    0.239    4.025
  369.820  205.258   98.223    0.401    0.222    4.196
  370.070  207.205  101.559    0.391    0.201    4.408
  370.320  209.353  103.171    0.369    0.197    4.580
  370.570  211.611  102.811    0.366    0.203    4.628
  370.820  213.867  100.540    0.402    0.204    4.626
  371.070  214.360   99.810    0.395    0.205    4.620
  371.320  212.660   99.944    0.391    0.206    4.636
  371.570  211.897   99.274    0.393    0.207    4.762
  371.820  211.762   97.313    0.407    0.208    4.829
  372.070  211.314   98.062    0.408    0.209    4.844
  372.320  210.767  100.784    0.404    0.210    4.842
  372.570  210.940  103.257    0.399    0.210    4.792
  372.820  210.907  105.486    0.401    0.210    4.640
  373.070  210.669  105.126    0.399    0.210    4.536
  373.320  210.116  103.903    0.396    0.210    4.523
  373.570  209.884  101.139    0.392    0.209    4.545
  373.820  209.848   99.732    0.384    0.209    4.526
  374.070  210.236   99.496    0.376    0.208    4.473
  374.320  211.234   99.812    0.373    0.207    4.290
  374.570  211.415  100.439    0.373    0.206    4.139
  374.820  212.012  102.236    0.373    0.204    4.001
  375.070  213.121  103.724    0.372    0.203    3.954
  375.320  213.198  104.165    0.373    0.202    4.063
  375.570  213.053  104.482    0.373    0.201    4.142
  375.820  212.715  100.795    0.372    0.200    4.360
  376.070  211.749   96.984    0.367    0.198    4.597
  376.320  209.634   94.590    0.360    0.194    4.910
  376.570  207.423   90.717    0.350    0.187    5.323
  376.820  205.310   86.168    0.335    0.169    5.967
  377.070  203.713   82.602    0.322    0.153    6.674
  377.320  201.810   77.188    0.301    0.139    8.026
  377.570  200.642   72.761    0.286    0.123   10.108
  377.820  201.431   71.538    0.268    0.109   13.760
  378.070  201.409   72.597    0.282    0.108   14.836
  378.320  201.157   75.750    0.332    0.124   12.550
  378.570  200.820   79.579    0.342    0.145   11.284
  378.820  200.585   84.087    0.338    0.166    9.706
  379.070  200.969   92.601    0.339    0.181    8.134
  379.320  207.908   96.308    0.363    0.188    6.730
  379.570  210.785   99.460    0.385    0.197    5.336
  379.820  211.694  102.182    0.385    0.204    4.514
  380.070  213.843  103.117    0.381    0.211    4.235
  380.320  215.373  103.556    0.379    0.216    4.019
  380.570  214.930  103.135    0.374    0.219    4.045
  380.820  210.523  102.405    0.360    0.222    4.226
  381.070  208.105   97.053    0.355    0.223    4.531
  381.320  200.793   90.223    0.352    0.226    4.940
  381.570  195.973   86.412    0.351    0.232    5.365
  381.820  193.134   84.082    0.350    0.240    5.688
  382.070  190.910   83.228    0.352    0.246    6.009
  382.320  190.056   82.928    0.353    0.254    6.325
  382.570  188.670   83.616    0.359    0.261    6.473
  382.820  187.802   85.104    0.366    0.264    6.576
  383.070  189.753   85.916    0.375    0.269    6.833
  383.320  192.423   84.261    0.382    0.277    7.365
  383.570  191.874   81.806    0.375    0.284    8.179
