~VERSION INFORMATION
 VERS.                 2.0:   CWLS LOG ASCII STANDARD -VERSION 2.0
 WRAP.                  NO:   ONE LINE PER DEPTH STEP
~WELL INFORMATION BLOCK
#MNEM.UNIT           DATA                    DESCRIPTION OF MNEMONIC
#---------    -------------------            -------------------------------
# Generated from Intellog Unique Number	CS_73_76/WELL/2206
WELL.         DOME ET AL KIRBY               : Well_name    - WELL
LOC .         00/11-31-074-06W4/0            : Location     - LOCATION
UWI .         00/11-31-074-06W4/0            : Uwi          - UNIQUE WELL ID
ENTR.         SP                             : Entered      - ENTERED BY
SRVC.         SCHLUMBERGER                   : Scn          - SERVICE COMPANY
STRT.M        240                            : top_depth    - START DEPTH
STOP.M        470                            : bot_depth    - STOP DEPTH
STEP.M        0.25                           : increment    - STEP LENGTH
 NULL. -999.2500:NULL Value
~CURVE INFORMATION BLOCK
#MNEM UNIT       ERCB CURVE CODE    CURVE DESCRIPTION
#-----------   ------------------   ----------------------------------
DEPT.M        00 001 00 00         : DEPTH        - DEPTH
ILD .OHMM     00 120 00 00         : RESD         - DEEP RESISTIVITY (DIL)
DPHI.V/V      00 890 00 00         : PHID         - DENSITY POROSITY (LIMESTONE)
NPHI.V/V      00 330 00 00         : PHIN         - NEUTRON POROSITY (LIMESTONE)
GR  .API      00 310 00 00         : GR           - GAMMA RAY
~PARAMETER INFORMATION
#MNEM.UNIT           DATA             DESCRIPTION OF MNEMONIC
#---------         -----------     ------------------------------
GL  .M        632.87               : gl           - GROUND LEVEL ELEVATION
EREF.M        637.33               : kb           - ELEVATION OF DEPTH REFERENCE
DATM.M        632.87               : datum        - DATUM ELEVATION
TDD .M        478                  : tdd          - TOTAL DEPTH DRILLER
RUN .         ONE                  : Run          - RUN NUMBER
ENG .         BILL                 : Engineer     - RECORDING ENGINEER
WIT .         JIM                  : Witness      - WITNESSED BY
MUD .         GEL                  : Mud_type     - MUD TYPE
MATR.         LIMESTONE            : Logunit      - NEUTRON MATRIX
TMAX.C        21                   : BHT          - MAXIMUM RECORDED TEMPERATURE
BHTD.M        478                  : BHTDEP       - MAXIMUM RECORDED TEMPERATURE
MATR.         1                    : LOGUNIT      - NEUTRON MATRIX
RMT .C        25                   : MDTP         - TEMPERATURE OF MUD
NEUT.         1                    : NEUTRON      - NEUTRON TYPE
RESI.         0                    : RESIST       - RESISTIVITY TYPE
RMC .OHMM     0.25                 : RMC          - RESISTIVITY OF MUD CAKE
RMF .OHMM     0.25                 : RMF          - RESISTIVITY OF MUD FILTRATE
SUFT.C        15                   : SUFT         - SURFACE TEMPERATURE
~A  DEPTH     RESD     PHID     PHIN       GR
# ...
  370.500    5.510    0.362    0.448   89.000
  370.750    5.406    0.354    0.460   89.594
  371.000    5.205    0.343    0.466   89.576
  371.250    5.204    0.340    0.458   88.328
  371.500    5.204    0.334    0.448   87.688
  371.750    5.303    0.319    0.442   89.502
  372.000    5.403    0.312    0.432   91.326
  372.250    5.506    0.296    0.431   95.581
  372.500    5.717    0.282    0.422  101.075
  372.750    5.937    0.265    0.426  110.237
  373.000    6.050    0.275    0.441  109.601
  373.250    6.165    0.279    0.432  105.296
  373.500    6.164    0.265    0.435  101.600
  373.750    6.047    0.255    0.435  102.192
  374.000    6.047    0.244    0.451  106.448
  374.250    6.046    0.247    0.462  110.095
  374.500    6.278    0.240    0.447  111.308
  374.750    6.398    0.232    0.431  114.953
  375.000    6.519    0.231    0.416  115.548
  375.250    6.643    0.254    0.408  111.239
  375.500    6.642    0.279    0.399  109.997
  375.750    6.517    0.263    0.418  109.354
  376.000    6.274    0.246    0.421  108.722
  376.250    6.393    0.248    0.431  109.311
  376.500    6.392    0.248    0.440  109.909
  376.750    6.514    0.256    0.433  110.498
  377.000    6.513    0.269    0.428  107.415
  377.250    6.391    0.267    0.421  105.555
  377.500    6.270    0.254    0.434  105.536
  377.750    6.389    0.248    0.452  107.965
  378.000    6.510    0.262    0.457  109.775
  378.250    6.510    0.274    0.474  111.593
  378.500    6.509    0.262    0.466  114.627
  378.750    6.267    0.257    0.461  115.830
  379.000    5.594    0.244    0.467  113.359
  379.250    5.088    0.246    0.453  109.663
  379.500    4.899    0.251    0.449  110.259
  379.750    5.087    0.247    0.480  110.233
  380.000    4.992    0.263    0.484  106.541
  380.250    3.619    0.268    0.474  102.840
  380.500    3.170    0.259    0.465  101.602
  380.750    2.776    0.283    0.486  104.641
  381.000    2.574    0.338    0.486  105.844
  381.250    2.432    0.376    0.473   98.470
  381.500    2.386    0.426    0.490   96.619
  381.750    2.297    0.449    0.502   97.817
  382.000    2.297    0.433    0.512  100.244
  382.250    2.253    0.420    0.499  100.225
  382.500    2.296    0.447    0.486   94.076
  382.750    2.340    0.452    0.510   90.385
  383.000    2.384    0.441    0.526   95.259
  383.250    2.773    0.432    0.542  101.972
  383.500    2.991    0.374    0.560  106.843
  383.750    3.479    0.346    0.557  110.499
  384.000    3.682    0.328    0.519  106.802
  384.250    4.202    0.316    0.499  109.232
  384.500    4.619    0.317    0.484  107.986
  384.750    4.888    0.319    0.468  104.293
  385.000    4.980    0.290    0.456  101.203
  385.250    4.705    0.284    0.453   99.964
  385.500    4.445    0.287    0.445  104.225
  385.750    3.749    0.275    0.457  102.369
  386.000    3.284    0.296    0.446  101.120
  386.250    3.893    0.352    0.436  102.326
  386.500    4.977    0.413    0.457  105.975
  386.750    6.485    0.389    0.460  104.112
  387.000    8.776    0.370    0.466   98.584
  387.250   12.102    0.347    0.453   88.771
  387.500   17.333    0.339    0.413   81.403
  387.750   18.692    0.336    0.396   77.094
  388.000   18.340    0.328    0.381   75.849
  388.250   16.684    0.328    0.362   75.210
  388.500   14.340    0.137    0.377   73.969
  388.750   11.213    0.110    0.361   73.948
  389.000    8.768    0.207    0.351   76.986
  389.250    8.766    0.245    0.341   80.638
  389.500    9.278    0.333    0.387   87.341
  389.750   11.861    0.312    0.390   89.775
  390.000   13.539    0.300    0.399   84.236
  390.250   17.642    0.056    0.403   82.381
  390.500   25.749    0.041    0.392   80.525
  390.750   27.770    0.030    0.352   79.283
  391.000   27.766    0.071    0.305   73.752
  391.250   26.232    0.139    0.268   66.993
  391.500   23.416    0.303    0.384   80.435
  391.750   19.015    0.334    0.406   86.541
  392.000   17.298    0.355    0.431   83.456
  392.250   16.653    0.338    0.436   77.314
  392.500   16.651    0.348    0.438   87.089
  392.750   16.968    0.348    0.436   86.445
  393.000   18.648    0.363    0.432   82.145
  393.250   19.735    0.372    0.443   79.064
  393.500   21.283    0.347    0.436   83.939
  393.750   22.952    0.262    0.426   92.488
  394.000   24.753    0.189    0.413   85.730
  394.250   25.705    0.181    0.408   80.190
  394.500   26.694    0.209    0.400   78.339
  394.750   28.248    0.066    0.382   85.667
  395.000   29.334    0.057    0.371   78.904
  395.250   29.891    0.144    0.352   75.830
  395.500   30.459    0.299    0.339   83.145
  395.750   30.455    0.334    0.408   89.249
  396.000   26.176    0.347    0.438   89.227
  396.250   24.266    0.366    0.428   90.431
  396.500   23.362    0.335    0.419   92.243
  396.750   22.492    0.284    0.423   90.386
  397.000   22.069    0.260    0.422   85.464
  397.250   20.849    0.288    0.428   82.387
  397.500   17.920    0.312    0.428   77.466
  397.750   15.114    0.328    0.435   73.774
  398.000   13.238    0.335    0.429   81.709
  398.250   12.042    0.328    0.428   88.421
  398.500   11.376    0.309    0.419   90.849
  398.750   11.162    0.300    0.418   92.658
  399.000   11.591    0.290    0.411   94.473
  399.250   12.267    0.284    0.422   96.907
  399.500   13.739    0.345    0.418   96.270
  399.750   15.388    0.374    0.407   91.965
  400.000   18.242    0.392    0.411   83.368
  400.250   24.685    0.369    0.402   79.678
  400.500   30.390    0.333    0.410   75.984
  400.750   34.038    0.320    0.398   75.350
  401.000   34.034    0.323    0.393   75.328
  401.250   32.767    0.307    0.382   77.142
  401.500   30.956    0.304    0.374   86.912
  401.750   29.803    0.300    0.380   95.462
  402.000   27.628    0.295    0.377  102.783
  402.250   25.613    0.300    0.398  107.655
  402.500   24.198    0.311    0.398  109.476
  402.750   20.797    0.294    0.397  113.127
  403.000   19.649    0.279    0.382  114.939
  403.250   18.215    0.283    0.387  112.464
  403.500   18.213    0.269    0.376  111.839
  403.750   19.274    0.263    0.368  114.254
  404.000   22.847    0.257    0.373  116.081
  404.250   26.079    0.274    0.372  122.180
  404.500   36.651    0.290    0.372  113.588
  404.750   45.983    0.283    0.381   98.259
  405.000   51.503    0.312    0.386   85.385
  405.250   52.479    0.323    0.381   76.792
  405.500   50.526    0.313    0.387   71.259
  405.750   45.962    0.307    0.395   75.518
  406.000   41.027    0.315    0.393   77.943
  406.250   34.602    0.320    0.401   80.986
  406.500   28.100    0.314    0.396   84.031
  406.750   23.255    0.301    0.391   88.294
  407.000   20.369    0.295    0.389   93.168
  407.250   19.244    0.291    0.403   92.527
  407.500   17.840    0.301    0.411   94.344
  407.750   15.625    0.314    0.418   98.609
  408.000   14.762    0.319    0.428  101.037
  408.250   13.685    0.302    0.431  105.906
  408.500   12.929    0.277    0.428  108.340
  408.750   11.761    0.268    0.428  113.818
  409.000   11.111    0.260    0.414  116.254
  409.250   10.902    0.253    0.404  121.736
  409.500   11.757    0.257    0.396  124.779
  409.750   13.168    0.269    0.412  129.649
  410.000   15.318    0.294    0.426  135.140
  410.250   16.835    0.306    0.427  128.999
  410.500   17.154    0.310    0.415  111.228
  410.750   16.207    0.305    0.411   85.495
  411.000   14.466    0.349    0.398   85.474
  411.250   13.411    0.311    0.387   90.343
  411.500   12.432    0.282    0.387   95.823
  411.750   12.198    0.272    0.383   97.037
  412.000   11.744    0.252    0.368   93.344
  412.250   11.095    0.237    0.365   96.372
  412.500   10.682    0.231    0.376   97.587
  412.750   10.284    0.217    0.382   96.329
  413.000   10.090    0.198    0.373   98.761
  413.250    9.900    0.182    0.384  107.309
  413.500    9.899    0.226    0.391  121.984
  413.750    9.713    0.221    0.382  117.670
