~VERSION INFORMATION
 VERS.                 2.0:   CWLS LOG ASCII STANDARD -VERSION 2.0
 WRAP.                  NO:   ONE LINE PER DEPTH STEP
~WELL INFORMATION BLOCK
#MNEM.UNIT           DATA                    DESCRIPTION OF MNEMONIC
#---------    -------------------            -------------------------------
# Generated from Intellog Unique Number	CS_67_68/WELL/2203
WELL.         11-04-067-03W4                 : Well_name    - WELL
LOC .         00/11-04-067-03W4/0            : Location     - LOCATION
UWI .         00/11-04-067-03W4/0            : Uwi          - UNIQUE WELL ID
ENTR.         SP                             : Entered      - ENTERED BY
SRVC.         SCHLUMBERGER                   : Scn          - SERVICE COMPANY
STRT.M        330                            : top_depth    - START DEPTH
STOP.M        555                            : bot_depth    - STOP DEPTH
STEP.M        0.25                           : increment    - STEP LENGTH
 NULL. -999.2500:NULL Value
~CURVE INFORMATION BLOCK
#MNEM UNIT       ERCB CURVE CODE    CURVE DESCRIPTION
#-----------   ------------------   ----------------------------------
DEPT.M        00 001 00 00         : DEPTH        - DEPTH
ILD .OHMM     00 120 00 00         : RESD         - DEEP RESISTIVITY (DIL)
DPHI.V/V      00 890 00 00         : PHID         - DENSITY POROSITY (LIMESTONE)
NPHI.V/V      00 330 00 00         : PHIN         - NEUTRON POROSITY (LIMESTONE)
GR  .API      00 310 00 00         : GR           - GAMMA RAY
CALI.MM       00 280 01 00         : CAL          - CALIPER
~PARAMETER INFORMATION
#MNEM.UNIT           DATA             DESCRIPTION OF MNEMONIC
#---------         -----------     ------------------------------
GL  .M        654.03               : gl           - GROUND LEVEL ELEVATION
EREF.M        657.79               : kb           - ELEVATION OF DEPTH REFERENCE
DATM.M        657.79               : datum        - DATUM ELEVATION
TDD .M        564                  : tdd          - TOTAL DEPTH DRILLER
RUN .         ONE                  : Run          - RUN NUMBER
ENG .         BILL                 : Engineer     - RECORDING ENGINEER
WIT .         JIM                  : Witness      - WITNESSED BY
MUD .         GEL                  : Mud_type     - MUD TYPE
MATR.         LIMESTONE            : Logunit      - NEUTRON MATRIX
TMAX.C        26                   : BHT          - MAXIMUM RECORDED TEMPERATURE
BHTD.M        564                  : BHTDEP       - MAXIMUM RECORDED TEMPERATURE
MATR.         1                    : LOGUNIT      - NEUTRON MATRIX
RMT .C        25                   : MDTP         - TEMPERATURE OF MUD
NEUT.         1                    : NEUTRON      - NEUTRON TYPE
RESI.         0                    : RESIST       - RESISTIVITY TYPE
RMC .OHMM     0.25                 : RMC          - RESISTIVITY OF MUD CAKE
RMF .OHMM     0.25                 : RMF          - RESISTIVITY OF MUD FILTRATE
SUFT.C        15                   : SUFT         - SURFACE TEMPERATURE
~A  DEPTH     RESD     PHID     PHIN       GR      CAL
# ...
  476.000    5.848    0.334    0.490   77.648  203.743
  476.250    6.578    0.320    0.481   75.386  204.552
  476.500    7.047    0.313    0.509   73.124  204.953
  476.750    7.273    0.317    0.511   71.656  204.845
  477.000    7.532    0.311    0.496   72.446  204.942
  477.250    7.616    0.307    0.487   73.237  204.632
  477.500    7.685    0.315    0.485   75.248  204.524
  477.750    7.754    0.310    0.482   77.260  204.824
  478.000    7.780    0.319    0.479   75.364  205.327
  478.250    7.777    0.326    0.494   74.506  206.136
  478.500    7.716    0.327    0.514   76.517  206.945
  478.750    7.669    0.321    0.511   77.491  208.160
  479.000    7.667    0.314    0.528   78.281  209.172
  479.250    7.707    0.315    0.523   80.109  208.964
  479.500    7.777    0.318    0.511   81.816  207.533
  479.750    7.847    0.318    0.503   82.850  206.612
  480.000    7.771    0.313    0.512   83.274  205.691
  480.250    7.681    0.304    0.526   84.370  204.770
  480.500    7.396    0.295    0.510   85.282  203.848
  480.750    7.134    0.291    0.493   86.561  203.537
  481.000    7.039    0.288    0.479   87.535  203.431
  481.250    7.010    0.284    0.496   86.982  203.120
  481.500    7.033    0.291    0.513   84.903  203.013
  481.750    7.272    0.299    0.527   82.824  203.008
  482.000    7.923    0.260    0.376   79.768  203.104
  482.250    8.426    0.150    0.344   69.692  203.505
  482.500    8.843    0.118    0.393   75.000  204.009
  482.750    8.579    0.101    0.439   82.689  204.410
  483.000    8.291    0.227    0.469   89.340  204.608
  483.250    6.210    0.295    0.495   97.945  204.502
  483.500    3.937    0.278    0.483  106.367  204.089
  483.750    3.220    0.262    0.527  109.599  204.084
  484.000    2.704    0.246    0.553  106.604  204.383
  484.250    2.475    0.233    0.548  107.822  204.175
  484.500    2.317    0.233    0.554  110.627  203.558
  484.750    2.382    0.243    0.562  107.022  203.349
  485.000    2.445    0.242    0.560  104.699  203.548
  485.250    2.509    0.235    0.530  102.010  204.050
  485.500    2.653    0.231    0.505   99.930  204.351
  485.750    3.092    0.223    0.519  101.026  204.549
  486.000    3.645    0.213    0.501   95.773  204.645
  486.250    4.078    0.208    0.451   88.749  204.640
  486.500    4.726    0.209    0.423   81.725  204.533
  486.750    5.160    0.212    0.412   79.157  204.426
  487.000    5.992    0.201    0.421   81.352  204.115
  487.250    6.603    0.197    0.435   80.372  204.007
  487.500    7.249    0.166    0.431   74.019  204.002
  487.750    7.899    0.007    0.322   68.583  204.201
  488.000    8.384    0.000    0.340   66.076  204.398
  488.250    7.732    0.040    0.412   66.622  204.800
  488.500    6.933    0.244    0.444   62.467  204.998
  488.750    6.322    0.315    0.431   62.282  205.196
  489.000    5.574    0.298    0.415   67.895  205.292
  489.250    5.238    0.277    0.435   71.616  205.491
  489.500    5.090    0.265    0.462   68.315  205.383
  489.750    5.070    0.281    0.484   63.245  204.767
  490.000    5.105    0.297    0.459   59.762  204.050
  490.250    5.269    0.304    0.439   66.474  202.315
  490.500    5.541    0.307    0.427   75.812  201.597
  490.750    5.859    0.313    0.421   81.303  201.082
  491.000    6.103    0.320    0.436   82.765  201.078
  491.250    6.274    0.322    0.446   81.785  201.275
  491.500    6.367    0.324    0.443   79.157  201.575
  491.750    6.424    0.332    0.433   77.688  202.078
  492.000    6.470    0.323    0.425   77.624  202.582
  492.250    6.529    0.310    0.430   77.010  203.187
  492.500    6.612    0.303    0.438   82.013  204.199
  492.750    6.684    0.300    0.444   88.358  204.701
  493.000    6.770    0.295    0.440   93.789  204.900
  493.250    6.857    0.291    0.429   97.815  205.098
  493.500    6.945    0.296    0.442   89.326  204.990
  493.750    7.033    0.303    0.432   82.363  205.189
  494.000    7.110    0.301    0.419   77.353  205.184
  494.250    7.174    0.291    0.406   75.579  205.178
  494.500    7.253    0.284    0.407   75.515  204.969
  494.750    7.319    0.286    0.421   75.756  204.964
  495.000    7.399    0.282    0.411   73.677  204.857
  495.250    7.466    0.274    0.403   73.186  204.648
  495.500    7.533    0.265    0.394   77.577  204.540
  495.750    7.658    0.261    0.384   81.787  204.636
  496.000    7.727    0.259    0.376   87.645  204.632
  496.250    7.812    0.255    0.396   93.624  204.525
  496.500    7.897    0.254    0.415   98.322  204.316
  496.750    7.954    0.241    0.430   98.380  204.615
  497.000    7.951    0.231    0.441   92.638  205.323
  497.250    7.699    0.226    0.441   96.969  205.928
  497.500    7.329    0.227    0.440  102.339  206.431
  497.750    7.057    0.243    0.435   99.771  206.629
  498.000    6.911    0.244    0.430   96.471  206.013
  498.250    6.780    0.235    0.430   96.346  205.091
  498.500    6.650    0.246    0.439   99.028  204.576
  498.750    6.587    0.260    0.455  100.185  204.470
  499.000    6.708    0.254    0.445   94.871  204.160
  499.250    6.936    0.270    0.381   71.486  203.849
  499.500    7.212    0.287    0.365   60.676  203.742
  499.750    7.485    0.281    0.378   58.720  203.432
  500.000    7.914    0.273    0.384   63.111  203.324
  500.250    8.245    0.268    0.362   66.039  203.014
  500.500    8.461    0.263    0.345   69.699  202.702
  500.750    8.394    0.268    0.359   72.931  202.697
  501.000    8.251    0.284    0.382   59.741  202.487
  501.250    8.109    0.295    0.401   57.662  202.381
  501.500    8.016    0.298    0.386   61.688  201.866
  501.750    7.952    0.285    0.372   67.118  201.760
  502.000    7.920    0.266    0.360   73.465  201.348
  502.250    7.992    0.252    0.368   74.499  201.342
  502.500    8.094    0.284    0.386   69.795  200.828
  502.750    8.213    0.302    0.381   73.881  200.008
  503.000    7.689    0.304    0.394   76.626  199.189
  503.250    7.362    0.300    0.410   79.797  198.064
  503.500    7.154    0.299    0.399   78.207  198.059
  503.750    7.072    0.310    0.387   77.715  198.562
  504.000    7.082    0.320    0.387   80.154  199.778
  504.250    7.146    0.311    0.402   86.011  201.095
  504.500    7.265    0.301    0.416   90.587  202.006
  504.750    7.386    0.284    0.418   93.636  201.593
  505.000    7.551    0.265    0.417   94.549  200.875
  505.250    7.706    0.253    0.412   91.066  200.768
  505.500    7.849    0.248    0.406   89.902  200.763
  505.750    7.949    0.238    0.408   90.571  200.757
  506.000    8.035    0.230    0.391   91.300  201.057
  506.250    7.943    0.230    0.377   91.052  200.950
  506.500    7.940    0.251    0.386   84.089  200.945
  506.750    7.790    0.268    0.396   77.310  201.041
  507.000    7.642    0.265    0.403   82.374  201.138
  507.250    7.623    0.242    0.410   89.635  201.132
  507.500    7.622    0.224    0.416   94.821  201.127
  507.750    7.648    0.224    0.412   79.433  201.121
  508.000    7.659    0.242    0.382   69.601  200.911
  508.250    7.626    0.259    0.362   74.603  200.907
  508.500    7.595    0.250    0.371   79.973  201.003
  508.750    7.550    0.250    0.385   83.938  200.896
  509.000    7.520    0.264    0.392   79.966  201.195
  509.250    7.447    0.273    0.388   70.928  201.496
  509.500    7.388    0.281    0.383   59.325  201.795
  509.750    7.385    0.291    0.393   50.348  202.095
  510.000    7.397    0.302    0.397   41.859  202.192
  510.250    7.366    0.310    0.390   31.599  201.780
  510.500    7.321    0.306    0.383   29.031  201.876
  510.750    7.292    0.321    0.391   28.601  202.175
  511.000    7.180    0.328    0.390   25.973  201.966
  511.250    7.071    0.318    0.387   25.969  201.961
  511.500    6.989    0.312    0.380   29.140  201.956
  511.750    6.895    0.313    0.374   29.870  201.951
  512.000    6.880    0.317    0.366   32.980  201.640
  512.250    6.890    0.318    0.362   38.838  201.329
