~VERSION INFORMATION
 VERS.                 2.0:   CWLS LOG ASCII STANDARD -VERSION 2.0
 WRAP.                  NO:   ONE LINE PER DEPTH STEP
~WELL INFORMATION BLOCK
#MNEM.UNIT           DATA                    DESCRIPTION OF MNEMONIC
#---------    -------------------            -------------------------------
# Generated from Intellog Unique Number	CN_94_101/WELL/2757
WELL.         PARAMOUNT LTD.                 : Well_name    - WELL
LOC .         00/10-03-094-21W4/0            : Location     - LOCATION
UWI .         00/10-03-094-21W4/0            : Uwi          - UNIQUE WELL ID
ENTR.         JOETTE                         : Entered      - ENTERED BY
SRVC.         COMPUTALOG                     : Scn          - SERVICE COMPANY
DATE.         07/03/92                       : Date         - LOG DATE
STRT.M        200                            : top_depth    - START DEPTH
STOP.M        364.25                         : bot_depth    - STOP DEPTH
STEP.M        0.25                           : increment    - STEP LENGTH
 NULL. -999.2500:NULL Value
~CURVE INFORMATION BLOCK
#MNEM UNIT       ERCB CURVE CODE    CURVE DESCRIPTION
#-----------   ------------------   ----------------------------------
DEPT.M        00 001 00 00         : DEPTH        - DEPTH
CALI.MM       00 280 01 00         : CAL          - CALIPER
GR  .API      00 310 00 00         : GR           - GAMMA RAY
NPHI.V/V      00 330 00 00         : PHIN         - NEUTRON POROSITY (SANDSTONE)
DPHI.V/V      00 890 00 00         : PHID         - DENSITY POROSITY (SANDSTONE)
ILD .OHMM     00 120 00 00         : RESD         - DEEP RESISTIVITY (DIL)
~PARAMETER INFORMATION
#MNEM.UNIT           DATA             DESCRIPTION OF MNEMONIC
#---------         -----------     ------------------------------
GL  .M        615.5                : gl           - GROUND LEVEL ELEVATION
EREF.M        618.8                : kb           - ELEVATION OF DEPTH REFERENCE
DATM.M        618.8                : datum        - DATUM ELEVATION
TDD .M        367                  : tdd          - TOTAL DEPTH DRILLER
RUN .         ONE                  : Run          - RUN NUMBER
ENG .         BILL                 : Engineer     - RECORDING ENGINEER
WIT .         JIM                  : Witness      - WITNESSED BY
MUD .         GEL                  : Mud_type     - MUD TYPE
MATR.         SANDSTONE            : Logunit      - NEUTRON MATRIX
TMAX.C        35                   : BHT          - MAXIMUM RECORDED TEMPERATURE
BHTD.M        367                  : BHTDEP       - MAXIMUM RECORDED TEMPERATURE
RMT .C        16                   : MDTP         - TEMPERATURE OF MUD
MUDD.KG/M     1120                 : MWT          - MUD DENSITY
NEUT.         1                    : NEUTRON      - NEUTRON TYPE
RESI.         0                    : RESIST       - RESISTIVITY TYPE
RM  .OHMM     5                    : RM           - RESISTIVITY OF MUD
RMC .OHMM     5                    : RMC          - RESISTIVITY OF MUD CAKE
RMF .OHMM     5                    : RMF          - RESISTIVITY OF MUD FILTRATE
SUFT.C        4                    : SUFT         - SURFACE TEMPERATURE
~A  DEPTH      CAL       GR     PHIN     PHID     RESD
# ...
  346.000  163.829  110.796    0.365    0.132   11.303
  346.250  164.837  112.605    0.353    0.109   10.477
  346.500  165.868  108.421    0.371    0.043   10.278
  346.750  165.877  103.038    0.395    0.077   10.651
  347.000  166.903   94.659    0.424    0.175   14.043
  347.250  166.913   94.070    0.445    0.189   14.825
  347.500  166.931   98.279    0.480    0.221   26.774
  347.750  166.954  101.889    0.473    0.228   25.309
  348.000  166.977  104.292    0.458    0.216   10.192
  348.250  166.986  108.498    0.439    0.207    6.646
  348.500  167.014  110.315    0.425    0.215    4.666
  348.750  167.023  110.321    0.408    0.219    4.836
  349.000  168.045  106.139    0.389    0.158    5.598
  349.250  169.062  100.754    0.361    0.107    7.806
  349.500  170.079   93.573    0.370    0.075    8.552
  349.750  171.101   89.389    0.399    0.095    9.908
  350.000  171.115   85.207    0.419    0.173   13.063
  350.250  170.130   82.219    0.431    0.189   18.543
  350.500  169.154   90.021    0.445    0.183   22.294
  350.750  168.174   99.022    0.447    0.182   32.862
  351.000  166.199   99.635    0.437    0.189   29.364
  351.250  165.214  102.041    0.430    0.200   18.107
  351.500  164.229  105.648    0.422    0.203   12.254
  351.750  162.249  105.059    0.412    0.202   10.164
  352.000  161.269  103.872    0.403    0.195    9.245
  352.250  160.288  105.681    0.389    0.188    9.412
  352.500  160.316  105.692    0.348    0.066   10.314
  352.750  161.329   99.710    0.332    0.047   11.300
  353.000  166.346   90.731    0.351    0.034   12.847
  353.250  168.358   92.540    0.374    0.066   14.337
  353.500  173.370  102.140    0.384    0.143   15.707
  353.750  177.389  105.750    0.404    0.173   16.581
  354.000  176.418  106.357    0.413    0.190   16.248
  354.250  175.423  105.775    0.393    0.203   15.641
  354.500  173.448  105.181    0.379    0.197   14.770
  354.750  172.463  105.195    0.385    0.181   14.478
  355.000  170.493  108.205    0.392    0.174   14.198
  355.250  169.504  109.412    0.386    0.168   13.918
  355.500  169.522  110.022    0.369    0.172   13.893
  355.750  168.546  108.835    0.353    0.169   14.133
  356.000  169.563  108.246    0.341    0.111   14.641
  356.250  173.573  108.857    0.329    0.099   15.178
  356.500  180.588  111.867    0.318    0.149   16.023
  356.750  183.607  107.081    0.314    0.192   16.921
  357.000  183.621   99.900    0.325    0.161   19.231
  357.250  180.638   94.520    0.348    0.161   21.075
  357.500  175.662   95.130    0.374    0.164   21.039
  357.750  170.691   98.135    0.385    0.168   19.495
  358.000  168.707  102.941    0.391    0.161   18.766
  358.250  165.738  106.548    0.391    0.151   17.721
  358.500  165.752  110.158    0.380    0.136   17.383
  358.750  165.775  111.967    0.365    0.133   17.359
  359.000  165.798  110.177    0.359    0.170   17.659
  359.250  165.807  105.393    0.357    0.183   19.694
  359.500  165.825  101.209    0.351    0.183   20.423
  359.750  167.846   97.624    0.346    0.174   22.382
  360.000  168.863   95.238    0.341    0.168   25.446
  360.250  170.884   98.845    0.337    0.154   27.346
  360.500  171.892  103.650    0.347    0.149   27.828
  360.750  171.920  102.466    0.361    0.166   27.799
  361.000  171.929  101.278    0.366    0.189   27.751
  361.250  170.948  100.090    0.370    0.193   27.702
  361.500  168.978   98.906    0.375    0.184   27.674
  361.750  168.987   97.718    0.383    0.161   27.118
  362.000  169.006   97.127    0.421    0.154   25.625
  362.250  167.031   96.544    0.435    0.126   22.477
  362.500  163.054   95.950    0.436    0.133   18.650
  362.750  161.075   95.964    0.432    0.164   15.469
  363.000  166.083   95.972    0.424    0.163   13.822
  363.250  173.098   95.986    0.417    0.137   12.346
  363.500  173.112   95.398    0.412    0.121   11.663
  363.750  173.135   70.834    0.428    0.147   11.428
  364.000  173.153   85.828    0.435    0.175   11.421
  364.250  173.171   89.435    0.427    0.168   11.831
