~VERSION INFORMATION
 VERS.                 2.0:   CWLS LOG ASCII STANDARD -VERSION 2.0
 WRAP.                  NO:   ONE LINE PER DEPTH STEP
~WELL INFORMATION BLOCK
#MNEM.UNIT           DATA                    DESCRIPTION OF MNEMONIC
#---------    -------------------            -------------------------------
# Generated from Intellog Unique Number	CS_67_68/WELL/858
WELL.         AEC MARGUERITA                 : Well_name    - WELL
LOC .         00/15-26-068-05W4/0            : Location     - LOCATION
UWI .         00/15-26-068-05W4/0            : Uwi          - UNIQUE WELL ID
ENTR.         SP                             : Entered      - ENTERED BY
SRVC.         SCHLUMBERGER                   : Scn          - SERVICE COMPANY
STRT.M        360                            : top_depth    - START DEPTH
STOP.M        605                            : bot_depth    - STOP DEPTH
STEP.M        0.25                           : increment    - STEP LENGTH
 NULL. -999.2500:NULL Value
~CURVE INFORMATION BLOCK
#MNEM UNIT       ERCB CURVE CODE    CURVE DESCRIPTION
#-----------   ------------------   ----------------------------------
DEPT.M        00 001 00 00         : DEPTH        - DEPTH
ILD .OHMM     00 120 00 00         : RESD         - DEEP RESISTIVITY (DIL)
DPHI.V/V      00 890 00 00         : PHID         - DENSITY POROSITY (LIMESTONE)
NPHI.V/V      00 330 00 00         : PHIN         - NEUTRON POROSITY (LIMESTONE)
GR  .API      00 310 00 00         : GR           - GAMMA RAY
~PARAMETER INFORMATION
#MNEM.UNIT           DATA             DESCRIPTION OF MNEMONIC
#---------         -----------     ------------------------------
GL  .M        713.2                : gl           - GROUND LEVEL ELEVATION
EREF.M        716.8                : kb           - ELEVATION OF DEPTH REFERENCE
DATM.M        713.2                : datum        - DATUM ELEVATION
TDD .M        610                  : tdd          - TOTAL DEPTH DRILLER
RUN .         ONE                  : Run          - RUN NUMBER
ENG .         BILL                 : Engineer     - RECORDING ENGINEER
WIT .         JIM                  : Witness      - WITNESSED BY
MUD .         GEL                  : Mud_type     - MUD TYPE
MATR.         LIMESTONE            : Logunit      - NEUTRON MATRIX
TMAX.C        24                   : BHT          - MAXIMUM RECORDED TEMPERATURE
BHTD.M        610                  : BHTDEP       - MAXIMUM RECORDED TEMPERATURE
MATR.         1                    : LOGUNIT      - NEUTRON MATRIX
RMT .C        25                   : MDTP         - TEMPERATURE OF MUD
NEUT.         1                    : NEUTRON      - NEUTRON TYPE
RESI.         0                    : RESIST       - RESISTIVITY TYPE
RMC .OHMM     0.25                 : RMC          - RESISTIVITY OF MUD CAKE
RMF .OHMM     0.25                 : RMF          - RESISTIVITY OF MUD FILTRATE
SUFT.C        15                   : SUFT         - SURFACE TEMPERATURE
~A  DEPTH     RESD     PHID     PHIN       GR
  360.000    3.164    0.220    0.524   94.165
  360.250    3.248    0.227    0.529   92.935
  360.500    3.328    0.241    0.501   91.092
  360.750    3.397    0.248    0.494   89.003
  361.000    3.481    0.202    0.492   87.405
  361.250    3.352    0.161    0.499   86.667
  361.500    3.265    0.130    0.493   86.421
  361.750    3.169    0.202    0.493   88.386
  362.000    3.064    0.230    0.507   90.719
  362.250    3.018    0.253    0.521   93.053
  362.500    3.012    0.261    0.531   92.806
  362.750    3.001    0.263    0.539   92.376
  363.000    3.023    0.263    0.551   92.805
  363.250    3.091    0.251    0.505   95.753
  363.500    3.209    0.247    0.517   94.278
  363.750    3.227    0.258    0.532   91.452
  364.000    3.138    0.261    0.542   89.547
  364.250    3.120    0.255    0.542   88.318
  364.500    3.220    0.244    0.529   88.010
  364.750    3.331    0.235    0.491   88.378
  365.000    3.368    0.236    0.463   89.851
  365.250    3.299    0.244    0.453   93.168
  365.500    3.238    0.253    0.464  100.722
  365.750    3.201    0.252    0.486   96.176
  366.000    3.136    0.243    0.468   91.568
  366.250    2.992    0.245    0.452   87.575
  366.500    2.937    0.242    0.449   85.547
  366.750    3.014    0.232    0.493   82.660
  367.000    3.437    0.236    0.544   80.939
  367.250    4.620    0.223    0.467   77.806
  367.500    5.926    0.179    0.437   73.812
  367.750    7.545    0.154    0.354   65.151
  368.000   10.912    0.259    0.355   58.394
  368.250   15.781    0.304    0.342   52.373
  368.500   21.778    0.329    0.259   45.186
  368.750   28.359    0.392    0.180   38.612
  369.000   34.263    0.427    0.150   33.391
  369.250   41.941    0.441    0.111   29.643
  369.500   46.229    0.447    0.097   27.247
  369.750   41.623    0.447    0.100   26.632
  370.000   35.829    0.447    0.111   26.140
  370.250   31.839    0.444    0.110   24.911
  370.500   26.798    0.434    0.112   23.497
  370.750   21.005    0.421    0.147   24.541
  371.000   16.557    0.399    0.186   23.434
  371.250   13.600    0.382    0.213   22.267
  371.500   11.404    0.364    0.239   21.283
  371.750    9.725    0.343    0.272   20.607
  372.000    8.740    0.331    0.284   20.729
  372.250    8.386    0.339    0.288   21.035
  372.500    8.032    0.344    0.287   21.526
  372.750    7.824    0.345    0.286   22.140
  373.000    7.750    0.340    0.292   22.753
  373.250    8.479    0.337    0.299   23.428
  373.500    8.368    0.343    0.304   22.813
  373.750    8.120    0.345    0.312   22.198
  374.000    7.821    0.332    0.324   23.488
  374.250    7.463    0.322    0.336   30.551
  374.500    7.042    0.316    0.340   43.879
  374.750    6.582    0.313    0.342   55.304
  375.000    6.447    0.309    0.343   65.807
  375.250    6.280    0.303    0.360   76.985
  375.500    6.186    0.301    0.390   84.233
  375.750    6.151    0.291    0.415   89.699
  376.000    6.105    0.264    0.432   90.190
  376.250    6.082    0.258    0.446   78.948
  376.500    6.104    0.268    0.425   75.508
  376.750    6.150    0.272    0.417   76.797
  377.000    6.313    0.252    0.413   78.946
  377.250    6.456    0.240    0.418   78.638
  377.500    6.615    0.236    0.421   73.724
  377.750    6.664    0.240    0.422   69.792
  378.000    6.714    0.249    0.417   70.774
  378.250    6.789    0.261    0.415   78.882
  378.500    6.904    0.266    0.429   86.190
  378.750    6.929    0.269    0.433   90.919
  379.000    6.826    0.280    0.419   96.263
  379.250    6.612    0.293    0.424   99.395
  379.500    6.111    0.299    0.443   99.210
  379.750    5.596    0.275    0.462   95.401
  380.000    5.339    0.192    0.476   89.135
  380.250    5.181    0.167    0.475   85.141
  380.500    4.889    0.139    0.463   89.195
  380.750    4.361    0.152    0.457   98.408
  381.000    3.971    0.184    0.465  104.611
  381.250    3.739    0.198    0.483  104.856
  381.500    3.718    0.205    0.501  108.357
  381.750    3.925    0.221    0.511  100.432
  382.000    4.176    0.270    0.522   83.294
  382.250    4.568    0.313    0.503   75.738
  382.500    5.054    0.332    0.457   67.322
  382.750    5.529    0.307    0.433   75.552
  383.000    6.004    0.287    0.421   80.159
  383.250    6.315    0.270    0.425   72.664
  383.500    6.314    0.293    0.447   60.747
  383.750    6.232    0.327    0.468   58.719
  384.000    6.047    0.344    0.464   56.200
  384.250    5.868    0.353    0.466   52.330
  384.500    5.792    0.372    0.453   47.046
  384.750    5.759    0.388    0.444   47.168
  385.000    5.726    0.392    0.448   48.703
  385.250    5.726    0.381    0.454   45.447
  385.500    5.725    0.376    0.455   42.989
  385.750    5.736    0.373    0.440   41.207
  386.000    5.779    0.373    0.429   42.804
  386.250    5.822    0.374    0.424   46.059
  386.500    5.865    0.374    0.441   47.778
  386.750    5.887    0.367    0.451   45.320
  387.000    5.919    0.357    0.432   42.064
  387.250    5.930    0.353    0.423   45.810
  387.500    5.963    0.358    0.429   48.819
  387.750    6.008    0.364    0.442   50.293
  388.000    6.087    0.363    0.451   50.722
  388.250    6.132    0.354    0.421   48.694
  388.500    6.189    0.344    0.398   57.416
  388.750    6.247    0.333    0.389   66.998
  389.000    6.329    0.326    0.419   72.403
  389.250    6.377    0.328    0.427   77.377
  389.500    6.460    0.327    0.430   77.622
  389.750    6.594    0.320    0.441   76.209
  390.000    6.757    0.319    0.449   71.908
  390.250    6.949    0.315    0.454   67.301
  390.500    7.066    0.306    0.438   65.764
  390.750    7.186    0.295    0.424   71.476
  391.000    7.280    0.280    0.412   73.687
  391.250    7.335    0.278    0.411   74.915
  391.500    7.348    0.278    0.408   75.037
  391.750    7.320    0.274    0.404   74.053
  392.000    7.292    0.270    0.399   72.886
  392.250    7.264    0.276    0.396   70.121
  392.500    7.196    0.282    0.417   67.725
  392.750    7.129    0.292    0.435   67.233
  393.000    7.088    0.303    0.417   72.514
  393.250    7.035    0.297    0.406   75.954
  393.500    7.035    0.287    0.414   79.638
  393.750    6.995    0.278    0.416   78.901
  394.000    6.968    0.279    0.436   71.222
  394.250    6.942    0.289    0.455   64.280
  394.500    6.876    0.301    0.445   61.208
  394.750    6.812    0.305    0.441   58.812
  395.000    6.698    0.312    0.432   62.005
  395.250    6.487    0.323    0.429   65.813
  395.500    6.284    0.306    0.432   72.323
  395.750    6.132    0.293    0.444   78.957
  396.000    5.973    0.271    0.457   84.116
  396.250    5.807    0.254    0.473   88.353
  396.500    5.678    0.257    0.489   91.608
  396.750    5.572    0.254    0.507   93.389
  397.000    5.666    0.242    0.517   92.835
  397.250    5.960    0.241    0.505   88.781
  397.500    6.281    0.265    0.502   85.524
  397.750    6.557    0.300    0.521   88.042
  398.000    6.768    0.302    0.502   90.498
  398.250    6.948    0.284    0.488   88.041
  398.500    7.052    0.268    0.478   81.467
  398.750    7.025    0.270    0.458   78.027
  399.000    6.986    0.270    0.436   75.201
  399.250    6.959    0.267    0.454   75.200
  399.500    6.868    0.262    0.470   77.841
  399.750    6.740    0.260    0.480   79.683
  400.000    6.565    0.262    0.472   81.525
  400.250    6.443    0.270    0.473   82.630
  400.500    6.299    0.263    0.475   84.042
  400.750    6.205    0.265    0.468   87.235
  401.000    6.193    0.268    0.458   87.235
  401.250    6.181    0.265    0.441   83.610
  401.500    6.204    0.259    0.430   88.707
  401.750    6.345    0.253    0.447   95.402
  402.000    6.476    0.247    0.469   99.148
  402.250    6.736    0.262    0.464   93.804
  402.500    7.006    0.273    0.453   86.985
  402.750    7.178    0.278    0.454   83.114
  403.000    7.259    0.279    0.444   80.227
  403.250    7.217    0.281    0.440   80.840
