~VERSION INFORMATION
 VERS.                 2.0:   CWLS LOG ASCII STANDARD -VERSION 2.0
 WRAP.                  NO:   ONE LINE PER DEPTH STEP
~WELL INFORMATION BLOCK
#MNEM.UNIT           DATA                    DESCRIPTION OF MNEMONIC
#---------    -------------------            -------------------------------
# Generated from Intellog Unique Number	CS_67_68/WELL/2212
WELL.         GEOG et al HYLO                : Well_name    - WELL
LOC .         00/12-08-067-14W4/0            : Location     - LOCATION
UWI .         00/12-08-067-14W4/0            : Uwi          - UNIQUE WELL ID
ENTR.         SP                             : Entered      - ENTERED BY
SRVC.         SCHLUMBERGER                   : Scn          - SERVICE COMPANY
STRT.M        300                            : top_depth    - START DEPTH
STOP.M        485                            : bot_depth    - STOP DEPTH
STEP.M        0.25                           : increment    - STEP LENGTH
 NULL. -999.2500:NULL Value
~CURVE INFORMATION BLOCK
#MNEM UNIT       ERCB CURVE CODE    CURVE DESCRIPTION
#-----------   ------------------   ----------------------------------
DEPT.M        00 001 00 00         : DEPTH        - DEPTH
ILD .OHMM     00 120 00 00         : RESD         - DEEP RESISTIVITY (DIL)
DPHI.V/V      00 890 00 00         : PHID         - DENSITY POROSITY (LIMESTONE)
NPHI.V/V      00 330 00 00         : PHIN         - NEUTRON POROSITY (LIMESTONE)
GR  .API      00 310 00 00         : GR           - GAMMA RAY
CALI.MM       00 280 01 00         : CAL          - CALIPER
~PARAMETER INFORMATION
#MNEM.UNIT           DATA             DESCRIPTION OF MNEMONIC
#---------         -----------     ------------------------------
GL  .M        565.5                : gl           - GROUND LEVEL ELEVATION
EREF.M        568.7                : kb           - ELEVATION OF DEPTH REFERENCE
DATM.M        568.7                : datum        - DATUM ELEVATION
TDD .M        494.5                : tdd          - TOTAL DEPTH DRILLER
RUN .         ONE                  : Run          - RUN NUMBER
ENG .         BILL                 : Engineer     - RECORDING ENGINEER
WIT .         JIM                  : Witness      - WITNESSED BY
MUD .         GEL                  : Mud_type     - MUD TYPE
MATR.         LIMESTONE            : Logunit      - NEUTRON MATRIX
TMAX.C        24                   : BHT          - MAXIMUM RECORDED TEMPERATURE
BHTD.M        493.2                : BHTDEP       - MAXIMUM RECORDED TEMPERATURE
MATR.         1                    : LOGUNIT      - NEUTRON MATRIX
RMT .C        25                   : MDTP         - TEMPERATURE OF MUD
NEUT.         1                    : NEUTRON      - NEUTRON TYPE
RESI.         0                    : RESIST       - RESISTIVITY TYPE
RMC .OHMM     0.25                 : RMC          - RESISTIVITY OF MUD CAKE
RMF .OHMM     0.25                 : RMF          - RESISTIVITY OF MUD FILTRATE
SUFT.C        15                   : SUFT         - SURFACE TEMPERATURE
~A  DEPTH     RESD     PHID     PHIN       GR      CAL
# ...
  336.500    2.360    0.302    0.423   80.951  158.840
  336.750    2.437    0.289    0.432   80.931  159.315
  337.000    2.527    0.278    0.450   78.653  159.487
  337.250    2.645    0.260    0.426   75.762  159.256
  337.500    2.825    0.235    0.381   72.327  158.713
  337.750    3.047    0.230    0.314   69.070  158.380
  338.000    3.250    0.255    0.384   71.861  158.351
  338.250    3.119    0.269    0.421   77.645  158.420
  338.500    2.888    0.280    0.441   81.961  158.593
  338.750    2.726    0.287    0.424   86.341  158.969
  339.000    2.641    0.280    0.422   89.560  159.041
  339.250    2.592    0.276    0.433   88.686  159.720
  339.500    2.623    0.267    0.421   86.101  159.586
  339.750    2.688    0.262    0.415   83.640  159.658
  340.000    2.766    0.261    0.407   82.767  159.726
  340.250    2.836    0.253    0.403   84.764  159.698
  340.500    2.890    0.246    0.403   87.493  159.463
  340.750    2.843    0.249    0.418   85.093  159.225
  341.000    2.770    0.263    0.424   80.920  158.890
  341.250    2.699    0.279    0.431   79.253  158.558
  341.500    2.679    0.267    0.442   81.434  158.525
  341.750    2.665    0.251    0.454   81.293  158.698
  342.000    2.671    0.239    0.460   84.141  159.272
  342.250    2.647    0.232    0.445   87.302  160.570
  342.500    2.608    0.246    0.446   88.994  161.861
  342.750    2.585    0.264    0.431   85.002  162.036
  343.000    2.581    0.276    0.413   81.872  161.596
  343.250    2.650    0.288    0.396   79.472  161.057
  343.500    2.686    0.276    0.406   77.742  160.411
  343.750    2.708    0.270    0.413   78.393  160.582
  344.000    2.734    0.267    0.411   78.926  160.962
  344.250    2.745    0.270    0.405   79.579  161.747
  344.500    2.746    0.276    0.407   79.925  161.920
  344.750    2.716    0.278    0.412   79.909  161.076
  345.000    2.662    0.280    0.417   79.706  160.330
  345.250    2.598    0.287    0.433   79.379  159.789
  345.500    2.517    0.290    0.443   78.571  159.451
  345.750    2.457    0.282    0.431   75.438  159.623
  346.000    2.421    0.273    0.424   71.204  159.594
  346.250    2.372    0.272    0.421   72.163  159.462
  346.500    2.346    0.282    0.410   77.031  159.125
  346.750    2.312    0.288    0.399   72.796  158.790
  347.000    2.270    0.293    0.413   68.257  158.549
  347.250    2.233    0.298    0.427   66.592  158.523
  347.500    2.208    0.291    0.437   67.550  158.593
  347.750    2.213    0.299    0.447   67.471  158.663
  348.000    2.260    0.289    0.441   66.963  159.042
  348.250    2.406    0.277    0.423   68.166  159.520
  348.500    2.551    0.266    0.409   71.446  159.693
  348.750    2.715    0.253    0.402   75.092  159.757
  349.000    2.820    0.243    0.394   77.087  160.035
  349.250    2.968    0.236    0.405   73.952  160.004
  349.500    3.083    0.244    0.413   73.142  160.072
  349.750    3.113    0.247    0.400   75.749  160.243
  350.000    3.039    0.242    0.405   76.708  160.318
  350.250    2.911    0.233    0.414   77.851  160.392
  350.500    2.789    0.226    0.420   79.420  160.258
  350.750    2.707    0.237    0.435   76.956  160.530
  351.000    2.652    0.266    0.438   73.764  160.503
  351.250    2.628    0.287    0.428   75.270  160.570
  351.500    2.614    0.283    0.420   77.081  160.844
  351.750    2.650    0.277    0.417   78.532  161.122
  352.000    2.722    0.266    0.439   82.605  161.698
  352.250    2.806    0.247    0.444   87.778  161.865
  352.500    2.909    0.220    0.432   92.707  162.047
  352.750    3.027    0.201    0.427   96.414  162.418
  353.000    3.168    0.229    0.430   95.539  162.389
  353.250    3.328    0.241    0.429   92.163  162.660
  353.500    3.424    0.245    0.426   94.219  162.736
  353.750    3.556    0.246    0.426   97.866  162.497
  354.000    3.722    0.251    0.430   98.337  162.777
  354.250    3.844    0.259    0.439   89.766  162.949
  354.500    3.955    0.244    0.442   85.595  163.323
  354.750    3.883    0.232    0.447   88.998  163.800
  355.000    3.685    0.222    0.454   92.944  164.071
  355.250    3.524    0.215    0.436   94.578  164.349
  355.500    3.439    0.232    0.414   89.795  164.321
  355.750    3.402    0.246    0.399   85.808  164.392
  356.000    3.416    0.216    0.442   89.085  164.766
  356.250    3.482    0.217    0.457   95.539  165.652
  356.500    3.604    0.230    0.445  101.385  166.232
  356.750    3.645    0.229    0.433  102.284  167.014
  357.000    3.723    0.219    0.425   95.180  167.593
  357.250    3.738    0.218    0.414   94.795  167.766
  357.500    3.669    0.236    0.406   99.540  167.125
  357.750    3.548    0.252    0.411   91.703  165.567
  358.000    3.457    0.273    0.404   86.005  163.700
  358.250    3.420    0.259    0.398   86.415  162.858
  358.500    3.446    0.238    0.402   91.648  163.439
  358.750    3.567    0.220    0.391   92.546  164.222
  359.000    3.663    0.215    0.381   89.839  164.394
  359.250    3.769    0.223    0.369   90.677  164.568
  359.500    3.856    0.207    0.358   92.613  164.432
  359.750    3.975    0.197    0.347   92.348  164.503
  360.000    4.091    0.200    0.361   91.537  164.882
  360.250    4.170    0.204    0.382   92.128  166.174
  360.500    4.250    0.208    0.391   93.210  167.565
  360.750    4.300    0.205    0.399   94.899  168.452
  361.000    4.293    0.204    0.404   96.650  169.136
  361.250    4.230    0.208    0.405   97.369  169.914
  361.500    3.999    0.208    0.410   97.105  170.394
  361.750    3.697    0.211    0.408   94.888  170.058
  362.000    3.582    0.238    0.413   88.334  167.992
  362.250    3.425    0.256    0.411   80.742  164.499
  362.500    3.269    0.272    0.405   74.251  162.333
  362.750    3.161    0.279    0.401   73.744  161.077
  363.000    3.097    0.251    0.397   74.824  160.535
  363.250    3.052    0.225    0.402   74.928  160.403
  363.500    3.019    0.206    0.415   73.016  160.882
  363.750    2.985    0.234    0.419   71.227  161.457
  364.000    2.833    0.269    0.411   68.886  161.839
  364.250    2.755    0.286    0.399   67.278  162.217
  364.500    2.679    0.276    0.393   69.213  162.078
  364.750    2.645    0.264    0.389   71.883  162.155
  365.000    2.686    0.251    0.386   74.126  162.021
  365.250    2.822    0.241    0.381   76.484  162.388
  365.500    2.926    0.237    0.401   76.102  162.464
  365.750    3.016    0.241    0.408   74.192  162.232
  366.000    3.080    0.268    0.415   71.726  162.201
  366.250    3.041    0.269    0.410   70.979  162.268
  366.500    2.985    0.259    0.397   75.112  162.243
  366.750    2.969    0.254    0.383   78.942  162.107
  367.000    3.061    0.250    0.371   81.611  161.978
  367.250    3.144    0.243    0.353   81.593  162.150
  367.500    3.259    0.233    0.346   83.528  162.422
  367.750    3.411    0.228    0.359   86.563  163.106
  368.000    3.556    0.221    0.363   89.843  163.480
  368.250    3.680    0.212    0.364   93.058  163.757
  368.500    3.837    0.205    0.369   96.338  163.824
  368.750    4.038    0.202    0.372   99.192  163.794
  369.000    4.147    0.204    0.373  101.799  163.254
  369.250    4.236    0.207    0.368   99.030  162.615
  369.500    4.189    0.214    0.366   94.918  161.665
  369.750    3.687    0.230    0.372   90.933  161.125
  370.000    3.351    0.256    0.372   84.623  160.995
  370.250    3.174    0.266    0.362   84.299  160.758
  370.500    3.098    0.246    0.359   89.656  160.727
  370.750    3.123    0.230    0.352   93.791  161.101
  371.000    3.189    0.219    0.346   94.077  161.276
  371.250    3.238    0.223    0.352   85.631  161.244
  371.500    3.227    0.232    0.368   80.481  161.518
  371.750    3.127    0.231    0.368   77.042  161.794
  372.000    3.093    0.226    0.360   75.434  161.761
  372.250    3.105    0.231    0.357   72.975  162.140
  372.500    3.183    0.238    0.349   70.941  162.820
  372.750    3.282    0.240    0.338   79.470  163.603
