~VERSION INFORMATION
 VERS.                 2.0:   CWLS LOG ASCII STANDARD -VERSION 2.0
 WRAP.                  NO:   ONE LINE PER DEPTH STEP
~WELL INFORMATION BLOCK
#MNEM.UNIT           DATA                    DESCRIPTION OF MNEMONIC
#---------    -------------------            -------------------------------
# Generated from Intellog Unique Number	CS_73_76/WELL/2205
WELL.         BOW VALLEY INDUSTRIES LTD      : Well_name    - WELL
LOC .         00/11-30-074-16W4/0            : Location     - LOCATION
UWI .         00/11-30-074-16W4/0            : Uwi          - UNIQUE WELL ID
ENTR.         SP                             : Entered      - ENTERED BY
SRVC.         SCHLUMBERGER                   : Scn          - SERVICE COMPANY
STRT.M        271.272                        : top_depth    - START DEPTH
STOP.M        444.772                        : bot_depth    - STOP DEPTH
STEP.M        0.25                           : increment    - STEP LENGTH
 NULL. -999.2500:NULL Value
~CURVE INFORMATION BLOCK
#MNEM UNIT       ERCB CURVE CODE    CURVE DESCRIPTION
#-----------   ------------------   ----------------------------------
DEPT.M        00 001 00 00         : DEPTH        - DEPTH
GR  .API      00 310 00 00         : GR           - GAMMA RAY
DPHI.V/V      00 890 00 00         : PHID         - DENSITY POROSITY (SANDSTONE)
NPHI.V/V      00 330 00 00         : PHIN         - NEUTRON POROSITY (SANDSTONE)
ILD .OHMM     00 120 00 00         : RESD         - DEEP RESISTIVITY (DIL)
~PARAMETER INFORMATION
#MNEM.UNIT           DATA             DESCRIPTION OF MNEMONIC
#---------         -----------     ------------------------------
GL  .M        620.116              : gl           - GROUND LEVEL ELEVATION
EREF.M        623.621              : kb           - ELEVATION OF DEPTH REFERENCE
DATM.M        620.116              : datum        - DATUM ELEVATION
TDD .M        454.762              : tdd          - TOTAL DEPTH DRILLER
RUN .         ONE                  : Run          - RUN NUMBER
ENG .         BILL                 : Engineer     - RECORDING ENGINEER
WIT .         JIM                  : Witness      - WITNESSED BY
MUD .         GEL                  : Mud_type     - MUD TYPE
MATR.         SANDSTONE            : Logunit      - NEUTRON MATRIX
TMAX.C        60                   : BHT          - MAXIMUM RECORDED TEMPERATURE
BHTD.M        454.762              : BHTDEP       - MAXIMUM RECORDED TEMPERATURE
MATR.         1                    : LOGUNIT      - NEUTRON MATRIX
RMT .C        25                   : MDTP         - TEMPERATURE OF MUD
NEUT.         1                    : NEUTRON      - NEUTRON TYPE
RESI.         0                    : RESIST       - RESISTIVITY TYPE
RMC .OHMM     0.25                 : RMC          - RESISTIVITY OF MUD CAKE
RMF .OHMM     0.25                 : RMF          - RESISTIVITY OF MUD FILTRATE
SUFT.C        15                   : SUFT         - SURFACE TEMPERATURE
~A  DEPTH       GR     PHID     PHIN     RESD
  271.272  110.983    0.182    0.480    3.589
  271.522  111.248    0.189    0.492    3.525
  271.772  110.122    0.195    0.505    3.423
  272.022  107.532    0.199    0.515    3.276
  272.272  107.968    0.197    0.517    3.183
  272.522  111.680    0.206    0.509    3.019
  272.772  109.491    0.206    0.513    2.986
  273.022  107.450    0.203    0.523    2.928
  273.272  106.339    0.209    0.527    2.874
  273.522  108.098    0.206    0.517    2.970
  273.772  107.648    0.192    0.511    3.060
  274.022  105.533    0.179    0.514    3.154
  274.272  103.216    0.176    0.516    3.110
  274.522  104.230    0.179    0.513    3.087
  274.772  108.046    0.193    0.528    2.930
  275.022  107.114    0.199    0.538    2.930
  275.272  105.407    0.203    0.540    2.929
  275.522  105.571    0.202    0.534    2.924
  275.772  107.804    0.185    0.519    2.963
  276.022  105.995    0.176    0.510    2.866
  276.272  104.677    0.171    0.500    2.776
  276.522  101.895    0.183    0.492    2.770
  276.772   98.272    0.190    0.484    2.769
  277.022   98.141    0.205    0.477    2.766
  277.272   99.649    0.216    0.488    2.977
  277.522   97.205    0.234    0.499    3.335
  277.772   93.657    0.259    0.503    4.125
  278.022   90.270    0.275    0.482    4.801
  278.272   87.725    0.305    0.464    5.757
  278.522   83.037    0.331    0.442    7.015
  278.772   74.446    0.361    0.465    7.754
  279.022   69.121    0.389    0.498    8.505
  279.272   62.618    0.448    0.535    8.977
  279.522   55.303    0.504    0.569    9.223
  279.772   60.663    0.339    0.602    8.943
  280.022   67.430    0.273    0.606    8.486
  280.272   73.698    0.254    0.563    8.249
  280.522   75.835    0.263    0.466    8.092
  280.772   72.828    0.280    0.416    8.373
  281.022   68.191    0.280    0.419    8.568
  281.272   64.709    0.281    0.423    8.635
  281.522   61.541    0.293    0.421    8.510
  281.772   60.251    0.298    0.419    8.129
  282.022   60.774    0.304    0.423    7.799
  282.272   62.825    0.303    0.435    7.650
  282.522   65.960    0.300    0.444    7.794
  282.772   68.797    0.291    0.451    7.858
  283.022   73.240    0.285    0.445    8.107
  283.272   76.733    0.277    0.433    8.325
  283.522   78.612    0.290    0.444    8.578
  283.772   79.210    0.286    0.448    8.570
  284.022   81.152    0.291    0.447    8.587
  284.272   85.108    0.283    0.445    8.399
  284.522   88.251    0.275    0.434    8.408
  284.772   92.492    0.261    0.428    8.571
  285.022   96.906    0.251    0.420    8.771
  285.272  101.021    0.250    0.416    9.034
  285.522  100.199    0.253    0.419    9.243
  285.772  100.060    0.254    0.411    9.234
  286.022  101.163    0.258    0.413    9.090
  286.272  101.392    0.262    0.420    9.064
  286.522  103.162    0.256    0.426    9.059
  286.772  105.160    0.244    0.430    9.064
  287.022  100.425    0.251    0.426    9.116
  287.272   97.082    0.248    0.430    9.228
  287.522   91.036    0.245    0.427    9.498
  287.772   84.844    0.246    0.428   10.024
  288.022   79.802    0.251    0.430   11.013
  288.272   69.115    0.252    0.419   12.917
  288.522   64.234    0.254    0.408   15.910
  288.772   54.542    0.268    0.398   22.035
  289.022   46.749    0.277    0.400   31.617
  289.272   40.609    0.270    0.402   41.099
  289.522   38.419    0.267    0.396   47.604
  289.772   40.538    0.254    0.396   47.702
  290.022   42.907    0.256    0.401   39.684
  290.272   45.540    0.265    0.400   29.507
  290.522   53.006    0.272    0.399   20.760
  290.772   61.524    0.246    0.399   16.463
  291.022   68.237    0.222    0.411   12.930
  291.272   76.851    0.226    0.413   10.373
  291.522   82.924    0.225    0.433    8.853
  291.772   84.104    0.201    0.444    7.644
  292.022   90.097    0.124    0.449    6.940
  292.272   96.515    0.070    0.459    6.257
  292.522  102.420    0.072    0.461    5.862
  292.772  108.061    0.119    0.466    5.173
  293.022  116.073    0.134    0.478    4.827
  293.272  121.053    0.142    0.494    4.429
  293.522  124.104    0.135    0.508    4.012
  293.772  124.772    0.153    0.517    3.827
  294.022  122.939    0.153    0.516    3.634
  294.272  127.508    0.163    0.505    3.468
  294.522  131.297    0.185    0.512    3.357
  294.772  133.371    0.198    0.513    3.332
  295.022  130.675    0.203    0.502    3.343
  295.272  127.612    0.193    0.484    3.235
  295.522  125.442    0.182    0.501    3.129
  295.772  128.022    0.183    0.511    2.940
  296.022  130.864    0.199    0.524    2.783
  296.272  132.831    0.193    0.511    2.878
  296.522  132.978    0.201    0.513    3.328
  296.772  129.025    0.216    0.505    3.867
  297.022  124.366    0.220    0.484    5.074
  297.272  121.459    0.223    0.457    6.019
  297.522  117.856    0.216    0.432    6.942
  297.772  114.805    0.208    0.434    7.485
  298.022  112.976    0.207    0.452    7.617
  298.272  112.849    0.215    0.462    7.403
  298.522  115.034    0.232    0.462    7.435
  298.772  113.544    0.221    0.472    6.959
  299.022  110.890    0.220    0.474    6.344
  299.272  109.086    0.205    0.473    5.854
  299.522  106.291    0.183    0.482    5.661
  299.772  103.038    0.161    0.493    5.597
  300.022  101.414    0.140    0.497    5.807
  300.272  100.355    0.199    0.478    6.448
  300.522  101.116    0.230    0.472    7.081
  300.772  102.960    0.247    0.472    7.785
  301.022  101.359    0.261    0.471    8.116
  301.272   98.878    0.277    0.470    8.685
  301.522   98.121    0.264    0.471    8.471
  301.772   98.943    0.265    0.476    8.213
  302.022   99.778    0.257    0.465    7.584
  302.272  103.302    0.243    0.462    7.133
  302.522  106.898    0.248    0.472    6.853
  302.772  111.194    0.254    0.481    6.520
  303.022  114.616    0.252    0.489    6.335
  303.272  118.939    0.237    0.482    6.142
  303.522  122.541    0.225    0.474    6.072
  303.772  120.287    0.217    0.473    6.028
  304.022  115.799    0.217    0.464    6.119
  304.272  108.181    0.233    0.454    6.448
  304.522   95.709    0.226    0.457    6.647
  304.772   86.593    0.191    0.429    7.074
  305.022   75.318    0.167    0.409    7.564
  305.272   74.158    0.216    0.388    8.293
  305.522   79.956    0.240    0.417    8.707
  305.772   82.772    0.259    0.430    8.751
  306.022   84.991    0.261    0.427    8.409
  306.272   83.709    0.252    0.424    8.050
  306.522   82.568    0.253    0.432    7.965
  306.772   76.129    0.272    0.443    7.959
  307.022   70.580    0.296    0.436    8.049
  307.272   68.588    0.304    0.430    8.130
  307.522   71.896    0.301    0.433    8.263
  307.772   74.716    0.295    0.451    8.268
  308.022   75.826    0.285    0.458    8.072
  308.272   75.744    0.280    0.453    7.599
  308.522   77.947    0.270    0.450    6.958
  308.772   80.317    0.258    0.464    6.358
  309.022   83.376    0.253    0.481    5.920
  309.272   86.411    0.258    0.490    5.453
  309.522   84.625    0.263    0.485    5.201
  309.772   81.375    0.258    0.475    5.194
  310.022   81.150    0.251    0.467    5.322
  310.272   86.177    0.274    0.467    5.486
  310.522   91.554    0.280    0.464    5.724
  310.772   95.480    0.274    0.456    5.821
  311.022  100.092    0.270    0.450    5.912
  311.272  101.674    0.263    0.449    6.032
  311.522   97.597    0.264    0.449    6.153
  311.772   93.030    0.252    0.450    6.341
  312.022   95.093    0.236    0.456    6.542
  312.272   97.477    0.220    0.456    6.611
  312.522   98.653    0.205    0.469    6.495
  312.772   97.250    0.205    0.476    6.355
  313.022   95.216    0.220    0.472    6.479
  313.272   90.971    0.206    0.458    6.790
  313.522   92.450    0.198    0.448    7.303
  313.772   94.924    0.239    0.461    7.630
  314.022   96.714    0.235    0.470    7.818
  314.272   96.883    0.230    0.483    7.806
  314.522   95.775    0.222    0.470    7.350
