~VERSION INFORMATION
 VERS.                 2.0:   CWLS LOG ASCII STANDARD -VERSION 2.0
 WRAP.                  NO:   ONE LINE PER DEPTH STEP
~WELL INFORMATION BLOCK
#MNEM.UNIT           DATA                    DESCRIPTION OF MNEMONIC
#---------    -------------------            -------------------------------
# Generated from Intellog Unique Number	CS_69_70/WELL/881
WELL.         HUSKEY OIL OPERATION           : Well_name    - WELL
LOC .         00/10-34-069-05W4/0            : Location     - LOCATION
UWI .         00/10-34-069-05W4/0            : Uwi          - UNIQUE WELL ID
ENTR.         SP                             : Entered      - ENTERED BY
SRVC.         SCHLUMBERGER                   : Scn          - SERVICE COMPANY
STRT.M        300                            : top_depth    - START DEPTH
STOP.M        550                            : bot_depth    - STOP DEPTH
STEP.M        0.25                           : increment    - STEP LENGTH
 NULL. -999.2500:NULL Value
~CURVE INFORMATION BLOCK
#MNEM UNIT       ERCB CURVE CODE    CURVE DESCRIPTION
#-----------   ------------------   ----------------------------------
DEPT.M        00 001 00 00         : DEPTH        - DEPTH
ILD .OHMM     00 120 00 00         : RESD         - DEEP RESISTIVITY (DIL)
DPHI.V/V      00 890 00 00         : PHID         - DENSITY POROSITY (LIMESTONE)
NPHI.V/V      00 330 00 00         : PHIN         - NEUTRON POROSITY (LIMESTONE)
GR  .API      00 310 00 00         : GR           - GAMMA RAY
~PARAMETER INFORMATION
#MNEM.UNIT           DATA             DESCRIPTION OF MNEMONIC
#---------         -----------     ------------------------------
GL  .M        673.5                : gl           - GROUND LEVEL ELEVATION
EREF.M        677.2                : kb           - ELEVATION OF DEPTH REFERENCE
DATM.M        673.5                : datum        - DATUM ELEVATION
TDD .M        558                  : tdd          - TOTAL DEPTH DRILLER
RUN .         ONE                  : Run          - RUN NUMBER
ENG .         BILL                 : Engineer     - RECORDING ENGINEER
WIT .         JIM                  : Witness      - WITNESSED BY
MUD .         GEL                  : Mud_type     - MUD TYPE
MATR.         LIMESTONE            : Logunit      - NEUTRON MATRIX
TMAX.C        22                   : BHT          - MAXIMUM RECORDED TEMPERATURE
BHTD.M        558                  : BHTDEP       - MAXIMUM RECORDED TEMPERATURE
MATR.         1                    : LOGUNIT      - NEUTRON MATRIX
RMT .C        25                   : MDTP         - TEMPERATURE OF MUD
NEUT.         1                    : NEUTRON      - NEUTRON TYPE
RESI.         0                    : RESIST       - RESISTIVITY TYPE
RMC .OHMM     0.25                 : RMC          - RESISTIVITY OF MUD CAKE
RMF .OHMM     0.25                 : RMF          - RESISTIVITY OF MUD FILTRATE
SUFT.C        15                   : SUFT         - SURFACE TEMPERATURE
~A  DEPTH     RESD     PHID     PHIN       GR
# ...
  474.000   26.992    0.312    0.422   66.826
  474.250   23.872    0.311    0.418   67.005
  474.500   21.596    0.309    0.416   67.425
  474.750   19.135    0.310    0.422   68.754
  475.000   16.701    0.309    0.414   71.720
  475.250   14.575    0.301    0.424   75.655
  475.500   12.939    0.294    0.432   79.591
  475.750   11.552    0.286    0.418   84.919
  476.000   10.751    0.276    0.406   87.583
  476.250   10.197    0.268    0.398   89.821
  476.500    9.654    0.261    0.386   91.453
  476.750    9.209    0.254    0.368   92.722
  477.000    8.867    0.245    0.363   93.324
  477.250    8.571    0.237    0.385   93.199
  477.500    8.363    0.233    0.382   93.255
  477.750    8.130    0.225    0.363   92.039
  478.000    7.918    0.219    0.366   89.914
  478.250    9.056    0.246    0.408   87.668
  478.500   11.868    0.273    0.455   82.755
  478.750   14.668    0.288    0.439   75.356
  479.000   18.129    0.271    0.418   70.565
  479.250   21.251    0.255    0.397   62.076
  479.500   25.920    0.278    0.387   41.345
  479.750   29.871    0.299    0.374   29.947
  480.000   30.674    0.307    0.361   39.397
  480.250   25.680    0.300    0.352   54.363
  480.500   19.971    0.286    0.356   68.783
  480.750   16.437    0.268    0.357   75.566
  481.000   12.855    0.249    0.352   80.108
  481.250   11.072    0.229    0.359   83.195
  481.500   11.305    0.229    0.380   77.070
  481.750   11.764    0.228    0.393   72.096
  482.000   11.944    0.191    0.371   73.425
  482.250   11.832    0.186    0.359   81.118
  482.500   10.806    0.226    0.373   93.357
  482.750    9.868    0.206    0.362   98.444
  483.000   10.115    0.193    0.354   97.531
  483.250   12.716    0.250    0.373   86.739
  483.500   17.974    0.302    0.402   77.765
  483.750   26.237    0.330    0.402   69.094
  484.000   23.204    0.339    0.410   62.969
  484.250   18.113    0.336    0.421   62.056
  484.500   15.512    0.328    0.429   66.294
  484.750   13.693    0.321    0.437   70.108
  485.000   12.318    0.312    0.437   71.074
  485.250   10.914    0.307    0.421   75.130
  485.500   10.120    0.310    0.401   79.914
  485.750    9.365    0.300    0.382   85.850
  486.000    9.155    0.282    0.393   93.664
  486.250    9.225    0.260    0.395   96.811
  486.500    9.491    0.249    0.376   98.201
  486.750   10.008    0.250    0.361   81.349
  487.000   10.433    0.256    0.348   70.133
  487.250   10.694    0.260    0.339   70.310
  487.500   10.796    0.241    0.331   79.579
  487.750   10.858    0.212    0.345   92.545
  488.000   10.920    0.191    0.360   98.904
  488.250   11.024    0.214    0.374   89.324
  488.500   11.235    0.247    0.393   81.563
  488.750   12.280    0.258    0.406   75.862
  489.000   14.340    0.251    0.397   79.857
  489.250   16.970    0.240    0.381   81.369
  489.500   18.902    0.234    0.404   71.789
  489.750   21.214    0.273    0.423   63.846
  490.000   22.581    0.297    0.410   57.660
  490.250   21.337    0.308    0.388   55.292
  490.500   16.814    0.306    0.372   61.894
  490.750   12.638    0.306    0.393   69.163
  491.000   10.906    0.296    0.387   75.947
  491.250    9.304    0.285    0.378   80.912
  491.500    8.433    0.279    0.366   84.302
  491.750    8.307    0.269    0.363   87.692
  492.000   11.011    0.259    0.374   89.082
  492.250   15.772    0.250    0.374   88.896
  492.500   23.198    0.262    0.372   83.317
  492.750   37.931    0.287    0.386   73.676
  493.000   52.315    0.305    0.400   60.703
  493.250   62.141    0.318    0.390   43.668
  493.500   55.269    0.330    0.385   36.573
  493.750   35.846    0.342    0.390   39.539
  494.000   28.678    0.341    0.400   44.200
  494.250   23.471    0.334    0.409   46.985
  494.500   20.718    0.328    0.413   50.860
  494.750   18.707    0.319    0.399   54.917
  495.000   16.389    0.309    0.383   60.003
  495.250   14.632    0.298    0.369   64.606
  495.500   13.490    0.292    0.373   69.086
  495.750   12.722    0.278    0.372   71.931
  496.000   11.886    0.258    0.359   74.472
  496.250   11.273    0.241    0.349   75.983
  496.500   11.576    0.237    0.384   74.828
  496.750   12.557    0.270    0.443   66.157
  497.000   15.144    0.265    0.437   57.547
  497.250   17.651    0.217    0.391   50.451
  497.500   22.106   -0.058    0.223   46.751
  497.750   20.458   -0.087    0.198   51.838
  498.000   16.712   -0.020    0.318   70.985
  498.250   14.640    0.053    0.339   87.647
  498.500   12.538    0.170    0.346   94.432
  498.750   10.922    0.174    0.310   97.155
  499.000    9.514    0.161    0.294  100.121
  499.250    8.772    0.150    0.353  103.086
  499.500    8.511    0.165    0.368  105.143
  499.750    7.414    0.163    0.374  106.896
  500.000    6.694    0.159    0.381   95.317
  500.250    8.773    0.196    0.395   80.888
  500.500   10.823    0.253    0.404   73.127
  500.750   11.896    0.310    0.395   67.547
  501.000   12.079    0.294    0.381   69.361
  501.250   12.056    0.272    0.363   79.175
  501.500   11.742    0.251    0.352   87.656
  501.750   10.365    0.233    0.338   87.833
  502.000    9.466    0.222    0.332   82.193
  502.250    8.995    0.223    0.325   75.947
  502.500    8.761    0.237    0.319   81.458
  502.750    8.777    0.222    0.330   90.424
  503.000    8.861    0.196    0.389   93.571
  503.250    8.929    0.178    0.393   80.961
  503.500    9.309    0.270    0.393   69.139
  503.750   10.607    0.304    0.397   57.014
  504.000   15.424    0.325    0.408   48.646
  504.250   19.949    0.328    0.409   44.884
  504.500   24.796    0.325    0.408   54.092
  504.750   27.671    0.319    0.407   65.906
  505.000   20.332    0.312    0.416   73.357
  505.250   15.723    0.304    0.420   76.504
  505.500   12.531    0.289    0.404   80.501
  505.750   10.752    0.246    0.388   93.951
  506.000    9.296    0.211    0.379  103.947
  506.250    7.991    0.174    0.373  112.670
  506.500    7.437    0.157    0.369  118.060
  506.750    7.368    0.163    0.364  117.147
  507.000    7.299    0.165    0.377  117.567
  507.250    7.230    0.162    0.374  115.321
  507.500    7.149    0.161    0.387  107.619
  507.750    7.231    0.149    0.393  102.646
  508.000    7.510    0.129    0.371   99.491
  508.250    7.949    0.093    0.350  101.789
  508.500    8.147    0.105    0.336  105.179
  508.750    8.272    0.133    0.341  103.539
  509.000    8.288    0.144    0.346   98.262
  509.250    8.367    0.145    0.354   94.561
  509.500    8.608    0.155    0.363   91.587
  509.750    9.111    0.164    0.373   90.674
  510.000    9.534    0.169    0.382   86.489
  510.250   10.149    0.197    0.397   73.878
  510.500   10.947    0.242    0.412   70.177
  510.750   12.170    0.254    0.422   68.719
  511.000   13.378    0.263    0.410   54.351
  511.250   15.071    0.279    0.398   47.559
  511.500   16.914    0.293    0.401   42.889
  511.750   18.175    0.304    0.404   41.551
  512.000   18.005    0.308    0.397   42.578
  512.250   17.469    0.300    0.389   45.967
  512.500   16.320    0.288    0.382   49.418
  512.750   14.571    0.277    0.379   51.474
  513.000   13.282    0.268    0.387   50.077
  513.250   12.084    0.261    0.395   48.921
  513.500   11.570    0.287    0.385   49.947
  513.750   11.226    0.293    0.370   53.398
  514.000   11.506    0.272    0.362   57.575
  514.250   12.018    0.261    0.394   58.905
  514.500   12.341    0.301    0.405   55.688
  514.750   12.319    0.305    0.390   53.745
  515.000   11.929    0.297    0.377   55.195
  515.250   10.998    0.274    0.363   58.161
  515.500   10.159    0.255    0.342   65.551
  515.750    9.296    0.237    0.357   69.305
  516.000    8.684    0.289    0.409   59.301
  516.250    8.570    0.300    0.419   51.660
  516.500    8.669    0.299    0.399   50.990
  516.750    8.768    0.287    0.391   54.864
  517.000    8.588    0.286    0.404   51.224
  517.250    7.755    0.310    0.391   49.584
