~VERSION INFORMATION
 VERS.                 2.0:   CWLS LOG ASCII STANDARD -VERSION 2.0
 WRAP.                  NO:   ONE LINE PER DEPTH STEP
~WELL INFORMATION BLOCK
#MNEM.UNIT           DATA                    DESCRIPTION OF MNEMONIC
#---------    -------------------            -------------------------------
# Generated from Intellog Unique Number	CS_69_70/WELL/870
WELL.         ET AL HEART LAKE               : Well_name    - WELL
LOC .         00/10-21-069-09W4/0            : Location     - LOCATION
UWI .         00/10-21-069-09W4/0            : Uwi          - UNIQUE WELL ID
ENTR.         SP                             : Entered      - ENTERED BY
SRVC.         SCHLUMBERGER                   : Scn          - SERVICE COMPANY
STRT.M        375                            : top_depth    - START DEPTH
STOP.M        590                            : bot_depth    - STOP DEPTH
STEP.M        0.25                           : increment    - STEP LENGTH
 NULL. -999.2500:NULL Value
~CURVE INFORMATION BLOCK
#MNEM UNIT       ERCB CURVE CODE    CURVE DESCRIPTION
#-----------   ------------------   ----------------------------------
DEPT.M        00 001 00 00         : DEPTH        - DEPTH
GR  .API      00 310 00 00         : GR           - GAMMA RAY
NPHI.V/V      00 330 00 00         : PHIN         - NEUTRON POROSITY (LIMESTONE)
DPHI.V/V      00 890 00 00         : PHID         - DENSITY POROSITY (LIMESTONE)
ILD .OHMM     00 120 00 00         : RESD         - DEEP RESISTIVITY (DIL)
~PARAMETER INFORMATION
#MNEM.UNIT           DATA             DESCRIPTION OF MNEMONIC
#---------         -----------     ------------------------------
GL  .M        706.23               : gl           - GROUND LEVEL ELEVATION
EREF.M        709                  : kb           - ELEVATION OF DEPTH REFERENCE
DATM.M        706.23               : datum        - DATUM ELEVATION
TDD .M        600                  : tdd          - TOTAL DEPTH DRILLER
RUN .         ONE                  : Run          - RUN NUMBER
ENG .         BILL                 : Engineer     - RECORDING ENGINEER
WIT .         JIM                  : Witness      - WITNESSED BY
MUD .         GEL                  : Mud_type     - MUD TYPE
MATR.         LIMESTONE            : Logunit      - NEUTRON MATRIX
TMAX.C        17.7                 : BHT          - MAXIMUM RECORDED TEMPERATURE
BHTD.M        600                  : BHTDEP       - MAXIMUM RECORDED TEMPERATURE
MATR.         1                    : LOGUNIT      - NEUTRON MATRIX
RMT .C        25                   : MDTP         - TEMPERATURE OF MUD
NEUT.         1                    : NEUTRON      - NEUTRON TYPE
RESI.         0                    : RESIST       - RESISTIVITY TYPE
RMC .OHMM     0.25                 : RMC          - RESISTIVITY OF MUD CAKE
RMF .OHMM     0.25                 : RMF          - RESISTIVITY OF MUD FILTRATE
SUFT.C        15                   : SUFT         - SURFACE TEMPERATURE
~A  DEPTH       GR     PHIN     PHID     RESD
  375.000   99.840    0.496    0.223    2.794
  375.250   99.720    0.514    0.210    2.863
  375.500  100.341    0.535    0.204    3.002
  375.750  108.155    0.530    0.206    3.100
  376.000  105.579    0.510    0.214    3.171
  376.250  100.546    0.507    0.215    3.237
  376.500   98.522    0.515    0.214    3.343
  376.750   97.484    0.475    0.207    3.458
  377.000  104.315    0.462    0.206    3.478
  377.250  106.287    0.470    0.207    3.453
  377.500  101.622    0.482    0.213    3.395
  377.750  104.579    0.492    0.218    3.251
  378.000  106.983    0.490    0.218    3.185
  378.250  105.822    0.489    0.214    3.011
  378.500  102.571    0.499    0.212    2.905
  378.750  101.901    0.514    0.218    2.782
  379.000  103.750    0.534    0.224    2.751
  379.250  105.232    0.515    0.229    2.757
  379.500  103.702    0.499    0.222    2.762
  379.750  104.140    0.487    0.212    2.863
  380.000  105.866    0.490    0.219    2.951
  380.250  109.377    0.523    0.229    2.985
  380.500  111.965    0.525    0.236    2.996
  380.750  109.205    0.530    0.240    3.002
  381.000  105.093    0.534    0.233    3.048
  381.250  101.104    0.517    0.226    3.106
  381.500   98.528    0.501    0.226    3.178
  381.750   97.367    0.497    0.233    3.196
  382.000  101.554    0.514    0.237    3.202
  382.250  108.691    0.521    0.230    3.173
  382.500  113.862    0.484    0.227    3.073
  382.750  109.257    0.490    0.210    3.022
  383.000  104.529    0.495    0.201    3.005
  383.250  101.769    0.491    0.196    2.905
  383.500  102.575    0.506    0.196    2.852
  383.750   94.405    0.517    0.222    2.972
  384.000   77.076    0.500    0.261    3.328
  384.250   61.160    0.482    0.339    3.761
  384.500   50.655    0.401    0.353    5.026
  384.750   44.882    0.150    0.362    6.704
  385.000   41.261    0.138    0.371   11.484
  385.250   39.485    0.137    0.369   15.964
  385.500   42.995    0.150    0.361   20.622
  385.750   43.063    0.166    0.365   27.401
  386.000   41.902    0.166    0.357   32.954
  386.250   52.545    0.178    0.349   36.073
  386.500   54.517    0.191    0.363   34.418
  386.750   55.445    0.192    0.376   28.625
  387.000   61.538    0.202    0.386   23.276
  387.250   64.987    0.241    0.353   17.921
  387.500   64.994    0.318    0.343   14.517
  387.750   64.262    0.357    0.329   10.989
  388.000   68.081    0.380    0.303    8.622
  388.250   76.078    0.394    0.274    7.293
  388.500   89.179    0.384    0.256    6.310
  388.750   91.892    0.375    0.243    5.953
  389.000   90.299    0.376    0.243    5.987
  389.250   97.190    0.389    0.223    5.876
  389.500  107.033    0.406    0.203    5.822
  389.750  110.727    0.422    0.207    5.757
  390.000  110.549    0.422    0.214    5.682
  390.250  109.204    0.420    0.201    5.683
  390.500  109.579    0.425    0.210    5.662
  390.750  109.401    0.434    0.219    5.727
  391.000  107.072    0.428    0.233    5.803
  391.250  106.709    0.438    0.238    5.804
  391.500  110.835    0.450    0.218    5.794
  391.750  110.471    0.416    0.209    5.762
  392.000   96.646    0.395    0.195    5.751
  392.250   85.095    0.374    0.251    6.155
  392.500   80.737    0.367    0.283    6.380
  392.750   83.633    0.376    0.306    6.588
  393.000   90.586    0.390    0.308    6.576
  393.250   92.436    0.402    0.292    6.382
  393.500   85.435    0.370    0.278    6.010
  393.750   77.450    0.348    0.263    5.756
  394.000   71.493    0.337    0.255    5.888
  394.250   66.398    0.324    0.292    6.254
  394.500   62.100    0.314    0.316    6.580
  394.750   57.004    0.279    0.341    6.821
  395.000   53.569    0.275    0.348    6.808
  395.250   62.796    0.317    0.333    6.558
  395.500   71.655    0.336    0.314    6.222
  395.750   80.083    0.348    0.286    5.771
  396.000   88.328    0.358    0.236    5.363
  396.250   98.477    0.387    0.141    5.117
  396.500  110.348    0.410    0.125    4.792
  396.750  108.387    0.441    0.106    4.712
  397.000  113.005    0.467    0.088    4.624
  397.250  117.253    0.459    0.130    4.599
  397.500  120.886    0.480    0.155    4.582
  397.750  123.659    0.495    0.177    4.565
  398.000  127.846    0.495    0.183    4.515
  398.250  131.294    0.505    0.182    4.448
  398.500  133.391    0.524    0.183    4.341
  398.750  131.984    0.540    0.186    4.196
  399.000  130.576    0.551    0.227    4.057
  399.250  123.513    0.515    0.239    2.843
  399.500  100.466    0.408    0.236    2.703
  399.750   73.915    0.372    0.297    3.557
  400.000   52.467    0.328    0.323    6.797
  400.250   48.661    0.304    0.375    8.329
  400.500   58.136    0.296    0.380    9.886
  400.750   64.043    0.332    0.353   10.801
  401.000   66.324    0.376    0.335    9.559
  401.250   56.372    0.406    0.310    9.069
  401.500   48.449    0.385    0.351    7.472
  401.750   43.229    0.377    0.358    6.501
  402.000   40.161    0.408    0.342    5.775
  402.250   50.927    0.416    0.336    5.159
  402.500   57.204    0.409    0.335    4.732
  402.750   62.128    0.403    0.346    4.456
  403.000   60.966    0.397    0.349    4.308
  403.250   59.743    0.392    0.333    4.284
  403.500   61.471    0.392    0.327    4.341
  403.750   63.813    0.402    0.333    4.391
  404.000   59.701    0.404    0.339    4.408
  404.250   53.314    0.397    0.338    4.442
  404.500   50.923    0.397    0.330    4.493
  404.750   47.732    0.403    0.334    4.519
  405.000   45.464    0.407    0.340    4.519
  405.250   44.118    0.390    0.345    4.519
  405.500   45.538    0.386    0.336    4.537
  405.750   47.942    0.395    0.324    4.555
  406.000   51.208    0.385    0.322    4.598
  406.250   52.996    0.385    0.331    4.616
  406.500   55.216    0.397    0.327    4.616
  406.750   56.882    0.405    0.318    4.591
  407.000   58.487    0.410    0.313    4.583
  407.250   61.690    0.394    0.323    4.566
  407.500   66.923    0.388    0.333    4.541
  407.750   74.059    0.391    0.341    4.499
  408.000   82.980    0.390    0.338    4.474
  408.250   93.191    0.388    0.326    4.474
  408.500   91.600    0.398    0.318    4.492
  408.750   73.901    0.423    0.324    4.586
  409.000   62.472    0.441    0.330    4.700
  409.250   50.614    0.435    0.332    4.890
  409.500   65.006    0.419    0.324    5.040
  409.750   68.271    0.409    0.314    5.136
  410.000   65.819    0.418    0.311    5.264
  410.250   62.690    0.423    0.324    5.364
  410.500   63.371    0.425    0.331    5.508
  410.750   76.964    0.412    0.336    5.667
  411.000   89.266    0.416    0.320    5.851
  411.250   94.989    0.436    0.290    6.019
  411.500   97.701    0.445    0.274    6.193
  411.750   96.908    0.435    0.265    6.263
  412.000   95.685    0.426    0.258    6.241
  412.250  105.344    0.430    0.245    6.171
  412.500  111.374    0.439    0.233    6.137
  412.750  107.507    0.459    0.250    6.092
  413.000   93.313    0.465    0.270    6.013
  413.250   87.479    0.450    0.291    5.957
  413.500   86.810    0.446    0.291    5.857
  413.750   93.394    0.449    0.294    5.781
  414.000  106.371    0.431    0.285    5.663
  414.250  113.140    0.420    0.258    5.445
  414.500  119.724    0.455    0.235    5.294
  414.750  119.609    0.477    0.221    5.186
  415.000  115.804    0.494    0.229    5.109
  415.250  113.043    0.499    0.223    5.090
  415.500  112.127    0.489    0.218    5.071
  415.750  113.302    0.476    0.216    5.053
  416.000  114.292    0.467    0.220    5.025
  416.250  113.622    0.478    0.231    5.035
  416.500  110.555    0.481    0.229    5.045
  416.750  108.225    0.466    0.222    5.055
  417.000  107.063    0.474    0.243    5.103
  417.250  103.198    0.501    0.262    5.300
  417.500  100.007    0.519    0.277    5.672
  417.750   97.800    0.523    0.286    6.047
  418.000   97.561    0.512    0.288    6.256
  418.250  100.272    0.495    0.284    6.424
