~VERSION INFORMATION
 VERS.                 2.0:   CWLS LOG ASCII STANDARD -VERSION 2.0
 WRAP.                  NO:   ONE LINE PER DEPTH STEP
~WELL INFORMATION BLOCK
#MNEM.UNIT           DATA                    DESCRIPTION OF MNEMONIC
#---------    -------------------            -------------------------------
# Generated from Intellog Unique Number	CN_91_93/WELL/1076
WELL.         PETRO CANADA                   : Well_name    - WELL
LOC .         00/10-01-091-18W4/0            : Location     - LOCATION
UWI .         00/10-01-091-18W400            : Uwi          - UNIQUE WELL ID
ENTR.         JOETTE                         : Entered      - ENTERED BY
SRVC.         SCHLUMBERGER                   : Scn          - SERVICE COMPANY
DATE.         02/04/92                       : Date         - LOG DATE
STRT.F        196.85                         : top_depth    - START DEPTH
STOP.F        780.84                         : bot_depth    - STOP DEPTH
STEP.F        0.821                          : increment    - STEP LENGTH
 NULL. -999.2500:NULL Value
~CURVE INFORMATION BLOCK
#MNEM UNIT       ERCB CURVE CODE    CURVE DESCRIPTION
#-----------   ------------------   ----------------------------------
DEPT.F        00 001 00 00         : DEPTH        - DEPTH
ILD .OHMM     00 120 00 00         : RESD         - DEEP RESISTIVITY (DIL)
DPHI.V/V      00 890 00 00         : PHID         - DENSITY POROSITY (SANDSTONE)
NPHI.V/V      00 330 00 00         : PHIN         - NEUTRON POROSITY (SANDSTONE)
CALI.IN       00 280 01 00         : CAL          - CALIPER
GR  .API      00 310 00 00         : GR           - GAMMA RAY
~PARAMETER INFORMATION
#MNEM.UNIT           DATA             DESCRIPTION OF MNEMONIC
#---------         -----------     ------------------------------
GL  .F        1663.06              : gl           - GROUND LEVEL ELEVATION
EREF.F        1673.88              : kb           - ELEVATION OF DEPTH REFERENCE
DATM.F        1673.88              : datum        - DATUM ELEVATION
TDD .F        807.087              : tdd          - TOTAL DEPTH DRILLER
RUN .         ONE                  : Run          - RUN NUMBER
ENG .         BILL                 : Engineer     - RECORDING ENGINEER
WIT .         JIM                  : Witness      - WITNESSED BY
MUD .         GEL                  : Mud_type     - MUD TYPE
MATR.         SANDSTONE            : Logunit      - NEUTRON MATRIX
TMAX.F        77                   : BHT          - MAXIMUM RECORDED TEMPERATURE
BHTD.F        807.087              : BHTDEP       - MAXIMUM RECORDED TEMPERATURE
RMT .F        53.6                 : MDTP         - TEMPERATURE OF MUD
MUDD.LB/G     9.58333              : MWT          - MUD DENSITY
NEUT.         1                    : NEUTRON      - NEUTRON TYPE
RESI.         0                    : RESIST       - RESISTIVITY TYPE
RM  .OHMM     2.6                  : RM           - RESISTIVITY OF MUD
RMC .OHMM     2.6                  : RMC          - RESISTIVITY OF MUD CAKE
RMF .OHMM     2.6                  : RMF          - RESISTIVITY OF MUD FILTRATE
SUFT.F        39.2                 : SUFT         - SURFACE TEMPERATURE
~A  DEPTH     RESD     PHID     PHIN      CAL       GR
# ...
  675.853   22.083    0.228    0.417    6.536   93.615
  676.673   19.863    0.232    0.427    6.438   96.574
  677.493   17.204    0.227    0.437    6.456   93.288
  678.314   15.948    0.225    0.437    6.533   93.866
  679.134   15.354    0.232    0.419    6.551   93.259
  679.954   14.559    0.238    0.407    6.590   92.946
  680.774   13.807    0.243    0.421    6.628   96.798
  681.594   13.700    0.246    0.465    6.608  100.055
  682.415   15.109    0.251    0.455    6.548   98.250
  683.235   17.836    0.269    0.434    6.527   94.670
  684.055   21.700    0.286    0.377    6.527   88.112
  684.875   25.810    0.314    0.329    6.506   78.878
  685.696   27.409    0.318    0.302    6.427   75.590
  686.516   26.994    0.291    0.368    6.387   82.715
  687.336   26.382    0.238    0.371    6.425   86.864
  688.156   25.591    0.217    0.371    6.502   87.738
  688.976   25.584    0.179    0.381    6.540   84.751
  689.797   32.571    0.155    0.364    6.539   80.573
  690.617   39.928    0.160    0.299    6.402   76.097
  691.437   41.141    0.211    0.296    6.225   71.621
  692.257   42.715    0.242    0.302    6.087   67.736
  693.077   42.715    0.227    0.303    6.047   66.233
  693.898   44.667    0.292    0.295    6.125   65.627
  694.718   46.032    0.336    0.312    6.319   63.530
  695.538   47.792    0.323    0.387    6.474   60.839
  696.358   48.143    0.313    0.394    6.551   62.311
  697.178   43.961    0.302    0.397    6.511   66.758
  697.999   42.004    0.288    0.440    6.471   64.661
  698.819   57.666    0.302    0.436    6.470   58.401
  699.639   60.782    0.306    0.429    6.449   48.568
  700.459   58.515    0.306    0.392    6.468   41.715
  701.280   53.840    0.300    0.374    6.506   38.130
  702.100   45.243    0.287    0.353    6.544   40.792
  702.920   33.949    0.275    0.327    6.504   44.942
  703.740   28.100    0.268    0.336    6.464   54.147
  704.560   23.974    0.262    0.352    6.346   65.434
  705.381   22.225    0.253    0.373    6.325   74.936
  706.201   19.989    0.248    0.386    6.344   82.653
  707.021   20.754    0.248    0.368    6.363   78.772
  707.841   22.041    0.252    0.358    6.420   73.702
  708.661   23.764    0.260    0.319    6.478   68.927
  709.482   26.012    0.272    0.313    6.477   67.425
  710.302   31.649    0.278    0.296    6.437   63.842
  711.122   39.685    0.261    0.274    6.319   60.556
  711.942   44.436    0.248    0.275    6.318   58.756
  712.762   49.380    0.252    0.272    6.414   55.766
  713.583   55.708    0.309    0.270    6.511   51.587
  714.403   56.971    0.309    0.274    6.569   48.599
  715.223   55.263    0.300    0.310    6.607   47.394
  716.043   52.402    0.285    0.316    6.625   46.190
  716.864   49.318    0.272    0.323    6.605   58.369
  717.684   46.417    0.266    0.365    6.545   64.005
  718.504   42.064    0.281    0.385    6.466   65.774
  719.324   40.804    0.303    0.389    6.406   62.488
  720.144   41.103    0.303    0.386    6.406   56.228
  720.965   44.651    0.305    0.365    6.345   48.778
  721.785   47.424    0.311    0.368    6.286   41.028
  722.605   54.316    0.317    0.374    6.266   37.741
  723.425   60.359    0.316    0.372    6.285   38.321
  724.245   80.399    0.314    0.371    6.342   40.688
  725.066   85.386    0.313    0.376    6.380   43.944
  725.886   92.757    0.314    0.374    6.360   49.580
  726.706   97.036    0.314    0.367    6.300   46.889
  727.526   97.748    0.311    0.367    6.280   46.278
  728.346   96.987    0.310    0.369    6.278   47.453
  729.167   91.282    0.313    0.368    6.297   49.520
  729.987   85.261    0.318    0.367    6.296   47.720
  730.807   85.241    0.316    0.366    6.315   45.325
  731.627   85.864    0.314    0.370    6.294   43.821
  732.448   87.152    0.317    0.379    6.274   44.403
  733.268   91.170    0.321    0.391    6.274   44.386
  734.088   91.148    0.321    0.390    6.272   43.777
  734.908   91.124    0.321    0.391    6.232   43.766
  735.728   91.099    0.323    0.398    6.231   43.749
  736.549   89.718    0.323    0.391    6.230   42.844
  737.369   81.923    0.323    0.376    6.230   43.123
  738.189   75.370    0.324    0.368    6.267   44.595
  739.009   76.499    0.330    0.374    6.285   45.174
  739.829   76.499    0.330    0.391    6.304   44.269
  740.650   77.044    0.329    0.394    6.303   43.958
  741.470   81.210    0.330    0.380    6.302   45.431
  742.290   84.951    0.332    0.374    6.301   45.117
  743.110   88.202    0.332    0.371    6.280   43.914
  743.930   91.568    0.332    0.372    6.260   43.591
  744.751   92.945    0.329    0.374    6.259   42.695
  745.571   95.049    0.333    0.397    6.258   42.976
  746.391   94.312    0.330    0.393    6.316   42.364
  747.211   93.574    0.332    0.391    6.334   41.456
  748.031   91.462    0.334    0.398    6.392   42.634
  748.852   85.429    0.330    0.395    6.449   38.751
  749.672   84.131    0.322    0.388    6.487   35.170
  750.492   85.386    0.320    0.405    6.408   36.343
  751.312   87.986    0.320    0.422    6.310   37.220
  752.133   88.629    0.320    0.407    6.289   36.910
  752.953   84.680    0.320    0.384    6.288   35.704
  753.773   81.523    0.322    0.356    6.287   36.282
  754.593   67.995    0.323    0.359    6.325   39.838
  755.413   57.142    0.314    0.373    6.363   46.069
  756.234   40.362    0.291    0.360    6.460   54.680
  757.054   34.434    0.254    0.365    6.518   87.082
  757.874   34.425    0.239    0.379    6.556   92.122
  758.694   34.158    0.238    0.383    6.574   93.596
  759.514   32.883    0.230    0.386    6.593   95.960
  760.335   31.899    0.205    0.370    6.592   99.217
  761.155   31.891    0.203    0.363    6.591   98.608
  761.975   33.615    0.192    0.371    6.609   95.318
  762.795   37.071    0.152    0.381    6.628   90.844
  763.615   37.626    0.102    0.352    6.646   85.771
  764.436   35.147    0.143    0.342    6.684   83.675
  765.256   32.337    0.186    0.355    6.683   86.933
  766.076   28.650    0.204    0.366    6.682   91.378
  766.896   27.373    0.208    0.362    6.662   95.528
  767.717   26.553    0.202    0.360    6.642  100.272
  768.537   26.147    0.206    0.373    6.621  107.395
  769.357   26.141    0.196    0.392    6.620  111.544
  770.177   26.135    0.193    0.389    6.619  114.204
  770.997   25.933    0.198    0.384    6.618  116.269
  771.818   25.538    0.197    0.387    6.617  117.745
  772.638   25.339    0.192    0.394    6.577  119.218
  773.458   26.309    0.173    0.397    6.596  120.686
  774.278   32.495    0.150    0.411    6.575  121.565
  775.098   38.943   -0.002    0.203    6.438  121.846
  775.919   55.522   -0.017    0.176    6.300  121.832
  776.739   67.554    0.000    0.132    6.435  120.926
  777.559   77.958    0.010    0.134    6.571  119.125
  778.379   73.926    0.017    0.150    6.629  117.626
  779.199   58.037    0.019    0.159    6.589  117.609
  780.020   54.625    0.024    0.170    6.529  117.297
  780.840   50.258    0.043    0.179    6.528  116.689
