~VERSION INFORMATION
 VERS.                 2.0:   CWLS LOG ASCII STANDARD -VERSION 2.0
 WRAP.                  NO:   ONE LINE PER DEPTH STEP
~WELL INFORMATION BLOCK
#MNEM.UNIT           DATA                    DESCRIPTION OF MNEMONIC
#---------    -------------------            -------------------------------
# Generated from Intellog Unique Number	CW_70_72/WELL/3306
NULL.         -999.25                        : NULL_VALUE
WELL.         CHEVRON SOBC MITSUE            : Well_name    - WELL              
LOC .         10-01-070-04W5                 : Location     - LOCATION          
UWI .         00/10-01-070-04W5/0            : Uwi          - UNIQUE WELL ID    
ENTR.         CAMPBELL                       : Entered      - ENTERED BY        
SRVC.         SCHLUMBERGER                   : Scn          - SERVICE COMPANY   
DATE.         06 SEP 66                      : Date         - LOG DATE
STRT.M        640.08                         : top_depth    - START DEPTH       
STOP.M        774.08                         : bot_depth    - STOP DEPTH        
STEP.M        0.25                           : increment    - STEP LENGTH       
~CURVE INFORMATION BLOCK
#MNEM UNIT       ERCB CURVE CODE    CURVE DESCRIPTION
#-----------   ------------------   ----------------------------------
DEPT.M        00 001 00 00         : DEPTH        - DEPTH                       
ILD .OHMM     00 120 00 00         : RESD         - DEEP RESISTIVITY (DIL)      
CALI.MM       00 280 01 00         : CAL          - CALIPER                     
GR  .API      00 310 00 00         : GR           - GAMMA RAY                   
DELT.US/F     00 520 00 00         : DELT         - SONIC TRAVEL TIME           
~PARAMETER INFORMATION       
#MNEM.UNIT           DATA             DESCRIPTION OF MNEMONIC
#---------         -----------     ------------------------------
GL  .M        665.5                : gl           - GROUND LEVEL ELEVATION      
EREF.M        669.493              : kb           - ELEVATION OF DEPTH REFERENCE
DATM.M        669.493              : datum        - DATUM ELEVATION             
TDD .M        1792.22              : tdd          - TOTAL DEPTH DRILLER         
RUN .         ONE                  : Run          - RUN NUMBER                  
ENG .         McNAUGHTON           : Engineer     - RECORDING ENGINEER          
WIT .         LINKE                : Witness      - WITNESSED BY                
MUD .         GEL                  : Mud_type     - MUD TYPE                    
MATR.         SANDSTONE            : Logunit      - NEUTRON MATRIX              
TMAX.C        50                   : BHT          - MAXIMUM RECORDED TEMPERATURE
BHTD.M        1792.22              : BHTDEP       - MAXIMUM RECORDED TEMPERATURE
RMT .C        25                   : MDTP         - TEMPERATURE OF MUD          
MUDD.KG/M     10000                : MWT          - MUD DENSITY                 
NEUT.         1                    : NEUTRON      - NEUTRON TYPE                
RESI.         0                    : RESIST       - RESISTIVITY TYPE            
RM  .OHMM     1.1                  : RM           - RESISTIVITY OF MUD          
RMC .OHMM     1.34                 : RMC          - RESISTIVITY OF MUD CAKE     
RMF .OHMM     0.93                 : RMF          - RESISTIVITY OF MUD FILTRATE 
SUFT.C        15                   : SUFT         - SURFACE TEMPERATURE         
~A  DEPTH     RESD      CAL       GR     DELT
  640.080    1.514  252.508   48.675  328.330
  640.330    1.528  248.974   48.217  331.270
  640.580    1.556  242.384   46.805  352.636
  640.830    1.585  231.712   45.870  357.877
  641.080    1.600  229.713   45.179  360.812
  641.330    1.615  232.310   44.480  363.423
  641.580    1.645  234.392   44.736  365.370
  641.830    1.660  232.898   46.902  364.030
  642.080    1.691  230.388   46.444  365.322
  642.330    1.707  236.556   47.182  365.959
  642.580    1.722  235.067   46.962  364.615
  642.830    1.738  236.134   46.505  363.604
  643.080    1.739  230.559   46.526  364.238
  643.330    1.755  228.560   46.307  364.875
  643.580    1.755  231.157   46.324  365.838
  643.830    1.771  233.743   46.346  366.466
  644.080    1.787  234.805   45.888  366.444
  644.330    1.804  230.765   46.146  367.404
  644.580    1.838  230.296   45.926  368.370
  644.830    1.872  233.398   45.946  367.685
  645.080    1.907  234.975   46.919  366.015
  645.330    1.925  236.552   46.939  364.675
  645.580    1.925  235.063   47.199  365.312
  645.830    1.942  233.569   47.216  368.249
  646.080    1.979  232.079   48.428  367.567
  646.330    2.053  229.060   47.493  367.214
  646.580    2.130  228.591   46.322  366.857
  646.830    2.231  229.148   46.580  367.820
  647.080    2.401  231.230   47.315  369.768
  647.330    2.585  233.316   47.809  369.414
  647.580    3.254  234.368   48.308  370.374
  647.830    3.949  232.374   48.089  371.344
  648.080    4.618  231.400   48.349  370.003
  648.330    5.451  234.502   48.604  371.618
  648.580    6.376  235.053   49.101  372.587
  648.830    7.121  238.660   51.029  370.912
  649.080    6.991  264.212   52.005  369.245
  649.330    6.202  260.688   53.692  363.956
  649.580    5.065  253.072   55.861  356.692
  649.830    4.494  256.684   57.311  346.795
  650.080    4.023  265.908   55.184  342.487
  650.330    3.409  274.116   51.386  343.124
  650.580    2.836  264.460   49.499  344.745
  650.830    2.539  262.971   50.234  343.401
  651.080    2.359  257.406   51.926  340.090
  651.330    2.253  252.851   52.897  335.458
  651.580    2.212  244.730   50.767  324.900
  651.830    2.212  234.575   51.025  309.739
  652.080    2.295  244.813   47.704  283.385
  652.330    2.403  246.895   43.429  259.994
  652.580    2.493  239.284   44.403  257.337
  652.830    2.540  235.250   47.048  270.147
  653.080    2.563  234.271   48.261  274.068
  653.330    2.563  232.282   48.280  263.188
  653.580    2.493  230.793   47.584  243.745
  653.830    2.274  229.809   43.547  217.720
  654.080    2.172  229.335   40.942  212.431
  654.330    2.132  228.366   43.111  208.787
  654.580    2.132  227.892   43.367  206.785
  654.830    2.192  227.418   32.889  206.435
  655.080    2.360  226.949   37.441  213.321
  655.330    2.564  226.481   39.130  225.473
  655.580    2.735  226.527   36.048  246.513
  655.830    2.864  225.548   41.078  280.057
  656.080    2.890  226.610   44.439  312.283
  656.330    2.864  228.691   47.560  332.006
  656.580    2.786  229.753   48.059  346.461
  656.830    2.636  236.426   50.223  353.016
  657.080    2.518  247.689   49.288  346.742
  657.330    2.382  254.367   45.016  329.603
  657.580    2.361  261.550   45.510  306.872
  657.830    2.339  262.102   49.110  288.746
  658.080    2.339  255.511   51.040  299.252
  658.330    2.383  248.926   54.158  304.493
  658.580    2.427  251.008   55.848  324.546
  658.830    2.472  254.615   56.346  340.646
  659.080    2.542  261.288   55.889  346.213
  659.330    2.613  265.925   52.804  348.822
  659.580    2.662  269.542   48.052  345.839
  659.830    2.711  273.665   48.310  341.534
  660.080    2.787  279.312   50.718  338.219
  660.330    2.866  282.934   50.737  336.546
  660.580    2.919  283.475   50.756  331.918
  660.830    2.973  284.547   51.968  332.220
  661.080    3.029  284.073   50.559  327.591
  661.330    3.114  283.604   46.999  321.973
  661.580    3.143  283.656   45.108  315.035
  661.830    3.201  283.692   73.281  309.416
  662.080    3.231  283.733   52.781  306.101
  662.330    3.261  284.280   53.041  308.381
  662.580    3.291  285.346   56.400  314.938
  662.830    3.291  286.408   56.181  320.179
  663.080    3.291  286.959   53.817  321.471
  663.330    3.291  284.445   52.880  329.345
  663.580    3.322  281.941   53.138  331.295
  663.830    3.353  282.487   51.248  329.952
  664.080    3.415  283.553   54.133  329.269
  664.330    3.447  286.145   55.822  324.970
  664.580    3.511  287.717   55.128  326.259
  664.830    3.544  287.758   55.625  326.232
  665.080    3.610  287.815   59.697  328.840
  665.330    3.677  287.841   58.285  329.145
  665.580    3.711  287.372   61.647  326.491
  665.830    3.746  287.418   66.674  322.515
  666.080    3.816  287.454   73.853  319.203
  666.330    3.816  286.991   80.552  314.237
  666.580    3.851  286.527   62.440  312.241
  666.830    3.887  286.053   55.777  303.332
  667.080    3.887  283.544   56.991  305.279
  667.330    3.887  280.020   55.579  308.220
  667.580    3.781  282.611   60.373  318.068
  667.830    3.611  280.102   59.674  326.271
  668.080    3.417  283.204   62.317  328.879
  668.330    3.264  285.791   62.814  328.197
  668.580    3.088  286.857   64.028  325.211
  668.830    3.004  286.899   64.527  320.250
  669.080    2.949  286.935   67.407  316.274
  669.330    2.949  287.496   69.335  314.931
  669.580    2.950  287.538   68.638  314.577
  669.830    2.950  287.574   72.477  314.227
  670.080    2.923  287.620   69.157  314.532
  670.330    2.870  287.656   66.788  314.179
  670.580    2.817  287.703   70.150  312.838
  670.830    2.791  287.744   65.395  311.169
  671.080    2.843  287.785   62.551  308.841
  671.330    2.896  287.822   73.309  304.862
  671.580    2.950  287.863   72.617  302.534
  671.830    2.923  287.914   71.200  300.864
  672.080    2.844  287.951   68.595  301.827
  672.330    2.792  287.487   70.046  301.803
  672.580    2.691  287.023   71.020  301.779
  672.830    2.594  286.554   70.564  302.416
  673.080    2.547  286.596   68.911  306.011
  673.330    2.523  286.627   72.991  314.543
  673.580    2.500  286.673   71.577  327.353
  673.830    2.500  286.714   68.733  339.505
  674.080    2.524  286.761   75.671  341.455
  674.330    2.547  286.802   71.876  332.217
  674.580    2.571  286.848   69.507  329.231
  674.830    2.619  286.879   64.516  324.928
  675.080    2.692  286.931   67.876  329.182
  675.330    2.692  286.967   69.329  334.423
  675.580    2.692  285.988   65.290  339.006
  675.830    2.692  285.004   62.926  339.311
  676.080    2.668  283.005   58.171  341.258
  676.330    2.619  282.026   54.374  340.576
  676.580    2.571  288.699   53.203  331.996
  676.830    2.525  289.760   54.889  324.732
  677.080    2.502  284.700   59.205  333.593
  677.330    2.479  291.894   69.722  344.099
  677.580    2.479  294.485   64.970  350.327
  677.830    2.456  295.032   63.081  347.999
  678.080    2.456  295.593   62.625  343.365
  678.330    2.479  296.145   63.358  340.053
  678.580    2.502  296.181   68.628  340.355
  678.830    2.525  297.237   68.888  341.321
  679.080    2.644  298.299   69.385  343.597
  679.330    2.744  299.881   66.064  343.902
  679.580    2.821  300.937   65.127  343.549
  679.830    2.847  301.493   65.148  342.208
  680.080    2.847  299.489   62.541  338.232
  680.330    2.847  299.541   59.459  338.537
  680.580    2.795  300.597   63.057  343.123
  680.830    2.770  302.174   64.510  352.642
  681.080    2.694  303.735   65.009  355.580
  681.330    2.645  304.287   66.219  358.843
  681.580    2.573  304.843   62.662  360.796
  681.830    2.526  304.884   61.488  356.494
  682.080    2.480  304.416   59.361  353.179
  682.330    2.435  303.437   56.040  362.698
  682.580    2.391  301.948   59.161  359.383
  682.830    2.369  298.423   58.941  341.583
  683.080    2.326  293.868   60.869  333.993
  683.330    2.305  284.728   58.501  318.499
