~VERSION INFORMATION
 VERS.                 2.0:   CWLS LOG ASCII STANDARD -VERSION 2.0
 WRAP.                  NO:   ONE LINE PER DEPTH STEP
~WELL INFORMATION BLOCK
#MNEM.UNIT           DATA                    DESCRIPTION OF MNEMONIC
#---------    -------------------            -------------------------------
# Generated from Intellog Unique Number	CW_82_90/WELL/993
WELL.         11-09-082-19W4                 : Well_name    - WELL
LOC .         00/11-09-082-19W4/0            : Location     - LOCATION
UWI .         00/11-09-082-19W400            : Uwi          - UNIQUE WELL ID
ENTR.         JAYE                           : Entered      - ENTERED BY
SRVC.         SCHLUMBERGER                   : Scn          - SERVICE COMPANY
DATE.         8 MAR 74                       : Date         - LOG DATE
STRT.M        173.736                        : top_depth    - START DEPTH
STOP.M        365.736                        : bot_depth    - STOP DEPTH
STEP.M        0.25                           : increment    - STEP LENGTH
 NULL. -999.2500:NULL Value
~CURVE INFORMATION BLOCK
#MNEM UNIT       ERCB CURVE CODE    CURVE DESCRIPTION
#-----------   ------------------   ----------------------------------
DEPT.M        00 001 00 00         : DEPTH        - DEPTH
CALI.MM       00 280 01 00         : CAL          - CALIPER
GR  .API      00 310 00 00         : GR           - GAMMA RAY
NPHI.V/V      00 330 00 00         : PHIN         - NEUTRON POROSITY (SANDSTONE)
DPHI.V/V      00 890 00 00         : PHID         - DENSITY POROSITY (SANDSTONE)
ILD .OHMM     00 120 00 00         : RESD         - DEEP RESISTIVITY (DIL)
~PARAMETER INFORMATION
#MNEM.UNIT           DATA             DESCRIPTION OF MNEMONIC
#---------         -----------     ------------------------------
GL  .M        584.911              : gl           - GROUND LEVEL ELEVATION
EREF.M        588.264              : kb           - ELEVATION OF DEPTH REFERENCE
DATM.M        584.911              : datum        - DATUM ELEVATION
TDD .M        387.096              : tdd          - TOTAL DEPTH DRILLER
RUN .         ONE                  : Run          - RUN NUMBER
ENG .         BOYKO                : Engineer     - RECORDING ENGINEER
BASE.         EDMONTON             : Branch       - HOME BASE OF LOGGING UNIT
MATR.         SANDSTONE            : Logunit      - NEUTRON MATRIX
TMAX.C        30                   : BHT          - MAXIMUM RECORDED TEMPERATURE
BHTD.M        387.096              : BHTDEP       - MAXIMUM RECORDED TEMPERATURE
RMT .C        21.1111              : MDTP         - TEMPERATURE OF MUD
MUDD.KG/M     9000                 : MWT          - MUD DENSITY
NEUT.         0                    : NEUTRON      - NEUTRON TYPE
RESI.         0                    : RESIST       - RESISTIVITY TYPE
RM  .OHMM     2.07                 : RM           - RESISTIVITY OF MUD
RMC .OHMM     0                    : RMC          - RESISTIVITY OF MUD CAKE
RMF .OHMM     1.65                 : RMF          - RESISTIVITY OF MUD FILTRATE
SUFT.C        4                    : SUFT         - SURFACE TEMPERATURE
~A  DEPTH      CAL       GR     PHIN     PHID     RESD
# ...
  210.236  186.599   66.935    0.468    0.323   17.855
  210.486  185.756   71.277    0.475    0.330   18.299
  210.736  191.549   69.919    0.501    0.322   18.968
  210.986  199.723   65.928    0.527    0.318   20.056
  211.236  202.610   61.265    0.521    0.324   21.397
  211.486  204.773   60.460    0.514    0.334   22.541
  211.736  206.418   60.270    0.511    0.338   24.673
  211.986  208.993   59.159    0.534    0.342   31.416
  212.236  211.364   61.357    0.538    0.339   37.529
  212.486  213.629   60.920    0.554    0.338   37.636
  212.736  215.997   59.075    0.570    0.331   37.067
  212.986  217.331   60.108    0.543    0.333   35.841
  213.236  218.148   62.429    0.529    0.349   34.215
  213.486  218.647   64.197    0.544    0.347   32.667
  213.736  218.014   64.374    0.567    0.341   32.000
  213.986  216.856   63.876    0.572    0.343   30.548
  214.236  215.285   59.699    0.569    0.331   29.222
  214.486  214.547   57.363    0.554    0.324   27.390
  214.736  212.662   58.522    0.562    0.319   26.491
  214.986  211.404   60.536    0.550    0.332   25.618
  215.236  210.144   60.097    0.589    0.339   24.863
  215.486  208.991   60.337    0.631    0.338   23.956
  215.736  207.836   59.716    0.614    0.335   22.013
  215.986  206.681   60.076    0.589    0.341   20.189
  216.236  205.525   60.076    0.568    0.343   19.313
  216.486  204.576   61.407    0.546    0.340   18.372
  216.736  203.213   62.440    0.523    0.346   17.634
  216.986  202.266   66.539    0.548    0.346   17.495
  217.236  201.007   68.246    0.574    0.336   18.096
  217.486  199.229   65.049    0.598    0.329   18.788
  217.736  197.244   62.839    0.610    0.340   18.504
  217.986  195.674   61.851    0.583    0.337   17.828
  218.236  194.208   63.251    0.593    0.337   14.392
  218.486  192.327   64.225    0.593    0.336   13.996
  218.736  190.445   64.892    0.574    0.327   14.662
  218.986  188.460   65.680    0.589    0.324   15.702
  219.236  185.958   67.081    0.605    0.324   17.374
  219.486  183.661   65.416    0.578    0.298   18.572
  219.736  182.714   63.449    0.531    0.279   19.815
  219.986  182.386   62.769    0.494    0.253   21.030
  220.236  182.579   65.088    0.546    0.238   22.686
  220.486  182.668   67.346    0.603    0.348   24.337
  220.736  181.926   67.095    0.591    0.357   25.494
  220.986  180.981   65.066    0.603    0.359   25.061
  221.236  179.306   65.364    0.575    0.351   23.202
  221.486  177.735   66.457    0.487    0.342   18.665
  221.736  177.824   65.962    0.523    0.334   14.295
  221.986  179.053   68.099    0.541    0.331   12.102
  222.236  181.734   69.377    0.571    0.329   11.916
  222.486  184.623   69.736    0.588    0.323   12.528
  222.736  188.754   70.097    0.600    0.323   13.034
  222.986  192.782   70.334    0.563    0.323   15.515
  223.236  196.085   68.485    0.584    0.318   21.247
  223.486  198.974   66.764    0.539    0.320   27.500
  223.736  202.172   62.897    0.508    0.327   32.082
  223.986  205.578   58.047    0.487    0.328   32.467
  224.236  207.636   59.143    0.472    0.323   23.587
  224.486  208.452   66.305    0.462    0.307   16.978
  224.736  207.711   73.589    0.460    0.295    9.182
  224.986  207.281   78.361    0.483    0.290    6.502
  225.236  208.303   78.046    0.527    0.267    7.381
  225.486  209.325   72.156    0.550    0.262   10.218
  225.736  209.515   70.678    0.564    0.267   13.130
  225.986  209.604   64.665    0.519    0.299   15.829
  226.236  209.381   62.818    0.490    0.318   17.232
  226.486  209.264   62.994    0.485    0.331   16.814
  226.736  208.627   62.129    0.493    0.335   16.438
  226.986  207.473   60.526    0.504    0.334   15.327
  227.236  206.004   60.582    0.512    0.330   13.531
  227.486  204.850   62.780    0.504    0.323   12.434
  227.736  203.072   64.732    0.482    0.317   11.467
  227.986  201.189   63.499    0.467    0.325   11.007
  228.236  198.895   64.104    0.465    0.321   10.645
  228.486  196.704   64.583    0.465    0.322   10.237
  228.736  194.304   64.456    0.487    0.334    9.919
  228.986  191.800   64.019    0.516    0.337    9.453
  229.236  190.334   67.559    0.509    0.336    9.359
  229.486  188.659   67.741    0.483    0.331    9.317
  229.736  187.816   68.224    0.460    0.330    9.362
  229.986  186.557   69.258    0.454    0.333    9.441
  230.236  184.572   67.167    0.487    0.334    9.313
  230.486  183.000   67.282    0.512    0.332    9.089
  230.736  182.050   68.867    0.529    0.329    9.000
  230.986  181.831   69.716    0.540    0.321    9.208
  231.236  181.505   69.953    0.528    0.329    9.185
  231.486  181.075   69.637    0.502    0.339    9.027
  231.736  180.852   69.448    0.514    0.342    8.923
  231.986  180.424   69.195    0.489    0.337    8.820
  232.236  179.991   70.471    0.489    0.319    8.623
  232.486  179.563   70.471    0.474    0.312    8.187
  232.736  178.304   73.090    0.526    0.292    7.902
  232.986  176.422   72.962    0.498    0.317    8.190
  233.236  175.787   71.362    0.518    0.323    8.644
  233.486  175.771   69.945    0.532    0.309    8.940
  233.736  175.550   68.895    0.522    0.317    9.166
  233.986  175.843   68.895    0.551    0.314    9.413
  234.236  176.348   67.346    0.536    0.354    9.612
  234.486  176.849   66.482    0.555    0.356    9.835
  234.736  177.040   66.102    0.592    0.343   10.101
  234.986  177.132   66.712    0.579    0.347   10.353
  235.236  177.326   69.517    0.567    0.349   10.518
  235.486  176.998   70.250    0.573    0.354   10.587
  235.736  176.668   74.099    0.541    0.360   10.809
  235.986  176.555   67.348    0.546    0.353   10.844
  236.236  176.124   65.263    0.522    0.328   10.698
  236.486  175.070   52.447    0.523    0.333   10.630
  236.736  173.813   51.767    0.501    0.334   10.642
  236.986  172.450   52.372    0.501    0.340   10.810
  237.236  170.881   51.505    0.493    0.345   11.203
  237.486  169.311   51.743    0.486    0.347   11.608
  237.736  168.259   52.716    0.473    0.334   11.815
  237.986  166.890   53.934    0.452    0.336   12.001
  238.236  166.880   54.967    0.465    0.343   12.124
  238.486  166.967   55.204    0.473    0.335   12.248
  238.736  167.163   53.665    0.430    0.325   12.172
  238.986  167.557   50.961    0.485    0.323   12.094
  239.236  167.546   53.220    0.525    0.326   12.043
  239.486  167.842   52.661    0.539    0.333   11.991
  239.736  168.139   50.998    0.547    0.346   12.045
  239.986  168.228   50.684    0.509    0.342   12.212
  240.236  168.938   52.087    0.487    0.346   12.292
  240.486  170.270   53.917    0.459    0.350   12.263
  240.736  172.227   52.438    0.413    0.357   12.186
  240.986  177.085   51.266    0.448    0.353   12.090
  241.236  185.675   51.748    0.475    0.342   11.796
  241.486  194.784   50.270    0.485    0.329   11.639
  241.736  209.698   45.789    0.473    0.348   11.566
  241.986  217.459   44.924    0.484    0.349   11.580
  242.236  224.080   44.365    0.483    0.341   11.548
  242.486  224.996   41.047    0.473    0.329   11.497
  242.736  224.671   42.877    0.478    0.329   11.366
  242.986  226.523   44.157    0.488    0.354   11.233
  243.236  230.966   43.842    0.487    0.359   11.164
  243.486  232.609   42.916    0.480    0.361   11.236
  243.736  246.073   38.987    0.530    0.361   11.371
  243.986  239.733   40.078    0.521    0.384   11.405
  244.236  236.400   41.666    0.453    0.368   11.293
  244.486  236.282   43.558    0.487    0.351   11.021
  244.736  233.053   42.448    0.511    0.341   10.971
  244.986  229.617   39.498    0.530    0.342   11.024
  245.236  226.075   38.141    0.547    0.347   11.176
  245.486  225.647   37.706    0.490    0.338   11.311
  245.736  225.529   37.638    0.492    0.324   11.405
  245.986  226.032   38.178    0.509    0.309   11.524
  246.236  227.777   39.276    0.525    0.335   11.747
  246.486  228.696   40.858    0.537    0.339   11.869
