~VERSION INFORMATION
 VERS.                 2.0:   CWLS LOG ASCII STANDARD -VERSION 2.0
 WRAP.                  NO:   ONE LINE PER DEPTH STEP
~WELL INFORMATION BLOCK
#MNEM.UNIT           DATA                    DESCRIPTION OF MNEMONIC
#---------    -------------------            -------------------------------
# Generated from Intellog Unique Number	CS_69_70/WELL/871
WELL.         GULF OIL CANADA LIMITED        : Well_name    - WELL
LOC .         00/10-27-069-15W4/0            : Location     - LOCATION
UWI .         00/10-27-069-15W4/0            : Uwi          - UNIQUE WELL ID
ENTR.         SP                             : Entered      - ENTERED BY
SRVC.         SCHLUMBERGER                   : Scn          - SERVICE COMPANY
STRT.M        274.32                         : top_depth    - START DEPTH
STOP.M        478.32                         : bot_depth    - STOP DEPTH
STEP.M        0.25                           : increment    - STEP LENGTH
 NULL. -999.2500:NULL Value
~CURVE INFORMATION BLOCK
#MNEM UNIT       ERCB CURVE CODE    CURVE DESCRIPTION
#-----------   ------------------   ----------------------------------
DEPT.M        00 001 00 00         : DEPTH        - DEPTH
GR  .API      00 310 00 00         : GR           - GAMMA RAY
DPHI.V/V      00 890 00 00         : PHID         - DENSITY POROSITY (SANDSTONE)
NPHI.V/V      00 330 00 00         : PHIN         - NEUTRON POROSITY (SANDSTONE)
ILD .OHMM     00 120 00 00         : RESD         - DEEP RESISTIVITY (DIL)
~PARAMETER INFORMATION
#MNEM.UNIT           DATA             DESCRIPTION OF MNEMONIC
#---------         -----------     ------------------------------
GL  .M        561.746              : gl           - GROUND LEVEL ELEVATION
EREF.M        565.252              : kb           - ELEVATION OF DEPTH REFERENCE
DATM.M        561.746              : datum        - DATUM ELEVATION
TDD .M        480.06               : tdd          - TOTAL DEPTH DRILLER
RUN .         ONE                  : Run          - RUN NUMBER
ENG .         BILL                 : Engineer     - RECORDING ENGINEER
WIT .         JIM                  : Witness      - WITNESSED BY
MUD .         GEL                  : Mud_type     - MUD TYPE
MATR.         SANDSTONE            : Logunit      - NEUTRON MATRIX
TMAX.C        13.3333              : BHT          - MAXIMUM RECORDED TEMPERATURE
BHTD.M        480.06               : BHTDEP       - MAXIMUM RECORDED TEMPERATURE
MATR.         1                    : LOGUNIT      - NEUTRON MATRIX
RMT .C        25                   : MDTP         - TEMPERATURE OF MUD
NEUT.         1                    : NEUTRON      - NEUTRON TYPE
RESI.         0                    : RESIST       - RESISTIVITY TYPE
RMC .OHMM     0.25                 : RMC          - RESISTIVITY OF MUD CAKE
RMF .OHMM     0.25                 : RMF          - RESISTIVITY OF MUD FILTRATE
SUFT.C        15                   : SUFT         - SURFACE TEMPERATURE
~A  DEPTH       GR     PHID     PHIN     RESD
# ...
  448.320  118.333    0.090    0.364    7.143
  448.570  118.298    0.080    0.374    7.349
  448.820  100.051    0.094    0.366    7.307
  449.070   90.796    0.112    0.345    7.257
  449.320   91.593    0.124    0.336    7.165
  449.570   91.704    0.100    0.332    6.832
  449.820   90.365    0.110    0.326    6.570
  450.070   91.279    0.097    0.318    6.314
  450.320   94.786    0.086    0.309    6.192
  450.570   97.237    0.085    0.301    6.151
  450.820  100.625    0.107    0.296    6.087
  451.070  103.368    0.098    0.297    6.029
  451.320  106.432    0.046    0.297    6.034
  451.570  108.443    0.041    0.310    6.100
  451.820  104.932    0.050    0.323    6.236
  452.070   99.202    0.061    0.335    6.555
  452.320   93.839    0.075    0.348    6.812
  452.570   89.456    0.068    0.355    7.075
  452.820   86.851    0.044    0.329    7.256
  453.070   86.023    0.078    0.304    7.407
  453.320   87.867    0.065    0.290    7.675
  453.570   94.455    0.043    0.296    8.150
  453.820   97.112    0.046    0.290    8.817
  454.070   93.118    0.069    0.273    9.668
  454.320   82.524    0.093    0.249   10.825
  454.570   76.283    0.183    0.239   11.520
  454.820   64.824    0.216    0.243   12.130
  455.070   58.777    0.162    0.262   13.238
  455.320   66.258    0.137    0.280   11.078
  455.570   79.326    0.115    0.299    9.782
  455.820   84.306    0.109    0.312    8.483
  456.070   86.756    0.131    0.323    7.610
  456.320   87.328    0.122    0.332    7.133
  456.570   84.280    0.107    0.328    6.798
  456.820   78.557    0.097    0.313    6.637
  457.070   75.020    0.085    0.296    6.421
  457.320   75.248    0.080    0.298    6.365
  457.570   76.537    0.053    0.302    6.090
  457.820   81.138    0.028    0.304    5.557
  458.070   91.242    0.044    0.337    5.075
  458.320  100.666    0.077    0.363    4.697
  458.570  106.200    0.054    0.386    4.335
  458.820  112.437    0.011    0.415    4.036
  459.070  119.697    0.007    0.435    4.018
  459.320  120.179    0.053    0.451    4.033
  459.570  111.789    0.083    0.462    4.078
  459.820   99.320    0.112    0.418    4.445
  460.070   90.546    0.133    0.376    4.836
  460.320   82.112    0.140    0.353    5.099
  460.570   93.488    0.118    0.333    5.272
  460.820  111.984    0.084    0.321    5.516
  461.070  120.593    0.053    0.308    5.731
  461.320  122.504    0.064    0.314    5.865
  461.570  118.548    0.067    0.321    5.910
  461.820  115.448    0.067    0.326    5.828
  462.070  112.183    0.069    0.333    5.685
  462.320  109.984    0.081    0.336    5.529
  462.570  108.342    0.091    0.328    5.445
  462.820  108.611    0.090    0.326    5.448
  463.070  109.679    0.076    0.342    5.530
  463.320  111.579    0.062    0.352    5.630
  463.570  114.796    0.057    0.358    5.702
  463.820  117.224    0.062    0.359    5.787
  464.070  120.185    0.071    0.337    5.813
  464.320  120.784    0.067    0.321    5.856
  464.570  112.724    0.042    0.312    5.973
  464.820  102.252    0.034    0.306    6.393
  465.070   96.072    0.023    0.315    6.751
  465.320   88.432   -0.003    0.290    7.042
  465.570   78.283   -0.017    0.270    7.311
  465.820   72.358    0.046    0.290    7.495
  466.070   78.427    0.079    0.301    7.582
  466.320   79.535    0.127    0.316    7.267
  466.570   72.927    0.161    0.324    6.575
  466.820   75.632    0.139    0.330    6.073
  467.070   79.649    0.101    0.327    5.601
  467.320   83.316    0.090    0.317    5.335
  467.570   82.179    0.092    0.309    5.031
  467.820   75.819    0.088    0.304    4.631
  468.070   70.394    0.091    0.307    4.141
  468.320   66.075    0.099    0.319    3.619
  468.570   60.025    0.130    0.322    3.254
  468.820   52.971    0.151    0.313    2.959
  469.070   53.513    0.160    0.308    2.787
  469.320   58.607    0.139    0.304    2.841
  469.570   66.711    0.136    0.302    2.948
  469.820   78.778    0.130    0.301    3.062
  470.070   85.865    0.123    0.302    3.138
  470.320   86.848    0.115    0.311    3.180
  470.570   81.611    0.169    0.325    3.090
  470.820   76.657    0.202    0.334    2.812
  471.070   76.082    0.211    0.346    2.624
  471.320   78.436    0.198    0.359    2.542
  471.570   81.282    0.187    0.354    2.625
  471.820   84.652    0.156    0.343    2.801
  472.070   87.880    0.136    0.334    3.027
  472.320   89.435    0.144    0.334    3.115
  472.570   81.073    0.160    0.345    3.201
  472.820   67.967    0.171    0.353    3.259
  473.070   31.287    0.178    0.360    3.231
  473.320   19.522    0.177    0.346    3.192
  473.570   17.640    0.068    0.328    3.464
  473.820   17.756    0.047    0.319    3.994
  474.070   18.247    0.028    0.319    4.499
  474.320   19.557    0.022    0.329    4.998
  474.570   24.762    0.034    0.335    5.493
  474.820   74.220    0.037    0.340    5.804
  475.070  119.818    0.041    0.340    6.037
  475.320  132.593    0.017    0.331    6.218
  475.570  132.431   -0.006    0.170    6.379
  475.820  131.755   -0.018    0.160    6.413
  476.070  131.605    0.012    0.161    6.155
  476.320  131.584    0.048    0.158    5.881
  476.570  131.651    0.076    0.153    5.760
  476.820  131.802    0.056    0.146    5.922
  477.070  131.821    0.056    0.092    6.210
  477.320  131.655    0.043    0.074    6.501
  477.570  131.518    0.027    0.050    6.756
  477.820  131.393    0.029    0.036    6.863
  478.070  131.070    0.003    0.026    6.868
  478.320  130.768   -0.006    0.025    6.765
