~VERSION INFORMATION
 VERS.                 2.0:   CWLS LOG ASCII STANDARD -VERSION 2.0
 WRAP.                  NO:   ONE LINE PER DEPTH STEP
~WELL INFORMATION BLOCK
#MNEM.UNIT           DATA                    DESCRIPTION OF MNEMONIC
#---------    -------------------            -------------------------------
# Generated from Intellog Unique Number	CW_70_72/WELL/1065
NULL.         -999.25                        : NULL_VALUE
WELL.         GAO ET AL CALL 11-36           : Well_name    - WELL              
LOC .         11-36-072-19W4                 : Location     - LOCATION          
UWI .         00/11-36-072-19W4/0            : Uwi          - UNIQUE WELL ID    
ENTR.         JAYE                           : Entered      - ENTERED BY        
SRVC.         SCHLUMBERGER                   : Scn          - SERVICE COMPANY   
DATE.         16 FEB 76                      : Date         - LOG DATE          
STRT.M        344.424                        : top_depth    - START DEPTH       
STOP.M        554.674                        : bot_depth    - STOP DEPTH        
STEP.M        0.25                           : increment    - STEP LENGTH       
~CURVE INFORMATION BLOCK
#MNEM UNIT       ERCB CURVE CODE    CURVE DESCRIPTION
#-----------   ------------------   ----------------------------------
DEPT.M        00 001 00 00         : DEPTH        - DEPTH                       
DPHI.V/V      00 890 00 00         : PHID         - DENSITY POROSITY (SANDSTONE)
NPHI.V/V      00 330 00 00         : PHIN         - NEUTRON POROSITY (SANDSTONE)
GR  .API      00 310 00 00         : GR           - GAMMA RAY                   
CALI.MM       00 280 01 00         : CAL          - CALIPER                     
ILD .OHMM     00 120 00 00         : RESD         - DEEP RESISTIVITY (DLL)      
~PARAMETER INFORMATION       
#MNEM.UNIT           DATA             DESCRIPTION OF MNEMONIC
#---------         -----------     ------------------------------
GL  .M        644.256              : gl           - GROUND LEVEL ELEVATION      
EREF.M        647.395              : kb           - ELEVATION OF DEPTH REFERENCE
DATM.M        644.256              : datum        - DATUM ELEVATION             
TDD .M        571.195              : tdd          - TOTAL DEPTH DRILLER         
RUN .         ONE                  : Run          - RUN NUMBER                  
BASE.         EDM                  : Branch       - HOME BASE OF LOGGING UNIT   
MATR.         SANDSTONE            : Logunit      - NEUTRON MATRIX              
TMAX.C        28.3333              : BHT          - MAXIMUM RECORDED TEMPERATURE
BHTD.M        569.366              : BHTDEP       - MAXIMUM RECORDED TEMPERATURE
RMT .C        16.1111              : MDTP         - TEMPERATURE OF MUD          
MUDD.KG/M     0                    : MWT          - MUD DENSITY                 
NEUT.         1                    : NEUTRON      - NEUTRON TYPE                
RESI.         1                    : RESIST       - RESISTIVITY TYPE            
RM  .OHMM     3.57                 : RM           - RESISTIVITY OF MUD          
RMC .OHMM     0                    : RMC          - RESISTIVITY OF MUD CAKE     
RMF .OHMM     2.89                 : RMF          - RESISTIVITY OF MUD FILTRATE 
SUFT.C        -17.7778             : SUFT         - SURFACE TEMPERATURE         
~A  DEPTH     PHID     PHIN       GR      CAL     RESD
# ...
  526.924    0.176    0.373   65.616  166.234    7.158
  527.174    0.172    0.359   93.403  168.712    7.258
  527.424    0.164    0.374  102.256  166.432    7.495
  527.674    0.133    0.430  109.217  167.980    7.943
  527.924    0.110    0.413  100.419  168.700    8.525
  528.174    0.111    0.378   74.338  169.006    8.951
  528.424    0.110    0.350   67.678  169.001    9.296
  528.674    0.108    0.339   66.699  169.205    9.673
  528.924    0.098    0.335   68.224  169.408    9.879
  529.174    0.083    0.343   70.359  170.126    9.980
  529.424    0.102    0.365   73.471  170.123    9.973
  529.674    0.097    0.362   72.003  170.119    9.856
  529.924    0.108    0.343   67.847  169.907    9.776
  530.174    0.095    0.335   71.510  170.111    9.664
  530.424    0.089    0.384   79.203  170.106    9.582
  530.674    0.095    0.407   83.659  169.689    9.420
  530.924    0.112    0.386   79.931  169.375    9.241
  531.174    0.115    0.358   68.202  168.957    9.015
  531.424    0.094    0.329   58.916  168.850    8.732
  531.674    0.098    0.315   55.310  169.363    8.518
  531.924    0.128    0.333   53.659  166.980    8.266
  532.174    0.112    0.333   51.458  164.908    8.094
  532.424    0.106    0.315   51.761  166.041    7.927
  532.674    0.113    0.302   54.934  167.898    7.818
  532.924    0.116    0.290   59.574  169.239    7.644
  533.174    0.116    0.289   65.862  167.270    7.608
  533.424    0.108    0.336   76.120  170.369    7.630
  533.674    0.050    0.377   82.592  166.952    7.681
  533.924    0.070    0.398   87.903  165.189    7.816
  534.174    0.095    0.403   81.793  165.185    8.147
  534.424    0.102    0.361   75.317  165.388    8.633
  534.674    0.113    0.325   85.453  165.797    9.216
  534.924    0.129    0.280   96.749  166.724    9.965
  535.174    0.142    0.338  101.144  167.755   10.141
  535.424    0.142    0.370  102.852  169.406    9.967
  535.674    0.150    0.394  105.109  173.435    9.357
  535.924    0.149    0.405  108.344  174.258    8.468
  536.174    0.151    0.402  112.433  172.392    7.536
  536.424    0.139    0.399  107.789  171.044    7.353
  536.674    0.124    0.409  100.946  169.902    7.334
  536.924    0.142    0.412   93.493  168.140    7.396
  537.174    0.126    0.387   85.917  165.757    7.485
  537.424    0.126    0.346   76.326  157.997    7.508
  537.674    0.146    0.339   62.154  154.993    7.487
  537.924    0.156    0.354   57.816  154.783    7.442
  538.174    0.170    0.354   57.019  154.882    7.436
  538.424    0.158    0.337   59.826  154.878    7.471
  538.674    0.152    0.314   69.290  155.287    7.451
  538.924    0.165    0.295   87.305  157.559    7.417
  539.174    0.150    0.283   96.036  161.898    7.480
  539.424    0.120    0.327  103.852  168.099    7.515
  539.674    0.125    0.355  112.155  169.853    7.579
  539.924    0.124    0.393  111.115  169.746    7.685
  540.174    0.121    0.383  110.196  169.225    7.763
  540.424    0.130    0.384  107.934  168.600    7.901
  540.674    0.139    0.376  108.053  168.079    8.041
  540.924    0.136    0.366  111.960  167.454    8.141
  541.174    0.137    0.353  116.111  166.934    8.222
  541.424    0.150    0.344  112.994  166.619    8.322
  541.674    0.136    0.333  111.037  167.132    8.408
  541.924    0.156    0.323  111.950  168.576    8.401
  542.174    0.127    0.316  114.941  170.744    8.364
  542.424    0.136    0.334  119.580  168.568    8.311
  542.674    0.127    0.349  125.746  159.463    8.291
  542.924    0.111    0.350  126.965  162.148    8.299
  543.174    0.130    0.340  118.657  159.868    8.307
  543.424    0.152    0.334  103.325  160.692    8.271
  543.674    0.191    0.330   94.222  159.860    8.159
  543.924    0.175    0.327   94.403  162.028    8.048
  544.174    0.133    0.323  103.195  159.542    7.938
  544.424    0.149    0.320  116.080  156.952    7.817
  544.674    0.140    0.320  125.361  160.671    7.739
  544.924    0.131    0.333  127.618  163.563    7.719
  545.174    0.137    0.350  123.707  162.215    7.714
  545.424    0.134    0.360  108.436  160.969    7.721
  545.674    0.138    0.350  101.654  157.863    7.715
  545.924    0.148    0.325  100.430  160.548    7.738
  546.174    0.167    0.313  102.015  164.267    7.716
  546.424    0.136    0.314  105.800  164.987    7.711
  546.674    0.158    0.334  114.837  164.983    7.704
  546.924    0.155    0.341  115.934  164.048    7.685
  547.174    0.143    0.332  106.281  163.216    7.680
  547.424    0.120    0.326  106.890  162.488    7.603
  547.674    0.125    0.324  112.018  164.656    7.527
  547.924    0.138    0.325  118.184  167.961    7.359
  548.174    0.124    0.329  124.411  167.751    7.192
  548.424    0.118    0.320  124.103  161.024    7.147
  548.674    0.110    0.302  122.696  163.502    7.076
  548.924    0.116    0.298  125.076  166.084    6.865
  549.174    0.128    0.315  123.607  167.838    6.662
  549.424    0.139    0.337  128.980  164.317    6.463
  549.674    0.145    0.358  136.245  162.659    6.317
  549.924    0.147    0.388  141.922  161.310    6.255
  550.174    0.147    0.424  131.049  161.616    6.274
  550.424    0.126    0.409  119.748  162.750    6.143
  550.674    0.116    0.356  116.875  163.470    6.049
  550.924    0.101    0.353  122.369  164.500    6.022
  551.174    0.109    0.376  130.306  165.633    6.095
  551.424    0.121    0.378  138.061  165.733    6.283
  551.674    0.064    0.321  124.255  164.591    7.298
  551.924    0.052    0.237   94.387  164.794    8.745
  552.174    0.027    0.220   79.361  166.238   11.236
  552.424    0.058    0.258   81.068  169.026   13.738
  552.674    0.090    0.291   80.883  172.332   14.347
  552.924    0.088    0.272   84.789  163.640   12.724
  553.174    0.074    0.244   86.802  162.602   12.551
  553.424    0.063    0.257   86.983  163.425   12.519
  553.674    0.058    0.258   75.499  164.249   13.074
  553.924    0.047    0.229   68.961  164.865   13.930
  554.174    0.042    0.230   64.867  165.274   14.894
  554.424    0.028    0.205   57.047  165.374   17.078
  554.674    0.013    0.184   54.418  165.058   18.131
