~VERSION INFORMATION
 VERS.                 2.0:   CWLS LOG ASCII STANDARD -VERSION 2.0
 WRAP.                  NO:   ONE LINE PER DEPTH STEP
~WELL INFORMATION BLOCK
#MNEM.UNIT           DATA                    DESCRIPTION OF MNEMONIC
#---------    -------------------            -------------------------------
# Generated from Intellog Unique Number	CC_80_83/WELL/2334
NULL.         -999.25                        : NULL_VALUE
WELL.         PEX HOUSE                      : Well_name    - WELL              
LOC .         10-05-080-15W4                 : Location     - LOCATION          
UWI .         00/10-05-080-15W4/0            : Uwi          - UNIQUE WELL ID    
ENTR.         RJA                            : Entered      - ENTERED BY        
SRVC.         SCHLUMBERGER                   : Scn          - SERVICE COMPANY   
DATE.         05 FEB 82                      : Date         - LOG DATE
STRT.M        170                            : top_depth    - START DEPTH       
STOP.M        402.795                        : bot_depth    - STOP DEPTH        
STEP.M        0.3                            : increment    - STEP LENGTH       
~CURVE INFORMATION BLOCK
#MNEM UNIT       ERCB CURVE CODE    CURVE DESCRIPTION
#-----------   ------------------   ----------------------------------
DEPT.M        00 001 00 00         : DEPTH        - DEPTH                       
DPHI.V/V      00 890 00 00         : PHID         - DENSITY POROSITY (LIMESTONE)
NPHI.V/V      00 330 00 00         : PHIN         - NEUTRON POROSITY (LIMESTONE)
GR  .API      00 310 00 00         : GR           - GAMMA RAY                   
DELT.US/F     00 520 00 00         : DELT         - SONIC TRAVEL TIME           
ILD .OHMM     00 120 00 00         : RESD         - DEEP RESISTIVITY (DIL)      
~PARAMETER INFORMATION       
#MNEM.UNIT           DATA             DESCRIPTION OF MNEMONIC
#---------         -----------     ------------------------------
GL  .M        561.82               : gl           - GROUND LEVEL ELEVATION      
EREF.M        565.57               : kb           - ELEVATION OF DEPTH REFERENCE
DATM.M        565.57               : datum        - DATUM ELEVATION             
TDD .M        411                  : tdd          - TOTAL DEPTH DRILLER         
RUN .         ONE                  : Run          - RUN NUMBER                  
ENG .         BILL                 : Engineer     - RECORDING ENGINEER          
WIT .         JIM                  : Witness      - WITNESSED BY                
MUD .         GEL                  : Mud_type     - MUD TYPE                    
MATR.         LIMESTONE            : Logunit      - NEUTRON MATRIX              
TMAX.C        23.8                 : BHT          - MAXIMUM RECORDED TEMPERATURE
BHTD.M        411                  : BHTDEP       - MAXIMUM RECORDED TEMPERATURE
MATR.         1                    : LOGUNIT      - NEUTRON MATRIX              
RMT .C        25                   : MDTP         - TEMPERATURE OF MUD          
NEUT.         1                    : NEUTRON      - NEUTRON TYPE                
RESI.         0                    : RESIST       - RESISTIVITY TYPE            
RMC .OHMM     0.25                 : RMC          - RESISTIVITY OF MUD CAKE     
RMF .OHMM     0.25                 : RMF          - RESISTIVITY OF MUD FILTRATE 
SUFT.C        15                   : SUFT         - SURFACE TEMPERATURE         
~A  DEPTH     PHID     PHIN       GR     DELT     RESD
# ...
  345.197    0.009    0.316   51.983  226.180   11.600
  345.497    0.078    0.211   78.075  244.569   10.706
  345.797    0.162    0.331   90.465  289.788    9.454
  346.097    0.188    0.411   91.008  390.589    8.960
  346.397    0.180    0.398   87.653  389.992    8.887
  346.697    0.181    0.391   85.222  390.201    8.918
  346.997    0.176    0.398   86.699  393.736    9.067
  347.297    0.179    0.417   86.749  395.509    9.324
  347.597    0.188    0.430   90.087  394.664    9.536
  347.897    0.187    0.427   90.634  388.866    9.550
  348.197    0.187    0.420   82.872  385.779    9.545
  348.497    0.202    0.417   83.604  388.138    9.853
  348.797    0.204    0.407   83.904  391.647   10.173
  349.097    0.135    0.396   81.718  379.330   10.442
  349.397    0.111    0.401   83.445  367.481   10.086
  349.697    0.157    0.407   86.162  352.508    8.398
  349.997    0.176    0.399   91.238  353.960    7.182
  350.297    0.180    0.404   92.962  365.664    6.165
  350.597    0.186    0.417   99.710  391.646    5.854
  350.897    0.188    0.425  100.379  404.495    5.485
  351.197    0.198    0.401   94.664  398.442    5.023
  351.497    0.196    0.423   93.784  393.959    4.222
  351.797    0.191    0.441   93.772  394.171    3.695
  352.097    0.196    0.448   93.574  403.555    3.154
  352.397    0.211    0.458   92.077  425.075    2.429
  352.697    0.247    0.506   83.818  447.424    2.034
  352.997    0.286    0.558   79.466  479.191    1.984
  353.297    0.286    0.592   77.408  505.093    2.140
  353.597    0.270    0.609   73.738  503.986    3.029
  353.897    0.246    0.562   70.876  473.158    4.166
  354.197    0.205    0.456   71.297  435.639    5.133
  354.497    0.217    0.446   72.279  415.630    5.951
  354.797    0.218    0.427   71.959  403.954    7.587
  355.097    0.219    0.399   72.319  393.686    8.696
  355.397    0.227    0.404   67.471  392.349    9.433
  355.697    0.240    0.423   64.484  397.837    9.146
  355.997    0.211    0.432   74.766  388.063    7.152
  356.297    0.175    0.431   78.969  380.527    5.530
  356.597    0.174    0.417   82.183  390.731    4.501
  356.897    0.195    0.440   91.163  422.577    4.194
  357.197    0.213    0.463   89.477  428.658    4.112
  357.497    0.192    0.464   81.654  412.616    4.064
  357.797    0.189    0.424   85.798  405.479    3.903
  358.097    0.210    0.422   95.396  409.916    3.849
  358.397    0.217    0.450   99.166  427.804    3.593
  358.697    0.198    0.454  101.016  437.596    3.271
  358.997    0.195    0.466  101.314  443.191    3.154
  359.297    0.168    0.484   96.526  441.203    3.188
  359.597    0.140    0.476   90.876  442.648    3.647
  359.897    0.176    0.456   97.375  410.069    3.986
  360.197    0.193    0.422  102.819  398.482    4.123
  360.497    0.200    0.421  114.962  410.760    4.066
  360.797    0.204    0.459  108.811  428.066    3.817
  361.097    0.203    0.471  103.157  444.970    3.809
  361.397    0.196    0.465  103.704  438.004    3.983
  361.697    0.188    0.438   99.973  429.555    4.105
  361.997    0.164    0.432   83.655  418.701    4.963
  362.297    0.186    0.397   55.370  399.937    6.561
  362.597    0.230    0.352   67.263  394.860   10.813
  362.897    0.245    0.369   74.753  395.905   12.997
  363.197    0.236    0.426   74.433  395.561   14.124
  363.496    0.197    0.417   77.149  394.525   12.263
  363.796    0.196    0.394   82.346  388.226    8.475
  364.096    0.182    0.435   75.639  402.734    6.834
  364.396    0.145    0.420   64.529  418.633    5.934
  364.696    0.151    0.350   63.710  383.762    7.159
  364.996    0.127    0.317   62.210  331.541    9.285
  365.296    0.180    0.298   59.349  331.678   11.929
  365.596    0.260    0.347   48.611  355.098   15.677
  365.896    0.280    0.318   46.243  392.152   18.421
  366.196    0.223    0.336   50.508  380.560   23.528
  366.496    0.216    0.349   58.126  347.332   27.802
  366.796    0.208    0.357   73.615  347.635   25.606
  367.096    0.199    0.345   87.121  363.794   21.281
  367.396    0.214    0.354   95.481  375.991   19.940
  367.696    0.231    0.398   97.387  381.248   22.681
  367.996    0.240    0.408   93.783  381.890   25.796
  368.296    0.211    0.430   76.535  375.078   28.036
  368.596    0.184    0.400   66.415  354.567   30.354
  368.896    0.169    0.323   68.823  339.587   31.636
  369.196    0.179    0.316   79.102  335.185   30.323
  369.496    0.194    0.333   81.636  345.390   24.869
  369.796    0.188    0.332   83.918  346.782   21.760
  370.096    0.171    0.321   86.139  340.573   19.258
  370.396    0.164    0.326   89.228  340.523   16.944
  370.696    0.147    0.328   93.000  343.293   16.207
  370.996    0.144    0.324   70.109  344.671   16.171
  371.296    0.164    0.327   62.967  348.604   17.245
  371.596    0.218    0.344   61.527  353.039   26.489
  371.896    0.266    0.392   62.263  361.190   33.076
  372.196    0.173    0.336   68.886  374.198   31.225
  372.496    0.126    0.311   87.352  351.299   27.321
  372.796    0.154    0.316   95.277  342.603   18.316
  373.096    0.193    0.357   72.447  358.505   18.910
  373.396    0.234    0.375   60.036  355.096   24.524
  373.696    0.250    0.372   54.072  357.045   30.389
  373.996    0.209    0.343   73.220  367.006   34.043
  374.296    0.175    0.325   82.943  354.097   27.976
  374.596    0.163    0.335   95.458  340.853   23.076
  374.896    0.151    0.374   93.439  356.963   14.786
  375.196    0.186    0.353   81.992  360.240   16.972
  375.496    0.211    0.340   77.172  354.625   20.939
  375.796    0.213    0.368   74.272  350.161   22.870
  376.096    0.225    0.393   82.031  363.494   24.372
  376.396    0.237    0.398   83.347  372.708   28.836
  376.696    0.244    0.394   72.083  376.979   41.197
  376.996    0.273    0.383   63.422  374.493   56.670
  377.296    0.284    0.369   57.923  358.988   68.597
  377.596    0.266    0.361   56.323  372.979   79.325
  377.896    0.259    0.365   58.446  374.775   84.693
  378.196    0.258    0.365   61.496  374.515   86.210
  378.496    0.268    0.364   64.112  376.726   80.867
  378.796    0.267    0.367   67.226  374.154   70.023
  379.096    0.254    0.368   68.042  369.691   64.071
  379.396    0.255    0.364   66.260  371.244   63.747
  379.696    0.268    0.363   59.953  368.342   67.158
  379.996    0.216    0.370   56.309  353.993   64.445
  380.296    0.210    0.360   57.631  344.176   57.531
  380.596    0.249    0.374   60.923  354.621   51.653
  380.896    0.266    0.389   61.311  368.119   51.392
  381.196    0.274    0.385   61.074  376.348   48.943
  381.496    0.257    0.364   67.284  364.548   42.702
  381.796    0.225    0.381   70.213  355.800   37.329
  382.096    0.205    0.379   70.657  352.324   32.637
  382.396    0.201    0.357   72.963  353.870   29.976
  382.696    0.203    0.351   76.137  356.164   27.640
  382.996    0.193    0.353   75.531  355.578   26.021
  383.296    0.179    0.337   77.219  350.784   23.994
  383.596    0.192    0.337   78.288  354.972   22.762
  383.896    0.208    0.365   76.750  361.796   23.616
  384.196    0.208    0.387   74.907  364.331   24.928
  384.496    0.210    0.395   75.600  363.490   26.163
  384.796    0.218    0.384   71.031  361.752   26.581
  385.096    0.205    0.369   69.867  359.513   27.110
  385.396    0.201    0.386   74.588  359.163   28.184
  385.696    0.227    0.402   68.716  359.648   29.024
  385.996    0.206    0.398   68.856  359.136   27.481
  386.296    0.189    0.363   74.693  357.468   23.795
  386.596    0.198    0.381   74.770  357.215   22.798
  386.896    0.217    0.393   72.675  358.024   22.941
  387.196    0.223    0.380   71.203  354.958   23.575
  387.496    0.218    0.381   72.145  348.025   23.724
  387.796    0.189    0.377   72.903  338.619   23.926
  388.095    0.172    0.367   71.059  339.838   24.829
  388.395    0.197    0.371   69.029  346.991   25.127
  388.695    0.202    0.373   69.473  353.818   25.334
