~VERSION INFORMATION
 VERS.                 2.0:   CWLS LOG ASCII STANDARD -VERSION 2.0
 WRAP.                  NO:   ONE LINE PER DEPTH STEP
~WELL INFORMATION BLOCK
#MNEM.UNIT           DATA                    DESCRIPTION OF MNEMONIC
#---------    -------------------            -------------------------------
# Generated from Intellog Unique Number	CC_80_83/WELL/2351
NULL.         -999.25                        : NULL_VALUE
WELL.         HOMESTEAD ET AL COWPAR         : Well_name    - WELL
LOC .         10-13-081-05W4                 : Location     - LOCATION          
UWI .         00/10-13-081-05W4/0            : Uwi          - UNIQUE WELL ID    
ENTR.         DW                             : Entered      - ENTERED BY        
SRVC.         SCHLUMBERGER                   : Scn          - SERVICE COMPANY   
DATE.         24 FEB 78                      : Date         - LOG DATE
STRT.M        60.96                          : top_depth    - START DEPTH       
STOP.M        289.559                        : bot_depth    - STOP DEPTH        
STEP.M        0.3048                         : increment    - STEP LENGTH       
~CURVE INFORMATION BLOCK
#MNEM UNIT       ERCB CURVE CODE    CURVE DESCRIPTION
#-----------   ------------------   ----------------------------------
DEPT.M        00 001 00 00         : DEPTH        - DEPTH                       
DPHI.V/V      00 890 00 00         : PHID         - DENSITY POROSITY (LIMESTONE)
NPHI.V/V      00 330 00 00         : PHIN         - NEUTRON POROSITY (LIMESTONE)
GR  .API      00 310 00 00         : GR           - GAMMA RAY                   
ILD .OHMM     00 120 00 00         : RESD         - DEEP RESISTIVITY (DIL)      
~PARAMETER INFORMATION       
#MNEM.UNIT           DATA             DESCRIPTION OF MNEMONIC
#---------         -----------     ------------------------------
GL  .M        465.734              : gl           - GROUND LEVEL ELEVATION      
EREF.M        468.782              : kb           - ELEVATION OF DEPTH REFERENCE
DATM.M        468.782              : datum        - DATUM ELEVATION             
TDD .M        299.923              : tdd          - TOTAL DEPTH DRILLER         
RUN .         ONE                  : Run          - RUN NUMBER                  
ENG .         BILL                 : Engineer     - RECORDING ENGINEER          
WIT .         JIM                  : Witness      - WITNESSED BY                
MUD .         GEL                  : Mud_type     - MUD TYPE                    
MATR.         LIMESTONE            : Logunit      - NEUTRON MATRIX              
TMAX.C        25                   : BHT          - MAXIMUM RECORDED TEMPERATURE
BHTD.M        299.923              : BHTDEP       - MAXIMUM RECORDED TEMPERATURE
MATR.         1                    : LOGUNIT      - NEUTRON MATRIX              
RMT .C        25                   : MDTP         - TEMPERATURE OF MUD          
NEUT.         1                    : NEUTRON      - NEUTRON TYPE                
RESI.         0                    : RESIST       - RESISTIVITY TYPE            
RMC .OHMM     0.25                 : RMC          - RESISTIVITY OF MUD CAKE     
RMF .OHMM     0.25                 : RMF          - RESISTIVITY OF MUD FILTRATE 
SUFT.C        15                   : SUFT         - SURFACE TEMPERATURE         
~A  DEPTH     PHID     PHIN       GR     RESD
# ...
  113.995    0.356    0.513   57.241   10.658
  114.300    0.354    0.496   58.416    9.895
  114.605    0.353    0.488   61.962    9.711
  114.910    0.345    0.481   63.134    9.707
  115.215    0.338    0.472   56.001    9.705
  115.520    0.339    0.467   53.617    9.702
  115.824    0.326    0.482   55.975    9.879
  116.129    0.338    0.501   58.927    9.696
  116.434    0.356    0.502   60.102    9.515
  116.739    0.352    0.519   59.493    9.511
  117.044    0.344    0.490   57.106    9.335
  117.348    0.349    0.470   57.689    9.161
  117.653    0.334    0.462   59.456    8.825
  117.958    0.340    0.482   54.103    8.662
  118.263    0.357    0.500   45.785    8.499
  118.568    0.372    0.504   43.398    8.656
  118.872    0.352    0.539   49.909    9.147
  119.177    0.313    0.444   49.300    9.846
  119.482    0.296    0.403   52.257   10.026
  119.787    0.289    0.413   70.040    9.138
  120.092    0.281    0.493  106.213    6.671
  120.396    0.262    0.527  112.726    5.860
  120.701    0.271    0.519  113.303    5.645
  121.006    0.272    0.569  112.698    5.051
  121.311    0.253    0.592  112.681    4.276
  121.616    0.268    0.599  114.451    3.825
  121.920    0.276    0.615  114.437    3.618
  122.225    0.268    0.628  112.053    3.422
  122.530    0.289    0.618  108.475    3.296
  122.835    0.294    0.624  107.874    3.175
  123.140    0.302    0.625  109.046    3.117
  123.444    0.286    0.627  114.964    3.058
  123.749    0.262    0.572  114.950    3.058
  124.054    0.280    0.579  113.159    3.231
  124.359    0.288    0.603  108.993    3.745
  124.664    0.301    0.572   95.335    4.503
  124.968    0.309    0.548   97.099    4.938
  125.273    0.260    0.573  103.020    4.937
  125.578    0.256    0.599  109.532    4.499
  125.883    0.264    0.608  112.483    4.177
  126.188    0.286    0.620  111.876    3.879
  126.492    0.263    0.626  111.270    3.601
  126.797    0.273    0.587  110.073    3.343
  127.102    0.262    0.585  104.717    3.221
  127.407    0.279    0.598  100.548    3.103
  127.712    0.283    0.596  100.537    3.045
  128.016    0.295    0.599  103.488    3.044
  128.321    0.280    0.607  104.072    2.932
  128.626    0.284    0.615   99.905    2.932
  128.931    0.321    0.619   93.959    3.098
  129.236    0.313    0.593   88.609    3.460
  129.540    0.312    0.524   80.883    3.794
  129.845    0.300    0.508   68.411    4.317
  130.150    0.302    0.481   61.276    5.590
  130.455    0.330    0.453   57.113    8.088
  130.760    0.343    0.430   52.351   10.283
  131.064    0.367    0.441   52.341   14.075
  131.369    0.355    0.446   52.321   15.721
  131.674    0.347    0.448   52.906   16.611
  131.979    0.346    0.453   54.080   16.914
  132.284    0.343    0.445   56.435   16.296
  132.588    0.343    0.424   55.237   16.596
  132.893    0.341    0.427   54.037   17.213
  133.198    0.337    0.442   54.614   17.207
  133.503    0.338    0.451   55.791   16.885
  133.807    0.339    0.457   53.406   16.881
  134.112    0.341    0.461   50.426   16.879
  134.417    0.345    0.467   51.001   16.873
  134.722    0.345    0.456   50.991   16.868
  135.027    0.323    0.427   50.384   16.863
  135.331    0.294    0.425   48.591   17.171
  135.636    0.273    0.402   47.983   17.810
  135.941    0.219    0.408   51.531   17.807
  136.246    0.285    0.427   54.483   18.132
  136.551    0.346    0.456   53.878   18.810
  136.855    0.339    0.444   53.270   18.802
  137.160    0.328    0.448   54.442   18.799
  137.465    0.309    0.449   54.427   18.447
  137.770    0.304    0.445   53.824   18.442
  138.075    0.343    0.462   53.812   17.766
  138.379    0.334    0.465   54.982   17.759
  138.684    0.326    0.460   54.967   18.088
  138.989    0.309    0.433   53.769   19.833
  139.294    0.214    0.357   52.568   21.747
  139.599    0.233    0.344   52.558   22.146
  139.903    0.347    0.429   53.731   20.944
  140.208    0.351    0.456   54.311   18.739
  140.513    0.341    0.481   48.361   17.080
  140.818    0.322    0.481   44.785   16.452
  141.123    0.327    0.475   44.780   16.448
  141.427    0.343    0.443   50.697   16.443
  141.732    0.350    0.441   51.867   16.742
  142.037    0.352    0.453   51.854   17.051
  142.342    0.350    0.453   53.026   17.047
  142.647    0.356    0.453   54.204   17.041
  142.951    0.356    0.449   55.374   17.036
  143.256    0.348    0.447   55.362   17.030
  143.561    0.337    0.443   52.974   17.665
  143.866    0.337    0.443   49.405   17.991
  144.170    0.296    0.436   46.423   19.365
  144.475    0.249    0.349   49.375   19.718
  144.780    0.248    0.386   51.141   19.710
  145.085    0.346    0.434   52.311   19.345
  145.390    0.346    0.445   51.705   18.296
  145.694    0.354    0.450   51.695   17.302
  145.999    0.356    0.454   52.275   17.298
  146.304    0.343    0.454   52.853   16.666
  146.609    0.344    0.452   54.028   16.055
  146.914    0.351    0.453   54.607   15.754
  147.218    0.358    0.459   54.596   15.752
  147.523    0.360    0.471   53.395   15.746
  147.828    0.361    0.497   54.568   15.740
  148.133    0.364    0.479   55.149   15.736
  148.438    0.365    0.463   54.542   15.442
  148.742    0.361    0.451   57.495   15.155
  149.047    0.365    0.475   60.448   14.872
  149.352    0.351    0.485   61.027   14.596
  149.657    0.351    0.477   61.608   14.592
  149.962    0.363    0.464   59.815   14.586
  150.266    0.372    0.461   56.835   14.854
  150.571    0.376    0.458   59.191   14.847
  150.876    0.378    0.459   60.367   14.843
  151.181    0.361    0.468   61.538   14.840
  151.486    0.367    0.486   59.745   14.562
  151.790    0.349    0.471   58.546   14.292
  152.095    0.342    0.461   56.161   14.554
  152.400    0.340    0.461   55.556   15.096
  152.705    0.348    0.466   54.949   15.375
  153.010    0.339    0.471   56.119   15.368
  153.314    0.354    0.483   57.888   15.365
  153.619    0.368    0.489   62.027   15.358
  153.924    0.374    0.500   59.048   15.075
  154.229    0.383    0.482   51.914   14.522
  154.533    0.376    0.520   51.902   14.251
  154.838    0.353    0.555   60.194   14.248
  155.143    0.348    0.508   60.773   14.242
  155.448    0.355    0.482   56.011   14.238
  155.753    0.348    0.446   55.408   14.769
  156.057    0.331    0.445   57.174   14.765
  156.362    0.344    0.473   54.785   14.760
  156.667    0.344    0.467   55.364   14.484
  156.972    0.338    0.449   57.727   14.216
  157.277    0.334    0.446   61.270   14.210
  157.581    0.348    0.456   60.666   14.207
  157.886    0.357    0.466   63.021   14.465
  158.191    0.355    0.481   64.193   14.462
  158.496    0.347    0.497   63.590   14.726
  158.801    0.343    0.494   59.427   14.722
  159.105    0.348    0.486   56.446   14.716
  159.410    0.354    0.470   58.212   14.713
  159.715    0.336    0.476   61.759   14.981
  160.020    0.347    0.477   61.745   14.978
  160.325    0.353    0.462   57.579   14.973
  160.629    0.338    0.476   54.003   14.161
  160.934    0.303    0.444   56.367   14.156
  161.239    0.206    0.415   55.165   14.152
  161.544    0.201    0.400   56.931   14.410
  161.849    0.324    0.444   61.664   14.408
  162.153    0.333    0.467   61.651   14.139
  162.458    0.326    0.472   60.452   13.127
  162.763    0.324    0.472   62.219   12.414
  163.068    0.335    0.469   62.797   11.960
  163.373    0.349    0.475   65.751   12.180
  163.677    0.350    0.491   68.701   12.634
  163.982    0.352    0.473   70.468   12.629
  164.287    0.350    0.465   75.202   12.168
  164.592    0.340    0.491   87.054   10.492
  164.896    0.331    0.565   97.719    7.803
  165.201    0.315    0.606   98.890    4.085
  165.506    0.291    0.608   94.133    2.572
  165.811    0.287    0.613   94.713    2.301
  166.116    0.281    0.575   96.478    2.021
  166.420    0.274    0.560  100.024    2.058
  166.725    0.274    0.581  101.791    2.135
