~VERSION INFORMATION
 VERS.                 2.0:   CWLS LOG ASCII STANDARD -VERSION 2.0
 WRAP.                  NO:   ONE LINE PER DEPTH STEP
~WELL INFORMATION BLOCK
#MNEM.UNIT           DATA                    DESCRIPTION OF MNEMONIC
#---------    -------------------            -------------------------------
# Generated from Intellog Unique Number	CS_73_76/WELL/3276
WELL.         CWWE HARDY                     : Well_name    - WELL
LOC .         00/13-32-076-04W4/0            : Location     - LOCATION
UWI .         00/13-32-076-04W4/0            : Uwi          - UNIQUE WELL ID
ENTR.         SP                             : Entered      - ENTERED BY
SRVC.         SCHLUMBERGER                   : Scn          - SERVICE COMPANY
STRT.M        165                            : top_depth    - START DEPTH
STOP.M        425                            : bot_depth    - STOP DEPTH
STEP.M        0.25                           : increment    - STEP LENGTH
 NULL. -999.2500:NULL Value
~CURVE INFORMATION BLOCK
#MNEM UNIT       ERCB CURVE CODE    CURVE DESCRIPTION
#-----------   ------------------   ----------------------------------
DEPT.M        00 001 00 00         : DEPTH        - DEPTH
DPHI.V/V      00 890 00 00         : PHID         - DENSITY POROSITY (LIMESTONE)
NPHI.V/V      00 330 00 00         : PHIN         - NEUTRON POROSITY (LIMESTONE)
GR  .API      00 310 00 00         : GR           - GAMMA RAY
ILD .OHMM     00 120 00 00         : RESD         - DEEP RESISTIVITY (DIL)
~PARAMETER INFORMATION
#MNEM.UNIT           DATA             DESCRIPTION OF MNEMONIC
#---------         -----------     ------------------------------
GL  .M        580.54               : gl           - GROUND LEVEL ELEVATION
EREF.M        583.04               : kb           - ELEVATION OF DEPTH REFERENCE
DATM.M        580.54               : datum        - DATUM ELEVATION
TDD .M        428                  : tdd          - TOTAL DEPTH DRILLER
RUN .         ONE                  : Run          - RUN NUMBER
ENG .         BILL                 : Engineer     - RECORDING ENGINEER
WIT .         JIM                  : Witness      - WITNESSED BY
MUD .         GEL                  : Mud_type     - MUD TYPE
MATR.         LIMESTONE            : Logunit      - NEUTRON MATRIX
TMAX.C        60                   : BHT          - MAXIMUM RECORDED TEMPERATURE
BHTD.M        428                  : BHTDEP       - MAXIMUM RECORDED TEMPERATURE
MATR.         1                    : LOGUNIT      - NEUTRON MATRIX
RMT .C        25                   : MDTP         - TEMPERATURE OF MUD
NEUT.         1                    : NEUTRON      - NEUTRON TYPE
RESI.         0                    : RESIST       - RESISTIVITY TYPE
RMC .OHMM     0.25                 : RMC          - RESISTIVITY OF MUD CAKE
RMF .OHMM     0.25                 : RMF          - RESISTIVITY OF MUD FILTRATE
SUFT.C        15                   : SUFT         - SURFACE TEMPERATURE
~A  DEPTH     PHID     PHIN       GR     RESD
# ...
  252.000    0.306    0.388   82.207   17.094
  252.250    0.303    0.400   89.529   16.781
  252.500    0.306    0.402   83.436   17.107
  252.750    0.311    0.405   73.684   16.792
  253.000    0.314    0.410   64.543   16.796
  253.250    0.316    0.413   66.987   15.590
  253.500    0.316    0.403   71.870   15.306
  253.750    0.315    0.398   70.046   14.747
  254.000    0.319    0.413   72.490   13.687
  254.250    0.306    0.414   77.373   12.010
  254.500    0.287    0.416   87.744    9.778
  254.750    0.252    0.420   92.017    8.111
  255.000    0.223    0.411   92.022    7.117
  255.250    0.227    0.382   91.418    6.015
  255.500    0.227    0.335   88.984    5.084
  255.750    0.224    0.363   88.379    4.631
  256.000    0.226    0.384   92.042    4.463
  256.250    0.227    0.400   92.047    4.381
  256.500    0.229    0.405   89.613    4.301
  256.750    0.231    0.399   92.058    4.302
  257.000    0.227    0.385   96.941    4.385
  257.250    0.226    0.393   96.946    4.386
  257.500    0.234    0.404   94.511    4.306
  257.750    0.240    0.403   91.467    4.730
  258.000    0.242    0.397   90.253    5.706
  258.250    0.243    0.408   91.477    5.925
  258.500    0.238    0.400   94.531    4.824
  258.750    0.230    0.409   98.804    4.562
  259.000    0.232    0.421  108.565    4.078
  259.250    0.239    0.437  100.643    3.930
  259.500    0.238    0.446   95.160    3.931
  259.750    0.237    0.441   96.994    4.159
  260.000    0.244    0.428   92.121    4.569
  260.250    0.262    0.420   86.638    4.745
  260.500    0.273    0.430   78.716    5.831
  260.750    0.288    0.441   73.233    6.650
  261.000    0.299    0.446   68.969    7.442
  261.250    0.307    0.443   68.974    8.487
  261.500    0.303    0.426   70.198    9.150
  261.750    0.299    0.411   71.423    9.865
  262.000    0.298    0.433   69.599   10.243
  262.250    0.297    0.430   68.385   10.441
  262.500    0.300    0.411   68.389   10.444
  262.750    0.302    0.399   69.614   10.447
  263.000    0.299    0.407   70.838   10.648
  263.250    0.297    0.412   72.672   10.651
  263.500    0.293    0.416   76.336   10.262
  263.750    0.287    0.417   80.000    8.838
  264.000    0.271    0.438   86.712    7.062
  264.250    0.250    0.449   90.375    5.538
  264.500    0.244    0.465   91.601    4.681
  264.750    0.241    0.477   91.607    3.883
  265.000    0.243    0.463   91.000    3.407
  265.250    0.244    0.433   90.396    3.222
  265.500    0.249    0.460   92.230    3.223
  265.750    0.270    0.477   89.796    3.961
  266.000    0.289    0.455   84.922    4.602
  266.250    0.318    0.423   74.561    5.449
  266.500    0.332    0.385   62.980    7.353
  266.750    0.345    0.383   55.668    9.740
  267.000    0.345    0.375   52.015   11.531
  267.250    0.345    0.364   53.239   13.398
  267.500    0.347    0.353   55.072   13.914
  267.750    0.347    0.369   56.907   13.918
  268.000    0.347    0.381   57.522   13.664
  268.250    0.346    0.391   54.477   13.415
  268.500    0.346    0.391   53.263   13.170
  268.750    0.348    0.390   53.878   13.174
  269.000    0.346    0.396   55.102   13.179
  269.250    0.343    0.394   53.890   12.938
  269.500    0.346    0.389   53.893   12.942
  269.750    0.346    0.373   56.337   13.191
  270.000    0.343    0.379   58.781   12.949
  270.250    0.341    0.387   59.396   13.199
  270.500    0.333    0.403   56.962   13.201
  270.750    0.328    0.429   55.137   13.456
  271.000    0.370    0.418   56.361   13.713
  271.250    0.368    0.406   55.757   13.978
  271.500    0.348    0.419   53.932   14.515
  271.750    0.331    0.419   55.767   15.073
  272.000    0.323    0.419   56.990   14.798
  272.250    0.320    0.419   58.215   15.083
  272.500    0.314    0.398   58.220   14.807
  272.750    0.317    0.382   55.177   14.812
  273.000    0.328    0.385   54.571   15.095
  273.250    0.335    0.389   56.405   14.821
  273.500    0.333    0.384   58.240   14.551
  273.750    0.325    0.389   55.806   14.555
  274.000    0.317    0.378   56.420   14.558
  274.250    0.303    0.359   52.157   14.838
  274.500    0.234    0.326   47.893   15.409
  274.750    0.199    0.180   44.239   15.705
  275.000    0.268    0.312   48.514   15.418
  275.250    0.317    0.366   55.836   15.423
  275.500    0.331    0.375   57.061   15.141
  275.750    0.327    0.385   57.065   13.537
  276.000    0.341    0.398   59.509   13.043
  276.250    0.348    0.409   60.124   13.048
  276.500    0.348    0.418   58.909   13.298
  276.750    0.338    0.401   57.695   14.336
  277.000    0.315    0.320   55.870   15.455
  277.250    0.177    0.272   52.827   18.643
  277.500    0.156    0.193   52.832   19.726
  277.750    0.181    0.360   55.275   19.732
  278.000    0.311    0.376   58.329   16.994
  278.250    0.342    0.380   60.164   15.192
  278.500    0.334    0.379   60.167   13.839
  278.750    0.338    0.376   58.954   13.088
  279.000    0.345    0.385   58.959   12.610
  279.250    0.345    0.393   58.354   11.926
  279.500    0.345    0.393   58.358   11.707
  279.750    0.345    0.388   57.144   11.710
  280.000    0.347    0.379   55.929   11.498
  280.250    0.349    0.392   57.154   11.287
  280.500    0.349    0.404   58.377   11.290
  280.750    0.348    0.408   61.435   11.085
  281.000    0.343    0.399   61.437   11.088
  281.250    0.339    0.391   60.222   11.091
  281.500    0.343    0.388   57.788   11.304
  281.750    0.340    0.375   60.232   11.522
  282.000    0.333    0.365   60.848   11.745
  282.250    0.329    0.363   60.242   11.748
  282.500    0.333    0.378   57.807   11.750
  282.750    0.337    0.382   57.812   11.537
  283.000    0.343    0.382   58.428   11.539
  283.250    0.348    0.396   56.604   11.543
  283.500    0.345    0.397   57.828   11.548
  283.750    0.342    0.398   60.272   11.550
  284.000    0.342    0.399   61.496   11.553
  284.250    0.346    0.396   59.062   11.556
  284.500    0.348    0.398   60.288   11.560
  284.750    0.343    0.402   65.169   11.782
  285.000    0.333    0.408   65.784   11.786
  285.250    0.330    0.420   63.351   11.789
  285.500    0.333    0.431   63.355   11.574
  285.750    0.339    0.441   60.920   11.364
  286.000    0.345    0.428   62.145   11.156
  286.250    0.348    0.434   61.541   11.159
  286.500    0.340    0.430   59.106   11.164
  286.750    0.338    0.402   58.501   10.959
  287.000    0.340    0.403   59.116   10.759
  287.250    0.335    0.410   60.950   10.762
  287.500    0.330    0.389   62.175   10.969
  287.750    0.325    0.382   63.402   10.972
  288.000    0.321    0.391   63.404   10.376
  288.250    0.313    0.381   64.629    9.451
  288.500    0.300    0.384   69.512    7.840
  288.750    0.280    0.394   83.541    6.265
  289.000    0.257    0.408   92.693    5.295
  289.250    0.257    0.421   96.356    3.509
  289.500    0.257    0.446   94.532    2.857
  289.750    0.250    0.480   96.976    2.460
  290.000    0.239    0.488  103.689    2.415
  290.250    0.231    0.478  101.254    2.416
  290.500    0.227    0.467   98.820    2.462
  290.750    0.221    0.473  100.655    2.705
  291.000    0.218    0.479  102.489    2.862
  291.250    0.221    0.461  105.544    2.972
  291.500    0.224    0.458  108.597    3.029
  291.750    0.228    0.468  106.163    3.087
  292.000    0.236    0.489  102.509    3.088
  292.250    0.242    0.491   98.855    3.207
  292.500    0.252    0.496   98.251    3.330
  292.750    0.245    0.488   99.475    4.017
  293.000    0.232    0.461   97.041    4.412
  293.250    0.235    0.445   92.167    5.032
  293.500    0.249    0.435   86.684    5.846
  293.750    0.269    0.424   84.861    6.422
  294.000    0.259    0.410   88.523    7.054
  294.250    0.260    0.419   91.578    6.926
  294.500    0.264    0.427   91.582    6.928
  294.750    0.255    0.440   99.515    6.802
  295.000    0.244    0.446  103.787    6.677
  295.250    0.246    0.432   94.645    6.679
