~VERSION INFORMATION
 VERS.                 2.0:   CWLS LOG ASCII STANDARD -VERSION 2.0
 WRAP.                  NO:   ONE LINE PER DEPTH STEP
~WELL INFORMATION BLOCK
#MNEM.UNIT           DATA                    DESCRIPTION OF MNEMONIC
#---------    -------------------            -------------------------------
# Generated from Intellog Unique Number	CW_73_75/WELL/2751
WELL.         NORCEN POR MARTEN HILLS 15-34  : Well_name    - WELL
LOC .         00/15-34-073-25W4/0            : Location     - LOCATION
UWI .         00/15-34-073-25W4/0            : Uwi          - UNIQUE WELL ID
ENTR.         JAYE                           : Entered      - ENTERED BY
SRVC.         COMPUTALOG                     : Scn          - SERVICE COMPANY
DATE.         24 FEB 83                      : Date         - LOG DATE
STRT.M        430                            : top_depth    - START DEPTH
STOP.M        650                            : bot_depth    - STOP DEPTH
STEP.M        0.25                           : increment    - STEP LENGTH
 NULL. -999.2500:NULL Value
~CURVE INFORMATION BLOCK
#MNEM UNIT       ERCB CURVE CODE    CURVE DESCRIPTION
#-----------   ------------------   ----------------------------------
DEPT.M        00 001 00 00         : DEPTH        - DEPTH
DPHI.V/V      00 890 00 00         : PHID         - DENSITY POROSITY (SANDSTONE)
NPHI.V/V      00 330 00 00         : PHIN         - NEUTRON POROSITY (SANDSTONE)
GR  .API      00 310 00 00         : GR           - GAMMA RAY
CALI.MM       00 280 01 00         : CAL          - CALIPER
ILD .OHMM     00 120 00 00         : RESD         - DEEP RESISTIVITY (DIL)
~PARAMETER INFORMATION
#MNEM.UNIT           DATA             DESCRIPTION OF MNEMONIC
#---------         -----------     ------------------------------
GL  .M        681.45               : gl           - GROUND LEVEL ELEVATION
EREF.M        684.45               : kb           - ELEVATION OF DEPTH REFERENCE
DATM.M        681.45               : datum        - DATUM ELEVATION
TDD .M        652                  : tdd          - TOTAL DEPTH DRILLER
RUN .         ONE                  : Run          - RUN NUMBER
ENG .         GRBAVAC              : Engineer     - RECORDING ENGINEER
WIT .         STEVENS/BOGNER       : Witness      - WITNESSED BY
BASE.         EDM                  : Branch       - HOME BASE OF LOGGING UNIT
MUD .         GEL CHEM             : Mud_type     - MUD TYPE
MATR.         SANDSTONE            : Logunit      - NEUTRON MATRIX
TMAX.C        30                   : BHT          - MAXIMUM RECORDED TEMPERATURE
BHTD.M        651.5                : BHTDEP       - MAXIMUM RECORDED TEMPERATURE
RMT .C        17                   : MDTP         - TEMPERATURE OF MUD
MUDD.KG/M     1120                 : MWT          - MUD DENSITY
NEUT.         1                    : NEUTRON      - NEUTRON TYPE
RESI.         0                    : RESIST       - RESISTIVITY TYPE
RM  .OHMM     5                    : RM           - RESISTIVITY OF MUD
RMC .OHMM     5                    : RMC          - RESISTIVITY OF MUD CAKE
RMF .OHMM     5                    : RMF          - RESISTIVITY OF MUD FILTRATE
SUFT.C        0                    : SUFT         - SURFACE TEMPERATURE
~A  DEPTH     PHID     PHIN       GR      CAL     RESD
  430.000    0.193    0.433  101.053  193.255    2.648
  430.250    0.209    0.454   94.140  193.276    2.777
  430.500    0.223    0.440   92.364  193.306    2.896
  430.750    0.223    0.418   90.080  193.742    3.026
  431.000    0.216    0.432   83.168  194.281    3.161
  431.250    0.224    0.433   84.078  195.550    3.185
  431.500    0.233    0.420   85.430  197.132    3.105
  431.750    0.241    0.416   85.342  200.065    2.964
  432.000    0.249    0.460   85.308  203.101    2.595
  432.250    0.261    0.482   86.098  205.200    2.339
  432.500    0.272    0.501   89.070  207.407    2.123
  432.750    0.295    0.519   90.915  208.986    2.189
  433.000    0.318    0.494   92.702  210.676    2.533
  433.250    0.312    0.418   89.235  207.267    3.033
  433.500    0.283    0.395   84.074  193.788    3.696
  433.750    0.244    0.355   78.856  188.824    4.426
  434.000    0.230    0.272   72.630  186.562    5.768
  434.250    0.118    0.286   63.340  186.279    6.764
  434.500    0.091    0.337   54.490  186.819    7.287
  434.750    0.171    0.360   49.706  188.091    7.215
  435.000    0.270    0.389   48.557  189.050    6.552
  435.250    0.321    0.396   48.713  190.111    5.769
  435.500    0.325    0.388   49.059  191.066    5.100
  435.750    0.322    0.370   47.906  191.921    4.551
  436.000    0.314    0.371   49.126  192.986    4.213
  436.250    0.294    0.392   56.919  193.322    3.961
  436.500    0.258    0.410   62.085  193.450    3.876
  436.750    0.233    0.413   59.679  193.574    3.875
  437.000    0.260    0.387   58.592  194.118    3.874
  437.250    0.282    0.402   60.501  196.221    3.835
  437.500    0.272    0.415   67.351  198.530    3.732
  437.750    0.246    0.404   76.397  201.771    3.597
  438.000    0.224    0.392   86.129  204.811    3.460
  438.250    0.224    0.418   94.176  205.041    3.426
  438.500    0.231    0.440   98.024  202.880    3.471
  438.750    0.244    0.428   95.742  199.376    3.641
  439.000    0.263    0.404   86.391  198.669    3.848
  439.250    0.284    0.412   76.100  199.419    4.106
  439.500    0.282    0.410   79.075  200.377    4.374
  439.750    0.288    0.380   85.495  201.339    4.588
  440.000    0.282    0.359   84.024  201.672    4.702
  440.250    0.264    0.349   79.867  197.748    4.764
  440.500    0.249    0.360   76.836  195.070    4.799
  440.750    0.225    0.375   77.124  195.406    4.797
  441.000    0.193    0.391   77.595  196.367    4.805
  441.250    0.116    0.380   76.751  196.595    4.831
  441.500    0.124    0.371   77.974  196.932    4.876
  441.750    0.170    0.367   79.383  196.746    4.902
  442.000    0.228    0.362   74.162  194.588    4.835
  442.250    0.246    0.349   70.256  192.015    4.633
  442.500    0.237    0.348   72.418  189.960    4.449
  442.750    0.250    0.372   70.201  189.051    4.288
  443.000    0.279    0.383   64.914  188.868    4.253
  443.250    0.283    0.386   59.441  188.889    4.368
  443.500    0.234    0.388   63.293  189.743    4.599
  443.750    0.205    0.393   67.018  190.493    4.723
  444.000    0.205    0.392   63.113  191.873    4.794
  444.250    0.234    0.392   64.209  193.660    4.820
  444.500    0.251    0.400   70.812  195.967    4.856
  444.750    0.257    0.412   81.798  198.586    4.939
  445.000    0.258    0.423   90.092  200.588    5.052
  445.250    0.261    0.420   88.623  200.608    5.208
  445.500    0.252    0.401   81.775  199.490    5.359
  445.750    0.247    0.389   74.744  198.058    5.429
  446.000    0.253    0.383   70.771  194.239    5.469
  446.250    0.264    0.374   66.929  190.314    5.436
  446.500    0.269    0.364   64.454  188.157    5.351
  446.750    0.268    0.371   62.172  189.010    5.288
  447.000    0.273    0.372   61.898  191.215    5.186
  447.250    0.274    0.370   64.935  193.940    5.056
  447.500    0.260    0.365   69.786  196.872    4.910
  447.750    0.232    0.353   77.703  199.910    4.733
  448.000    0.212    0.361   83.681  202.321    4.623
  448.250    0.217    0.398   88.097  205.772    4.560
  448.500    0.237    0.421   85.876  201.332    4.515
  448.750    0.254    0.388   79.153  191.692    4.478
  449.000    0.259    0.339   70.552  185.900    4.434
  449.250    0.234    0.335   62.078  185.301    4.340
  449.500    0.215    0.346   70.746  186.881    4.127
  449.750    0.230    0.337   68.344  191.579    3.925
  450.000    0.260    0.326   62.119  195.760    3.612
  450.250    0.279    0.324   55.269  197.236    3.350
  450.500    0.294    0.311   45.041  195.494    3.298
  450.750    0.296    0.294   42.638  194.687    3.360
  451.000    0.295    0.313   44.298  195.229    3.444
  451.250    0.298    0.335   53.404  196.605    3.551
  451.500    0.294    0.350   54.693  197.562    3.618
  451.750    0.278    0.338   54.603  197.897    3.694
  452.000    0.285    0.327   56.635  197.923    3.679
  452.250    0.281    0.333   61.361  198.050    3.763
  452.500    0.271    0.340   65.840  198.280    3.842
  452.750    0.273    0.343   69.503  198.306    3.953
  453.000    0.279    0.345   74.293  198.743    4.091
  453.250    0.258    0.350   80.020  199.180    4.267
  453.500    0.224    0.358   86.375  199.308    4.562
  453.750    0.209    0.349   93.729  199.646    4.748
  454.000    0.205    0.351   94.325  199.770    4.913
  454.250    0.203    0.370   92.734  200.002    5.007
  454.500    0.199    0.388   96.834  200.131    5.044
  454.750    0.205    0.392   92.613  200.154    5.042
  455.000    0.219    0.383   87.205  200.283    4.954
  455.250    0.208    0.373   81.796  200.515    4.738
  455.500    0.170    0.364   77.453  201.159    4.361
  455.750    0.187    0.369   75.736  202.431    3.825
  456.000    0.221    0.367   75.829  205.258    3.440
  456.250    0.253    0.371   81.431  207.463    3.094
  456.500    0.244    0.411  100.614  208.111    2.810
  456.750    0.226    0.462  105.401  208.029    2.760
  457.000    0.208    0.462  111.319  207.845    2.765
  457.250    0.194    0.462  115.731  207.143    2.850
  457.500    0.215    0.464  115.641  206.645    2.961
  457.750    0.228    0.467  112.358  206.046    3.166
  458.000    0.230    0.445  114.021  205.550    3.378
  458.250    0.232    0.420  114.244  204.950    3.661
  458.500    0.244    0.389  111.400  206.221    3.945
  458.750    0.259    0.410  107.554  209.255    4.114
  459.000    0.272    0.424  102.769  211.772    4.192
  459.250    0.279    0.432  104.492  214.601    4.372
  459.500    0.283    0.443  103.775  217.222    4.524
  459.750    0.288    0.442   96.558  219.633    4.682
  460.000    0.294    0.437   86.140  214.256    4.798
  460.250    0.299    0.410   77.598  199.840    4.843
  460.500    0.296    0.371   61.803  195.401    4.749
  460.750    0.286    0.362   64.402  193.551    4.666
  461.000    0.276    0.378   66.566  190.979    4.558
  461.250    0.272    0.397   66.415  188.094    4.487
  461.500    0.263    0.409   67.197  185.521    4.408
  461.750    0.246    0.393   68.922  184.920    4.382
  462.000    0.270    0.381   71.332  186.917    4.355
  462.250    0.274    0.376   75.557  190.162    4.320
  462.500    0.279    0.382   72.529  192.680    4.188
  462.750    0.294    0.382   67.809  193.638    4.060
  463.000    0.315    0.388   64.649  192.828    3.913
  463.250    0.324    0.398   64.057  191.920    3.685
  463.500    0.315    0.422   62.905  191.942    3.531
  463.750    0.299    0.424   60.747  192.587    3.430
  464.000    0.304    0.397   58.217  194.171    3.370
  464.250    0.313    0.371   60.505  196.271    3.388
  464.500    0.314    0.405   68.795  200.763    3.420
  464.750    0.343    0.443   80.031  205.458    3.458
  465.000    0.364    0.419   90.825  204.754    3.504
  465.250    0.329    0.404   82.790  194.079    3.654
  465.500    0.298    0.405   74.130  190.052    3.752
  465.750    0.314    0.402   66.653  190.594    3.700
  466.000    0.327    0.394   62.806  191.971    3.601
  466.250    0.320    0.379   59.712  192.199    3.524
