~VERSION INFORMATION
 VERS.                 2.0:   CWLS LOG ASCII STANDARD -VERSION 2.0
 WRAP.                  NO:   ONE LINE PER DEPTH STEP
~WELL INFORMATION BLOCK
#MNEM.UNIT           DATA                    DESCRIPTION OF MNEMONIC
#---------    -------------------            -------------------------------
# Generated from Intellog Unique Number	CW_73_75/WELL/1030
WELL.         CHEVRON ET AL ROCK 10-33       : Well_name    - WELL
LOC .         00/10-33-075-22W4/0            : Location     - LOCATION
UWI .         00/10-33-075-22W4/0            : Uwi          - UNIQUE WELL ID
ENTR.         JAYE                           : Entered      - ENTERED BY
SRVC.         SCHLUMBERGER                   : Scn          - SERVICE COMPANY
DATE.         14 JAN 73                      : Date         - LOG DATE
STRT.M        371.856                        : top_depth    - START DEPTH
STOP.M        655.356                        : bot_depth    - STOP DEPTH
STEP.M        0.25                           : increment    - STEP LENGTH
 NULL. -999.2500:NULL Value
~CURVE INFORMATION BLOCK
#MNEM UNIT       ERCB CURVE CODE    CURVE DESCRIPTION
#-----------   ------------------   ----------------------------------
DEPT.M        00 001 00 00         : DEPTH        - DEPTH
ILD .OHMM     00 120 00 00         : RESD         - DEEP RESISTIVITY (DLL)
NPHI.V/V      00 330 00 00         : PHIN         - NEUTRON POROSITY (SANDSTONE)
DPHI.V/V      00 890 00 00         : PHID         - DENSITY POROSITY (SANDSTONE)
GR  .API      00 310 00 00         : GR           - GAMMA RAY
CALI.MM       00 280 01 00         : CAL          - CALIPER
~PARAMETER INFORMATION
#MNEM.UNIT           DATA             DESCRIPTION OF MNEMONIC
#---------         -----------     ------------------------------
GL  .M        669.036              : gl           - GROUND LEVEL ELEVATION
EREF.M        672.267              : kb           - ELEVATION OF DEPTH REFERENCE
DATM.M        669.036              : datum        - DATUM ELEVATION
TDD .M        603.504              : tdd          - TOTAL DEPTH DRILLER
RUN .         ONE                  : Run          - RUN NUMBER
MATR.         SANDSTONE            : Logunit      - NEUTRON MATRIX
TMAX.C        32.7778              : BHT          - MAXIMUM RECORDED TEMPERATURE
BHTD.M        603.199              : BHTDEP       - MAXIMUM RECORDED TEMPERATURE
RMT .C        18.8889              : MDTP         - TEMPERATURE OF MUD
MUDD.KG/M     0                    : MWT          - MUD DENSITY
NEUT.         0                    : NEUTRON      - NEUTRON TYPE
RESI.         1                    : RESIST       - RESISTIVITY TYPE
RM  .OHMM     0                    : RM           - RESISTIVITY OF MUD
RMC .OHMM     3.5                  : RMC          - RESISTIVITY OF MUD CAKE
RMF .OHMM     3.51                 : RMF          - RESISTIVITY OF MUD FILTRATE
SUFT.C        -17.7778             : SUFT         - SURFACE TEMPERATURE
~A  DEPTH     RESD     PHIN     PHID       GR      CAL
  371.856    2.790    0.542    0.216   95.542  225.312
  372.106    2.913    0.526    0.224   96.893  223.053
  372.356    3.058    0.487    0.214   95.864  221.205
  372.606    3.247    0.449    0.214   90.988  220.186
  372.856    3.524    0.464    0.216   87.945  219.786
  373.106    3.889    0.509    0.211   89.663  220.215
  373.356    4.379    0.496    0.191   90.282  221.470
  373.606    5.397    0.449    0.172   88.581  222.519
  373.856    6.282    0.463    0.153   85.537  225.634
  374.106    6.794    0.453    0.202   78.708  228.337
  374.356    6.292    0.404    0.222   73.649  222.251
  374.606    5.927    0.449    0.221   76.772  229.399
  374.856    6.222    0.474    0.195   82.947  233.134
  375.106    6.841    0.505    0.198   84.298  237.079
  375.356    7.647    0.413    0.224   78.201  238.849
  375.606    9.000    0.388    0.255   80.652  234.522
  375.856   10.810    0.391    0.281   83.407  217.479
  376.106   13.080    0.362    0.328   87.995  206.019
  376.356   14.380    0.349    0.341   92.460  202.623
  376.606   13.947    0.367    0.337   92.896  202.637
  376.856   12.591    0.414    0.322   85.090  202.651
  377.106   10.482    0.416    0.287   73.560  203.287
  377.356    8.757    0.385    0.248   71.433  204.233
  377.606    7.833    0.423    0.229   68.572  205.177
  377.856    7.896    0.455    0.216   68.275  205.607
  378.106    8.140    0.470    0.254   71.458  206.036
  378.356    8.547    0.470    0.240   73.420  206.356
  378.606    9.432    0.440    0.256   71.353  207.301
  378.856   10.198    0.525    0.270   71.728  208.351
  379.106   10.321    0.519    0.280   71.309  209.501
  379.356    9.666    0.492    0.292   67.289  210.138
  379.606    7.784    0.479    0.290   70.044  211.391
  379.856    6.552    0.454    0.272   72.861  208.511
  380.106    5.545    0.445    0.260   76.411  205.941
  380.356    4.540    0.465    0.251   79.593  210.298
  380.606    4.002    0.466    0.239   85.524  213.517
  380.856    4.049    0.519    0.237   92.126  216.118
  381.106    4.872    0.577    0.235  101.353  217.061
  381.356    6.117    0.589    0.227  107.527  216.869
  381.606    8.624    0.557    0.216   97.402  214.817
  381.856    9.729    0.499    0.222   91.244  212.350
  382.106    9.507    0.481    0.238   86.492  207.917
  382.356    9.137    0.483    0.269   81.921  205.039
  382.606    8.894    0.451    0.291   76.252  205.672
  382.856    8.853    0.432    0.309   73.452  208.480
  383.106    9.142    0.424    0.295   76.941  210.767
  383.356    9.778    0.462    0.261   86.473  212.125
  383.606   10.631    0.434    0.196   81.780  212.759
  383.856   11.709    0.459    0.166   75.013  208.846
  384.106   12.638    0.547    0.130   68.000  211.032
  384.356   12.790    0.513    0.293   61.294  206.498
  384.606   12.314    0.497    0.323   55.564  202.377
  384.856   11.857    0.519    0.317   52.398  198.980
  385.106   11.229    0.498    0.327   51.735  196.410
  385.356   10.478    0.455    0.323   52.172  189.498
  385.606    9.851    0.417    0.313   54.255  194.269
  385.856    9.312    0.402    0.294   61.528  199.659
  386.106    8.754    0.417    0.266   72.404  201.741
  386.356    8.809    0.394    0.248   70.580  202.478
  386.606    9.181    0.405    0.232   70.956  202.597
  386.856    9.603    0.423    0.241   71.576  202.818
  387.106   10.121    0.428    0.252   71.339  203.041
  387.356    9.907    0.440    0.241   70.310  202.848
  387.606    9.211    0.417    0.225   70.562  202.654
  387.856    8.455    0.383    0.210   71.182  201.428
  388.106    7.548    0.393    0.181   75.585  197.412
  388.356    7.018    0.457    0.227   80.784  197.012
  388.606    6.933    0.449    0.218   85.675  204.056
  388.856    7.042    0.462    0.216   85.624  209.241
  389.106    7.260    0.467    0.218   83.556  209.668
  389.356    7.791    0.452    0.231   84.114  204.514
  389.606    8.348    0.439    0.254   82.903  202.460
  389.856    8.653    0.427    0.264   80.408  202.477
  390.106    8.708    0.402    0.259   76.204  203.214
  390.356    8.636    0.409    0.266   71.511  203.642
  390.606    8.300    0.432    0.259   65.903  203.965
  390.856    8.080    0.454    0.272   69.453  204.189
  391.106    7.954    0.452    0.292   75.139  204.099
  391.356    7.900    0.451    0.251   81.314  204.216
  391.606    7.952    0.468    0.244   86.389  204.644
  391.856    8.196    0.477    0.235   89.511  205.278
  392.106    8.528    0.448    0.250   92.023  207.257
  392.356    9.119    0.434    0.245   94.290  210.580
  392.606    9.627    0.427    0.211   96.435  212.765
  392.856    9.780    0.438    0.216   96.016  211.746
  393.106    9.590    0.392    0.226   93.400  206.901
  393.356    8.834    0.375    0.245   92.310  206.401
  393.606    8.019    0.382    0.226   91.891  207.654
  393.856    7.388    0.385    0.220   94.525  210.876
  394.106    6.707    0.405    0.206   96.487  213.269
  394.356    6.292    0.432    0.180   98.266  215.037
  394.606    6.025    0.416    0.176  101.021  218.567
  394.856    5.791    0.447    0.133  104.998  220.235
  395.106    5.754    0.473    0.151  107.205  220.353
  395.356    5.974    0.462    0.155  108.861  218.094
  395.606    6.354    0.450    0.140  108.748  217.488
  395.856    6.770    0.489    0.149  107.840  218.536
  396.106    6.979    0.519    0.165  110.718  217.725
  396.356    6.996    0.484    0.187  103.462  211.225
  396.606    6.824    0.410    0.175   91.993  205.554
  396.856    6.559    0.390    0.182   85.531  205.674
  397.106    6.409    0.378    0.205   92.010  207.652
  397.356    6.438    0.410    0.175  100.994  213.041
  397.606    6.885    0.436    0.161  104.604  216.879
  397.856    7.432    0.457    0.158  106.260  216.068
  398.106    7.948    0.418    0.173  100.897  212.670
  398.356    7.984    0.372    0.200   88.451  208.550
  398.606    7.301    0.355    0.225   81.683  206.393
  398.856    6.340    0.364    0.191   88.103  205.375
  399.106    5.820    0.378    0.157   92.506  208.801
  399.356    5.843    0.440    0.137   91.660  212.846
  399.606    5.650    0.462    0.145  101.071  213.585
  399.856    5.440    0.485    0.169  109.320  213.908
  400.106    5.424    0.484    0.183  111.282  214.441
  400.356    5.499    0.484    0.187  114.099  214.354
  400.606    5.606    0.515    0.180  111.117  214.266
  400.856    5.757    0.535    0.190  110.636  214.381
  401.106    5.956    0.505    0.178  111.318  214.395
  401.356    6.197    0.467    0.181  110.226  213.894
  401.606    6.494    0.437    0.178  104.375  213.391
  401.856    6.595    0.423    0.166  104.628  212.682
  402.106    6.612    0.409    0.158  107.322  213.006
  402.356    6.631    0.390    0.171  107.880  212.193
  402.606    6.599    0.365    0.161  101.600  211.794
  402.856    6.569    0.350    0.153   99.594  210.775
  403.106    6.635    0.399    0.169  103.754  212.651
  403.356    6.713    0.436    0.176  108.342  214.836
  403.606    6.806    0.438    0.180  102.978  216.711
  403.856    6.824    0.416    0.166   96.149  217.242
  404.106    6.730    0.375    0.175   90.663  208.367
  404.356    6.675    0.381    0.193   91.404  211.587
  404.606    6.655    0.435    0.173   97.518  214.701
  404.856    6.698    0.461    0.189  101.189  216.059
  405.106    6.853    0.455    0.209  106.753  214.214
  405.356    7.170    0.421    0.214   96.384  215.572
  405.606    7.527    0.395    0.177   90.470  218.584
  405.856    7.962    0.378    0.154   87.792  220.873
  406.106    8.546    0.375    0.189   88.352  219.234
  406.356    9.208    0.392    0.181   85.795  211.081
  406.606    9.775    0.397    0.169   81.347  205.306
  406.856   10.113    0.375    0.173   73.602  201.290
  407.106   10.102    0.374    0.218   68.483  197.066
  407.356    9.763    0.371    0.238   69.407  197.287
  407.606    9.093    0.363    0.209   77.475  206.296
  407.856    8.209    0.365    0.206   81.695  206.723
  408.106    7.438    0.368    0.210   78.346  205.807
