~VERSION INFORMATION
 VERS.                 2.0:   CWLS LOG ASCII STANDARD -VERSION 2.0
 WRAP.                  NO:   ONE LINE PER DEPTH STEP
~WELL INFORMATION BLOCK
#MNEM.UNIT           DATA                    DESCRIPTION OF MNEMONIC
#---------    -------------------            -------------------------------
# Generated from Intellog Unique Number	CW_76_78/WELL/2580
WELL.         10-33-078-21W4                 : Well_name    - WELL
LOC .         00/10-33-078-21W4/0            : Location     - LOCATION
UWI .         00/10-33-078-21W4/0            : Uwi          - UNIQUE WELL ID
ENTR.         MAX                            : Entered      - ENTERED BY
SRVC.         SCHLUMBERGER                   : Scn          - SERVICE COMPANY
STRT.M        220                            : top_depth    - START DEPTH
STOP.M        435                            : bot_depth    - STOP DEPTH
STEP.M        0.25                           : increment    - STEP LENGTH
 NULL. -999.2500:NULL Value
~CURVE INFORMATION BLOCK
#MNEM UNIT       ERCB CURVE CODE    CURVE DESCRIPTION
#-----------   ------------------   ----------------------------------
DEPT.M        00 001 00 00         : DEPTH        - DEPTH
ILD .OHMM     00 120 00 00         : RESD         - DEEP RESISTIVITY (DIL)
NPHI.V/V      00 330 00 00         : PHIN         - NEUTRON POROSITY (SANDSTONE)
DPHI.V/V      00 890 00 00         : PHID         - DENSITY POROSITY (SANDSTONE)
CALI.MM       00 280 01 00         : CAL          - CALIPER
GR  .API      00 310 00 00         : GR           - GAMMA RAY
~PARAMETER INFORMATION
#MNEM.UNIT           DATA             DESCRIPTION OF MNEMONIC
#---------         -----------     ------------------------------
GL  .M        566.16               : gl           - GROUND LEVEL ELEVATION
EREF.M        570.12               : kb           - ELEVATION OF DEPTH REFERENCE
DATM.M        566.16               : datum        - DATUM ELEVATION
TDD .M        435.5                : tdd          - TOTAL DEPTH DRILLER
RUN .         ONE                  : Run          - RUN NUMBER
ENG .         BILL                 : Engineer     - RECORDING ENGINEER
WIT .         JIM                  : Witness      - WITNESSED BY
MUD .         GEL                  : Mud_type     - MUD TYPE
MATR.         SANDSTONE            : Logunit      - NEUTRON MATRIX
TMAX.C        22                   : BHT          - MAXIMUM RECORDED TEMPERATURE
BHTD.M        435.5                : BHTDEP       - MAXIMUM RECORDED TEMPERATURE
RMT .C        13                   : MDTP         - TEMPERATURE OF MUD
MUDD.KG/M     1128                 : MWT          - MUD DENSITY
NEUT.         1                    : NEUTRON      - NEUTRON TYPE
RESI.         0                    : RESIST       - RESISTIVITY TYPE
RM  .OHMM     3.18                 : RM           - RESISTIVITY OF MUD
RMC .OHMM     0                    : RMC          - RESISTIVITY OF MUD CAKE
RMF .OHMM     1.6                  : RMF          - RESISTIVITY OF MUD FILTRATE
SUFT.C        -20                  : SUFT         - SURFACE TEMPERATURE
~A  DEPTH     RESD     PHIN     PHID      CAL       GR
  220.000    5.052    0.546    0.235  177.521  101.964
  220.250    4.875    0.558    0.241  176.100  102.590
  220.500    4.748    0.543    0.247  175.644  100.540
  220.750    4.668    0.521    0.252  174.718  100.873
  221.000    4.587    0.534    0.259  174.269  100.900
  221.250    4.468    0.548    0.265  173.323   98.264
  221.500    4.391    0.542    0.265  172.880   97.697
  221.750    4.276    0.535    0.256  171.948   98.323
  222.000    4.090    0.543    0.259  171.505  101.925
  222.250    4.019    0.566    0.265  170.573  104.631
  222.500    3.914    0.608    0.273  170.625  109.418
  222.750    3.812    0.608    0.283  171.662  113.610
  223.000    3.781    0.613    0.288  174.210  111.268
  223.250    3.781    0.644    0.287  177.228  107.732
  223.500    3.756    0.620    0.282  181.236  104.193
  223.750    3.901    0.614    0.266  186.242  100.955
  224.000    4.204    0.594    0.290  176.387   96.528
  224.250    5.060    0.557    0.308  172.483   90.318
  224.500    6.863    0.526    0.323  171.538   83.807
  224.750    9.746    0.493    0.333  170.104   80.275
  225.000   12.396    0.491    0.317  166.194   80.600
  225.250   12.880    0.492    0.303  161.794   84.202
  225.500   11.978    0.490    0.283  163.332   89.290
  225.750   10.936    0.492    0.277  166.357   98.237
  226.000   10.852    0.488    0.259  174.830  100.056
  226.250   11.270    0.463    0.273  179.340   96.517
  226.500   12.485    0.489    0.287  174.934   91.496
  226.750   14.482    0.495    0.291  162.609   80.229
  227.000   16.800    0.485    0.291  162.159   70.749
  227.250   20.975    0.480    0.292  162.707   64.539
  227.500   25.952    0.452    0.295  160.282   59.815
  227.750   29.287    0.442    0.304  157.369   61.035
  228.000   31.847    0.436    0.315  156.919   64.633
  228.250   33.699    0.440    0.322  156.476   65.853
  228.500   33.738    0.454    0.330  155.537   62.912
  228.750   33.157    0.462    0.325  155.101   56.116
  229.000   31.125    0.459    0.314  155.160   57.035
  229.250   26.896    0.463    0.308  155.212   59.146
  229.500   19.336    0.469    0.292  155.264   62.150
  229.750   13.774    0.477    0.278  155.310   65.752
  230.000   10.955    0.479    0.256  156.359   69.048
  230.250    7.249    0.480    0.276  157.897   78.594
  230.500    4.797    0.467    0.270  158.445   91.707
  230.750    4.503    0.492    0.264  159.983  101.546
  231.000    4.426    0.518    0.265  168.952  110.201
  231.250    4.472    0.539    0.264  175.443  116.775
  231.500    4.472    0.528    0.252  175.991  112.344
  231.750    4.652    0.504    0.253  176.545  107.620
  232.000    5.649    0.493    0.263  177.093  100.221
  232.250    9.210    0.470    0.288  173.182   76.768
  232.500   10.395    0.447    0.298  166.794   76.209
  232.750   10.502    0.455    0.282  162.890   83.964
  233.000    8.051    0.461    0.257  161.450   92.622
  233.250    7.421    0.477    0.235  161.013   93.545
  233.500    7.782    0.497    0.241  162.056   85.845
  233.750    9.025    0.509    0.260  162.597   81.422
  234.000    9.211    0.492    0.277  161.176   77.289
  234.250    9.383    0.483    0.290  159.729   73.163
  234.500   11.192    0.486    0.286  158.296   73.495
  234.750   12.170    0.490    0.284  158.354   75.013
  235.000   12.411    0.491    0.281  158.406   75.333
  235.250   12.087    0.473    0.275  157.970   77.445
  235.500   11.140    0.463    0.254  156.529   85.806
  235.750    8.310    0.470    0.250  155.102   89.995
  236.000    7.729    0.470    0.253  154.652   92.408
  236.250    7.881    0.477    0.247  154.209   90.057
  236.500    8.494    0.491    0.249  154.261   83.257
  236.750   10.037    0.498    0.276  153.825   79.424
  237.000   10.814    0.449    0.281  153.388   74.993
  237.250   12.429    0.429    0.283  153.447   69.972
  237.500   13.517    0.443    0.291  153.492   67.328
  237.750   13.784    0.459    0.293  154.046   67.661
  238.000   13.800    0.472    0.280  154.086   69.174
  238.250   13.442    0.457    0.283  154.640   69.511
  238.500   12.503    0.444    0.287  155.683   70.129
  238.750    9.154    0.436    0.271  157.227   74.028
  239.000    7.283    0.443    0.244  161.236   97.840
  239.250    7.497    0.483    0.214  168.223  104.117
  239.500    9.021    0.481    0.217  171.254  105.337
  239.750    9.720    0.466    0.221  168.829  102.103
  240.000   11.590    0.444    0.209  173.828  102.728
  240.250   12.839    0.438    0.211  178.854  104.242
  240.500   13.460    0.430    0.215  167.995  105.763
  240.750   12.871    0.431    0.222  166.568  104.903
  241.000   12.421    0.428    0.237  170.087   97.203
  241.250   12.783    0.432    0.253  170.628   89.804
  241.500   13.649    0.449    0.273  167.220   78.834
  241.750   15.546    0.454    0.288  163.811   65.194
  242.000   22.081    0.439    0.305  161.869   54.822
  242.250   24.011    0.431    0.332  158.453   49.797
  242.500   23.819    0.424    0.335  158.505   53.403
  242.750   23.819    0.425    0.325  159.066   57.595
  243.000   23.018    0.420    0.318  157.124   61.486
  243.250   21.017    0.422    0.312  155.201   64.197
  243.500   19.548    0.422    0.305  154.758   67.497
  243.750   18.520    0.425    0.302  155.312   71.396
  244.000   17.874    0.428    0.294  155.364   76.773
  244.250   17.874    0.421    0.304  155.410   75.025
  244.500   17.602    0.415    0.312  155.462   72.085
  244.750   16.976    0.421    0.298  155.514   75.682
  245.000   16.976    0.418    0.281  156.557   87.606
  245.250   16.701    0.418    0.268  157.600   92.987
  245.500   14.973    0.421    0.254  159.145   97.477
  245.750   12.937    0.427    0.236  160.188  100.777
  246.000   11.282    0.436    0.224  161.230  104.379
  246.250    8.338    0.468    0.218  162.769  107.387
  246.500    6.452    0.484    0.194  165.298  109.197
  246.750    5.731    0.506    0.198  168.328  112.795
  247.000    5.138    0.522    0.205  170.864  116.694
  247.250    4.606    0.558    0.197  169.932  119.701
  247.500    4.129    0.557    0.158  168.003  124.492
  247.750    3.877    0.543    0.172  164.086  125.114
  248.000    3.845    0.533    0.177  162.150  129.013
  248.250    3.886    0.560    0.195  164.190  132.607
  248.500    3.890    0.583    0.206  166.223  130.558
  248.750    3.931    0.588    0.188  170.239  130.886
  249.000    3.900    0.586    0.182  175.746  129.134
  249.250    3.799    0.567    0.175  176.294  126.796
  249.500    3.631    0.573    0.152  171.386  127.120
  249.750    3.409    0.587    0.153  173.921  130.718
  250.000    3.230    0.594    0.197  180.407  133.127
  250.250    3.233    0.582    0.222  185.419  133.159
  250.500    3.358    0.566    0.230  185.484  132.302
  250.750    4.117    0.539    0.236  185.530  128.169
  251.000    5.584    0.490    0.239  184.089  121.364
  251.250    6.973    0.467    0.234  180.687  119.909
  251.500    7.869    0.465    0.230  183.216  120.535
  251.750    7.733    0.459    0.228  183.757  119.976
  252.000    7.395    0.465    0.227  182.818  122.975
  252.250    7.005    0.476    0.225  179.403  125.685
  252.500    6.699    0.481    0.223  176.490  124.231
  252.750    6.646    0.492    0.232  178.517  122.776
  253.000    6.902    0.495    0.226  182.538  118.646
  253.250    9.025    0.479    0.233  183.575  110.649
  253.500   10.663    0.449    0.255  178.178  104.439
  253.750   12.482    0.448    0.252  163.370  104.177
  254.000   13.958    0.444    0.256  160.945  103.610
  254.250   14.903    0.446    0.281  161.492   98.291
  254.500   14.250    0.455    0.292  161.545   94.459
  254.750    9.257    0.475    0.309  161.102   94.193
  255.000    6.593    0.479    0.294  161.649  100.767
  255.250    5.009    0.497    0.271  164.198  103.473
  255.500    4.659    0.539    0.246  168.206  102.022
  255.750    4.664    0.569    0.237  174.691  100.861
  256.000    4.673    0.553    0.251  181.685   98.221
  256.250    4.850    0.542    0.264  176.777   94.385
