~VERSION INFORMATION
 VERS.                 2.0:   CWLS LOG ASCII STANDARD -VERSION 2.0
 WRAP.                  NO:   ONE LINE PER DEPTH STEP
~WELL INFORMATION BLOCK
#MNEM.UNIT           DATA                    DESCRIPTION OF MNEMONIC
#---------    -------------------            -------------------------------
# Generated from Intellog Unique Number	CS_77_79/WELL/972
WELL.         BRALORNE RESOURCES LIMITED     : Well_name    - WELL
LOC .         00/10-27-077-15W4/0            : Location     - LOCATION
UWI .         00/10-27-077-15W4/0            : Uwi          - UNIQUE WELL ID
ENTR.         SP                             : Entered      - ENTERED BY
SRVC.         SCHLUMBERGER                   : Scn          - SERVICE COMPANY
STRT.M        275                            : top_depth    - START DEPTH
STOP.M        535                            : bot_depth    - STOP DEPTH
STEP.M        0.25                           : increment    - STEP LENGTH
 NULL. -999.2500:NULL Value
~CURVE INFORMATION BLOCK
#MNEM UNIT       ERCB CURVE CODE    CURVE DESCRIPTION
#-----------   ------------------   ----------------------------------
DEPT.M        00 001 00 00         : DEPTH        - DEPTH
ILD .OHMM     00 120 00 00         : RESD         - DEEP RESISTIVITY (DIL)
DPHI.V/V      00 890 00 00         : PHID         - DENSITY POROSITY (LIMESTONE)
NPHI.V/V      00 330 00 00         : PHIN         - NEUTRON POROSITY (LIMESTONE)
GR  .API      00 310 00 00         : GR           - GAMMA RAY
~PARAMETER INFORMATION
#MNEM.UNIT           DATA             DESCRIPTION OF MNEMONIC
#---------         -----------     ------------------------------
GL  .M        669.41               : gl           - GROUND LEVEL ELEVATION
EREF.M        673.69               : kb           - ELEVATION OF DEPTH REFERENCE
DATM.M        669.41               : datum        - DATUM ELEVATION
TDD .M        552                  : tdd          - TOTAL DEPTH DRILLER
RUN .         ONE                  : Run          - RUN NUMBER
ENG .         BILL                 : Engineer     - RECORDING ENGINEER
WIT .         JIM                  : Witness      - WITNESSED BY
MUD .         GEL                  : Mud_type     - MUD TYPE
MATR.         LIMESTONE            : Logunit      - NEUTRON MATRIX
TMAX.C        25                   : BHT          - MAXIMUM RECORDED TEMPERATURE
BHTD.M        552                  : BHTDEP       - MAXIMUM RECORDED TEMPERATURE
MATR.         1                    : LOGUNIT      - NEUTRON MATRIX
RMT .C        25                   : MDTP         - TEMPERATURE OF MUD
NEUT.         1                    : NEUTRON      - NEUTRON TYPE
RESI.         0                    : RESIST       - RESISTIVITY TYPE
RMC .OHMM     0.25                 : RMC          - RESISTIVITY OF MUD CAKE
RMF .OHMM     0.25                 : RMF          - RESISTIVITY OF MUD FILTRATE
SUFT.C        15                   : SUFT         - SURFACE TEMPERATURE
~A  DEPTH     RESD     PHID     PHIN       GR
# ...
  318.500    9.684    0.295    0.462   74.448
  318.750    9.686    0.299    0.462   73.839
  319.000    9.871    0.311    0.462   67.759
  319.250    9.875    0.301    0.458   73.820
  319.500    9.343    0.290    0.453   77.458
  319.750    8.207    0.288    0.461   84.129
  320.000    7.209    0.282    0.467   90.799
  320.250    6.452    0.269    0.477   96.865
  320.500    6.104    0.254    0.482  107.179
  320.750    5.668    0.232    0.493  113.244
  321.000    5.265    0.234    0.502  113.844
  321.250    5.779    0.242    0.511  110.192
  321.500    6.227    0.243    0.521  106.537
  321.750    6.465    0.257    0.525  102.888
  322.000    6.711    0.263    0.482  100.450
  322.250    6.969    0.257    0.496   99.832
  322.500    6.971    0.252    0.525   99.216
  322.750    6.972    0.260    0.534   99.819
  323.000    6.846    0.270    0.540  100.415
  323.250    6.242    0.264    0.522   97.373
  323.500    5.690    0.272    0.503   98.579
  323.750    5.384    0.271    0.497  101.605
  324.000    5.487    0.266    0.503  100.988
  324.250    6.023    0.256    0.504  100.376
  324.500    6.611    0.252    0.497   95.508
  324.750    7.816    0.264    0.475   91.855
  325.000    8.740    0.277    0.458   88.206
  325.250    8.908    0.279    0.451   88.192
  325.500    8.428    0.275    0.463   88.796
  325.750    7.973    0.286    0.484   86.359
  326.000    7.004    0.298    0.494   85.743
  326.250    6.627    0.296    0.508   86.342
  326.500    6.270    0.280    0.532   84.512
  326.750    7.012    0.277    0.554   81.467
  327.000    8.290    0.291    0.584   69.921
  327.250   11.371    0.287    0.517   60.805
  327.500   14.481    0.297    0.495   53.509
  327.750   16.497    0.315    0.456   48.036
  328.000   18.795    0.323    0.437   43.169
  328.250   19.511    0.322    0.430   44.374
  328.500   20.637    0.315    0.415   44.364
  328.750   21.425    0.314    0.414   43.753
  329.000   22.660    0.322    0.421   41.920
  329.250   24.414    0.328    0.435   41.307
  329.500   28.335    0.333    0.438   41.298
  329.750   32.279    0.333    0.436   40.681
  330.000   36.096    0.327    0.437   40.671
  330.250   38.178    0.326    0.441   41.274
  330.500   39.636    0.333    0.439   45.513
  330.750   41.922    0.336    0.438   46.722
  331.000   43.525    0.336    0.446   46.107
  331.250   45.186    0.331    0.454   43.062
  331.500   46.913    0.321    0.453   40.017
  331.750   46.927    0.310    0.413   38.184
  332.000   45.233    0.302    0.405   38.782
  332.250   41.238    0.301    0.419   40.600
  332.500   36.901    0.327    0.443   44.234
  332.750   31.817    0.331    0.455   45.438
  333.000   29.009    0.332    0.458   46.039
  333.250   27.958    0.338    0.465   47.849
  333.500   28.493    0.344    0.465   48.452
  333.750   29.584    0.348    0.455   49.051
  334.000   29.593    0.358    0.449   49.649
  334.250   26.978    0.354    0.447   49.640
  334.500   23.261    0.348    0.445   49.026
  334.750   20.817    0.343    0.460   50.840
  335.000   18.629    0.344    0.466   48.401
  335.250   16.983    0.343    0.453   50.214
  335.500   15.772    0.346    0.434   54.457
  335.750   15.201    0.351    0.428   57.486
  336.000   14.652    0.353    0.447   59.299
  336.250   13.608    0.349    0.462   60.504
  336.500   13.117    0.347    0.470   61.709
  336.750   12.881    0.348    0.474   61.095
  337.000   12.648    0.346    0.482   58.659
  337.250   12.421    0.346    0.487   56.829
  337.500   12.197    0.348    0.483   56.212
  337.750   12.201    0.342    0.486   57.416
  338.000   12.204    0.337    0.481   58.018
  338.250   12.207    0.331    0.468   57.399
  338.500   12.440    0.337    0.457   58.001
  338.750   12.216    0.336    0.452   59.208
  339.000   11.775    0.334    0.447   59.807
  339.250   11.563    0.330    0.445   59.795
  339.500   11.354    0.333    0.455   61.611
  339.750   11.569    0.328    0.459   64.640
  340.000   11.575    0.329    0.462   70.094
  340.250   11.795    0.338    0.469   72.515
  340.500   12.248    0.340    0.472   72.508
  340.750   12.480    0.339    0.470   67.033
  341.000   12.718    0.334    0.468   63.990
  341.250   13.205    0.332    0.466   64.589
  341.500   13.708    0.328    0.474   68.221
  341.750   13.713    0.323    0.479   69.431
  342.000   13.976    0.322    0.473   66.994
  342.250   13.980    0.321    0.470   67.590
  342.500   13.729    0.323    0.467   68.797
  342.750   13.732    0.327    0.469   66.968
  343.000   13.736    0.334    0.471   63.922
  343.250   13.999    0.343    0.474   62.698
  343.500   14.266    0.341    0.480   61.476
  343.750   15.090    0.345    0.489   60.256
  344.000   15.959    0.350    0.492   60.244
  344.250   17.197    0.341    0.487   63.271
  344.500   18.877    0.325    0.477   64.481
  344.750   19.597    0.309    0.463   64.470
  345.000   19.970    0.284    0.446   64.463
  345.250   17.541    0.328    0.449   63.845
  345.500   15.126    0.329    0.479   62.019
  345.750   13.790    0.331    0.497   57.759
  346.000   12.808    0.338    0.511   52.287
  346.250   12.575    0.355    0.505   44.990
  346.500   12.349    0.374    0.497   41.338
  346.750   12.355    0.373    0.496   38.294
  347.000   12.359    0.374    0.491   35.858
  347.250   12.362    0.380    0.471   36.455
  347.500   12.365    0.371    0.459   37.660
  347.750   12.142    0.361    0.462   37.651
  348.000   12.146    0.357    0.462   37.647
  348.250   11.928    0.359    0.462   36.424
  348.500   12.155    0.366    0.467   36.415
  348.750   12.162    0.361    0.477   36.402
  349.000   12.166    0.362    0.485   37.610
  349.250   12.169    0.353    0.489   38.211
  349.500   12.171    0.353    0.481   38.203
  349.750   12.176    0.351    0.477   38.192
  350.000   12.180    0.356    0.481   38.187
  350.250   12.412    0.360    0.496   37.571
  350.500   12.418    0.354    0.514   36.346
  350.750   12.421    0.355    0.510   36.341
  351.000   12.198    0.349    0.504   36.330
  351.250   12.202    0.354    0.489   35.717
  351.500   12.207    0.359    0.481   35.097
  351.750   12.440    0.358    0.482   35.090
  352.000   12.443    0.354    0.484   34.476
  352.250   12.447    0.358    0.487   33.861
  352.500   12.451    0.353    0.488   33.848
  352.750   12.692    0.355    0.488   33.839
  353.000   12.695    0.349    0.477   33.832
  353.250   12.698    0.352    0.474   34.432
  353.500   12.941    0.354    0.472   35.638
  353.750   12.945    0.358    0.465   36.844
  354.000   13.440    0.360    0.462   37.443
  354.250   14.482    0.363    0.464   38.651
  354.500   15.035    0.363    0.470   38.645
  354.750   15.321    0.363    0.472   37.420
  355.000   15.327    0.361    0.481   36.199
  355.250   14.774    0.358    0.491   35.580
  355.500   13.980    0.354    0.492   36.182
  355.750   13.725    0.353    0.483   36.172
  356.000   13.229    0.355    0.489   36.773
  356.250   12.753    0.354    0.485   39.800
  356.500   12.521    0.358    0.481   42.821
  356.750   12.528    0.360    0.474   44.636
  357.000   13.499    0.352    0.473   45.236
  357.250   13.254    0.347    0.477   45.836
  357.500   13.259    0.350    0.467   45.831
  357.750   13.262    0.351    0.465   45.820
  358.000   13.021    0.352    0.467   45.810
  358.250   12.788    0.353    0.469   46.408
  358.500   12.792    0.350    0.475   47.616
  358.750   12.561    0.345    0.470   48.823
  359.000   12.566    0.345    0.466   49.424
  359.250   12.568    0.346    0.467   49.415
  359.500   12.573    0.341    0.469   47.585
  359.750   12.579    0.347    0.463   46.362
  360.000   12.582    0.350    0.461   46.355
  360.250   12.355    0.347    0.460   46.347
  360.500   12.359    0.349    0.466   47.553
  360.750   12.365    0.351    0.468   48.758
  361.000   12.368    0.344    0.483   49.355
  361.250   12.144    0.344    0.486   48.738
  361.500   12.148    0.334    0.487   49.341
  361.750   12.152    0.323    0.479   49.328
