~VERSION INFORMATION
 VERS.                 2.0:   CWLS LOG ASCII STANDARD -VERSION 2.0
 WRAP.                  NO:   ONE LINE PER DEPTH STEP
~WELL INFORMATION BLOCK
#MNEM.UNIT           DATA                    DESCRIPTION OF MNEMONIC
#---------    -------------------            -------------------------------
# Generated from Intellog Unique Number	CS_73_76/WELL/3266
WELL.         BOW VALLEY EXPLORATION         : Well_name    - WELL
LOC .         00/11-21-075-15W4/0            : Location     - LOCATION
UWI .         00/11-21-075-15W4/0            : Uwi          - UNIQUE WELL ID
ENTR.         SP                             : Entered      - ENTERED BY
SRVC.         SCHLUMBERGER                   : Scn          - SERVICE COMPANY
STRT.M        425                            : top_depth    - START DEPTH
STOP.M        610                            : bot_depth    - STOP DEPTH
STEP.M        0.25                           : increment    - STEP LENGTH
 NULL. -999.2500:NULL Value
~CURVE INFORMATION BLOCK
#MNEM UNIT       ERCB CURVE CODE    CURVE DESCRIPTION
#-----------   ------------------   ----------------------------------
DEPT.M        00 001 00 00         : DEPTH        - DEPTH
ILD .OHMM     00 120 00 00         : RESD         - DEEP RESISTIVITY (DIL)
DPHI.V/V      00 890 00 00         : PHID         - DENSITY POROSITY (LIMESTONE)
NPHI.V/V      00 330 00 00         : PHIN         - NEUTRON POROSITY (LIMESTONE)
GR  .API      00 310 00 00         : GR           - GAMMA RAY
~PARAMETER INFORMATION
#MNEM.UNIT           DATA             DESCRIPTION OF MNEMONIC
#---------         -----------     ------------------------------
GL  .M        790.66               : gl           - GROUND LEVEL ELEVATION
EREF.M        793.69               : kb           - ELEVATION OF DEPTH REFERENCE
DATM.M        790.66               : datum        - DATUM ELEVATION
TDD .M        619                  : tdd          - TOTAL DEPTH DRILLER
RUN .         ONE                  : Run          - RUN NUMBER
ENG .         BILL                 : Engineer     - RECORDING ENGINEER
WIT .         JIM                  : Witness      - WITNESSED BY
MUD .         GEL                  : Mud_type     - MUD TYPE
MATR.         LIMESTONE            : Logunit      - NEUTRON MATRIX
TMAX.C        12.2                 : BHT          - MAXIMUM RECORDED TEMPERATURE
BHTD.M        619                  : BHTDEP       - MAXIMUM RECORDED TEMPERATURE
MATR.         1                    : LOGUNIT      - NEUTRON MATRIX
RMT .C        25                   : MDTP         - TEMPERATURE OF MUD
NEUT.         1                    : NEUTRON      - NEUTRON TYPE
RESI.         0                    : RESIST       - RESISTIVITY TYPE
RMC .OHMM     0.25                 : RMC          - RESISTIVITY OF MUD CAKE
RMF .OHMM     0.25                 : RMF          - RESISTIVITY OF MUD FILTRATE
SUFT.C        15                   : SUFT         - SURFACE TEMPERATURE
~A  DEPTH     RESD     PHID     PHIN       GR
  425.000    2.654    0.219    0.505  100.818
  425.250    2.703    0.225    0.493  102.647
  425.500    2.702    0.217    0.503  105.697
  425.750    2.751    0.221    0.514  103.885
  426.000    2.853    0.232    0.490  102.682
  426.250    2.905    0.232    0.475  102.690
  426.500    2.904    0.220    0.498  102.092
  426.750    2.850    0.225    0.517  105.143
  427.000    2.746    0.236    0.523  106.366
  427.250    2.848    0.227    0.515  105.161
  427.500    2.900    0.223    0.487  102.138
  427.750    3.008    0.224    0.478  101.538
  428.000    3.063    0.227    0.476  103.980
  428.250    3.119    0.221    0.476  105.206
  428.500    3.118    0.216    0.490  105.824
  428.750    3.060    0.224    0.501  105.228
  429.000    3.003    0.215    0.513  106.455
  429.250    2.947    0.213    0.500  109.498
  429.500    2.839    0.218    0.500  113.153
  429.750    2.786    0.224    0.492  107.698
  430.000    2.735    0.235    0.487  106.496
  430.250    2.684    0.243    0.506  105.902
  430.500    2.683    0.240    0.517  105.301
  430.750    2.732    0.232    0.494  102.885
  431.000    2.782    0.223    0.492  101.073
  431.250    2.938    0.216    0.492   97.438
  431.500    2.992    0.220    0.456   93.806
  431.750    3.103    0.219    0.447   94.421
  432.000    3.103    0.198    0.468   98.684
  432.250    3.159    0.216    0.488   96.874
  432.500    3.277    0.215    0.471   95.668
  432.750    3.398    0.210    0.451   95.074
  433.000    3.590    0.203    0.432   96.905
  433.250    3.863    0.194    0.441  103.595
  433.500    4.157    0.186    0.438  106.035
  433.750    4.641    0.182    0.432  105.438
  434.000    4.814    0.198    0.432  103.628
  434.250    4.992    0.192    0.428  104.245
  434.500    5.178    0.202    0.416  104.255
  434.750    5.371    0.215    0.422   94.551
  435.000    5.673    0.249    0.431   83.629
  435.250    5.994    0.284    0.433   69.672
  435.500    6.691    0.326    0.429   60.573
  435.750    7.069    0.318    0.419   60.582
  436.000    7.332    0.307    0.423   60.595
  436.250    7.747    0.318    0.429   58.783
  436.500    8.035    0.326    0.425   60.616
  436.750    8.332    0.325    0.427   66.093
  437.000    8.329    0.322    0.427   73.392
  437.250    8.328    0.308    0.417   78.867
  437.500    8.324    0.290    0.418   83.127
  437.750    8.169    0.296    0.423   87.390
  438.000    8.166    0.295    0.425   88.615
  438.250    8.163    0.296    0.431   83.769
  438.500    8.161    0.302    0.435   80.744
  438.750    8.158    0.316    0.424   78.322
  439.000    8.307    0.320    0.420   79.547
  439.250    8.304    0.309    0.423   83.809
  439.500    8.302    0.303    0.419   92.936
  439.750    8.451    0.298    0.412   95.372
  440.000    8.606    0.285    0.415   97.811
  440.250    8.604    0.274    0.426   94.786
  440.500    8.601    0.276    0.431   95.403
  440.750    8.597    0.269    0.419   96.627
  441.000    8.595    0.270    0.409   97.855
  441.250    8.590    0.285    0.411   98.471
  441.500    8.588    0.297    0.417   96.054
  441.750    8.586    0.300    0.407   93.635
  442.000    8.742    0.291    0.401   87.573
  442.250    8.740    0.286    0.393   80.904
  442.500    8.736    0.273    0.391   72.410
  442.750    8.733    0.306    0.401   63.311
  443.000    8.571    0.330    0.404   54.210
  443.250    8.412    0.317    0.391   46.933
  443.500    8.105    0.300    0.386   53.018
  443.750    7.666    0.282    0.379   63.355
  444.000    7.386    0.268    0.389   70.044
  444.250    7.521    0.281    0.396   69.451
  444.500    7.518    0.287    0.391   68.242
  444.750    7.378    0.271    0.379   77.364
  445.000    7.110    0.210    0.373   87.091
  445.250    6.363    0.148    0.404   96.817
  445.500    5.909    0.119    0.425  104.725
  445.750    5.590    0.090    0.433  108.381
  446.000    5.191    0.101    0.441  113.857
  446.250    4.820    0.175    0.450  118.118
  446.500    4.476    0.169    0.459  115.699
  446.750    4.234    0.153    0.463  113.890
  447.000    4.005    0.157    0.460  112.082
  447.250    3.859    0.170    0.469  111.481
  447.500    3.787    0.187    0.478  112.705
  447.750    3.717    0.175    0.494  117.575
  448.000    3.784    0.186    0.506  121.228
  448.250    3.783    0.179    0.488  119.418
  448.500    3.853    0.167    0.470  117.606
  448.750    3.781    0.137    0.475  117.619
  449.000    3.577    0.181    0.496  121.271
  449.250    3.261    0.203    0.509  125.531
  449.500    2.973    0.209    0.530  124.938
  449.750    2.812    0.223    0.543  125.554
  450.000    2.916    0.222    0.518  125.565
  450.250    3.317    0.237    0.473  121.324
  450.500    4.452    0.246    0.453  115.263
  450.750    5.654    0.254    0.435  114.061
  451.000    6.796    0.247    0.416  112.856
  451.250    7.587    0.230    0.413  112.259
  451.500    7.868    0.240    0.419  111.053
  451.750    7.867    0.226    0.440  109.848
  452.000    7.864    0.244    0.446  108.038
  452.250    7.577    0.237    0.438  105.621
  452.500    7.167    0.243    0.428  104.416
  452.750    6.534    0.251    0.422  106.858
  453.000    5.956    0.254    0.423  112.332
  453.250    5.634    0.214    0.438  117.810
  453.500    5.530    0.224    0.437  116.603
  453.750    5.950    0.237    0.431  103.254
  454.000    6.522    0.266    0.430   95.370
  454.250    6.891    0.290    0.420   91.128
  454.500    7.414    0.272    0.425   88.709
  454.750    7.690    0.255    0.425   96.619
  455.000    7.975    0.252    0.424  102.097
  455.250    7.973    0.254    0.425  103.925
  455.500    7.971    0.254    0.421  105.152
  455.750    7.402    0.226    0.427  109.413
  456.000    6.748    0.231    0.439  113.067
  456.250    6.383    0.252    0.430  113.684
  456.500    6.150    0.250    0.422  112.480
  456.750    5.925    0.241    0.421  110.668
  457.000    5.815    0.232    0.434  102.784
  457.250    5.813    0.243    0.438   92.472
  457.500    6.030    0.232    0.448   85.193
  457.750    6.370    0.241    0.445   74.880
  458.000    6.730    0.259    0.434   66.995
  458.250    7.241    0.245    0.430   70.650
  458.500    7.510    0.281    0.437   73.089
  458.750    7.647    0.308    0.451   66.422
  459.000    7.787    0.317    0.451   59.756
  459.250    7.929    0.319    0.443   58.547
  459.500    8.074    0.311    0.419   58.561
  459.750    8.221    0.329    0.414   59.177
  460.000    8.526    0.317    0.415   61.620
  460.250    9.007    0.312    0.431   62.842
  460.500    9.171    0.321    0.435   65.890
  460.750    9.169    0.309    0.444   68.937
  461.000    9.166    0.281    0.448   73.200
  461.250    8.995    0.271    0.444   76.853
  461.500    8.509    0.266    0.432   82.938
  461.750    7.615    0.264    0.429   87.197
  462.000    7.204    0.254    0.446   92.675
  462.250    6.814    0.260    0.453   94.505
  462.500    6.445    0.274    0.447   96.338
  462.750    6.326    0.283    0.464   95.134
  463.000    6.208    0.280    0.477   93.325
  463.250    5.981    0.270    0.465   91.511
  463.500    5.871    0.260    0.440   87.879
  463.750    5.158    0.273    0.445   85.459
  464.000    4.703    0.291    0.446   86.686
  464.250    4.368    0.274    0.458   97.628
  464.500    4.365    0.261    0.463  104.318
  464.750    4.528    0.250    0.464   98.866
  465.000    4.964    0.266    0.449   95.837
  465.250    5.856    0.267    0.442   91.598
  465.500    6.186    0.253    0.430   89.180
  465.750    6.417    0.244    0.423   90.405
  466.000    6.415    0.237    0.421   93.454
  466.250    6.532    0.243    0.429   94.677
  466.500    6.529    0.249    0.435   94.688
  466.750    6.527    0.255    0.440   91.662
  467.000    6.406    0.256    0.441   90.459
  467.250    6.172    0.249    0.447   91.686
  467.500    5.838    0.220    0.450   92.909
  467.750    5.521    0.196    0.441   92.312
  468.000    5.420    0.195    0.430   91.107
  468.250    5.418    0.204    0.428   89.905
