~VERSION INFORMATION
 VERS.                 2.0:   CWLS LOG ASCII STANDARD -VERSION 2.0
 WRAP.                  NO:   ONE LINE PER DEPTH STEP
~WELL INFORMATION BLOCK
#MNEM.UNIT           DATA                    DESCRIPTION OF MNEMONIC
#---------    -------------------            -------------------------------
# Generated from Intellog Unique Number	CC_80_83/WELL/2431
NULL.         -999.25                        : NULL_VALUE
WELL.         PARA ET AL HOUSE               : Well_name    - WELL
LOC .         12-24-080-18W4                 : Location     - LOCATION          
UWI .         00/12-24-080-18W4/0            : Uwi          - UNIQUE WELL ID    
ENTR.         DW                             : Entered      - ENTERED BY        
SRVC.         SCHLUMBERGER                   : Scn          - SERVICE COMPANY   
DATE.         28 FEB 79                      : Date         - LOG DATE
STRT.M        185                            : top_depth    - START DEPTH       
STOP.M        322.998                        : bot_depth    - STOP DEPTH        
STEP.M        0.3                            : increment    - STEP LENGTH       
~CURVE INFORMATION BLOCK
#MNEM UNIT       ERCB CURVE CODE    CURVE DESCRIPTION
#-----------   ------------------   ----------------------------------
DEPT.M        00 001 00 00         : DEPTH        - DEPTH                       
DPHI.V/V      00 890 00 00         : PHID         - DENSITY POROSITY (LIMESTONE)
NPHI.V/V      00 330 00 00         : PHIN         - NEUTRON POROSITY (LIMESTONE)
GR  .API      00 310 00 00         : GR           - GAMMA RAY                   
ILD .OHMM     00 120 00 00         : RESD         - DEEP RESISTIVITY (DIL)      
~PARAMETER INFORMATION       
#MNEM.UNIT           DATA             DESCRIPTION OF MNEMONIC
#---------         -----------     ------------------------------
GL  .M        545                  : gl           - GROUND LEVEL ELEVATION      
EREF.M        548                  : kb           - ELEVATION OF DEPTH REFERENCE
DATM.M        548                  : datum        - DATUM ELEVATION             
TDD .M        322                  : tdd          - TOTAL DEPTH DRILLER         
RUN .         ONE                  : Run          - RUN NUMBER                  
ENG .         BILL                 : Engineer     - RECORDING ENGINEER          
WIT .         JIM                  : Witness      - WITNESSED BY                
MUD .         GEL                  : Mud_type     - MUD TYPE                    
MATR.         LIMESTONE            : Logunit      - NEUTRON MATRIX              
TMAX.C        18                   : BHT          - MAXIMUM RECORDED TEMPERATURE
BHTD.M        322                  : BHTDEP       - MAXIMUM RECORDED TEMPERATURE
MATR.         1                    : LOGUNIT      - NEUTRON MATRIX              
RMT .C        25                   : MDTP         - TEMPERATURE OF MUD          
NEUT.         1                    : NEUTRON      - NEUTRON TYPE                
RESI.         0                    : RESIST       - RESISTIVITY TYPE            
RMC .OHMM     0.25                 : RMC          - RESISTIVITY OF MUD CAKE     
RMF .OHMM     0.25                 : RMF          - RESISTIVITY OF MUD FILTRATE 
SUFT.C        15                   : SUFT         - SURFACE TEMPERATURE         
~A  DEPTH     PHID     PHIN       GR     RESD
  185.000    0.338    0.537   60.813   16.391
  185.300    0.338    0.510   60.803   16.711
  185.600    0.336    0.522   57.750   16.077
  185.900    0.335    0.552   54.091   15.840
  186.200    0.334    0.525   54.079   15.524
  186.500    0.334    0.550   55.895   15.128
  186.800    0.335    0.519   57.706   13.618
  187.100    0.335    0.501   55.873   11.710
  187.400    0.331    0.495   57.077   10.519
  187.700    0.319    0.529   67.405    9.725
  188.000    0.307    0.597   57.663    9.090
  188.300    0.321    0.537   54.613    8.934
  188.600    0.294    0.520   60.681    9.492
  188.900    0.260    0.520   64.930   11.006
  189.200    0.304    0.458   64.919   12.122
  189.500    0.297    0.439   49.701   12.522
  189.800    0.288    0.484   70.369   11.967
  190.100    0.292    0.532   80.089   11.412
  190.400    0.292    0.512   75.213   10.777
  190.700    0.296    0.509   65.472   10.541
  191.000    0.302    0.425   60.596   10.542
  191.300    0.289    0.484   67.881   10.862
  191.600    0.282    0.426   69.087   11.342
  191.900    0.278    0.417   65.427   11.344
  192.200    0.276    0.472   71.498   10.869
  192.500    0.246    0.541   81.825   10.313
  192.800    0.235    0.519   84.856    9.361
  193.100    0.309    0.484   83.019    9.124
  193.400    0.374    0.523   72.670    9.046
  193.700    0.408    0.598   50.157    9.526
  194.000    0.275    0.517   48.321   14.222
  194.300    0.283    0.424   49.527   15.497
  194.600    0.299    0.436   49.516   15.897
  194.900    0.310    0.472   47.681   16.058
  195.200    0.316    0.465   44.629   16.139
  195.500    0.318    0.465   42.792   16.301
  195.800    0.320    0.488   42.174   16.462
  196.100    0.323    0.486   42.771   16.702
  196.400    0.330    0.417   43.973   17.022
  196.700    0.331    0.433   43.963   17.423
  197.000    0.328    0.475   42.130   17.584
  197.300    0.326    0.441   43.335   17.585
  197.600    0.334    0.469   47.578   17.508
  197.900    0.334    0.432   49.393   17.510
  198.200    0.326    0.457   51.208   17.591
  198.500    0.331    0.456   57.887   17.753
  198.800    0.321    0.460   65.174   17.755
  199.100    0.328    0.482   54.824   17.677
  199.400    0.341    0.503   48.731   17.520
  199.700    0.336    0.473   48.111   17.522
  200.000    0.331    0.468   48.709   17.603
  200.300    0.335    0.398   48.699   17.606
  200.600    0.341    0.403   45.644   17.607
  200.900    0.345    0.422   45.027   17.450
  201.200    0.352    0.425   45.016   17.134
  201.500    0.349    0.481   43.180   16.738
  201.800    0.315    0.461   44.386   16.183
  202.100    0.317    0.454   49.848   16.026
  202.400    0.335    0.530   42.540   15.948
  202.700    0.341    0.530   42.528   15.950
  203.000    0.347    0.486   46.165   16.032
  203.300    0.345    0.514   45.547   16.113
  203.600    0.333    0.478   44.318   16.036
  203.900    0.336    0.520   45.526   15.957
  204.200    0.338    0.522   54.028   15.881
  204.500    0.322    0.487   50.368   16.042
  204.800    0.315    0.540   41.234   16.122
  205.100    0.322    0.523   39.400   16.284
  205.400    0.332    0.513   42.429   16.365
  205.700    0.335    0.497   39.375   16.288
  206.000    0.331    0.585   38.148   16.130
  206.300    0.331    0.583   44.221   15.973
  206.600    0.334    0.546   47.859   15.896
  206.900    0.340    0.593   39.941   15.898
  207.200    0.319    0.558   40.538   15.740
  207.500    0.298    0.510   48.434   15.186
  207.800    0.315    0.562   49.032   14.948
  208.100    0.333    0.575   44.155   15.110
  208.400    0.336    0.537   45.359   15.590
  208.700    0.321    0.526   44.133   15.750
  209.000    0.321    0.578   49.594   15.752
  209.300    0.327    0.603   45.935   15.675
  209.600    0.325    0.621   39.843   15.598
  209.900    0.313    0.574   43.480   15.599
  210.200    0.315    0.520   46.507   15.601
  210.500    0.313    0.580   46.499   15.683
  210.800    0.307    0.614   45.271   15.684
  211.100    0.315    0.638   47.691   15.766
  211.400    0.308    0.567   53.764   16.007
  211.700    0.302    0.463   61.050   16.088
  212.000    0.303    0.496   59.823   16.090
  212.300    0.307    0.539   51.903   15.853
  212.600    0.312    0.589   50.068   15.458
  212.900    0.315    0.560   54.924   15.221
  213.200    0.318    0.493   60.387   15.143
  213.500    0.320    0.518   59.159   15.145
  213.800    0.317    0.459   59.149   15.386
  214.100    0.290    0.464   62.787   15.786
  214.400    0.289    0.505   51.222   15.947
  214.700    0.301    0.464   58.507   15.869
  215.000    0.299    0.489   60.318   15.633
  215.300    0.296    0.494   62.132   15.396
  215.600    0.276    0.492   62.124   15.318
  215.900    0.312    0.496   60.288   15.320
  216.200    0.312    0.526   63.318   16.595
  216.500    0.172    0.543   53.577   22.569
  216.800    0.041    0.128   37.753   29.748
  217.100    0.168    0.152   34.093   32.952
  217.400    0.232    0.202   49.286   33.768
  217.700    0.312    0.402   62.047   31.398
  218.000    0.299    0.475   68.116   26.644
  218.300    0.295    0.585   57.159   21.097
  218.600    0.294    0.530   54.714   17.724
  218.900    0.286    0.478   57.745   16.454
  219.200    0.280    0.448   63.208   15.978
  219.500    0.295    0.457   51.032   15.742
  219.800    0.293    0.487   55.888   15.664
  220.100    0.291    0.469   66.216   15.586
  220.400    0.288    0.452   57.687   15.429
  220.700    0.284    0.439   57.069   15.113
  221.000    0.282    0.505   50.369   14.876
  221.300    0.293    0.502   57.656   14.639
  221.600    0.296    0.504   57.038   14.482
  221.900    0.300    0.480   56.419   14.325
  222.200    0.304    0.463   57.624   14.326
  222.500    0.291    0.471   56.397   14.249
  222.800    0.288    0.455   59.427   14.251
  223.100    0.298    0.459   62.457   14.094
  223.400    0.297    0.504   66.701   13.857
  223.700    0.284    0.469   58.786   13.621
  224.000    0.298    0.509   67.288   13.543
  224.300    0.295    0.540   61.196   13.624
  224.600    0.291    0.531   66.659   13.706
  224.900    0.307    0.513   67.864   13.708
  225.200    0.304    0.571   73.933   13.630
  225.500    0.279    0.559   64.801   13.393
  225.800    0.284    0.467   65.398   12.202
  226.100    0.270    0.472   76.942   10.692
  226.400    0.264    0.476   83.013    9.660
  226.700    0.277    0.492   75.096    9.343
  227.000    0.271    0.438   66.569    9.425
  227.300    0.260    0.454   67.775    9.506
  227.600    0.246    0.484   89.051    9.429
  227.900    0.227    0.520   86.606    9.033
  228.200    0.234    0.540   79.298    8.399
  228.500    0.234    0.480   85.368    8.241
  228.800    0.215    0.507   92.044    8.642
  229.100    0.248    0.538   87.778    9.200
  229.400    0.270    0.524   71.347    9.679
  229.700    0.252    0.495   72.550    9.999
  230.000    0.245    0.512   73.147   10.081
  230.300    0.264    0.554   71.921    9.924
  230.600    0.269    0.561   71.912    9.608
  230.900    0.248    0.482   73.117    9.212
  231.200    0.227    0.524   82.837    8.976
  231.500    0.234    0.515   81.608    9.136
  231.800    0.245    0.465   77.949    9.456
  232.100    0.265    0.440   63.949   10.413
  232.400    0.281    0.503   57.249   11.132
  232.700    0.270    0.512   55.413   11.213
  233.000    0.245    0.465   64.525   10.976
  233.300    0.214    0.415   79.109   10.501
  233.600    0.216    0.445   73.017   10.423
  233.900    0.269    0.486   75.439   11.062
  234.201    0.281    0.496   73.602   11.541
  234.501    0.290    0.461   71.156   11.543
  234.801    0.283    0.475   71.148   10.749
  235.101    0.239    0.445   79.043    9.637
  235.401    0.216    0.441   85.721    8.684
  235.701    0.233    0.465   84.495    8.527
  236.001    0.243    0.499   81.442    9.325
  236.301    0.252    0.505   72.919    9.884
  236.601    0.257    0.471   65.608   10.045
  236.901    0.217    0.471   70.463    9.888
