~VERSION INFORMATION
 VERS.                 2.0:   CWLS LOG ASCII STANDARD -VERSION 2.0
 WRAP.                  NO:   ONE LINE PER DEPTH STEP
~WELL INFORMATION BLOCK
#MNEM.UNIT           DATA                    DESCRIPTION OF MNEMONIC
#---------    -------------------            -------------------------------
# Generated from Intellog Unique Number	CS_77_79/WELL/988
WELL.         HOME OIL COMPANY               : Well_name    - WELL
LOC .         00/11-06-077-07W4/0            : Location     - LOCATION
UWI .         00/11-06-077-07W4/0            : Uwi          - UNIQUE WELL ID
ENTR.         SP                             : Entered      - ENTERED BY
SRVC.         SCHLUMBERGER                   : Scn          - SERVICE COMPANY
STRT.M        145                            : top_depth    - START DEPTH
STOP.M        380                            : bot_depth    - STOP DEPTH
STEP.M        0.25                           : increment    - STEP LENGTH
 NULL. -999.2500:NULL Value
~CURVE INFORMATION BLOCK
#MNEM UNIT       ERCB CURVE CODE    CURVE DESCRIPTION
#-----------   ------------------   ----------------------------------
DEPT.M        00 001 00 00         : DEPTH        - DEPTH
ILD .OHMM     00 120 00 00         : RESD         - DEEP RESISTIVITY (DIL)
DPHI.V/V      00 890 00 00         : PHID         - DENSITY POROSITY (LIMESTONE)
NPHI.V/V      00 330 00 00         : PHIN         - NEUTRON POROSITY (LIMESTONE)
GR  .API      00 310 00 00         : GR           - GAMMA RAY
~PARAMETER INFORMATION
#MNEM.UNIT           DATA             DESCRIPTION OF MNEMONIC
#---------         -----------     ------------------------------
GL  .M        571.96               : gl           - GROUND LEVEL ELEVATION
EREF.M        575.65               : kb           - ELEVATION OF DEPTH REFERENCE
DATM.M        571.96               : datum        - DATUM ELEVATION
TDD .M        390.3                : tdd          - TOTAL DEPTH DRILLER
RUN .         ONE                  : Run          - RUN NUMBER
ENG .         BILL                 : Engineer     - RECORDING ENGINEER
WIT .         JIM                  : Witness      - WITNESSED BY
MUD .         GEL                  : Mud_type     - MUD TYPE
MATR.         LIMESTONE            : Logunit      - NEUTRON MATRIX
TMAX.C        28                   : BHT          - MAXIMUM RECORDED TEMPERATURE
BHTD.M        390.3                : BHTDEP       - MAXIMUM RECORDED TEMPERATURE
MATR.         0                    : LOGUNIT      - NEUTRON MATRIX
RMT .C        25                   : MDTP         - TEMPERATURE OF MUD
NEUT.         1                    : NEUTRON      - NEUTRON TYPE
RESI.         0                    : RESIST       - RESISTIVITY TYPE
RMC .OHMM     0.25                 : RMC          - RESISTIVITY OF MUD CAKE
RMF .OHMM     0.25                 : RMF          - RESISTIVITY OF MUD FILTRATE
SUFT.C        15                   : SUFT         - SURFACE TEMPERATURE
~A  DEPTH     RESD     PHID     PHIN       GR
# ...
  188.500   18.792    0.300    0.410   69.867
  188.750   18.798    0.271    0.402   76.514
  189.000   19.156    0.262    0.388   77.113
  189.250   18.807    0.285    0.410   75.899
  189.500   18.465    0.289    0.433   78.918
  189.750   17.795    0.285    0.463   78.913
  190.000   16.522    0.290    0.443   73.464
  190.250   14.780    0.279    0.398   78.902
  190.500   12.977    0.267    0.388   83.736
  190.750   11.395    0.262    0.383   89.779
  191.000   10.385    0.240    0.377   95.822
  191.250    9.642    0.212    0.393  102.470
  191.500    9.291    0.223    0.407  114.560
  191.750    8.313    0.226    0.422  121.207
  192.000    8.161    0.229    0.421  125.437
  192.250    8.012    0.218    0.420  121.197
  192.500    8.166    0.193    0.432  119.983
  192.750    8.637    0.154    0.446  121.793
  193.000    9.135    0.193    0.438  125.416
  193.250    9.844    0.218    0.394  119.363
  193.500   10.033    0.238    0.428  107.866
  193.750    9.669    0.237    0.432  103.628
  194.000    9.318    0.232    0.373  103.621
  194.250    8.980    0.232    0.409  106.641
  194.500    8.982    0.227    0.420  122.362
  194.750    9.325    0.219    0.434  126.590
  195.000   10.049    0.209    0.451  128.398
  195.250   10.629    0.214    0.442  125.370
  195.500   11.454    0.222    0.454  113.269
  195.750   11.892    0.236    0.483  106.611
  196.000   11.676    0.242    0.444  104.789
  196.250   11.463    0.250    0.456  105.390
  196.500   11.682    0.250    0.458  105.384
  196.750   12.129    0.244    0.475  105.984
  197.000   12.360    0.255    0.455  109.002
  197.250   12.595    0.263    0.474  110.813
  197.500   13.078    0.266    0.458  113.228
  197.750   13.080    0.267    0.415  112.618
  198.000   13.331    0.274    0.402  104.749
  198.250   13.333    0.283    0.386  104.745
  198.500   13.092    0.272    0.394  106.553
  198.750   12.853    0.274    0.408  104.127
  199.000   12.386    0.263    0.420  105.938
  199.250   11.937    0.249    0.408  110.772
  199.500   11.504    0.243    0.402  115.000
  199.750   11.724    0.238    0.438  116.810
  200.000   11.947    0.229    0.466  116.200
  200.250   12.637    0.224    0.455  110.751
  200.500   13.365    0.237    0.482  104.094
  200.750   13.877    0.118    0.369   79.291
  201.000   13.373    0.107    0.373   61.142
  201.250   12.650    0.152    0.376   62.346
  201.500   11.528    0.205    0.380   75.042
  201.750   11.110    0.260    0.391   86.528
  202.000   10.908    0.258    0.410   88.942
  202.250   11.326    0.256    0.408   89.541
  202.500   11.980    0.236    0.418   88.326
  202.750   12.437    0.217    0.449   84.088
  203.000   13.655    0.277    0.447   77.430
  203.250   14.714    0.285    0.432   74.401
  203.500   15.276    0.271    0.423   78.025
  203.750   14.184    0.258    0.442   82.253
  204.000   13.171    0.308    0.446   80.433
  204.250   12.930    0.324    0.419   79.219
  204.500   13.178    0.323    0.412   79.213
  204.750   14.200    0.290    0.441   82.232
  205.000   16.180    0.275    0.471   83.437
  205.250   21.399    0.290    0.504   76.779
  205.500   27.779    0.293    0.478   68.307
  205.750   36.062    0.291    0.437   65.882
  206.000   40.335    0.304    0.444   69.507
  206.250   41.881    0.318    0.423   69.501
  206.500   41.888    0.319    0.413   67.074
  206.750   43.490    0.318    0.422   67.072
  207.000   45.155    0.318    0.414   64.043
  207.250   46.886    0.319    0.422   67.061
  207.500   46.895    0.316    0.455   68.266
  207.750   46.904    0.314    0.440   61.607
  208.000   46.917    0.318    0.408   61.602
  208.250   46.934    0.316    0.422   62.807
  208.500   47.825    0.325    0.434   64.011
  208.750   46.956    0.333    0.442   64.611
  209.000   46.970    0.335    0.451   63.396
  209.250   46.116    0.334    0.427   63.994
  209.500   45.279    0.328    0.441   63.991
  209.750   44.458    0.330    0.447   64.591
  210.000   43.644    0.332    0.417   64.585
  210.250   42.852    0.322    0.402   64.579
  210.500   42.074    0.313    0.451   64.575
  210.750   40.547    0.313    0.464   66.989
  211.000   39.813    0.321    0.467   63.355
  211.250   39.086    0.321    0.457   63.350
  211.500   38.373    0.318    0.436   68.788
  211.750   37.679    0.329    0.477   68.178
  212.000   36.990    0.333    0.508   68.173
  212.250   37.001    0.332    0.479   67.562
  212.500   37.013    0.330    0.449   68.766
  212.750   37.020    0.354    0.459   69.972
  213.000   37.728    0.365    0.513   73.595
  213.250   37.736    0.356    0.554   71.776
  213.500   38.459    0.346    0.502   68.747
  213.750   38.467    0.341    0.432   69.347
  214.000   39.200    0.349    0.434   68.131
  214.250   39.212    0.348    0.434   68.732
  214.500   39.963    0.338    0.452   71.750
  214.750   39.232    0.332    0.470   73.560
  215.000   39.245    0.328    0.465   74.159
  215.250   39.259    0.324    0.429   72.340
  215.500   38.541    0.323    0.412   69.310
  215.750   38.554    0.317    0.394   71.120
  216.000   37.849    0.279    0.348   66.276
  216.250   37.867    0.242    0.361   63.247
  216.500   37.876    0.289    0.379   66.265
  216.750   37.886    0.323    0.407   66.260
  217.000   37.895    0.339    0.445   65.650
  217.250   37.206    0.340    0.489   65.645
  217.500   37.214    0.344    0.512   65.034
  217.750   37.230    0.347    0.475   64.426
  218.000   37.237    0.340    0.466   62.001
  218.250   37.945    0.343    0.465   60.785
  218.500   37.957    0.343    0.464   61.991
  218.750   37.968    0.333    0.483   64.405
  219.000   38.693    0.322    0.502   65.609
  219.250   38.705    0.322    0.537   62.580
  219.500   38.003    0.322    0.565   62.575
  219.750   38.011    0.327    0.575   64.988
  220.000   38.019    0.332    0.467   66.797
  220.250   38.026    0.336    0.467   66.189
  220.500   37.337    0.339    0.485   65.579
  220.750   37.345    0.336    0.493   65.574
  221.000   37.361    0.341    0.488   65.567
  221.250   37.373    0.335    0.498   65.563
  221.500   37.383    0.324    0.517   64.953
  221.750   37.392    0.328    0.531   63.134
  222.000   37.401    0.331    0.533   60.104
  222.250   37.411    0.330    0.529   60.704
  222.500   37.420    0.340    0.515   64.932
  222.750   37.428    0.342    0.493   64.323
  223.000   37.437    0.342    0.493   63.712
  223.250   37.450    0.338    0.522   64.916
  223.500   37.459    0.336    0.529   65.516
  223.750   37.466    0.336    0.452   66.116
  224.000   37.482    0.336    0.448   64.296
  224.250   36.799    0.330    0.455   62.477
  224.500   36.806    0.335    0.479   61.262
  224.750   36.818    0.329    0.497   60.653
  225.000   36.825    0.323    0.495   60.647
  225.250   36.156    0.323    0.486   61.247
  225.500   36.165    0.315    0.476   62.451
  225.750   36.176    0.325    0.475   63.051
  226.000   31.178    0.326    0.481   63.045
  226.250   19.579    0.318    0.478   64.250
  226.500   15.374    0.303    0.464   66.059
  226.750   13.006    0.309    0.460   67.870
  227.000   12.303    0.321    0.476   75.122
  227.250   12.773    0.308    0.508   82.979
  227.500   14.286    0.280    0.543   78.135
  227.750   17.215    0.232    0.309   63.615
  228.000   24.989    0.000    0.219   53.933
  228.250   24.997    0.181    0.318   52.718
  228.500   18.562    0.278    0.420   66.019
  228.750   13.783    0.313    0.452   68.432
  229.000   10.427    0.317    0.465   69.637
  229.250    8.658    0.313    0.467   77.495
  229.500    7.057    0.284    0.472   90.190
  229.750    6.082    0.245    0.463   98.048
  230.000    5.646    0.245    0.466  102.274
  230.250    6.556    0.245    0.453  102.876
  230.500    6.934    0.228    0.394  103.476
  230.750    7.334    0.228    0.412  105.889
  231.000    7.616    0.234    0.427  104.069
  231.250    7.617    0.240    0.444  101.040
  231.500    7.340    0.216    0.461  102.849
  231.750    7.074    0.218    0.442  104.658
