~VERSION INFORMATION
 VERS.                 2.0:   CWLS LOG ASCII STANDARD -VERSION 2.0
 WRAP.                  NO:   ONE LINE PER DEPTH STEP
~WELL INFORMATION BLOCK
#MNEM.UNIT           DATA                    DESCRIPTION OF MNEMONIC
#---------    -------------------            -------------------------------
# Generated from Intellog Unique Number	CW_82_90/WELL/3453
WELL.         SIEBENS WOODEN                 : Well_name    - WELL
LOC .         00/11-24-088-22W4/0            : Location     - LOCATION
UWI .         00/11-24-088-22W4/0            : Uwi          - UNIQUE WELL ID
ENTR.         MAX                            : Entered      - ENTERED BY
SRVC.         SCHLUMBERGER                   : Scn          - SERVICE COMPANY
STRT.M        76.2                           : top_depth    - START DEPTH
STOP.M        271.2                          : bot_depth    - STOP DEPTH
STEP.M        0.25                           : increment    - STEP LENGTH
 NULL. -999.2500:NULL Value
~CURVE INFORMATION BLOCK
#MNEM UNIT       ERCB CURVE CODE    CURVE DESCRIPTION
#-----------   ------------------   ----------------------------------
DEPT.M        00 001 00 00         : DEPTH        - DEPTH
ILD .OHMM     00 120 00 00         : RESD         - DEEP RESISTIVITY (DIL)
NPHI.V/V      00 330 00 00         : PHIN         - NEUTRON POROSITY (SANDSTONE)
DPHI.V/V      00 890 00 00         : PHID         - DENSITY POROSITY (SANDSTONE)
CALI.MM       00 280 01 00         : CAL          - CALIPER
GR  .API      00 310 00 00         : GR           - GAMMA RAY
~PARAMETER INFORMATION
#MNEM.UNIT           DATA             DESCRIPTION OF MNEMONIC
#---------         -----------     ------------------------------
GL  .M        523.646              : gl           - GROUND LEVEL ELEVATION
EREF.M        525.78               : kb           - ELEVATION OF DEPTH REFERENCE
DATM.M        523.646              : datum        - DATUM ELEVATION
TDD .M        272.491              : tdd          - TOTAL DEPTH DRILLER
RUN .         ONE                  : Run          - RUN NUMBER
ENG .         BILL                 : Engineer     - RECORDING ENGINEER
WIT .         JIM                  : Witness      - WITNESSED BY
MUD .         GEL                  : Mud_type     - MUD TYPE
MATR.         SANDSTONE            : Logunit      - NEUTRON MATRIX
TMAX.C        16.1111              : BHT          - MAXIMUM RECORDED TEMPERATURE
BHTD.M        272.491              : BHTDEP       - MAXIMUM RECORDED TEMPERATURE
MATR.         1                    : LOGUNIT      - NEUTRON MATRIX
RMT .C        12.2222              : MDTP         - TEMPERATURE OF MUD
NEUT.         1                    : NEUTRON      - NEUTRON TYPE
RESI.         0                    : RESIST       - RESISTIVITY TYPE
RMC .OHMM     6.47                 : RMC          - RESISTIVITY OF MUD CAKE
RMF .OHMM     6.61                 : RMF          - RESISTIVITY OF MUD FILTRATE
SUFT.C        -12.2222             : SUFT         - SURFACE TEMPERATURE
~A  DEPTH     RESD     PHIN     PHID      CAL       GR
# ...
  185.700    6.714    0.411    0.111  216.233   67.098
  185.950    6.359    0.475    0.201  217.693   72.957
  186.200    6.187    0.461    0.238  217.166   77.639
  186.450    6.185    0.490    0.233  216.141   74.096
  186.700    5.805    0.477    0.244  215.120   74.079
  186.950    5.209    0.472    0.241  214.586   74.061
  187.200    4.889    0.462    0.248  213.565   76.395
  187.450    4.801    0.500    0.256  214.527   77.255
  187.700    4.756    0.494    0.248  214.995   78.121
  187.950    4.712    0.477    0.252  213.964   79.277
  188.200    4.753    0.477    0.252  213.942   80.141
  188.450    4.925    0.480    0.242  215.405   81.005
  188.700    5.150    0.493    0.236  216.363   81.868
  188.950    5.583    0.507    0.224  217.333   80.971
  189.200    6.162    0.492    0.205  219.788   74.486
  189.450    7.243    0.448    0.172  220.249   72.114
  189.700    8.669    0.421    0.161  220.724   73.276
  189.950    8.434    0.424    0.215  221.189   76.779
  190.200    8.282    0.424    0.215  218.668   79.114
  190.450    8.130    0.439    0.203  217.643   82.917
  190.700    8.128    0.435    0.205  216.615   84.077
  190.950    8.348    0.432    0.212  215.594   82.293
  191.200    9.049    0.439    0.214  215.067   79.924
  191.450   10.260    0.439    0.204  216.531   77.262
  191.700   11.845    0.428    0.206  216.995   72.543
  191.950   14.050    0.406    0.195  212.985   66.649
  192.200   16.515    0.352    0.142  214.449   56.638
  192.450   19.944    0.258    0.088  216.907   53.972
  192.700   25.651    0.245    0.055  216.871   57.485
  192.950   22.404    0.303    0.066  215.348   64.814
  193.200   16.792    0.401    0.166  213.329   69.499
  193.450   13.895    0.436    0.213  213.299   75.062
  193.700   11.395    0.454    0.233  213.764   79.159
  193.950    9.096    0.466    0.250  215.224   75.909
  194.200    8.162    0.474    0.246  215.699   75.304
  194.450    7.661    0.483    0.242  215.670   73.519
  194.700    7.522    0.479    0.246  212.648   71.741
  194.950    8.302    0.457    0.256  211.125   68.198
  195.200   10.393    0.423    0.248  212.091   64.946
  195.450   12.327    0.389    0.228  212.556   61.990
  195.700   16.584    0.311    0.170  214.517   56.093
  195.950   26.712    0.251    0.091  212.995   52.839
  196.200   34.666    0.232    0.045  210.477   51.944
  196.450   33.429    0.343    0.087  210.946   51.629
  196.700   27.663    0.411    0.183  210.916   53.965
  196.950   23.098    0.435    0.294  209.892   57.178
  197.200   20.174    0.431    0.297  207.371   57.750
  197.450   18.598    0.428    0.292  210.323   56.849
  197.700   17.614    0.448    0.301  213.777   51.832
  197.950   17.294    0.451    0.309  212.753   52.111
  198.200   17.133    0.455    0.304  213.217   56.797
  198.450   17.437    0.453    0.294  212.694   59.716
  198.700   17.910    0.422    0.269  212.167   62.045
  198.950   18.560    0.395    0.251  212.130   61.738
  199.200   19.581    0.358    0.181  216.579   59.660
  199.450   19.931    0.329    0.130  216.049   59.349
  199.700   19.925    0.412    0.171  212.540   59.331
  199.950   18.869    0.440    0.286  212.013   59.316
  200.200   18.197    0.453    0.302  212.979   59.294
  200.450   17.706    0.452    0.299  212.946   59.862
  200.700   17.542    0.439    0.284  211.423   60.437
  200.950   17.068    0.433    0.256  210.893   61.883
  201.200   16.460    0.420    0.275  211.365   62.163
  201.450   16.602    0.424    0.283  211.335   64.497
  201.700   17.360    0.419    0.261  209.806   65.361
  201.950   18.317    0.410    0.228  208.785   64.166
  202.200   18.982    0.375    0.143  212.733   63.559
  202.450   19.496    0.348    0.114  213.201   65.011
  202.700   18.970    0.354    0.140  213.168   67.344
  202.950   16.869    0.405    0.182  213.135   71.147
  203.200   15.692    0.428    0.246  214.104   75.244
  203.450   14.336    0.427    0.252  215.070   80.516
  203.700   13.216    0.427    0.245  215.041   85.788
  203.950   12.745    0.441    0.212  212.520   89.003
  204.200   12.513    0.428    0.219  212.988   90.159
  204.450   12.175    0.415    0.225  216.442   91.023
  204.700   11.953    0.428    0.192  219.394   88.359
  204.950   12.058    0.437    0.217  221.359   90.105
  205.200   12.163    0.434    0.216  219.830   92.730
  205.450   12.159    0.433    0.193  219.306   89.776
  205.700   12.264    0.436    0.188  220.272   88.287
  205.950   12.260    0.443    0.179  221.238   92.384
  206.200   12.038    0.451    0.217  221.201   95.893
  206.450   11.713    0.460    0.216  222.167   97.637
  206.700   11.500    0.467    0.206  219.650   96.738
  206.950   11.089    0.471    0.210  214.641   96.135
  207.200   11.186    0.444    0.235  213.616   94.352
  207.450   11.697    0.417    0.226  213.587   89.339
  207.700   12.453    0.404    0.225  212.566   84.910
  207.950   13.499    0.402    0.224  212.529   84.013
  208.200   14.502    0.395    0.208  213.499   84.287
  208.450   15.302    0.397    0.195  214.959   84.566
  208.700   15.574    0.418    0.179  214.929   82.784
  208.950   15.851    0.421    0.193  212.909   81.885
  209.200   15.846    0.416    0.234  212.880   81.280
  209.450   15.839    0.416    0.228  213.348   81.848
  209.700   15.552    0.415    0.234  213.813   83.006
  209.950   15.270    0.409    0.234  213.780   83.280
  210.200   14.858    0.405    0.230  213.754   85.024
  210.450   14.328    0.415    0.210  214.219   89.414
  210.700   14.067    0.407    0.205  213.692   89.985
  210.950   13.810    0.417    0.195  210.677   93.202
  211.200   13.682    0.409    0.206  215.620   92.303
  211.450   13.679    0.388    0.215  216.586   87.874
  211.700   13.796    0.392    0.227  215.557   86.681
  211.950   14.042    0.407    0.239  214.529   86.957
  212.200   14.293    0.405    0.232  214.503   85.172
  212.450   14.160    0.394    0.212  213.973   84.572
  212.700   13.655    0.398    0.226  212.952   85.728
  212.950   13.049    0.409    0.243  213.914   89.824
  213.200   12.030    0.426    0.220  219.856   92.743
  213.450   10.991    0.452    0.203  222.314   91.257
  213.700   10.133    0.437    0.202  217.807   88.597
  213.950    9.596    0.430    0.222  217.276   85.049
  214.200    9.767    0.433    0.231  216.244   83.858
  214.450   10.213    0.462    0.235  216.215   82.074
  214.700   10.119    0.452    0.189  216.193   78.826
  214.950    8.525    0.448    0.185  216.650   76.162
  215.200    6.744    0.463    0.245  216.628   79.967
  215.450    5.193    0.485    0.251  217.093   86.708
  215.700    4.259    0.537    0.245  217.554   93.151
  215.950    3.961    0.529    0.234  218.029   89.022
  216.200    3.996    0.505    0.237  218.497   84.301
  216.450    4.572    0.478    0.202  218.966   81.933
  216.700    5.828    0.450    0.183  218.933   79.858
  216.950    7.037    0.437    0.172  218.903   77.784
  217.200    9.468    0.420    0.131  219.865   74.530
  217.450   10.080    0.430    0.161  218.837   77.747
  217.700   10.077    0.454    0.196  218.811   82.429
  217.950    9.894    0.459    0.209  218.782   84.175
  218.200    9.713    0.441    0.193  218.251   85.039
  218.450    9.798    0.437    0.171  218.716   85.606
  218.700    9.883    0.444    0.154  218.193   85.299
  218.950    9.969    0.450    0.129  218.654   84.694
  219.200   10.146    0.435    0.127  220.618   86.435
  219.450   10.514    0.424    0.195  220.585   87.887
  219.700   10.799    0.430    0.202  219.564   89.633
  219.950   11.091    0.440    0.196  219.535   93.438
  220.200   11.701    0.439    0.185  220.494   89.890
  220.450   12.346    0.429    0.194  218.474   87.524
  220.700   13.028    0.428    0.193  212.975   81.039
  220.950   14.509    0.418    0.182  213.436   76.614
  221.200   16.305    0.403    0.139  213.410   72.187
  221.450   18.321    0.387    0.174  214.873   69.231
  221.700   21.152    0.375    0.148  217.826   66.569
  221.950   23.135    0.349    0.101  218.788   63.907
