~VERSION INFORMATION
 VERS.                 2.0:   CWLS LOG ASCII STANDARD -VERSION 2.0
 WRAP.                  NO:   ONE LINE PER DEPTH STEP
~WELL INFORMATION BLOCK
#MNEM.UNIT           DATA                    DESCRIPTION OF MNEMONIC
#---------    -------------------            -------------------------------
# Generated from Intellog Unique Number	CS_73_76/WELL/2023
WELL.         10-22-076-03W4                 : Well_name    - WELL
LOC .         00/10-22-076-03W4/0            : Location     - LOCATION
UWI .         00/10-22-076-03W4/0            : Uwi          - UNIQUE WELL ID
ENTR.         JO                             : Entered      - ENTERED BY
SRVC.         SCHLUMBERGER                   : Scn          - SERVICE COMPANY
DATE.         05/25/92                       : Date         - LOG DATE
STRT.M        259.08                         : top_depth    - START DEPTH
STOP.M        524.33                         : bot_depth    - STOP DEPTH
STEP.M        0.25                           : increment    - STEP LENGTH
 NULL. -999.2500:NULL Value
~CURVE INFORMATION BLOCK
#MNEM UNIT       ERCB CURVE CODE    CURVE DESCRIPTION
#-----------   ------------------   ----------------------------------
DEPT.M        00 001 00 00         : DEPTH        - DEPTH
GR  .API      00 310 00 00         : GR           - GAMMA RAY
DPHI.V/V      00 890 00 00         : PHID         - DENSITY POROSITY (SANDSTONE)
ILD .OHMM     00 120 00 00         : RESD         - DEEP RESISTIVITY (DIL)
~PARAMETER INFORMATION
#MNEM.UNIT           DATA             DESCRIPTION OF MNEMONIC
#---------         -----------     ------------------------------
GL  .M        632.155              : gl           - GROUND LEVEL ELEVATION
EREF.M        634.594              : kb           - ELEVATION OF DEPTH REFERENCE
DATM.M        634.594              : datum        - DATUM ELEVATION
TDD .M        526.694              : tdd          - TOTAL DEPTH DRILLER
RUN .         ONE                  : Run          - RUN NUMBER
ENG .         BILL                 : Engineer     - RECORDING ENGINEER
WIT .         JIM                  : Witness      - WITNESSED BY
MUD .         GEL                  : Mud_type     - MUD TYPE
MATR.         SANDSTONE            : Logunit      - NEUTRON MATRIX
TMAX.C        25                   : BHT          - MAXIMUM RECORDED TEMPERATURE
BHTD.M        526.694              : BHTDEP       - MAXIMUM RECORDED TEMPERATURE
MATR.         1                    : LOGUNIT      - NEUTRON MATRIX
RMT .C        15.5556              : MDTP         - TEMPERATURE OF MUD
NEUT.         1                    : NEUTRON      - NEUTRON TYPE
RESI.         0                    : RESIST       - RESISTIVITY TYPE
RMC .OHMM     4.66                 : RMC          - RESISTIVITY OF MUD CAKE
RMF .OHMM     5.44                 : RMF          - RESISTIVITY OF MUD FILTRATE
SUFT.C        15                   : SUFT         - SURFACE TEMPERATURE
~A  DEPTH       GR     PHID     RESD
# ...
  476.080   53.721    0.069    4.347
  476.330   52.459    0.069    4.575
  476.580   51.206    0.064    4.488
  476.830   49.954    0.062    5.165
  477.080   49.298    0.061    5.439
  477.330   49.258    0.061    4.798
  477.580   50.440    0.061    3.941
  477.830   53.421    0.061    3.539
  478.080   53.977    0.060    3.177
  478.330   50.310    0.060    3.287
  478.580   44.815    0.060    3.584
  478.830   39.925    0.059    3.843
  479.080   34.410    0.058    4.119
  479.330   32.551    0.058    4.413
  479.580   30.097    0.058    3.824
  479.830   28.238    0.058    3.558
  480.080   25.168    0.060    3.250
  480.330   20.864    0.062    3.133
  480.580   19.612    0.066    2.713
  480.830   20.784    0.070    2.524
  481.080   21.360    0.071    2.391
  481.330   24.331    0.084    2.183
  481.580   25.523    0.087    2.031
  481.830   27.908    0.086    1.958
  482.080   27.252    0.085    1.887
  482.330   24.787    0.081    1.818
  482.580   22.919    0.079    1.816
  482.830   21.050    0.076    1.750
  483.080   20.424    0.074    1.746
  483.330   20.384    0.074    1.744
  483.580   21.546    0.077    1.742
  483.830   22.112    0.082    1.769
  484.080   22.668    0.083    1.767
  484.330   22.618    0.079    1.796
  484.580   21.992    0.077    1.794
  484.830   21.932    0.073    1.822
  485.080   21.932    0.074    1.851
  485.330   22.448    0.078    1.849
  485.580   24.247    0.086    1.847
  485.830   22.358    0.093    1.844
  486.080   22.358    0.096    1.840
  486.330   20.480    0.096    1.838
  486.580   20.449    0.095    1.833
  486.830   20.399    0.094    1.832
  487.080   20.349    0.089    1.829
  487.330   20.925    0.085    1.827
  487.580   20.885    0.083    1.823
  487.830   22.048    0.081    1.820
  488.080   22.018    0.082    1.818
  488.330   23.180    0.087    1.814
  488.580   24.352    0.089    1.812
  488.830   26.131    0.090    1.809
  489.080   28.495    0.088    1.838
  489.330   30.294    0.084    1.869
  489.580   32.678    0.080    1.934
  489.830   34.446    0.078    2.036
  490.080   35.013    0.074    2.261
  490.330   35.579    0.067    2.510
  490.580   36.135    0.062    2.739
  490.830   36.115    0.055    2.833
  491.080   36.065    0.055    2.497
  491.330   35.408    0.071    2.366
  491.580   32.934    0.102    2.161
  491.830   31.692    0.105    2.047
  492.080   31.035    0.107    1.937
  492.330   31.015    0.108    1.867
  492.580   31.571    0.108    1.832
  492.830   32.744    0.108    1.797
  493.080   33.906    0.108    1.794
  493.330   35.078    0.108    1.791
  493.580   33.220    0.107    1.787
  493.830   30.129    0.106    1.785
  494.080   29.503    0.105    1.814
  494.330   28.250    0.104    1.844
  494.580   27.584    0.100    1.874
  494.830   27.564    0.099    1.871
  495.080   27.524    0.095    1.867
  495.330   28.070    0.093    1.866
  495.580   28.656    0.091    1.863
  495.830   28.606    0.090    1.858
  496.080   29.172    0.097    1.857
  496.330   29.132    0.104    1.853
  496.580   29.082    0.105    1.851
  496.830   26.021    0.106    1.849
  497.080   24.153    0.108    1.844
  497.330   24.123    0.110    1.842
  497.580   24.679    0.111    1.840
  497.830   24.679    0.110    1.835
  498.080   27.013    0.110    1.835
  498.330   26.963    0.110    1.931
  498.580   26.943    0.109    1.861
  498.830   27.500    0.113    1.859
  499.080   27.469    0.112    1.855
  499.330   28.026    0.107    1.852
  499.580   27.985    0.104    1.848
  499.830   28.542    0.100    1.814
  500.080   28.502    0.094    1.812
  500.330   29.068    0.089    1.809
  500.580   30.230    0.085    1.806
  500.830   30.816    0.075    1.868
  501.080   31.958    0.064    1.898
  501.330   33.141    0.055    2.035
  501.580   33.717    0.040    2.259
  501.830   34.869    0.039    2.599
  502.080   34.849    0.045    2.836
  502.330   31.172    0.066    2.733
  502.580   29.919    0.101    2.542
  502.830   29.860    0.105    2.282
  503.080   29.809    0.108    2.122
  503.330   30.396    0.111    1.974
  503.580   30.942    0.112    1.869
  503.830   31.528    0.113    1.801
  504.080   32.700    0.113    1.799
  504.330   33.256    0.112    1.764
  504.580   35.035    0.111    1.761
  504.830   36.823    0.107    1.759
  505.080   39.794    0.103    1.785
  505.330   42.188    0.094    1.784
  505.580   44.573    0.089    1.879
  505.830   48.170    0.083    1.944
  506.080   54.191    0.076    2.237
  506.330   69.921    0.071    2.666
  506.580   76.538    0.071    3.291
  506.830   72.255    0.074    4.442
  507.080   72.811    0.074    5.583
  507.330   72.165    0.073    7.018
  507.580   63.043    0.069    7.260
  507.830   47.233    0.067    5.966
  508.080   42.940    0.065    6.064
  508.330   44.728    0.058    5.844
  508.580   44.082    0.050    4.092
  508.830   37.961    0.048    3.740
  509.080   37.314    0.049    3.802
  509.330   40.921    0.053    3.599
  509.580   48.761    0.075    2.904
  509.830   59.632    0.172    2.609
  510.080   68.684    0.222    2.220
  510.330   72.887    0.232    2.139
  510.580   71.635    0.250    2.175
  510.830   69.150    0.251    2.250
  511.080   67.908    0.250    2.327
  511.330   66.665    0.250    2.451
  511.580   64.807    0.252    2.672
  511.830   63.544    0.257    2.814
  512.080   55.018    0.271    2.713
  512.330   50.129    0.286    2.708
  512.580   48.241    0.297    3.061
  512.830   51.251    0.304    3.847
  513.080   56.667    0.301    4.588
  513.330   62.082    0.283    6.190
  513.580   60.830    0.199    7.378
  513.830   57.143    0.169    7.904
  514.080   53.456    0.133    7.757
  514.330   51.607    0.040    6.957
  514.580   48.526    0.026    6.710
  514.830   46.678    0.022    6.464
  515.080   43.607    0.018    6.809
  515.330   41.142    0.015    7.428
  515.580   38.072    0.012    8.242
  515.830   35.597    0.007    8.686
  516.080   37.982   -0.004    9.475
  516.330   40.962   -0.019   11.294
  516.580   43.347   -0.036   10.877
  516.830   46.338   -0.035   10.299
  517.080   49.338   -0.031   10.283
  517.330   53.541   -0.030   12.046
  517.580   58.350   -0.029   11.812
  517.830   65.584   -0.026   10.800
  518.080   69.787   -0.025    9.359
  518.330   70.959   -0.020    8.252
  518.580   70.899   -0.009    7.814
  518.830   70.273    0.007    7.531
  519.080   58.706    0.051    7.519
  519.330   49.574    0.083    7.639
  519.580   42.250    0.089    8.188
  519.830   35.542    0.037    8.625
  520.080   29.441    0.016    9.577
  520.330   24.532   -0.061   13.153
  520.580   23.279   -0.084   16.242
  520.830   22.007   -0.107   18.686
  521.080   21.987   -0.119   22.273
  521.330   21.341   -0.123   37.830
  521.580   21.311   -0.134   45.074
  521.830   20.635   -0.128   49.192
  522.080   20.605   -0.134   56.593
  522.330   19.968   -0.142   63.990
  522.580   19.928   -0.151   80.433
  522.830   19.262   -0.150   83.177
  523.080   19.232   -0.148   83.052
  523.330   19.202   -0.144   80.042
  523.580   19.132   -0.144   70.578
  523.830   19.112   -0.134   51.238
  524.080   19.062   -0.134   45.197
  524.330   19.022   -0.137   50.188
