~VERSION INFORMATION
 VERS.                 2.0:   CWLS LOG ASCII STANDARD -VERSION 2.0
 WRAP.                  NO:   ONE LINE PER DEPTH STEP
~WELL INFORMATION BLOCK
#MNEM.UNIT           DATA                    DESCRIPTION OF MNEMONIC
#---------    -------------------            -------------------------------
# Generated from Intellog Unique Number	nealta/WELL/2304
WELL.         AMOCO PELICAN                  : Well_name    - WELL
LOC .         10-29-077-24W4                 : Location     - LOCATION
UWI .         00/10-29-077-24W4/0            : Uwi          - UNIQUE WELL ID
ENTR.         JAYE                           : Entered      - ENTERED BY
SRVC.         WESTERN ATLAS                  : Scn          - SERVICE COMPANY
DATE.         4 FEB 79                       : Date         - LOG DATE
STRT.M        365                            : top_depth    - START DEPTH
STOP.M        640                            : bot_depth    - STOP DEPTH
STEP.M        0.25                           : increment    - STEP LENGTH
 NULL. -999.2500:NULL Value
~CURVE INFORMATION BLOCK
#MNEM UNIT       ERCB CURVE CODE    CURVE DESCRIPTION
#-----------   ------------------   ----------------------------------
DEPT.M        00 001 00 00         : DEPTH        - DEPTH
GR  .API      00 310 00 00         : GR           - GAMMA RAY
ILD .OHMM     00 120 00 00         : RESD         - DEEP RESISTIVITY (DIL)
CALI.MM       00 280 01 00         : CAL          - CALIPER
NPHI.V/V      00 330 00 00         : PHIN         - NEUTRON POROSITY (SANDSTONE)
DPHI.V/V      00 890 00 00         : PHID         - DENSITY POROSITY (SANDSTONE)
~PARAMETER INFORMATION
#MNEM.UNIT           DATA             DESCRIPTION OF MNEMONIC
#---------         -----------     ------------------------------
GL  .M        666.57               : gl           - GROUND LEVEL ELEVATION
EREF.M        670.67               : kb           - ELEVATION OF DEPTH REFERENCE
DATM.M        666.57               : datum        - DATUM ELEVATION
TDD .M        642                  : tdd          - TOTAL DEPTH DRILLER
RUN .         ONE                  : Run          - RUN NUMBER
ENG .         FRENNETTE            : Engineer     - RECORDING ENGINEER
WIT .         LAMPEN               : Witness      - WITNESSED BY
BASE.         R.D.                 : Branch       - HOME BASE OF LOGGING UNIT
MUD .         GEL CHEM             : Mud_type     - MUD TYPE
MATR.         SANDSTONE            : Logunit      - NEUTRON MATRIX
TMAX.C        29                   : BHT          - MAXIMUM RECORDED TEMPERATURE
BHTD.M        643.4                : BHTDEP       - MAXIMUM RECORDED TEMPERATURE
RMT .C        15.5                 : MDTP         - TEMPERATURE OF MUD
MUDD.KG/M     1050                 : MWT          - MUD DENSITY
NEUT.         1                    : NEUTRON      - NEUTRON TYPE
RESI.         0                    : RESIST       - RESISTIVITY TYPE
RM  .OHMM     5.1                  : RM           - RESISTIVITY OF MUD
RMC .OHMM     6.87                 : RMC          - RESISTIVITY OF MUD CAKE
RMF .OHMM     5.5                  : RMF          - RESISTIVITY OF MUD FILTRATE
SUFT.C        4.5                  : SUFT         - SURFACE TEMPERATURE
~A  DEPTH       GR     RESD      CAL     PHIN     PHID
# ...
  547.500  108.151   10.955  198.303    0.394    0.122
  547.750  106.824   10.985  198.901    0.402    0.113
  548.000  107.881   11.243  199.404    0.397    0.110
  548.250  109.637   11.719  199.720    0.389    0.105
  548.500  108.871   12.536  199.700    0.377    0.099
  548.750  112.449   13.993  199.596    0.360    0.084
  549.000  113.560   16.119  199.674    0.345    0.070
  549.250  104.956   21.370  199.547    0.326    0.049
  549.500   90.332   32.913  199.436    0.303    0.019
  549.750   80.534   41.661  199.532    0.220   -0.003
  550.000   77.013   49.436  199.740    0.214   -0.005
  550.250   77.132   55.696  200.020    0.230    0.006
  550.500   77.940   68.190  200.956    0.257    0.020
  550.750   79.314   86.320  202.398    0.269    0.026
  551.000   81.125   83.876  203.959    0.259    0.010
  551.250   83.812   74.168  205.107    0.243    0.009
  551.500   88.887   55.420  205.601    0.242    0.033
  551.750   96.031   39.251  205.301    0.321    0.088
  552.000  102.233   31.992  205.370    0.316    0.090
  552.250  107.622   25.553  205.464    0.306    0.106
  552.500  111.377   22.138  205.035    0.311    0.120
  552.750  113.816   18.588  204.299    0.321    0.119
  553.000  114.940   16.224  203.766    0.333    0.120
  553.250  116.749   14.346  203.317    0.344    0.124
  553.500  122.010   13.018  203.199    0.357    0.115
  553.750  127.527   12.122  202.986    0.368    0.095
  554.000  121.245   12.222  202.546    0.367    0.073
  554.250  115.653   13.545  201.687    0.357    0.055
  554.500  109.620   14.896  200.854    0.343    0.073
  554.750  108.045   16.627  200.023    0.336    0.108
  555.000  108.858   17.143  199.274    0.338    0.118
  555.250  107.220   17.030  198.708    0.343    0.129
  555.500  104.759   16.610  198.382    0.362    0.124
  555.750  102.555   16.199  198.058    0.366    0.113
  556.000  103.799   15.798  198.163    0.364    0.111
  556.250  107.179   15.725  198.131    0.350    0.122
  556.500  109.305   16.033  198.027    0.338    0.133
  556.750  109.490   16.017  197.794    0.343    0.138
  557.000  107.784   15.882  197.783    0.354    0.124
  557.250   99.242   15.721  197.452    0.360    0.000
  557.500   93.841   15.363  196.935    0.340    0.021
  557.750  106.379   14.572  197.015    0.358    0.058
  558.000  112.272   13.370  196.804    0.378    0.119
  558.250  114.397   12.289  196.777    0.394    0.142
  558.500  111.313   13.124  196.457    0.394    0.131
  558.750   98.003   14.434  196.226    0.386    0.110
  559.000   92.096   16.172  195.904    0.372    0.082
  559.250   86.067   18.978  195.686    0.360    0.099
  559.500   79.723   20.001  195.555    0.364    0.134
  559.750   74.819   23.341  195.651    0.359    0.211
  560.000   70.546   25.817  195.738    0.359    0.236
  560.250   65.460   27.362  195.520    0.363    0.262
  560.500   63.003   27.797  194.876    0.380    0.235
  560.750   65.252   27.880  194.342    0.395    0.221
  561.000   58.408   27.639  194.229    0.368    0.229
  561.250   51.310   25.836  193.907    0.340    0.275
  561.500   47.850   24.459  193.367    0.328    0.279
  561.750   46.335   22.114  193.249    0.329    0.281
  562.000   46.647   19.661  193.123    0.330    0.281
  562.250   47.888   17.709  193.007    0.338    0.273
  562.500   47.943   15.921  192.783    0.344    0.262
  562.750   47.567   14.234  192.475    0.341    0.250
  563.000   48.365   12.018  192.552    0.349    0.239
  563.250   48.612   11.110  192.435    0.346    0.251
  563.500   46.348   10.538  192.942    0.339    0.252
  563.750   43.386   10.070  193.761    0.330    0.250
  564.000   41.943    9.857  194.391    0.324    0.255
  564.250   42.243   10.088  194.477    0.321    0.256
  564.500   42.370   10.912  194.766    0.314    0.246
  564.750   42.231   12.025  194.962    0.275    0.243
  565.000   41.589   12.935  195.595    0.223    0.219
  565.250   40.454   13.362  196.109    0.184    0.043
  565.500   39.634   13.249  196.702    0.218    0.054
  565.750   38.433   12.971  197.223    0.266    0.133
  566.000   38.485   12.695  197.317    0.293    0.181
  566.250   38.979   12.154  197.633    0.321    0.245
  566.500   40.099   11.381  197.700    0.335    0.249
  566.750   41.784   10.579  197.691    0.342    0.237
  567.000   44.662    9.997  197.669    0.328    0.228
  567.250   46.851    9.643  197.663    0.328    0.245
  567.500   49.353    9.440  197.763    0.338    0.266
  567.750   52.294    9.344  197.532    0.346    0.270
  568.000   53.042    9.267  197.335    0.337    0.239
  568.250   57.235    9.223  197.099    0.340    0.242
  568.500   61.428    9.266  196.664    0.348    0.247
  568.750   65.192    9.359  196.335    0.349    0.227
  569.000   68.818    9.489  196.222    0.356    0.221
  569.250   71.196    9.550  196.195    0.362    0.214
  569.500   73.318    9.541  196.291    0.360    0.200
  569.750   73.059    9.445  195.960    0.354    0.202
  570.000   68.472    9.347  195.844    0.340    0.223
  570.250   66.963    9.269  195.509    0.336    0.225
  570.500   67.456    9.645  194.875    0.329    0.179
  570.750   72.782   10.708  194.235    0.324    0.090
  571.000   78.545   11.539  194.333    0.327    0.050
  571.250   81.301   12.208  194.625    0.331    0.065
  571.500   76.204   12.585  194.925    0.329    0.091
  571.750   74.691   12.343  195.328    0.323    0.148
  572.000   77.633   11.882  195.010    0.331    0.177
  572.250   65.139   11.293  194.884    0.347    0.190
  572.500   55.219   10.752  194.664    0.349    0.224
  572.750   52.265   10.201  193.394    0.343    0.270
  573.000   50.999   10.078  190.977    0.328    0.263
  573.250   49.048   10.011  188.978    0.334    0.258
  573.500   47.283    9.964  188.338    0.344    0.259
  573.750   48.715    9.954  188.950    0.357    0.259
  574.000   50.212    9.964  189.984    0.352    0.257
  574.250   54.162   10.120  191.014    0.357    0.260
  574.500   57.036   10.492  192.251    0.362    0.260
  574.750   57.531   11.141  193.181    0.360    0.242
  575.000   58.213   16.890  193.901    0.352    0.221
  575.250   70.071   18.309  198.965    0.327    0.193
  575.500   72.341   19.480  199.553    0.324    0.177
  575.750   74.365   20.611  199.928    0.321    0.161
  576.000   79.670   20.703  200.080    0.316    0.141
  576.250   82.006   20.451  200.459    0.303    0.068
  576.500   88.246   20.316  200.836    0.282    0.056
  576.750   89.276   19.918  201.220    0.291    0.141
  577.000   89.994   18.438  201.590    0.311    0.153
  577.250  100.143   16.537  201.637    0.338    0.132
  577.500  119.965   14.265  201.701    0.327    0.122
  577.750  131.353   12.722  204.356    0.356    0.133
  578.000  130.152   11.326  206.173    0.370    0.131
  578.250  125.600   10.602  208.098    0.369    0.110
  578.500  119.874   10.129  209.291    0.361    0.131
  578.750  113.146    9.932  210.291    0.351    0.144
  579.000  108.658    9.666  210.763    0.356    0.152
  579.250  108.758    9.149  211.468    0.378    0.162
  579.500  109.665    9.242  211.337    0.387    0.150
  579.750  113.978   10.281  211.261    0.384    0.132
  580.000  109.736   12.714  210.303    0.372    0.122
  580.250   92.222   15.608  209.627    0.352    0.133
  580.500   86.492   19.922  208.450    0.332    0.148
  580.750   78.466   23.480  207.184    0.321    0.157
  581.000   75.837   24.520  206.613    0.313    0.161
  581.250   74.698   23.512  206.178    0.311    0.152
  581.500   84.098   21.206  206.022    0.304    0.137
  581.750   88.604   17.527  206.185    0.301    0.115
  582.000  111.279   14.951  206.049    0.343    0.089
  582.250  118.763   13.237  206.316    0.380    0.065
  582.500  107.634   12.883  205.753    0.398    0.056
  582.750  100.167   14.765  204.367    0.366    0.056
  583.000   93.445   16.004  203.402    0.342    0.036
  583.250   87.651   16.653  202.740    0.306    0.064
  583.500   88.994   15.998  202.396    0.257    0.051
  583.750   91.447   14.563  202.548    0.269    0.058
