~VERSION INFORMATION
 VERS.                 2.0:   CWLS LOG ASCII STANDARD -VERSION 2.0
 WRAP.                  NO:   ONE LINE PER DEPTH STEP
~WELL INFORMATION BLOCK
#MNEM.UNIT           DATA                    DESCRIPTION OF MNEMONIC
#---------    -------------------            -------------------------------
# Generated from Intellog Unique Number	CS_73_76/WELL/2182
WELL.         PEX KIRBY                      : Well_name    - WELL
LOC .         00/10-01-074-08W4/0            : Location     - LOCATION
UWI .         00/10-01-074-08W4/0            : Uwi          - UNIQUE WELL ID
ENTR.         SP                             : Entered      - ENTERED BY
SRVC.         SCHLUMBERGER                   : Scn          - SERVICE COMPANY
STRT.M        340                            : top_depth    - START DEPTH
STOP.M        565                            : bot_depth    - STOP DEPTH
STEP.M        0.25                           : increment    - STEP LENGTH
 NULL. -999.2500:NULL Value
~CURVE INFORMATION BLOCK
#MNEM UNIT       ERCB CURVE CODE    CURVE DESCRIPTION
#-----------   ------------------   ----------------------------------
DEPT.M        00 001 00 00         : DEPTH        - DEPTH
DPHI.V/V      00 890 00 00         : PHID         - DENSITY POROSITY (LIMESTONE)
NPHI.V/V      00 330 00 00         : PHIN         - NEUTRON POROSITY (LIMESTONE)
GR  .API      00 310 00 00         : GR           - GAMMA RAY
ILD .OHMM     00 120 00 00         : RESD         - DEEP RESISTIVITY (DIL)
~PARAMETER INFORMATION
#MNEM.UNIT           DATA             DESCRIPTION OF MNEMONIC
#---------         -----------     ------------------------------
GL  .M        725.14               : gl           - GROUND LEVEL ELEVATION
EREF.M        728.54               : kb           - ELEVATION OF DEPTH REFERENCE
DATM.M        725.14               : datum        - DATUM ELEVATION
TDD .M        573                  : tdd          - TOTAL DEPTH DRILLER
RUN .         ONE                  : Run          - RUN NUMBER
ENG .         BILL                 : Engineer     - RECORDING ENGINEER
WIT .         JIM                  : Witness      - WITNESSED BY
MUD .         GEL                  : Mud_type     - MUD TYPE
MATR.         LIMESTONE            : Logunit      - NEUTRON MATRIX
TMAX.C        30                   : BHT          - MAXIMUM RECORDED TEMPERATURE
BHTD.M        573                  : BHTDEP       - MAXIMUM RECORDED TEMPERATURE
MATR.         1                    : LOGUNIT      - NEUTRON MATRIX
RMT .C        25                   : MDTP         - TEMPERATURE OF MUD
NEUT.         1                    : NEUTRON      - NEUTRON TYPE
RESI.         0                    : RESIST       - RESISTIVITY TYPE
RMC .OHMM     0.25                 : RMC          - RESISTIVITY OF MUD CAKE
RMF .OHMM     0.25                 : RMF          - RESISTIVITY OF MUD FILTRATE
SUFT.C        15                   : SUFT         - SURFACE TEMPERATURE
~A  DEPTH     PHID     PHIN       GR     RESD
# ...
  470.500    0.108    0.329   54.713    5.323
  470.750    0.137    0.344   60.861    4.938
  471.000    0.194    0.381   69.467    4.753
  471.250    0.217    0.404   76.230    4.750
  471.500    0.201    0.403   78.689    4.746
  471.750    0.206    0.384   81.762    4.922
  472.000    0.219    0.395   84.221    5.106
  472.250    0.216    0.389   85.451    5.345
  472.500    0.202    0.405   84.221    5.391
  472.750    0.187    0.411   84.221    5.488
  473.000    0.208    0.396   86.680    5.484
  473.250    0.218    0.396   81.762    5.480
  473.500    0.213    0.379   83.607    5.425
  473.750    0.217    0.385   89.139    5.371
  474.000    0.203    0.386   87.295    5.268
  474.250    0.210    0.397   81.147    5.215
  474.500    0.209    0.391   82.992    5.163
  474.750    0.208    0.382   89.139    5.159
  475.000    0.214    0.374   86.066    5.154
  475.250    0.225    0.388   82.377    5.248
  475.500    0.219    0.385   87.910    5.294
  475.750    0.220    0.378   90.369    5.289
  476.000    0.229    0.380   85.451    5.188
  476.250    0.240    0.373   88.525    4.902
  476.500    0.281    0.395   86.066    4.632
  476.750    0.179    0.428   90.984    4.336
  477.000    0.207    0.442   76.230    4.098
  477.250    0.243    0.449   76.230    3.594
  477.500    0.233    0.442   79.918    3.095
  477.750    0.185    0.450   77.459    2.567
  478.000    0.215    0.436   77.459    2.169
  478.250    0.253    0.427   81.762    1.867
  478.500    0.280    0.440   81.762    1.748
  478.750    0.283    0.456   78.689    1.747
  479.000    0.274    0.444   79.303    1.745
  479.250    0.268    0.419   79.918    1.744
  479.500    0.258    0.409   76.230    1.792
  479.750    0.269    0.422   84.836    1.876
  480.000    0.239    0.436   90.369    1.928
  480.250    0.242    0.436   86.066    2.037
  480.500    0.255    0.431   91.598    2.093
  480.750    0.266    0.443   87.910    2.191
  481.000    0.260    0.448   89.754    2.316
  481.250    0.260    0.407   82.377    2.493
  481.500    0.248    0.379   76.230    2.864
  481.750    0.219    0.394   81.147    3.513
  482.000    0.210    0.390   81.762    4.309
  482.250    0.243    0.370   84.221    5.435
  482.500    0.248    0.358   73.770   11.985
  482.750    0.291    0.360   74.385   30.112
  483.000    0.330    0.355   63.320   39.786
  483.250    0.320    0.366   59.016   40.883
  483.500    0.308    0.396   54.713   38.994
  483.750    0.322    0.407   51.639   37.192
  484.000    0.312    0.391   47.951   36.816
  484.250    0.301    0.403   54.098   36.451
  484.500    0.301    0.389   57.787   37.456
  484.750    0.301    0.404   60.246   39.578
  485.000    0.300    0.419   57.172   40.669
  485.250    0.305    0.387   55.328   42.575
  485.500    0.311    0.366   54.098   42.544
  485.750    0.314    0.369   53.484   40.958
  486.000    0.310    0.387   54.713   39.431
  486.250    0.309    0.404   57.172   38.308
  486.500    0.315    0.386   53.484   35.864
  486.750    0.310    0.372   55.943   34.533
  487.000    0.309    0.388   57.172   32.932
  487.250    0.299    0.403   54.098   31.707
  487.500    0.295    0.379   51.025   29.959
  487.750    0.288    0.386   51.639   29.939
  488.000    0.284    0.367   55.943   32.836
  488.250    0.278    0.379   58.402   36.017
  488.500    0.294    0.373   54.098   38.055
  488.750    0.302    0.379   55.943   38.379
  489.000    0.304    0.377   55.328   36.273
  489.250    0.307    0.379   55.328   33.023
  489.500    0.308    0.382   54.713   30.343
  489.750    0.308    0.401   57.172   27.114
  490.000    0.314    0.411   57.787   24.916
  490.250    0.316    0.405   56.557   23.540
  490.500    0.314    0.401   57.172   22.879
  490.750    0.312    0.401   56.557   22.438
  491.000    0.286    0.395   55.943   22.213
  491.250    0.280    0.382   60.246   22.827
  491.500    0.279    0.393   61.475   28.258
  491.750    0.268    0.382   59.016   35.312
  492.000    0.262    0.357   59.016   47.534
  492.250    0.246    0.311   54.098   96.389
  492.500    0.239    0.278   52.254   97.228
  492.750    0.221    0.241   51.639   64.489
  493.000    0.064    0.196   47.951   47.835
  493.250    0.033    0.187   45.492   37.521
  493.500    0.076    0.267   50.410   30.262
  493.750    0.098    0.336   52.869   27.040
  494.000    0.253    0.361   57.172   25.315
  494.250    0.296    0.374   59.016   24.831
  494.500    0.232    0.352   52.869   24.813
  494.750    0.196    0.337   49.795   24.794
  495.000    0.210    0.335   54.713   23.865
  495.250    0.299    0.376   52.869   23.412
  495.500    0.285    0.372   55.328   22.960
  495.750    0.276    0.386   57.172   22.522
  496.000    0.283    0.386   61.475   21.885
  496.250    0.287    0.401   66.393   21.465
  496.500    0.291    0.412   67.623   21.052
  496.750    0.283    0.381   63.934   20.839
  497.000    0.261    0.363   62.705   21.020
  497.250    0.249    0.386   55.943   21.201
  497.500    0.299    0.396   57.787   21.585
  497.750    0.297    0.391   61.475   24.119
  498.000    0.303    0.406   61.475   25.722
  498.250    0.298    0.396   62.090   25.705
  498.500    0.287    0.388   63.934   26.166
  498.750    0.304    0.379   60.246   27.649
  499.000    0.302    0.374   54.713   29.216
  499.250    0.292    0.397   59.016   29.467
  499.500    0.270    0.387   60.861   28.637
  499.750    0.220    0.376   55.328   27.314
  500.000    0.236    0.381   52.869   25.571
  500.250    0.286    0.393   56.557   23.280
  500.500    0.319    0.398   57.787   21.590
  500.750    0.337    0.400   56.557   20.784
  501.000    0.317    0.386   55.943   20.009
  501.250    0.261    0.375   57.172   19.445
  501.500    0.294    0.381   59.016   19.072
  501.750    0.315    0.383   61.475   19.059
  502.000    0.297    0.399   64.549   18.179
  502.250    0.256    0.366   57.172   16.395
  502.500    0.318    0.364   46.721   14.516
  502.750    0.331    0.380   35.656   12.380
  503.000    0.321    0.387   49.180   12.257
  503.250    0.317    0.408   75.000   12.247
  503.500    0.288    0.410   82.377   12.703
  503.750    0.279    0.392   74.385   13.299
  504.000    0.256    0.379   78.689   13.042
  504.250    0.246    0.362   78.689   11.763
  504.500    0.254    0.356   77.459   10.710
  504.750    0.251    0.351   78.689   10.027
  505.000    0.247    0.351   81.762   10.595
  505.250    0.257    0.356   84.221   13.614
  505.500    0.264    0.366   85.451   19.201
  505.750    0.275    0.363   75.615   34.180
  506.000    0.277    0.360   53.484   49.109
  506.250    0.274    0.351   37.500   68.616
  506.500    0.271    0.361   43.033   78.843
  506.750    0.267    0.356   44.877   69.795
  507.000    0.277    0.338   47.336   59.537
  507.250    0.272    0.343   50.410   48.468
  507.500    0.278    0.371   52.254   41.731
  507.750    0.273    0.350   54.713   36.603
  508.000    0.272    0.377   57.172   33.012
  508.250    0.268    0.356   51.025   29.776
  508.500    0.267    0.349   52.869   25.397
  508.750    0.270    0.346   59.631   22.276
  509.000    0.252    0.346   62.090   18.825
  509.250    0.248    0.355   63.320   16.358
  509.500    0.245    0.361   68.238   14.482
  509.750    0.242    0.356   71.311   12.820
  510.000    0.225    0.367   76.844   11.244
  510.250    0.228    0.388   81.147    9.771
  510.500    0.212    0.368   79.303    8.731
  510.750    0.207    0.362   84.836    8.175
  511.000    0.190    0.380   92.828    7.725
  511.250    0.196    0.379   97.746    7.577
  511.500    0.214    0.380  106.352    7.858
  511.750    0.249    0.375  103.893    8.075
  512.000    0.262    0.370   89.754    8.145
  512.250    0.232    0.351   75.615    8.214
  512.500    0.194    0.352   70.697    8.132
  512.750    0.211    0.345   70.082    7.902
  513.000    0.222    0.329   73.156    7.679
  513.250    0.198    0.330   76.844    7.323
  513.500    0.165    0.318   81.147    7.250
  513.750    0.167    0.329   80.533    7.112
