~VERSION INFORMATION
 VERS.                 2.0:   CWLS LOG ASCII STANDARD -VERSION 2.0
 WRAP.                  NO:   ONE LINE PER DEPTH STEP
~WELL INFORMATION BLOCK
#MNEM.UNIT           DATA                    DESCRIPTION OF MNEMONIC
#---------    -------------------            -------------------------------
# Generated from Intellog Unique Number	CS_77_79/WELL/952
WELL.         PARAMOUNT RESOURCES LTD.       : Well_name    - WELL
LOC .         00/10-14-077-10W4/0            : Location     - LOCATION
UWI .         00/10-14-077-10W4/0            : Uwi          - UNIQUE WELL ID
ENTR.         SP                             : Entered      - ENTERED BY
SRVC.         SCHLUMBERGER                   : Scn          - SERVICE COMPANY
STRT.M        210.25                         : top_depth    - START DEPTH
STOP.M        440                            : bot_depth    - STOP DEPTH
STEP.M        0.25                           : increment    - STEP LENGTH
 NULL. -999.2500:NULL Value
~CURVE INFORMATION BLOCK
#MNEM UNIT       ERCB CURVE CODE    CURVE DESCRIPTION
#-----------   ------------------   ----------------------------------
DEPT.M        00 001 00 00         : DEPTH        - DEPTH
ILD .OHMM     00 120 00 00         : RESD         - DEEP RESISTIVITY (DIL)
DPHI.V/V      00 890 00 00         : PHID         - DENSITY POROSITY (LIMESTONE)
NPHI.V/V      00 330 00 00         : PHIN         - NEUTRON POROSITY (LIMESTONE)
GR  .API      00 310 00 00         : GR           - GAMMA RAY
~PARAMETER INFORMATION
#MNEM.UNIT           DATA             DESCRIPTION OF MNEMONIC
#---------         -----------     ------------------------------
GL  .M        632                  : gl           - GROUND LEVEL ELEVATION
EREF.M        635                  : kb           - ELEVATION OF DEPTH REFERENCE
DATM.M        632                  : datum        - DATUM ELEVATION
TDD .M        470                  : tdd          - TOTAL DEPTH DRILLER
RUN .         ONE                  : Run          - RUN NUMBER
ENG .         BILL                 : Engineer     - RECORDING ENGINEER
WIT .         JIM                  : Witness      - WITNESSED BY
MUD .         GEL                  : Mud_type     - MUD TYPE
MATR.         LIMESTONE            : Logunit      - NEUTRON MATRIX
TMAX.C        22                   : BHT          - MAXIMUM RECORDED TEMPERATURE
BHTD.M        470                  : BHTDEP       - MAXIMUM RECORDED TEMPERATURE
MATR.         1                    : LOGUNIT      - NEUTRON MATRIX
RMT .C        25                   : MDTP         - TEMPERATURE OF MUD
NEUT.         1                    : NEUTRON      - NEUTRON TYPE
RESI.         0                    : RESIST       - RESISTIVITY TYPE
RMC .OHMM     0.25                 : RMC          - RESISTIVITY OF MUD CAKE
RMF .OHMM     0.25                 : RMF          - RESISTIVITY OF MUD FILTRATE
SUFT.C        15                   : SUFT         - SURFACE TEMPERATURE
~A  DEPTH     RESD     PHID     PHIN       GR
  210.250    3.414    0.279    0.544   90.252
  210.500    3.616    0.274    0.549   93.915
  210.750    3.616    0.273    0.515   90.259
  211.000    3.617    0.274    0.526   83.556
  211.250    3.417    0.271    0.537   86.610
  211.500    3.417    0.276    0.539   83.565
  211.750    3.619    0.270    0.545   85.398
  212.000    3.418    0.275    0.522   87.840
  212.250    3.419    0.281    0.501   84.186
  212.500    3.419    0.294    0.514   85.409
  212.750    3.219    0.291    0.531   90.291
  213.000    3.421    0.285    0.547   87.856
  213.250    3.220    0.284    0.525   82.374
  213.500    3.221    0.286    0.522   81.157
  213.750    3.221    0.294    0.521   75.673
  214.000    3.021    0.299    0.490   72.629
  214.250    3.022    0.302    0.492   79.949
  214.500    3.022    0.291    0.560   78.124
  214.750    3.023    0.271    0.590   82.397
  215.000    2.823    0.104    0.580   84.230
  215.250    2.823    0.062    0.551   81.185
  215.500    2.824    0.150    0.521   75.702
  215.750    3.025    0.247    0.488   73.877
  216.000    3.026    0.248    0.497   75.710
  216.250    3.026    0.248    0.497   78.152
  216.500    3.027    0.262    0.492   77.546
  216.750    3.027    0.252    0.514   79.381
  217.000    3.229    0.248    0.511   83.044
  217.250    3.229    0.253    0.464   84.875
  217.500    3.230    0.259    0.453   83.661
  217.750    3.431    0.256    0.451   86.104
  218.000    3.432    0.248    0.445   86.107
  218.250    3.633    0.246    0.460   80.013
  218.500    3.634    0.249    0.480   87.945
  218.750    3.835    0.251    0.510   96.486
  219.000    3.836    0.246    0.487   92.831
  219.250    3.836    0.242    0.462   84.907
  219.500    4.037    0.248    0.476   80.644
  219.750    4.239    0.231    0.494   83.088
  220.000    4.239    0.220    0.445   87.358
  220.250    4.843    0.220    0.443   83.705
  220.500    4.843    0.184    0.446   81.269
  220.750    4.843    0.052    0.428   73.346
  221.000    5.045    0.075    0.329   69.691
  221.250    5.045    0.167    0.348   74.574
  221.500    5.046    0.228    0.368   72.139
  221.750    4.846    0.240    0.398   72.143
  222.000    4.846    0.247    0.426   75.805
  222.250    4.646    0.238    0.470   83.127
  222.500    4.646    0.234    0.469   84.350
  222.750    4.647    0.232    0.457   88.622
  223.000    4.648    0.230    0.430   89.236
  223.250    4.648    0.225    0.443   84.363
  223.500    4.850    0.223    0.449   80.097
  223.750    4.850    0.226    0.443   72.784
  224.000    4.851    0.240    0.423   75.837
  224.250    4.449    0.248    0.424   81.329
  224.500    4.651    0.246    0.410   86.821
  224.750    4.852    0.231    0.413   83.776
  225.000    5.455    0.229    0.440   80.121
  225.250    5.857    0.237    0.469   81.345
  225.500    6.862    0.243    0.404   73.422
  225.750    7.264    0.242    0.368   65.498
  226.000    8.269    0.305    0.383   69.162
  226.250    9.474    0.429    0.439   59.410
  226.500   10.278    0.647    0.492   53.316
  226.750   11.082    0.686    0.569   50.270
  227.000   12.287    0.606    0.559   55.153
  227.250   13.693    0.270    0.349   56.377
  227.500   16.505    0.271    0.347   50.894
  227.750   18.714    0.288    0.355   44.188
  228.000   21.326    0.299    0.359   35.656
  228.250   23.133    0.310    0.342   31.391
  228.500   22.933    0.315    0.332   35.664
  228.750   22.130    0.319    0.344   36.278
  229.000   20.926    0.321    0.348   42.990
  229.250   19.521    0.312    0.334   55.798
  229.500   18.116    0.304    0.338   64.340
  229.750   17.514    0.302    0.362   60.685
  230.000   16.511    0.291    0.376   53.981
  230.250   15.708    0.264    0.341   58.863
  230.500   15.106    0.214    0.342   63.136
  230.750   14.906    0.130    0.331   60.700
  231.000   14.906    0.064    0.256   54.606
  231.250   15.710    0.068    0.266   49.123
  231.500   16.715    0.162    0.262   46.078
  231.750   18.121    0.217    0.304   57.057
  232.000   18.925    0.265    0.333   58.281
  232.250   19.327    0.320    0.347   59.505
  232.500   19.528    0.360    0.357   69.266
  232.750   19.930    0.346    0.339   72.929
  233.000   20.333    0.373    0.373   66.834
  233.250   20.735    0.386    0.391   57.691
  233.500   21.137    0.317    0.377   57.086
  233.750   21.740    0.322    0.396   57.091
  234.000   21.941    0.310    0.410   57.704
  234.250   22.143    0.313    0.419   63.197
  234.500   22.143    0.308    0.410   64.419
  234.750   21.742    0.312    0.387   65.643
  235.000   21.542    0.323    0.354   68.699
  235.250   21.342    0.325    0.356   70.531
  235.500   20.941    0.318    0.365   73.582
  235.750   20.740    0.316    0.373   79.684
  236.000   20.139    0.311    0.371   83.346
  236.250   20.139    0.296    0.341   87.009
  236.500   19.738    0.285    0.345   91.892
  236.750   19.337    0.279    0.326   93.114
  237.000   18.936    0.286    0.330   92.510
  237.250   18.736    0.286    0.348   89.464
  237.500   18.736    0.280    0.347   80.321
  237.750   18.536    0.272    0.347   74.837
  238.000   18.537    0.275    0.349   75.452
  238.250   18.135    0.268    0.360   76.675
  238.500   17.534    0.251    0.364   80.338
  238.750   16.731    0.232    0.318   83.391
  239.000   16.129    0.225    0.289   82.175
  239.250   15.728    0.223    0.277   79.741
  239.500   15.327    0.229    0.283   80.353
  239.750   15.328    0.280    0.312   77.919
  240.000   16.533    0.306    0.366   55.360
  240.250   18.140    0.426    0.433   46.827
  240.500   20.751    0.600    0.475   45.002
  240.750   21.956    0.382    0.418   40.128
  241.000   22.961    0.354    0.374   41.962
  241.250   23.564    0.337    0.360   46.844
  241.500   24.167    0.323    0.357   49.896
  241.750   24.569    0.326    0.360   47.461
  242.000   24.771    0.326    0.370   49.906
  242.250   24.771    0.320    0.377   51.739
  242.500   24.571    0.320    0.381   53.572
  242.750   24.170    0.323    0.363   50.526
  243.000   23.769    0.307    0.342   48.091
  243.250   23.769    0.300    0.347   52.974
  243.500   23.569    0.304    0.355   55.416
  243.750   23.369    0.306    0.365   54.810
  244.000   23.369    0.303    0.372   61.522
  244.250   23.169    0.301    0.378   65.184
  244.500   22.969    0.302    0.381   59.702
  244.750   22.768    0.303    0.382   57.876
  245.000   21.765    0.303    0.389   50.562
  245.250   20.962    0.309    0.360   56.665
  245.500   19.959    0.301    0.354   59.717
  245.750   19.558    0.295    0.361   65.819
  246.000   18.755    0.290    0.379   72.530
  246.250   18.153    0.312    0.398   67.046
  246.500   17.351    0.322    0.382   60.344
  246.750   16.950    0.326    0.352   57.298
  247.000   16.348    0.326    0.352   62.792
  247.250   15.344    0.315    0.358   65.843
  247.500   13.939    0.278    0.347   70.725
  247.750   12.333    0.265    0.353   76.827
  248.000   10.928    0.257    0.405   85.978
  248.250    9.322    0.256    0.417   96.957
  248.500    7.917    0.245    0.401  110.986
  248.750    7.114    0.147    0.405  105.503
  249.000    7.316    0.179    0.415  104.897
  249.250    7.718    0.217    0.387  110.388
  249.500    8.120    0.233    0.367  104.904
  249.750    9.526    0.242    0.356   98.201
  250.000   11.334    0.244    0.359   97.597
  250.250   12.339    0.248    0.370  101.258
  250.500   13.343    0.257    0.365   91.505
  250.750   13.946    0.286    0.376   87.242
  251.000   13.947    0.307    0.376   84.196
  251.250   13.345    0.298    0.372   98.225
  251.500   12.743    0.220    0.372  105.546
  251.750   12.342    0.234    0.356  100.063
  252.000   11.941    0.245    0.371   97.019
  252.250   11.942    0.245    0.379   94.582
  252.500   12.344    0.259    0.357   87.880
  252.750   12.947    0.256    0.340   84.834
  253.000   14.152    0.235    0.322   84.839
  253.250   14.755    0.223    0.321   79.353
  253.500   15.157    0.243    0.332   66.552
