~VERSION INFORMATION
 VERS.                 2.0:   CWLS LOG ASCII STANDARD -VERSION 2.0
 WRAP.                  NO:   ONE LINE PER DEPTH STEP
~WELL INFORMATION BLOCK
#MNEM.UNIT           DATA                    DESCRIPTION OF MNEMONIC
#---------    -------------------            -------------------------------
# Generated from Intellog Unique Number	CS_69_70/WELL/902
NULL.         -999.25                        : NULL_VALUE
WELL.         BVX ET AL HEART LAKE           : Well_name    - WELL              
LOC .         00/13-18-070-10W4/0            : Location     - LOCATION          
UWI .         00/13-18-070-10W4/0            : Uwi          - UNIQUE WELL ID    
ENTR.         SP                             : Entered      - ENTERED BY        
SRVC.         SCHLUMBERGER                   : Scn          - SERVICE COMPANY   
STRT.M        295                            : top_depth    - START DEPTH       
STOP.M        530                            : bot_depth    - STOP DEPTH        
STEP.M        0.25                           : increment    - STEP LENGTH       
~CURVE INFORMATION BLOCK
#MNEM UNIT       ERCB CURVE CODE    CURVE DESCRIPTION
#-----------   ------------------   ----------------------------------
DEPT.M        00 001 00 00         : DEPTH        - DEPTH                       
DPHI.V/V      00 890 00 00         : PHID         - DENSITY POROSITY (LIMESTONE)
NPHI.V/V      00 330 00 00         : PHIN         - NEUTRON POROSITY (LIMESTONE)
GR  .API      00 310 00 00         : GR           - GAMMA RAY                   
ILD .OHMM     00 120 00 00         : RESD         - DEEP RESISTIVITY (DIL)      
~PARAMETER INFORMATION       
#MNEM.UNIT           DATA             DESCRIPTION OF MNEMONIC
#---------         -----------     ------------------------------
GL  .M        632.82               : gl           - GROUND LEVEL ELEVATION      
EREF.M        635.5                : kb           - ELEVATION OF DEPTH REFERENCE
DATM.M        632.82               : datum        - DATUM ELEVATION             
TDD .M        545                  : tdd          - TOTAL DEPTH DRILLER         
RUN .         ONE                  : Run          - RUN NUMBER                  
ENG .         BILL                 : Engineer     - RECORDING ENGINEER          
WIT .         JIM                  : Witness      - WITNESSED BY                
MUD .         GEL                  : Mud_type     - MUD TYPE                    
MATR.         LIMESTONE            : Logunit      - NEUTRON MATRIX              
TMAX.C        23                   : BHT          - MAXIMUM RECORDED TEMPERATURE
BHTD.M        545                  : BHTDEP       - MAXIMUM RECORDED TEMPERATURE
MATR.         1                    : LOGUNIT      - NEUTRON MATRIX              
RMT .C        25                   : MDTP         - TEMPERATURE OF MUD          
NEUT.         1                    : NEUTRON      - NEUTRON TYPE                
RESI.         0                    : RESIST       - RESISTIVITY TYPE            
RMC .OHMM     0.25                 : RMC          - RESISTIVITY OF MUD CAKE     
RMF .OHMM     0.25                 : RMF          - RESISTIVITY OF MUD FILTRATE 
SUFT.C        15                   : SUFT         - SURFACE TEMPERATURE         
~A  DEPTH     PHID     PHIN       GR     RESD
  295.000    0.276    0.534  110.771    2.494
  295.250    0.269    0.522  111.079    2.722
  295.500    0.248    0.511  109.640    2.806
  295.750    0.229    0.503  107.839    2.899
  296.000    0.239    0.499  105.134    2.907
  296.250    0.214    0.492  103.573    2.910
  296.500    0.215    0.493  105.930    2.891
  296.750    0.214    0.503  107.744    2.884
  297.000    0.214    0.514  108.776    2.881
  297.250    0.210    0.526  107.095    2.878
  297.500    0.204    0.529  103.787    2.923
  297.750    0.207    0.542   99.937    3.003
  298.000    0.227    0.553   98.256    3.056
  298.250    0.216    0.548  104.531    3.104
  298.500    0.208    0.534  107.551    3.159
  298.750    0.207    0.521  109.065    3.180
  299.000    0.222    0.509  108.348    3.272
  299.250    0.221    0.487  107.029    3.468
  299.500    0.258    0.468  109.205    3.689
  299.750    0.224    0.469  110.598    3.867
  300.000    0.195    0.494  110.545    3.973
  300.250    0.176    0.505  107.779    3.940
  300.500    0.220    0.513  109.473    3.793
  300.750    0.216    0.517  112.795    3.534
  301.000    0.217    0.529  111.295    3.328
  301.250    0.227    0.545  106.540    3.123
  301.500    0.238    0.553  105.221    3.068
  301.750    0.256    0.535  104.445    2.971
  302.000    0.257    0.521  105.235    2.919
  302.250    0.250    0.507  106.809    3.049
  302.500    0.265    0.514  105.791    3.213
  302.750    0.240    0.511  106.099    3.258
  303.000    0.265    0.498  108.576    3.232
  303.250    0.254    0.506  110.211    3.210
  303.500    0.226    0.508  111.183    3.197
  303.750    0.211    0.498  111.552    3.205
  304.000    0.234    0.497  110.893    3.220
  304.250    0.252    0.504  107.103    3.271
  304.500    0.274    0.511  103.856    3.474
  304.750    0.289    0.501  107.239    3.667
  305.000    0.288    0.483  106.159    3.774
  305.250    0.267    0.472   94.354    3.567
  305.500    0.259    0.499   85.320    3.385
  305.750    0.290    0.524   76.890    3.338
  306.000    0.320    0.542   70.267    3.467
  306.250    0.278    0.186   61.897    4.128
  306.500    0.233    0.173   55.154    6.247
  306.750    0.326    0.162   50.339    8.023
  307.000    0.353    0.151   52.877   10.456
  307.250    0.371    0.147   56.017   14.917
  307.500    0.377    0.167   62.111   21.479
  307.750    0.341    0.186   70.435   18.411
  308.000    0.310    0.212   77.553   16.016
  308.250    0.280    0.239   79.971   13.806
  308.500    0.272    0.270   75.639   12.166
  308.750    0.269    0.294   80.346   10.220
  309.000    0.300    0.320   87.766    8.956
  309.250    0.247    0.351   90.002    7.995
  309.500    0.213    0.382   88.140    7.203
  309.750    0.238    0.379   94.957    6.611
  310.000    0.259    0.370  101.775    6.284
  310.250    0.242    0.368  105.879    6.539
  310.500    0.215    0.407  107.694    6.593
  310.750    0.190    0.431  108.725    6.600
  311.000    0.173    0.439  111.083    6.522
  311.250    0.229    0.431  111.511    6.504
  311.500    0.228    0.423  111.036    6.779
  311.750    0.210    0.412  110.861    6.785
  312.000    0.209    0.412  110.688    6.426
  312.250    0.206    0.432  109.368    6.176
  312.500    0.209    0.446  104.735    6.114
  312.750    0.226    0.430  100.221    6.432
  313.000    0.228    0.406   95.286    6.656
  313.250    0.214    0.392   90.472    6.564
  313.500    0.226    0.407   87.224    6.452
  313.750    0.233    0.424   78.734    6.293
  314.000    0.283    0.415   63.191    6.148
  314.250    0.281    0.405   48.914    5.934
  314.500    0.278    0.397   41.990    5.828
  314.750    0.299    0.391   38.622    5.706
  315.000    0.286    0.385   37.906    5.662
  315.250    0.292    0.378   37.129    5.643
  315.500    0.301    0.378   36.353    5.628
  315.750    0.292    0.384   34.793    5.603
  316.000    0.284    0.368   33.594    5.568
  316.250    0.289    0.370   33.059    5.554
  316.500    0.306    0.364   33.246    5.547
  316.750    0.307    0.380   33.975    5.572
  317.000    0.300    0.357   37.417    5.577
  317.250    0.293    0.349   41.944    5.552
  317.500    0.298    0.356   47.556    5.567
  317.750    0.278    0.371   51.420    5.988
  318.000    0.266    0.381   54.018    6.196
  318.250    0.260    0.391   54.808    6.088
  318.500    0.266    0.377   52.766    6.016
  318.750    0.288    0.369   51.507    5.967
  319.000    0.296    0.363   51.212    5.928
  319.250    0.288    0.365   51.038    5.903
  319.500    0.293    0.371   50.081    5.896
  319.750    0.263    0.382   48.158    5.869
  320.000    0.250    0.387   44.007    5.874
  320.250    0.277    0.389   39.795    5.902
  320.500    0.286    0.388   36.970    5.920
  320.750    0.299    0.385   34.626    5.946
  321.000    0.306    0.385   32.463    5.940
  321.250    0.309    0.385   31.505    5.913
  321.500    0.309    0.389   31.150    5.875
  321.750    0.301    0.386   30.976    5.827
  322.000    0.302    0.379   30.864    5.800
  322.250    0.311    0.370   30.689    5.774
  322.500    0.312    0.363   30.816    5.780
  322.750    0.308    0.375   31.184    5.774
  323.000    0.295    0.365   31.553    5.758
  323.250    0.291    0.369   31.620    5.721
  323.500    0.303    0.387   31.144    5.684
  323.750    0.290    0.396   27.896    5.680
  324.000    0.291    0.378   28.266    5.716
  324.250    0.298    0.365   29.718    5.755
  324.500    0.303    0.371   30.930    5.782
  324.750    0.298    0.380   30.455    5.811
  325.000    0.290    0.376   28.533    5.806
  325.250    0.284    0.363   27.515    5.807
  325.500    0.282    0.351   28.064    5.813
  325.750    0.283    0.356   29.517    5.809
  326.000    0.298    0.373   32.959    5.802
  326.250    0.311    0.382   38.752    5.775
  326.500    0.314    0.366   45.508    5.729
  326.750    0.309    0.350   58.171    5.691
  327.000    0.280    0.375   74.329    5.613
  327.250    0.246    0.407   90.428    5.455
  327.500    0.213    0.438  104.898    5.272
  327.750    0.205    0.463  114.488    5.104
  328.000    0.208    0.479  121.847    4.907
  328.250    0.212    0.495  125.108    4.717
  328.500    0.181    0.507  126.441    4.625
  328.750    0.167    0.524  124.880    4.528
  329.000    0.207    0.524  122.657    4.490
  329.250    0.194    0.501  120.435    4.529
  329.500    0.202    0.480  118.874    4.599
  329.750    0.213    0.474  120.931    4.902
  330.000    0.260    0.478  119.972    5.139
  330.250    0.313    0.458  114.073    5.317
  330.500    0.281    0.443  104.257    5.604
  330.750    0.302    0.434   96.669    6.007
  331.000    0.323    0.436   91.313    6.296
  331.250    0.331    0.433   92.042    6.575
  331.500    0.331    0.420   95.725    6.819
  331.750    0.323    0.407   97.781    6.835
  332.000    0.298    0.400   90.496    6.831
  332.250    0.286    0.391   83.994    6.889
  332.500    0.273    0.405   89.485    6.931
  332.750    0.275    0.416   95.156    6.976
  333.000    0.269    0.425   98.478    6.831
  333.250    0.251    0.410  100.535    6.600
  333.500    0.238    0.412  102.470    6.205
  333.750    0.276    0.431  103.440    5.985
  334.000    0.284    0.447   95.010    6.016
  334.250    0.293    0.443   88.749    6.143
  334.500    0.307    0.424   84.295    6.452
  334.750    0.311    0.401   89.726    6.689
  335.000    0.287    0.387   97.086    6.923
  335.250    0.271    0.387  100.346    7.058
  335.500    0.274    0.394  101.620    7.091
  335.750    0.264    0.405  102.048    7.030
  336.000    0.248    0.414  107.237    6.759
  336.250    0.241    0.423  111.463    6.701
  336.500    0.255    0.435  114.302    6.657
  336.750    0.267    0.452  116.056    6.689
  337.000    0.288    0.455  114.737    6.710
  337.250    0.289    0.441  100.641    6.729
  337.500    0.285    0.439  102.517    6.732
  337.750    0.289    0.447  103.548    6.653
  338.000    0.280    0.462   97.348    6.405
  338.250    0.285    0.479   93.979    6.089
