~VERSION INFORMATION
 VERS.                 2.0:   CWLS LOG ASCII STANDARD -VERSION 2.0
 WRAP.                  NO:   ONE LINE PER DEPTH STEP
~WELL INFORMATION BLOCK
#MNEM.UNIT           DATA                    DESCRIPTION OF MNEMONIC
#---------    -------------------            -------------------------------
# Generated from Intellog Unique Number	CW_73_75/WELL/1053
LOC .         00/15-13-075-02W5/0            : Location     - LOCATION
UWI .         00/15-13-075-02W5/0            : Uwi          - UNIQUE WELL ID
ENTR.         JAYE                           : Entered      - ENTERED BY
SRVC.         SCHLUMBERGER                   : Scn          - SERVICE COMPANY
DATE.         19 DEC 75                      : Date         - LOG DATE
STRT.M        533.4                          : top_depth    - START DEPTH
STOP.M        722.4                          : bot_depth    - STOP DEPTH
STEP.M        0.25                           : increment    - STEP LENGTH
 NULL. -999.2500:NULL Value
~CURVE INFORMATION BLOCK
#MNEM UNIT       ERCB CURVE CODE    CURVE DESCRIPTION
#-----------   ------------------   ----------------------------------
DEPT.M        00 001 00 00         : DEPTH        - DEPTH
ILD .OHMM     00 120 00 00         : RESD         - DEEP RESISTIVITY (DIL)
NPHI.V/V      00 330 00 00         : PHIN         - NEUTRON POROSITY (SANDSTONE)
DPHI.V/V      00 890 00 00         : PHID         - DENSITY POROSITY (SANDSTONE)
GR  .API      00 310 00 00         : GR           - GAMMA RAY
CALI.MM       00 280 01 00         : CAL          - CALIPER
~PARAMETER INFORMATION
#MNEM.UNIT           DATA             DESCRIPTION OF MNEMONIC
#---------         -----------     ------------------------------
GL  .M        814.426              : gl           - GROUND LEVEL ELEVATION
EREF.M        818.54               : kb           - ELEVATION OF DEPTH REFERENCE
DATM.M        814.426              : datum        - DATUM ELEVATION
TDD .M        727.253              : tdd          - TOTAL DEPTH DRILLER
RUN .         ONE                  : Run          - RUN NUMBER
ENG .         MACDONALD            : Engineer     - RECORDING ENGINEER
BASE.         EDM                  : Branch       - HOME BASE OF LOGGING UNIT
MUD .         GEL CHEM             : Mud_type     - MUD TYPE
MATR.         SANDSTONE            : Logunit      - NEUTRON MATRIX
TMAX.C        31.1111              : BHT          - MAXIMUM RECORDED TEMPERATURE
BHTD.M        726.643              : BHTDEP       - MAXIMUM RECORDED TEMPERATURE
RMT .C        20                   : MDTP         - TEMPERATURE OF MUD
MUDD.KG/M     1056                 : MWT          - MUD DENSITY
NEUT.         1                    : NEUTRON      - NEUTRON TYPE
RESI.         0                    : RESIST       - RESISTIVITY TYPE
RM  .OHMM     2.8                  : RM           - RESISTIVITY OF MUD
RMC .OHMM     0                    : RMC          - RESISTIVITY OF MUD CAKE
RMF .OHMM     3.77                 : RMF          - RESISTIVITY OF MUD FILTRATE
SUFT.C        -17.7778             : SUFT         - SURFACE TEMPERATURE
~A  DEPTH     RESD     PHIN     PHID       GR      CAL
# ...
  569.900    6.949    0.434    0.246   69.779  223.780
  570.150    6.868    0.439    0.289   69.373  223.300
  570.400    7.261    0.448    0.270   67.873  223.437
  570.650    8.652    0.453    0.253   66.371  223.166
  570.900    9.979    0.454    0.241   66.634  220.210
  571.150   10.939    0.451    0.224   68.672  213.843
  571.400   11.608    0.446    0.207   69.426  212.953
  571.650   11.475    0.442    0.185   66.458  217.539
  571.900   10.763    0.432    0.209   68.863  219.642
  572.150    9.440    0.439    0.227   70.407  219.267
  572.400    7.773    0.455    0.231   69.823  218.270
  572.650    6.780    0.468    0.223   70.210  217.488
  572.900    5.883    0.465    0.229   71.145  217.110
  573.150    5.284    0.455    0.228   65.007  216.833
  573.400    5.047    0.475    0.217   60.944  216.564
  573.650    5.007    0.476    0.277   59.503  215.882
  573.900    5.050    0.435    0.260   59.038  215.501
  574.150    5.131    0.445    0.221   55.826  215.024
  574.400    5.184    0.449    0.242   55.911  214.444
  574.650    5.210    0.444    0.281   56.483  214.274
  574.900    5.226    0.436    0.291   57.359  214.217
  575.150    5.222    0.437    0.277   57.868  214.870
  575.400    5.238    0.446    0.274   57.830  216.349
  575.650    5.302    0.428    0.275   56.997  218.353
  575.900    5.338    0.417    0.269   56.045  219.732
  576.150    5.364    0.417    0.266   53.995  220.497
  576.400    5.341    0.446    0.266   52.612  221.049
  576.650    5.176    0.469    0.282   48.608  221.499
  576.900    4.962    0.468    0.287   48.387  221.848
  577.150    4.808    0.463    0.293   49.507  221.577
  577.400    4.660    0.460    0.301   49.713  220.790
  577.650    4.508    0.465    0.295   49.067  220.006
  577.900    4.393    0.464    0.283   48.172  219.835
  578.150    4.304    0.454    0.283   47.648  219.458
  578.400    4.256    0.434    0.310   48.035  218.779
  578.650    4.244    0.444    0.305   48.668  218.498
  578.900    4.227    0.458    0.290   49.238  218.440
  579.150    4.232    0.457    0.293   49.690  218.476
  579.400    4.253    0.448    0.299   50.017  218.717
  579.650    4.267    0.440    0.292   51.136  218.444
  579.900    4.287    0.446    0.296   53.721  218.183
  580.150    4.315    0.454    0.303   56.672  217.906
  580.400    4.345    0.446    0.300   56.634  217.432
  580.650    4.358    0.459    0.294   53.300  217.257
  580.900    4.363    0.466    0.296   51.798  217.190
  581.150    4.369    0.454    0.301   51.639  217.026
  581.400    4.366    0.478    0.297   52.209  216.960
  581.650    4.365    0.477    0.298   53.394  217.408
  581.900    4.346    0.454    0.304   54.393  217.962
  582.150    4.335    0.435    0.308   54.900  218.312
  582.400    4.317    0.435    0.310   54.924  218.355
  582.650    4.276    0.442    0.308   54.334  218.390
  582.900    4.250    0.456    0.301   53.871  218.327
  583.150    4.210    0.452    0.286   54.626  218.151
  583.400    4.177    0.448    0.298   55.317  218.399
  583.650    4.174    0.460    0.305   55.582  218.228
  583.900    4.180    0.455    0.307   55.363  217.754
  584.150    4.200    0.448    0.306   54.470  217.486
  584.400    4.236    0.437    0.298   53.457  217.317
  584.650    4.241    0.421    0.299   52.504  216.729
  584.900    4.262    0.420    0.304   51.489  213.465
  585.150    4.322    0.453    0.309   51.024  211.640
  585.400    4.528    0.472    0.312   50.618  210.541
  585.650    4.805    0.478    0.294   49.908  209.135
  585.900    5.079    0.437    0.258   50.234  207.832
  586.150    5.388    0.420    0.190   51.295  207.145
  586.400    5.875    0.418    0.159   52.842  206.983
  586.650    6.233    0.428    0.144   57.561  207.429
  586.900    6.041    0.436    0.170   63.074  210.046
  587.150    5.636    0.443    0.210   63.221  217.834
  587.400    5.201    0.455    0.244   62.203  221.899
  587.650    4.888    0.460    0.255   61.859  223.596
  587.900    4.831    0.437    0.265   63.106  223.633
  588.150    4.909    0.442    0.275   67.760  223.465
  588.400    5.087    0.443    0.289   66.628  223.290
  588.650    5.319    0.435    0.271   65.671  223.127
  588.900    5.789    0.414    0.254   64.658  223.169
  589.150    6.474    0.384    0.237   63.095  222.992
  589.400    7.440    0.359    0.193   60.924  222.618
  589.650    9.108    0.332    0.159   59.117  221.623
  589.900   10.973    0.317    0.107   58.281  220.523
  590.150   12.494    0.323    0.135   58.915  218.705
  590.400   12.970    0.333    0.138   59.852  213.060
  590.650   11.905    0.349    0.121   60.971  209.379
  590.900   10.789    0.377    0.145   61.055  209.942
  591.150    9.431    0.390    0.179   57.297  211.004
  591.400    8.439    0.402    0.197   58.297  212.286
  591.650    7.536    0.413    0.197   60.817  213.148
  591.900    6.732    0.426    0.212   63.890  214.220
  592.150    6.180    0.442    0.251   62.875  215.188
  592.400    6.086    0.469    0.270   56.128  217.188
  592.650    6.094    0.558    0.282   50.478  220.015
  592.900    6.271    0.589    0.422   45.866  223.154
  593.150    6.593    0.615    0.528   47.227  225.568
  593.400    6.770    0.531    0.365   56.034  226.637
  593.650    6.828    0.451    0.316   58.315  227.400
  593.900    7.116    0.444    0.286   60.837  228.163
  594.150    7.373    0.448    0.276   65.191  228.712
  594.400    7.396    0.460    0.299   66.068  230.404
  594.650    7.338    0.471    0.333   69.566  231.682
  594.900    7.307    0.448    0.305   72.824  231.616
  595.150    7.450    0.387    0.276   71.869  225.455
  595.400    7.805    0.371    0.307   63.717  219.193
  595.650    8.372    0.361    0.287   60.140  217.378
  595.900    8.947    0.369    0.272   60.102  216.687
  596.150    9.324    0.387    0.261   62.139  215.903
  596.400    9.455    0.404    0.259   63.868  215.530
  596.650    9.536    0.415    0.248   64.320  215.875
  596.900    9.652    0.433    0.245   65.011  216.840
  597.150    9.895    0.448    0.241   65.829  218.122
  597.400   10.217    0.450    0.253   65.056  219.086
  597.650   10.417    0.444    0.257   62.397  219.950
  597.900   10.562    0.441    0.257   60.467  220.301
  598.150   10.691    0.433    0.262   60.305  220.132
  598.400   10.801    0.427    0.266   61.793  219.135
  598.650   10.816    0.415    0.244   64.314  216.694
  598.900   10.558    0.420    0.224   67.023  216.117
  599.150   10.011    0.430    0.213   66.190  216.360
  599.400    9.427    0.442    0.224   63.772  217.226
  599.650    9.151    0.445    0.239   62.272  218.295
  599.900    8.932    0.447    0.249   62.597  219.569
  600.150    8.751    0.456    0.262   64.025  221.064
  600.400    8.542    0.460    0.272   64.050  221.715
  600.650    8.221    0.452    0.263   62.972  221.962
  600.900    8.169    0.443    0.244   61.772  221.789
  601.150    8.330    0.453    0.260   60.578  221.724
  601.400    8.632    0.447    0.247   60.110  221.560
  601.650    9.011    0.426    0.248   59.643  221.592
  601.900    9.440    0.404    0.240   59.121  221.838
  602.150    9.871    0.410    0.242   58.531  221.978
  602.400   10.456    0.412    0.253   57.273  222.534
  602.650   10.953    0.389    0.251   55.282  223.296
  602.900   11.664    0.360    0.221   52.194  224.370
  603.150   12.626    0.304    0.199   49.287  225.441
  603.400   13.789    0.247    0.148   47.540  226.301
  603.650   15.732    0.205    0.119   46.771  226.756
  603.900   18.308    0.168    0.010   46.366  227.310
  604.150   21.387    0.169    0.006   44.986  227.659
  604.400   25.757    0.189    0.000   43.910  227.798
  604.650   27.628    0.213   -0.005   43.261  228.561
  604.900   32.681    0.226    0.001   43.530  228.703
  605.150   41.645    0.216    0.010   44.162  228.946
  605.400   47.849    0.189    0.002   45.403  228.777
  605.650   50.586    0.177   -0.002   49.024  228.818
  605.900   38.317    0.201    0.016   52.097  228.541
  606.150   30.148    0.228    0.039   55.413  228.063
