~VERSION INFORMATION
 VERS.                 2.0:   CWLS LOG ASCII STANDARD -VERSION 2.0
 WRAP.                  NO:   ONE LINE PER DEPTH STEP
~WELL INFORMATION BLOCK
#MNEM.UNIT           DATA                    DESCRIPTION OF MNEMONIC
#---------    -------------------            -------------------------------
# Generated from Intellog Unique Number	CX_WELLS/WELL/3404
WELL.         SUNCOR NEWBY                   : Well_name    - WELL
LOC .         00/11-20-084-04W4/0            : Location     - LOCATION
UWI .         00/11-20-084-04W4/0            : Uwi          - UNIQUE WELL ID
ENTR.         T                              : Entered      - ENTERED BY
SRVC.         SCHLUMBERGER                   : Scn          - SERVICE COMPANY
STRT.M        80                             : top_depth    - START DEPTH
STOP.M        235                            : bot_depth    - STOP DEPTH
STEP.M        0.25                           : increment    - STEP LENGTH
 NULL. -999.2500:NULL Value
~CURVE INFORMATION BLOCK
#MNEM UNIT       ERCB CURVE CODE    CURVE DESCRIPTION
#-----------   ------------------   ----------------------------------
DEPT.M        00 001 00 00         : DEPTH        - DEPTH
GR  .API      00 310 00 00         : GR           - GAMMA RAY
NPHI.V/V      00 330 00 00         : PHIN         - NEUTRON POROSITY (SANDSTONE)
DPHI.V/V      00 890 00 00         : PHID         - DENSITY POROSITY (SANDSTONE)
ILD .OHMM     00 120 00 00         : RESD         - DEEP RESISTIVITY (OTHER)
~PARAMETER INFORMATION
#MNEM.UNIT           DATA             DESCRIPTION OF MNEMONIC
#---------         -----------     ------------------------------
GL  .M        463                  : gl           - GROUND LEVEL ELEVATION
EREF.M        466                  : kb           - ELEVATION OF DEPTH REFERENCE
DATM.M        466                  : datum        - DATUM ELEVATION
TDD .M        245                  : tdd          - TOTAL DEPTH DRILLER
RUN .         ONE                  : Run          - RUN NUMBER
ENG .         BILL                 : Engineer     - RECORDING ENGINEER
WIT .         JIM                  : Witness      - WITNESSED BY
MUD .         GEL                  : Mud_type     - MUD TYPE
MATR.         SANDSTONE            : Logunit      - NEUTRON MATRIX
TMAX.C        33                   : BHT          - MAXIMUM RECORDED TEMPERATURE
BHTD.M        245                  : BHTDEP       - MAXIMUM RECORDED TEMPERATURE
MATR.         1                    : LOGUNIT      - NEUTRON MATRIX
RMT .C        18                   : MDTP         - TEMPERATURE OF MUD
NEUT.         1                    : NEUTRON      - NEUTRON TYPE
RESI.         2                    : RESIST       - RESISTIVITY TYPE
RMC .OHMM     1.9                  : RMC          - RESISTIVITY OF MUD CAKE
RMF .OHMM     2.7                  : RMF          - RESISTIVITY OF MUD FILTRATE
SUFT.C        4                    : SUFT         - SURFACE TEMPERATURE
~A  DEPTH       GR     PHIN     PHID     RESD
   80.000   39.050    0.557    0.298   12.057
   80.250   40.944    0.542    0.271   12.078
   80.500   43.438    0.522    0.244   11.893
   80.750   48.379    0.522    0.285   11.501
   81.000   50.273    0.523    0.317   11.305
   81.250   50.944    0.463    0.333   10.941
   81.500   51.039    0.438    0.335   10.755
   81.750   49.959    0.435    0.321   10.608
   82.000   49.455    0.438    0.319   10.437
   82.250   51.325    0.439    0.315    9.903
   82.500   57.441    0.441    0.312    9.734
   82.750   63.533    0.448    0.312    9.229
   83.000   67.850    0.460    0.318    8.925
   83.250   68.544    0.467    0.316    8.461
   83.500   66.241    0.460    0.316    8.168
   83.750   64.561    0.451    0.320    7.611
   84.000   65.903    0.451    0.317    7.216
   84.250   66.527    0.454    0.311    7.099
   84.500   67.845    0.460    0.308    6.853
   84.750   68.516    0.480    0.305    6.754
   85.000   68.636    0.482    0.303    6.639
   85.250   68.707    0.476    0.301    6.426
   85.500   66.451    0.466    0.305    6.322
   85.750   65.300    0.462    0.310    6.219
   86.000   64.243    0.461    0.318    6.124
   86.250   64.291    0.464    0.312    5.927
   86.500   64.410    0.465    0.306    5.831
   86.750   65.105    0.464    0.308    5.737
   87.000   65.176    0.463    0.313    5.757
   87.250   62.273    0.467    0.327    6.005
   87.500   57.571    0.474    0.329    6.270
   87.750   57.690    0.476    0.313    6.281
   88.000   60.784    0.467    0.309    6.429
   88.250   62.678    0.455    0.311    6.325
   88.500   62.150    0.462    0.317    6.228
   88.750   63.468    0.464    0.332    6.138
   89.000   67.761    0.471    0.341    5.930
   89.250   66.657    0.483    0.351    5.829
   89.500   63.802    0.483    0.347    5.740
   89.750   63.274    0.458    0.339    5.652
   90.000   62.745    0.458    0.333    5.896
   90.250   62.841    0.467    0.332    6.156
   90.500   61.737    0.473    0.335    6.290
   90.750   58.258    0.469    0.336    6.427
   91.000   57.753    0.465    0.336    6.461
   91.250   59.048    0.461    0.335    6.472
   91.500   60.319    0.457    0.334    6.373
   91.750   61.637    0.458    0.332    6.275
   92.000   62.308    0.461    0.330    6.179
   92.250   62.404    0.463    0.333    5.980
   92.500   62.547    0.464    0.356    5.991
   92.750   62.618    0.463    0.376    5.680
   93.000   64.512    0.464    0.382    5.492
   93.250   69.405    0.468    0.399    5.516
   93.500   75.521    0.478    0.321    5.526
   93.750   77.415    0.485    0.299    5.550
   94.000   75.088    0.469    0.303    5.465
   94.250   78.805    0.476    0.310    5.484
   94.500   81.299    0.478    0.304    5.504
   94.750   84.416    0.472    0.302    5.424
   95.000   85.087    0.469    0.296    5.236
   95.250   85.183    0.470    0.287    5.151
   95.500   85.878    0.476    0.281    4.981
   95.750   86.596    0.487    0.272    5.192
   96.000   84.893    0.489    0.266    5.510
   96.250   81.366    0.484    0.272    5.852
   96.500   84.460    0.480    0.300    6.110
   96.750   88.201    0.474    0.289    6.126
   97.000   87.073    0.469    0.280    6.027
   97.250   83.570    0.462    0.282    5.724
   97.500   80.091    0.457    0.292    5.627
   97.750   78.939    0.452    0.299    5.441
   98.000   79.035    0.459    0.291    5.257
   98.250   80.953    0.483    0.276    5.275
   98.500   84.070    0.493    0.270    5.289
   98.750   86.540    0.500    0.295    5.312
   99.000   89.058    0.504    0.299    5.433
   99.250   91.552    0.501    0.309    5.457
   99.500   92.847    0.501    0.311    5.364
   99.750   88.721    0.507    0.315    5.291
  100.000   74.424    0.518    0.323    5.300
  100.250   66.100    0.507    0.370    5.228
  100.500   66.819    0.500    0.406    5.237
  100.750   68.713    0.505    0.398    5.157
  101.000   66.985    0.517    0.393    5.179
  101.250   63.483    0.516    0.401    5.202
  101.500   64.201    0.517    0.413    5.311
  101.750   64.297    0.522    0.380    5.339
  102.000   60.794    0.531    0.371    5.450
  102.250   57.267    0.526    0.365    5.690
  102.500   54.988    0.494    0.355    5.809
  102.750   57.482    0.476    0.345    6.300
  103.000   57.001    0.456    0.341    6.437
  103.250   55.849    0.457    0.336    6.600
  103.500   54.745    0.460    0.333    6.612
  103.750   53.066    0.463    0.339    6.635
  104.000   53.161    0.470    0.344    6.533
  104.250   53.256    0.478    0.348    6.433
  104.500   53.328    0.483    0.351    6.334
  104.750   53.447    0.482    0.352    6.351
  105.000   53.542    0.473    0.352    6.373
  105.250   53.061    0.460    0.350    6.770
  105.500   53.133    0.465    0.342    7.197
  105.750   53.204    0.477    0.332    7.228
  106.000   53.300    0.476    0.313    7.247
  106.250   54.594    0.421    0.283    7.130
  106.500   55.936    0.305    0.237    6.889
  106.750   56.008    0.328    0.328    6.537
  107.000   56.727    0.412    0.327    6.310
  107.250   57.422    0.435    0.327    5.993
  107.500   57.493    0.445    0.326    5.891
  107.750   57.588    0.456    0.330    5.806
  108.000   57.684    0.466    0.336    5.821
  108.250   57.779    0.467    0.333    5.841
  108.500   57.275    0.467    0.332    5.862
  108.750   55.618    0.464    0.333    5.887
  109.000   54.491    0.461    0.336    5.908
  109.250   52.187    0.456    0.337    5.928
  109.500   52.882    0.459    0.337    5.949
  109.750   54.776    0.472    0.337    5.965
  110.000   56.671    0.470    0.334    6.111
  110.250   56.766    0.460    0.333    6.127
  110.500   56.285    0.452    0.330    6.148
  110.750   55.757    0.444    0.325    6.175
  111.000   55.253    0.449    0.318    6.075
  111.250   55.924    0.452    0.312    6.091
  111.500   57.866    0.443    0.304    5.998
  111.750   59.760    0.441    0.297    6.019
  112.000   61.678    0.436    0.292    5.937
  112.250   62.949    0.434    0.290    5.947
  112.500   64.244    0.440    0.298    5.856
  112.750   63.739    0.450    0.303    5.887
  113.000   63.235    0.455    0.302    5.897
  113.250   63.354    0.453    0.306    5.807
  113.500   62.802    0.448    0.312    5.827
  113.750   61.745    0.444    0.312    5.847
  114.000   61.793    0.440    0.284    5.873
  114.250   62.536    0.434    0.277    5.788
  114.500   61.408    0.428    0.277    5.803
  114.750   59.728    0.430    0.286    5.824
  115.000   59.176    0.438    0.311    5.729
  115.250   59.295    0.449    0.314    5.754
  115.500   61.189    0.461    0.312    5.661
  115.750   62.484    0.457    0.308    5.691
  116.000   61.428    0.451    0.305    5.701
  116.250   61.475    0.451    0.301    5.618
  116.500   60.971    0.442    0.297    5.638
  116.750   61.690    0.431    0.296    5.547
  117.000   62.385    0.420    0.297    5.571
  117.250   62.456    0.419    0.295    5.486
  117.500   63.175    0.423    0.293    5.500
  117.750   63.246    0.426    0.288    5.425
  118.000   62.742    0.426    0.284    5.435
  118.250   61.638    0.433    0.282    5.454
  118.500   61.133    0.458    0.281    5.477
  118.750   59.430    0.478    0.276    5.597
  119.000   55.927    0.483    0.168    5.844
  119.250   52.424    0.138    0.061    6.326
  119.500   50.744    0.161    0.070    6.978
  119.750   53.814    0.193    0.238    7.839
  120.000   57.531    0.313    0.259    8.185
  120.250   58.226    0.365    0.283    7.894
  120.500   58.321    0.397    0.298    7.212
  120.750   58.417    0.440    0.301    6.460
  121.000   58.512    0.496    0.307    5.896
  121.250   58.607    0.488    0.313    5.378
  121.500   58.726    0.482    0.304    5.094
  121.750   58.798    0.467    0.293    5.112
  122.000   58.917    0.439    0.295    5.143
  122.250   59.636    0.430    0.299    5.156
  122.500   59.707    0.433    0.307    5.073
  122.750   60.426    0.460    0.308    5.000
  123.000   60.474    0.464    0.296    4.923
  123.250   61.768    0.472    0.289    4.843
