~VERSION INFORMATION
 VERS.                 2.0:   CWLS LOG ASCII STANDARD -VERSION 2.0
 WRAP.                  NO:   ONE LINE PER DEPTH STEP
~WELL INFORMATION BLOCK
#MNEM.UNIT           DATA                    DESCRIPTION OF MNEMONIC
#---------    -------------------            -------------------------------
# Generated from Intellog Unique Number	CS_77_79/WELL/3305
WELL.         12-28-078-15W4                 : Well_name    - WELL
LOC .         00/12-28-078-15W4/0            : Location     - LOCATION
UWI .         00/12-28-078-15W4/0            : Uwi          - UNIQUE WELL ID
ENTR.         JOETTE                         : Entered      - ENTERED BY
SRVC.         SCHLUMBERGER                   : Scn          - SERVICE COMPANY
DATE.         08/18/92                       : Date         - LOG DATE
STRT.M        250                            : top_depth    - START DEPTH
STOP.M        473                            : bot_depth    - STOP DEPTH
STEP.M        0.25                           : increment    - STEP LENGTH
 NULL. -999.2500:NULL Value
~CURVE INFORMATION BLOCK
#MNEM UNIT       ERCB CURVE CODE    CURVE DESCRIPTION
#-----------   ------------------   ----------------------------------
DEPT.M        00 001 00 00         : DEPTH        - DEPTH
GR  .API      00 310 00 00         : GR           - GAMMA RAY
NPHI.V/V      00 330 00 00         : PHIN         - NEUTRON POROSITY (SANDSTONE)
DPHI.V/V      00 890 00 00         : PHID         - DENSITY POROSITY (SANDSTONE)
ILD .OHMM     00 120 00 00         : RESD         - DEEP RESISTIVITY (DIL)
~PARAMETER INFORMATION
#MNEM.UNIT           DATA             DESCRIPTION OF MNEMONIC
#---------         -----------     ------------------------------
GL  .M        656.5                : gl           - GROUND LEVEL ELEVATION
EREF.M        660.5                : kb           - ELEVATION OF DEPTH REFERENCE
DATM.M        660.5                : datum        - DATUM ELEVATION
TDD .M        476                  : tdd          - TOTAL DEPTH DRILLER
RUN .         ONE                  : Run          - RUN NUMBER
ENG .         BILL                 : Engineer     - RECORDING ENGINEER
WIT .         JIM                  : Witness      - WITNESSED BY
MUD .         GEL                  : Mud_type     - MUD TYPE
MATR.         SANDSTONE            : Logunit      - NEUTRON MATRIX
TMAX.C        31                   : BHT          - MAXIMUM RECORDED TEMPERATURE
BHTD.M        476                  : BHTDEP       - MAXIMUM RECORDED TEMPERATURE
RMT .C        22                   : MDTP         - TEMPERATURE OF MUD
MUDD.KG/M     1120                 : MWT          - MUD DENSITY
NEUT.         1                    : NEUTRON      - NEUTRON TYPE
RESI.         0                    : RESIST       - RESISTIVITY TYPE
RM  .OHMM     5.7                  : RM           - RESISTIVITY OF MUD
RMC .OHMM     3.2                  : RMC          - RESISTIVITY OF MUD CAKE
RMF .OHMM     7.8                  : RMF          - RESISTIVITY OF MUD FILTRATE
SUFT.C        4                    : SUFT         - SURFACE TEMPERATURE
~A  DEPTH       GR     PHIN     PHID     RESD
# ...
  293.500   59.813    0.465    0.286    9.300
  293.750   64.613    0.481    0.297    8.624
  294.000   70.013    0.485    0.296    8.149
  294.250   71.810    0.488    0.264    7.993
  294.500   70.003    0.488    0.278    8.295
  294.750   65.794    0.476    0.305    9.448
  295.000   60.984    0.464    0.330   10.963
  295.250   57.376    0.467    0.347   11.806
  295.500   56.769    0.465    0.345   11.579
  295.750   59.167    0.475    0.338   11.151
  296.000   59.762    0.453    0.325   10.736
  296.250   57.355    0.425    0.300   11.347
  296.500   54.949    0.426    0.235   12.450
  296.750   51.940    0.410    0.200   13.410
  297.000   53.738    0.477    0.247   14.173
  297.250   53.733    0.513    0.320   14.430
  297.500   52.527    0.510    0.337   14.157
  297.750   54.923    0.506    0.343   12.648
  298.000   53.716    0.509    0.331   11.516
  298.250   53.713    0.511    0.338   10.098
  298.500   55.508    0.515    0.347    8.530
  298.750   58.508    0.515    0.309    7.763
  299.000   64.510    0.516    0.289    7.760
  299.250   74.716    0.518    0.279    7.471
  299.500   89.126    0.530    0.270    7.329
  299.750   78.310    0.548    0.257    7.893
  300.000   74.100    0.501    0.271    8.990
  300.250   70.492    0.470    0.284   10.050
  300.500   72.888    0.451    0.291   11.028
  300.750   76.489    0.446    0.281   11.875
  301.000   76.483    0.446    0.273   12.093
  301.250   71.674    0.450    0.272   11.005
  301.500   68.665    0.460    0.266   10.403
  301.750   71.061    0.475    0.276    8.952
  302.000   72.861    0.493    0.278    8.150
  302.250   78.262    0.498    0.271    7.557
  302.500   80.059    0.508    0.265    7.414
  302.750   81.856    0.518    0.267    7.691
  303.000   83.052    0.508    0.258    7.981
  303.250   78.241    0.449    0.254    9.437
  303.500   70.428    0.410    0.293   13.199
  303.750   64.417    0.414    0.330   15.319
  304.000   54.201    0.452    0.353   21.832
  304.250   51.192    0.464    0.376   25.814
  304.500   49.986    0.464    0.374   33.510
  304.750   48.780    0.458    0.370   41.904
  305.000   45.772    0.462    0.372   59.721
  305.250   45.767    0.464    0.382   71.933
  305.500   46.364    0.469    0.382   78.940
  305.750   45.757    0.478    0.379   91.596
  306.000   44.551    0.485    0.376  100.504
  306.250   45.749    0.486    0.373  104.285
  306.500   49.345    0.491    0.372  108.191
  306.750   49.343    0.494    0.373  108.129
  307.000   47.533    0.485    0.377  104.104
  307.250   46.927    0.492    0.380   98.374
  307.500   47.525    0.509    0.382   89.551
  307.750   49.322    0.523    0.380   78.530
  308.000   50.519    0.510    0.378   70.164
  308.250   47.511    0.516    0.373   67.543
  308.500   46.305    0.533    0.380   74.101
  308.750   46.901    0.540    0.385   76.899
  309.000   45.093    0.540    0.388   85.968
  309.250   44.487    0.544    0.392   94.315
  309.500   44.484    0.512    0.389  101.588
  309.750   43.878    0.503    0.377  105.378
  310.000   44.474    0.499    0.372  103.383
  310.250   45.670    0.499    0.368  103.323
  310.500   46.266    0.538    0.366  101.338
  310.750   46.261    0.559    0.367   99.405
  311.000   45.055    0.533    0.371   97.509
  311.250   43.249    0.519    0.372   95.650
  311.500   43.842    0.517    0.373   93.812
  311.750   43.837    0.517    0.375   90.307
  312.000   43.232    0.508    0.376   88.610
  312.250   43.228    0.498    0.376   86.920
  312.500   43.222    0.492    0.377   85.262
  312.750   43.218    0.496    0.378   83.612
  313.000   43.814    0.502    0.377   83.588
  313.250   44.410    0.503    0.376   81.981
  313.500   46.206    0.505    0.371   81.934
  313.750   45.599    0.520    0.367   81.898
  314.000   44.396    0.537    0.367   81.839
  314.250   43.190    0.527    0.371   80.278
  314.500   43.185    0.539    0.378   75.849
  314.750   43.180    0.559    0.379   73.047
  315.000   41.973    0.553    0.381   70.328
  315.250   43.770    0.539    0.378   64.011
  315.500   46.769    0.556    0.375   58.261
  315.750   43.759    0.564    0.379   57.167
  316.000   41.952    0.553    0.382   54.020
  316.250   42.549    0.538    0.379   51.994
  316.500   43.144    0.541    0.379   51.010
  316.750   43.739    0.546    0.379   47.304
  317.000   43.733    0.549    0.381   45.543
  317.250   43.731    0.533    0.379   43.042
  317.500   43.124    0.517    0.364   39.921
  317.750   44.922    0.514    0.325   37.724
  318.000   47.921    0.507    0.173   32.464
  318.250   51.520    0.498    0.063   29.557
  318.500   49.713    0.222    0.063   20.715
  318.750   47.306    0.255    0.100   18.163
  319.000   43.697    0.306    0.259   17.489
  319.250   39.488    0.381    0.301   16.838
  319.500   40.683    0.435    0.352   16.209
  319.750   43.081    0.496    0.370   16.198
  320.000   46.680    0.502    0.366   16.491
  320.250   49.678    0.496    0.363   16.795
  320.500   50.274    0.477    0.363   17.101
  320.750   49.068    0.461    0.365   17.091
  321.000   47.261    0.453    0.360   17.084
  321.250   47.255    0.453    0.354   17.072
  321.500   49.052    0.456    0.353   17.062
  321.750   50.249    0.449    0.357   17.371
  322.000   50.245    0.386    0.347   17.693
  322.250   47.838    0.432    0.276   20.533
  322.500   44.830    0.466    0.267   24.735
  322.750   43.624    0.477    0.299   38.692
  323.000   42.418    0.442    0.203   40.153
  323.250   40.610    0.431    0.037   36.552
  323.500   37.602    0.213    0.110   31.460
  323.750   33.394    0.228    0.160   21.238
  324.000   30.386    0.255    0.240   20.450
  324.250   33.983    0.296    0.258   18.269
  324.500   38.183    0.418    0.305   16.630
  324.750   42.383    0.473    0.339   15.426
  325.000   44.179    0.501    0.347   14.041
  325.250   44.773    0.496    0.347   13.518
  325.500   44.771    0.490    0.336   13.260
  325.750   44.164    0.485    0.326   13.005
  326.000   43.557    0.484    0.321   13.243
  326.250   42.953    0.490    0.333   13.237
  326.500   41.747    0.496    0.335   13.729
  326.750   40.541    0.504    0.323   13.723
  327.000   41.739    0.498    0.315   13.974
  327.250   46.539    0.497    0.323   13.964
  327.500   47.135    0.504    0.332   13.960
  327.750   45.328    0.477    0.339   13.950
  328.000   45.924    0.446    0.334   13.941
  328.250   47.119    0.437    0.324   13.935
  328.500   47.114    0.455    0.324   13.670
  328.750   45.907    0.484    0.330   13.159
  329.000   45.902    0.488    0.328   13.153
  329.250   45.898    0.483    0.323   13.146
  329.500   45.292    0.490    0.322   13.384
  329.750   44.688    0.484    0.326   13.378
  330.000   44.681    0.479    0.326   13.879
  330.250   46.479    0.487    0.325   14.131
  330.500   48.876    0.493    0.323   14.120
  330.750   50.673    0.496    0.321   14.116
  331.000   51.871    0.490    0.319   14.108
  331.250   53.668    0.489    0.316   14.098
  331.500   53.062    0.494    0.320   14.090
  331.750   51.255    0.502    0.313   13.819
  332.000   51.250    0.513    0.307   13.305
  332.250   53.649    0.519    0.313   12.574
  332.500   54.845    0.539    0.320   11.882
  332.750   54.840    0.565    0.320   11.020
  333.000   55.436    0.574    0.321    9.845
  333.250   60.234    0.547    0.314    9.304
  333.500   62.032    0.543    0.307    8.957
  333.750   60.226    0.560    0.309    9.292
  334.000   57.218    0.571    0.319   10.197
  334.250   53.008    0.544    0.333   11.834
  334.500   49.400    0.511    0.344   13.990
  334.750   40.385    0.491    0.347   14.788
  335.000   38.576    0.481    0.345   15.060
  335.250   39.173    0.476    0.340   14.500
  335.500   38.568    0.476    0.337   14.221
  335.750   37.961    0.482    0.339   14.213
  336.000   37.959    0.494    0.340   14.474
  336.250   40.354    0.511    0.335   14.464
  336.500   40.352    0.495    0.333   14.458
  336.750   40.347    0.461    0.331   14.717
