~VERSION INFORMATION
 VERS.                 2.0:   CWLS LOG ASCII STANDARD -VERSION 2.0
 WRAP.                  NO:   ONE LINE PER DEPTH STEP
~WELL INFORMATION BLOCK
#MNEM.UNIT           DATA                    DESCRIPTION OF MNEMONIC
#---------    -------------------            -------------------------------
# Generated from Intellog Unique Number	CX_WELLS/WELL/2975
WELL.         ULSTER ET AL HANGST            : Well_name    - WELL
LOC .         00/12-23-082-11W4/0            : Location     - LOCATION
UWI .         00/12-23-082-11W400            : Uwi          - UNIQUE WELL ID
ENTR.         T                              : Entered      - ENTERED BY
SRVC.         SCHLUMBERGER                   : Scn          - SERVICE COMPANY
STRT.M        270                            : top_depth    - START DEPTH
STOP.M        493                            : bot_depth    - STOP DEPTH
STEP.M        0.25                           : increment    - STEP LENGTH
 NULL. -999.2500:NULL Value
~CURVE INFORMATION BLOCK
#MNEM UNIT       ERCB CURVE CODE    CURVE DESCRIPTION
#-----------   ------------------   ----------------------------------
DEPT.M        00 001 00 00         : DEPTH        - DEPTH
GR  .API      00 310 00 00         : GR           - GAMMA RAY
NPHI.V/V      00 330 00 00         : PHIN         - NEUTRON POROSITY (SANDSTONE)
DPHI.V/V      00 890 00 00         : PHID         - DENSITY POROSITY (SANDSTONE)
ILD .OHMM     00 120 00 00         : RESD         - DEEP RESISTIVITY (OTHER)
~PARAMETER INFORMATION
#MNEM.UNIT           DATA             DESCRIPTION OF MNEMONIC
#---------         -----------     ------------------------------
GL  .M        716                  : gl           - GROUND LEVEL ELEVATION
EREF.M        721.2                : kb           - ELEVATION OF DEPTH REFERENCE
DATM.M        721.2                : datum        - DATUM ELEVATION
TDD .M        497                  : tdd          - TOTAL DEPTH DRILLER
RUN .         ONE                  : Run          - RUN NUMBER
ENG .         BILL                 : Engineer     - RECORDING ENGINEER
WIT .         JIM                  : Witness      - WITNESSED BY
MUD .         GEL                  : Mud_type     - MUD TYPE
MATR.         SANDSTONE            : Logunit      - NEUTRON MATRIX
TMAX.C        22                   : BHT          - MAXIMUM RECORDED TEMPERATURE
BHTD.M        496                  : BHTDEP       - MAXIMUM RECORDED TEMPERATURE
MATR.         1                    : LOGUNIT      - NEUTRON MATRIX
RMT .C        20                   : MDTP         - TEMPERATURE OF MUD
NEUT.         1                    : NEUTRON      - NEUTRON TYPE
RESI.         7                    : RESIST       - RESISTIVITY TYPE
RMC .OHMM     8.2                  : RMC          - RESISTIVITY OF MUD CAKE
RMF .OHMM     8.2                  : RMF          - RESISTIVITY OF MUD FILTRATE
SUFT.C        4                    : SUFT         - SURFACE TEMPERATURE
~A  DEPTH       GR     PHIN     PHID     RESD
# ...
  313.500  100.549    0.418    0.239    8.094
  313.750  107.877    0.419    0.225    7.813
  314.000  111.574    0.421    0.221    7.542
  314.250  114.068    0.432    0.220    7.432
  314.500  116.584    0.442    0.228    7.314
  314.750  118.477    0.450    0.249    7.333
  315.000  117.385    0.447    0.262    7.348
  315.250  110.814    0.436    0.284    7.937
  315.500   92.838    0.431    0.291    8.735
  315.750   89.318    0.431    0.286   10.172
  316.000   89.407    0.432    0.282   10.988
  316.250   93.104    0.435    0.278   11.650
  316.500   99.229    0.442    0.268   11.465
  316.750  105.332    0.461    0.233   10.096
  317.000  106.645    0.476    0.231    9.746
  317.250  100.698    0.474    0.232   10.354
  317.500   89.961    0.476    0.237   10.761
  317.750   87.644    0.479    0.250   11.639
  318.000   87.754    0.485    0.258   11.882
  318.250   87.843    0.484    0.267   12.137
  318.500   87.932    0.475    0.270   11.724
  318.750   86.238    0.463    0.260   11.123
  319.000   86.283    0.455    0.253   10.730
  319.250   88.198    0.461    0.248   10.173
  319.500   90.714    0.465    0.246    9.833
  319.750   91.961    0.457    0.250   10.038
  320.000   93.252    0.448    0.253   10.460
  320.250   93.363    0.436    0.258   10.678
  320.500   94.053    0.430    0.268   11.105
  320.750   92.939    0.433    0.280   11.782
  321.000   89.397    0.444    0.279   12.744
  321.250   82.269    0.455    0.279   13.000
  321.500   75.141    0.453    0.303   13.784
  321.750   69.193    0.440    0.311   14.354
  322.000   62.065    0.431    0.332   15.515
  322.250   56.139    0.433    0.349   16.450
  322.500   54.423    0.444    0.359   17.120
  322.750   53.309    0.455    0.353   17.840
  323.000   51.572    0.450    0.343   17.863
  323.250   51.660    0.442    0.337   18.259
  323.500   51.749    0.434    0.341   18.627
  323.750   50.657    0.431    0.346   19.052
  324.000   50.144    0.426    0.354   19.102
  324.250   50.210    0.421    0.361   19.152
  324.500   50.923    0.418    0.355   19.551
  324.750   51.635    0.418    0.351   19.602
  325.000   52.325    0.424    0.350   20.023
  325.250   52.993    0.423    0.343   20.089
  325.500   53.103    0.413    0.339   20.507
  325.750   53.170    0.405    0.338   20.574
  326.000   53.258    0.396    0.340   21.030
  326.250   52.746    0.391    0.343   21.071
  326.500   52.834    0.394    0.346   21.127
  326.750   52.945    0.395    0.351   21.581
  327.000   53.613    0.396    0.355   21.651
  327.250   54.325    0.396    0.354   21.694
  327.500   54.392    0.394    0.354   21.751
  327.750   54.480    0.394    0.352   21.837
  328.000   54.591    0.394    0.350   21.866
  328.250   55.281    0.394    0.340   21.923
  328.500   55.370    0.395    0.335   22.024
  328.750   56.104    0.396    0.332   22.468
  329.000   56.170    0.397    0.330   22.541
  329.250   56.883    0.401    0.327   22.601
  329.500   57.528    0.404    0.330   22.660
  329.750   57.617    0.408    0.336   22.719
  330.000   58.307    0.410    0.341   22.764
  330.250   57.794    0.412    0.346   22.824
  330.500   54.876    0.411    0.347   22.884
  330.750   51.957    0.403    0.344   23.375
  331.000   47.257    0.348    0.324   27.221
  331.250   44.316    0.256    0.254   31.095
  331.500   41.398    0.235    0.112   32.381
  331.750   40.261    0.298    0.087   29.579
  332.000   46.987    0.338    0.156   27.509
  332.250   50.707    0.391    0.280   24.680
  332.500   51.397    0.404    0.337   22.953
  332.750   51.485    0.399    0.338   20.994
  333.000   52.175    0.401    0.344   20.266
  333.250   52.242    0.412    0.350   19.957
  333.500   52.932    0.423    0.356   19.627
  333.750   53.666    0.424    0.360   19.679
  334.000   54.356    0.419    0.355   19.731
  334.250   54.423    0.426    0.351   19.782
  334.500   53.932    0.432    0.346   19.821
  334.750   53.397    0.439    0.345   19.887
  335.000   52.929    0.437    0.342   19.952
  335.250   52.973    0.435    0.342   20.017
  335.500   51.859    0.433    0.344   20.057
  335.750   51.368    0.422    0.349   19.738
  336.000   50.833    0.415    0.351   19.777
  336.250   50.922    0.407    0.352   19.476
  336.500   51.010    0.400    0.353   19.527
  336.750   51.121    0.403    0.354   19.960
  337.000   51.210    0.409    0.355   20.362
  337.250   50.096    0.416    0.356   20.428
  337.500   47.779    0.428    0.357   20.496
  337.750   47.845    0.435    0.357   20.536
  338.000   49.158    0.440    0.357   20.590
  338.250   49.826    0.443    0.358   20.658
  338.500   49.937    0.446    0.360   20.698
  338.750   50.026    0.448    0.363   20.766
  339.000   50.136    0.450    0.366   20.821
  339.250   50.181    0.452    0.370   20.862
  339.500   49.111    0.455    0.369   20.930
  339.750   47.952    0.455    0.367   20.972
  340.000   47.462    0.454    0.356   20.666
  340.250   47.550    0.453    0.351   20.324
  340.500   47.639    0.452    0.347   20.391
  340.750   47.728    0.451    0.347   20.067
  341.000   47.816    0.451    0.348   20.120
  341.250   47.905    0.451    0.356   20.160
  341.500   47.993    0.451    0.348   19.839
  341.750   48.082    0.451    0.342   19.892
  342.000   48.215    0.450    0.347   19.957
  342.250   48.259    0.450    0.353   19.640
  342.500   48.994    0.448    0.361   19.328
  342.750   49.060    0.445    0.365   19.366
  343.000   49.772    0.444    0.359   19.059
  343.250   49.816    0.443    0.353   19.109
  343.500   50.551    0.442    0.351   18.805
  343.750   50.617    0.442    0.348   18.867
  344.000   51.931    0.443    0.347   18.917
  344.250   51.997    0.443    0.345   18.979
  344.500   53.289    0.444    0.344   19.041
  344.750   54.001    0.443    0.342   19.066
  345.000   54.090    0.445    0.342   19.116
  345.250   54.178    0.444    0.339   19.192
  345.500   54.267    0.444    0.338   19.229
  345.750   54.355    0.444    0.335   19.267
  346.000   55.023    0.444    0.335   18.974
  346.250   56.337    0.444    0.334   19.023
  346.500   57.628    0.442    0.332   19.073
  346.750   61.347    0.441    0.332   19.124
  347.000   61.436    0.438    0.332   18.820
  347.250   60.901    0.437    0.332   18.869
  347.500   59.208    0.437    0.332   18.944
  347.750   59.274    0.436    0.332   18.619
  348.000   59.964    0.438    0.325   18.680
  348.250   62.480    0.439    0.320   18.383
  348.500   65.554    0.441    0.314   18.091
  348.750   65.643    0.439    0.303   17.475
  349.000   63.949    0.438    0.288   16.263
  349.250   65.864    0.437    0.285   14.855
  349.500   68.982    0.436    0.295   13.816
  349.750   70.853    0.436    0.307   13.345
  350.000   73.347    0.437    0.298   12.891
  350.250   75.841    0.442    0.274   11.143
  350.500   77.734    0.447    0.275    9.441
  350.750   78.424    0.451    0.279    7.707
  351.000   75.505    0.463    0.280    7.040
  351.250   71.362    0.452    0.285    8.352
  351.500   67.864    0.435    0.291    9.720
  351.750   65.547    0.431    0.294   10.898
  352.000   66.237    0.442    0.307   12.930
  352.250   66.304    0.448    0.320   14.507
  352.500   67.016    0.459    0.320   15.381
  352.750   67.105    0.466    0.318   15.421
  353.000   67.171    0.459    0.316   15.176
  353.250   67.282    0.451    0.310   14.660
  353.500   67.371    0.438    0.302   14.984
  353.750   67.481    0.433    0.299   15.306
  354.000   68.773    0.433    0.300   15.645
  354.250   69.485    0.433    0.304   15.666
  354.500   69.529    0.435    0.303   16.002
  354.750   69.618    0.440    0.303   16.044
  355.000   69.729    0.442    0.303   16.087
  355.250   69.817    0.444    0.303   15.842
  355.500   68.703    0.443    0.304   15.302
  355.750   66.965    0.442    0.304   14.781
  356.000   67.076    0.440    0.305   14.810
  356.250   67.142    0.441    0.303   14.869
  356.500   66.630    0.445    0.304   14.898
  356.750   66.718    0.447    0.310   14.947
