~VERSION INFORMATION
 VERS.                 2.0:   CWLS LOG ASCII STANDARD -VERSION 2.0
 WRAP.                  NO:   ONE LINE PER DEPTH STEP
~WELL INFORMATION BLOCK
#MNEM.UNIT           DATA                    DESCRIPTION OF MNEMONIC
#---------    -------------------            -------------------------------
# Generated from Intellog Unique Number	CW_70_72/WELL/1069
NULL.         -999.25                        : NULL_VALUE
WELL.         NORCEN ET AL BLANCHE 14-35     : Well_name    - WELL              
LOC .         14-35-072-02W5                 : Location     - LOCATION          
UWI .         00/14-35-072-02W5/0            : Uwi          - UNIQUE WELL ID    
ENTR.         JAYE                           : Entered      - ENTERED BY        
SRVC.         COMPUTALOG                     : Scn          - SERVICE COMPANY   
DATE.         6 JAN 86                       : Date         - LOG DATE          
STRT.M        375                            : top_depth    - START DEPTH       
STOP.M        615                            : bot_depth    - STOP DEPTH        
STEP.M        0.25                           : increment    - STEP LENGTH       
~CURVE INFORMATION BLOCK
#MNEM UNIT       ERCB CURVE CODE    CURVE DESCRIPTION
#-----------   ------------------   ----------------------------------
DEPT.M        00 001 00 00         : DEPTH        - DEPTH                       
DPHI.V/V      00 890 00 00         : PHID         - DENSITY POROSITY (SANDSTONE)
NPHI.V/V      00 330 00 00         : PHIN         - NEUTRON POROSITY (SANDSTONE)
CALI.MM       00 280 01 00         : CAL          - CALIPER                     
GR  .API      00 310 00 00         : GR           - GAMMA RAY                   
ILD .OHMM     00 120 00 00         : RESD         - DEEP RESISTIVITY (DIL)      
~PARAMETER INFORMATION       
#MNEM.UNIT           DATA             DESCRIPTION OF MNEMONIC
#---------         -----------     ------------------------------
GL  .M        587.75               : gl           - GROUND LEVEL ELEVATION      
EREF.M        591.25               : kb           - ELEVATION OF DEPTH REFERENCE
DATM.M        587.75               : datum        - DATUM ELEVATION             
TDD .M        628                  : tdd          - TOTAL DEPTH DRILLER         
RUN .         ONE                  : Run          - RUN NUMBER                  
ENG .         CALDERWOOD           : Engineer     - RECORDING ENGINEER          
WIT .         HUGHES               : Witness      - WITNESSED BY                
BASE.         EDM                  : Branch       - HOME BASE OF LOGGING UNIT   
MUD .         GEL CHEM             : Mud_type     - MUD TYPE                    
MATR.         SANDSTONE            : Logunit      - NEUTRON MATRIX              
TMAX.C        50                   : BHT          - MAXIMUM RECORDED TEMPERATURE
BHTD.M        633.1                : BHTDEP       - MAXIMUM RECORDED TEMPERATURE
RMT .C        15.6                 : MDTP         - TEMPERATURE OF MUD          
MUDD.KG/M     1170                 : MWT          - MUD DENSITY                 
NEUT.         1                    : NEUTRON      - NEUTRON TYPE                
RESI.         0                    : RESIST       - RESISTIVITY TYPE            
RM  .OHMM     4                    : RM           - RESISTIVITY OF MUD          
RMC .OHMM     5                    : RMC          - RESISTIVITY OF MUD CAKE     
RMF .OHMM     4.8                  : RMF          - RESISTIVITY OF MUD FILTRATE 
SUFT.C        0                    : SUFT         - SURFACE TEMPERATURE         
~A  DEPTH     PHID     PHIN      CAL       GR     RESD
# ...
  448.000    0.168    0.408  204.243   87.142    4.811
  448.250    0.174    0.406  204.596   83.999    4.881
  448.500    0.170    0.416  204.522   85.758    4.860
  448.750    0.166    0.430  204.345   87.970    4.811
  449.000    0.176    0.443  203.945   89.729    4.762
  449.250    0.184    0.433  203.981   90.132    4.697
  449.500    0.180    0.425  204.113   89.054    4.624
  449.750    0.160    0.415  204.360   87.844    4.577
  450.000    0.157    0.406  204.500   87.283    4.497
  450.250    0.166    0.400  204.536   87.880    4.376
  450.500    0.181    0.405  204.136   87.770    4.141
  450.750    0.206    0.415  202.461   86.110    3.858
  451.000    0.224    0.417  199.716   80.386    3.522
  451.250    0.242    0.412  197.184   74.471    3.333
  451.500    0.265    0.406  195.085   67.846    3.261
  451.750    0.280    0.399  194.258   62.512    3.193
  452.000    0.289    0.392  193.763   58.531    3.202
  452.250    0.273    0.404  193.363   56.291    3.279
  452.500    0.264    0.417  193.178   58.888    3.435
  452.750    0.254    0.416  193.002   67.612    3.619
  453.000    0.243    0.415  193.029   74.078    3.630
  453.250    0.247    0.415  192.956   81.512    3.560
  453.500    0.255    0.412  192.883   73.792    3.491
  453.750    0.270    0.411  193.125   67.360    3.430
  454.000    0.273    0.414  193.586   59.508    3.370
  454.250    0.269    0.417  194.150   57.462    3.343
  454.500    0.265    0.410  194.720   58.318    3.341
  454.750    0.266    0.395  194.749   57.883    3.351
  455.000    0.264    0.372  194.674   58.356    3.354
  455.250    0.259    0.385  194.493   60.951    3.358
  455.500    0.259    0.393  194.528   61.097    3.388
  455.750    0.272    0.408  194.564   60.278    3.411
  456.000    0.275    0.407  194.593   61.133    3.427
  456.250    0.269    0.399  194.409   61.989    3.458
  456.500    0.260    0.395  194.015   62.972    3.488
  456.750    0.257    0.388  193.731   65.504    3.519
  457.000    0.257    0.386  193.757   62.621    3.523
  457.250    0.257    0.388  193.901   60.767    3.507
  457.500    0.262    0.380  193.935   58.593    3.511
  457.750    0.259    0.376  194.284   56.742    3.490
  458.000    0.261    0.373  194.640   55.790    3.468
  458.250    0.270    0.372  194.880   58.711    3.452
  458.500    0.272    0.373  195.445   63.565    3.443
  458.750    0.268    0.384  196.120   65.064    3.421
  459.000    0.270    0.398  196.471   65.471    3.425
  459.250    0.279    0.407  196.505   65.553    3.429
  459.500    0.275    0.404  196.857   66.279    3.414
  459.750    0.268    0.396  196.571   67.392    3.386
  460.000    0.258    0.404  196.496   69.473    3.358
  460.250    0.252    0.417  196.421   74.715    3.318
  460.500    0.253    0.419  196.237   71.571    3.285
  460.750    0.255    0.401  195.954   67.075    3.251
  461.000    0.260    0.383  195.559   60.901    3.195
  461.250    0.267    0.393  195.271   57.436    3.144
  461.500    0.273    0.400  195.192   63.389    3.101
  461.750    0.280    0.399  195.654   64.242    3.064
  462.000    0.283    0.387  196.436   59.617    3.114
  462.250    0.276    0.379  197.000   60.796    3.214
  462.500    0.263    0.375  197.992   64.618    3.405
  462.750    0.244    0.367  198.769   61.669    3.648
  463.000    0.228    0.353  199.657   58.463    3.865
  463.250    0.205    0.327  200.863   59.189    3.943
  463.500    0.184    0.345  201.643   62.882    3.759
  463.750    0.178    0.364  202.211   62.320    3.367
  464.000    0.209    0.384  202.466   62.917    3.050
  464.250    0.237    0.410  202.602   65.966    2.827
  464.500    0.239    0.432  202.842   70.240    2.873
  464.750    0.167    0.435  202.978   67.806    3.055
  465.000    0.164    0.412  201.516   68.920    3.286
  465.250    0.161    0.371  198.772   69.969    3.528
  465.500    0.201    0.352  196.560   65.279    3.647
  465.750    0.238    0.349  195.315   61.492    3.483
  466.000    0.250    0.371  194.600   63.509    3.216
  466.250    0.271    0.391  194.205   67.202    3.008
  466.500    0.289    0.403  193.704   73.926    2.862
  466.750    0.304    0.399  193.631   76.523    2.755
  467.000    0.312    0.388  193.762   68.415    2.666
  467.250    0.302    0.395  194.115   61.276    2.614
  467.500    0.291    0.407  194.683   58.778    2.584
  467.750    0.284    0.413  195.039   57.955    2.586
  468.000    0.277    0.420  195.390   56.683    2.694
  468.250    0.271    0.432  195.960   56.768    2.854
  468.500    0.264    0.438  196.197   59.234    3.024
  468.750    0.255    0.429  197.095   62.991    3.210
  469.000    0.247    0.419  197.760   68.103    3.324
  469.250    0.262    0.410  199.399   70.185    3.354
  469.500    0.264    0.398  200.601   66.397    3.332
  469.750    0.236    0.410  201.812   71.383    3.343
  470.000    0.222    0.422  202.269   75.977    3.391
  470.250    0.237    0.434  202.404   81.605    3.492
  470.500    0.247    0.435  202.443   72.336    3.659
  470.750    0.241    0.416  202.684   67.324    3.811
  471.000    0.223    0.393  203.042   70.952    3.962
  471.250    0.194    0.378  203.069   73.550    4.166
  471.500    0.202    0.394  203.100   74.147    4.315
  471.750    0.206    0.408  203.237   73.326    4.394
  472.000    0.211    0.404  203.484   73.215    4.458
  472.250    0.216    0.398  203.845   77.037    4.523
  472.500    0.216    0.399  203.977   73.572    4.598
  472.750    0.210    0.400  204.443   74.429    4.672
  473.000    0.194    0.408  204.789   77.089    4.749
  473.250    0.190    0.409  205.146   82.590    4.790
  473.500    0.187    0.404  205.494   82.156    4.888
  473.750    0.186    0.394  205.850   80.950    4.911
  474.000    0.182    0.396  205.986   79.999    4.917
  474.250    0.180    0.403  206.345   79.047    4.904
  474.500    0.183    0.404  206.478   78.743    4.747
  474.750    0.208    0.404  206.829   78.760    4.559
  475.000    0.236    0.402  204.729   79.874    4.379
  475.250    0.262    0.402  202.410   85.117    4.222
  475.500    0.289    0.403  200.838   82.230    4.032
  475.750    0.292    0.396  199.910   75.154    3.815
  476.000    0.287    0.385  199.409   68.400    3.685
  476.250    0.287    0.378  199.867   63.903    3.513
  476.500    0.288    0.386  200.226   62.373    3.451
  476.750    0.289    0.383  200.572   62.907    3.502
  477.000    0.291    0.383  200.819   64.666    3.572
  477.250    0.290    0.396  200.959   64.296    3.700
  477.500    0.284    0.405  201.095   63.604    3.825
  477.750    0.279    0.388  201.237   64.653    3.940
  478.000    0.275    0.384  201.695   65.251    4.051
  478.250    0.275    0.392  202.045   62.625    4.116
  478.500    0.278    0.406  202.722   59.160    4.199
  478.750    0.284    0.417  203.609   60.145    4.285
  479.000    0.284    0.415  204.395   65.773    4.339
  479.250    0.275    0.399  204.746   67.983    4.360
  479.500    0.266    0.402  205.309   66.646    4.366
  479.750    0.262    0.417  205.661   63.181    4.355
  480.000    0.260    0.417  205.904   66.165    4.335
  480.250    0.258    0.404  206.148   66.442    4.414
  480.500    0.248    0.371  206.607   63.491    4.615
  480.750    0.154    0.340  206.532   63.380    4.927
  481.000    0.101    0.293  206.141   63.463    5.260
  481.250    0.081    0.256  205.852   58.320    5.540
  481.500    0.128    0.258  205.561   52.597    6.062
  481.750    0.161    0.272  205.488   52.165    6.569
  482.000    0.210    0.293  205.308   55.858    7.172
  482.250    0.134    0.303  205.230   62.775    7.965
  482.500    0.097    0.264  205.166   64.213    8.964
  482.750    0.069    0.240  204.981   59.200   10.164
  483.000    0.036    0.211  204.903   55.285   11.203
  483.250    0.017    0.174  204.934   53.042   12.302
  483.500    0.003    0.161  204.963   50.935   13.107
  483.750    0.007    0.161  204.675   48.950   11.479
  484.000    0.028    0.177  204.600   47.034   10.263
  484.250    0.053    0.209  204.315   47.502    8.303
