~VERSION INFORMATION
 VERS.                 2.0:   CWLS LOG ASCII STANDARD -VERSION 2.0
 WRAP.                  NO:   ONE LINE PER DEPTH STEP
~WELL INFORMATION BLOCK
#MNEM.UNIT           DATA                    DESCRIPTION OF MNEMONIC
#---------    -------------------            -------------------------------
# Generated from Intellog Unique Number	CW_70_72/WELL/1075
NULL.         -999.25                        : NULL_VALUE
WELL.         WESTM ET AL CALLW 16-23        : Well_name    - WELL              
LOC .         16-23-071-20W4                 : Location     - LOCATION          
UWI .         00/16-23-071-20W4/0            : Uwi          - UNIQUE WELL ID    
ENTR.         JAYE                           : Entered      - ENTERED BY        
SRVC.         SCHLUMBERGER                   : Scn          - SERVICE COMPANY   
DATE.         21 FEB 84                      : Date         - LOG DATE          
STRT.M        315                            : top_depth    - START DEPTH       
STOP.M        510                            : bot_depth    - STOP DEPTH        
STEP.M        0.25                           : increment    - STEP LENGTH       
~CURVE INFORMATION BLOCK
#MNEM UNIT       ERCB CURVE CODE    CURVE DESCRIPTION
#-----------   ------------------   ----------------------------------
DEPT.M        00 001 00 00         : DEPTH        - DEPTH                       
DPHI.V/V      00 890 00 00         : PHID         - DENSITY POROSITY (SANDSTONE)
NPHI.V/V      00 330 00 00         : PHIN         - NEUTRON POROSITY (SANDSTONE)
GR  .API      00 310 00 00         : GR           - GAMMA RAY                   
CALI.MM       00 280 01 00         : CAL          - CALIPER                     
ILD .OHMM     00 120 00 00         : RESD         - DEEP RESISTIVITY (DIL)      
~PARAMETER INFORMATION       
#MNEM.UNIT           DATA             DESCRIPTION OF MNEMONIC
#---------         -----------     ------------------------------
GL  .M        586.4                : gl           - GROUND LEVEL ELEVATION      
EREF.M        588.9                : kb           - ELEVATION OF DEPTH REFERENCE
DATM.M        586.4                : datum        - DATUM ELEVATION             
TDD .M        518                  : tdd          - TOTAL DEPTH DRILLER         
RUN .         ONE                  : Run          - RUN NUMBER                  
ENG .         DOWNIE               : Engineer     - RECORDING ENGINEER          
WIT .         JACKSON              : Witness      - WITNESSED BY                
BASE.         EDSON                : Branch       - HOME BASE OF LOGGING UNIT   
MUD .         GEL CHEN             : Mud_type     - MUD TYPE                    
MATR.         SANDSTONE            : Logunit      - NEUTRON MATRIX              
TMAX.C        26                   : BHT          - MAXIMUM RECORDED TEMPERATURE
BHTD.M        517.3                : BHTDEP       - MAXIMUM RECORDED TEMPERATURE
RMT .C        18.9                 : MDTP         - TEMPERATURE OF MUD          
MUDD.KG/M     1170                 : MWT          - MUD DENSITY                 
NEUT.         1                    : NEUTRON      - NEUTRON TYPE                
RESI.         0                    : RESIST       - RESISTIVITY TYPE            
RM  .OHMM     4.57                 : RM           - RESISTIVITY OF MUD          
RMC .OHMM     0                    : RMC          - RESISTIVITY OF MUD CAKE     
RMF .OHMM     4.13                 : RMF          - RESISTIVITY OF MUD FILTRATE 
SUFT.C        0                    : SUFT         - SURFACE TEMPERATURE         
~A  DEPTH     PHID     PHIN       GR      CAL     RESD
# ...
  461.000    0.158    0.390   93.780  163.962    7.262
  461.250    0.162    0.403   89.032  163.975    6.339
  461.500    0.168    0.394   87.101  163.992    5.976
  461.750    0.165    0.370   90.239  164.110    5.830
  462.000    0.164    0.372   93.626  164.436    5.839
  462.250    0.167    0.393   91.820  164.559    5.879
  462.500    0.170    0.415   92.454  164.464    5.955
  462.750    0.171    0.381   95.341  164.479    6.021
  463.000    0.169    0.379   95.913  164.285    6.029
  463.250    0.161    0.372   94.734  164.088    6.037
  463.500    0.151    0.367   92.926  163.686    6.208
  463.750    0.140    0.364   90.556  163.386    6.395
  464.000    0.118    0.339   88.124  164.129    6.751
  464.250    0.116    0.324   89.822  166.753    7.181
  464.500    0.146    0.323   93.648  168.018    7.639
  464.750    0.164    0.334   98.600  168.448    7.693
  465.000    0.164    0.338  106.932  168.672    7.488
  465.250    0.161    0.347  109.757  169.102    7.074
  465.500    0.172    0.358  106.949  169.951    6.658
  465.750    0.170    0.376  100.574  170.069    6.385
  466.000    0.151    0.386   87.879  169.460    6.347
  466.250    0.132    0.321   81.441  168.951    6.589
  466.500    0.109    0.287   80.573  168.546    6.811
  466.750    0.126    0.309   89.281  168.247    7.097
  467.000    0.147    0.330   92.356  167.430    6.963
  467.250    0.155    0.375   89.047  166.713    6.778
  467.500    0.128    0.370   86.866  165.581    6.622
  467.750    0.083    0.350   85.559  164.862    6.522
  468.000    0.119    0.350   90.200  163.627    6.531
  468.250    0.139    0.355   93.148  162.702    6.603
  468.500    0.182    0.356   97.913  161.985    6.476
  468.750    0.196    0.429  103.491  161.267    5.902
  469.000    0.208    0.448  108.631  161.804    5.201
  469.250    0.207    0.469  113.333  162.234    4.211
  469.500    0.196    0.509  106.269  163.395    3.513
  469.750    0.172    0.534   97.266  164.141    2.828
  470.000    0.131    0.495   89.890  164.779    2.707
  470.250    0.086    0.385   78.322  166.359    3.007
  470.500    0.067    0.364   82.460  167.311    3.514
  470.750    0.086    0.377   87.976  167.534    4.676
  471.000    0.125    0.391   90.926  166.921    5.547
  471.250    0.137    0.400   95.189  166.935    6.184
  471.500    0.152    0.383   97.889  167.472    6.419
  471.750    0.152    0.358   99.587  167.904    6.214
  472.000    0.152    0.373  103.600  168.021    5.926
  472.250    0.160    0.402  105.736  167.931    5.769
  472.500    0.076    0.434  101.802  167.738    5.932
  472.750    0.049    0.388   89.670  167.543    6.297
  473.000   -0.006    0.280   75.222  167.348    6.955
  473.250    0.029    0.267   65.593  167.259    7.784
  473.500    0.077    0.311   87.067  167.063    8.694
  473.750    0.145    0.335   95.962  166.971    9.440
  474.000    0.155    0.358   98.911  166.985    7.847
  474.250    0.156    0.383   95.791  166.895    6.888
  474.500    0.159    0.398   90.668  166.596    6.046
  474.750    0.153    0.398   87.171  166.509    5.909
  475.000    0.134    0.379   88.181  166.627    5.939
  475.250    0.106    0.364   92.508  166.848    5.926
  475.500    0.119    0.379   99.838  167.073    5.824
  475.750    0.132    0.386  107.294  166.876    5.680
  476.000    0.149    0.395  108.616  166.787    5.552
  476.250    0.138    0.435   98.799  166.800    5.467
  476.500    0.096    0.422   89.233  166.708    5.383
  476.750    0.092    0.412   93.748  166.518    5.231
  477.000    0.135    0.421   99.764  166.321    5.008
  477.250    0.145    0.432  103.276  166.023    4.929
  477.500    0.137    0.420  102.471  165.827    4.891
  477.750    0.140    0.418   98.161  165.736    4.888
  478.000    0.150    0.435   96.292  165.647    4.877
  478.250    0.152    0.421   98.805  165.346    4.830
  478.500    0.155    0.419  103.632  164.631    4.809
  478.750    0.159    0.434  105.580  164.019    4.880
  479.000    0.086    0.444  100.081  163.407    5.018
  479.250    0.026    0.404   90.452  162.901    5.217
  479.500    0.075    0.377   90.335  162.603    5.355
  479.750    0.117    0.358   98.793  162.512    5.392
  480.000    0.147    0.415  106.936  162.421    5.423
  480.250    0.163    0.437  108.760  162.540    5.408
  480.500    0.160    0.431  103.448  162.658    5.306
  480.750    0.146    0.420  104.772  162.672    5.165
  481.000    0.141    0.397  105.969  162.684    5.068
  481.250    0.139    0.414  106.102  162.493    5.046
  481.500    0.059    0.458   89.151  162.401    5.091
  481.750   -0.055    0.320   74.891  162.312    5.254
  482.000   -0.098    0.265   90.106  162.323    6.282
  482.250   -0.110    0.325  104.759  162.442    7.175
  482.500   -0.016    0.342   98.635  162.560    8.151
  482.750    0.113    0.331   93.636  162.576    7.715
  483.000    0.187    0.365  100.716  162.589    6.246
  483.250    0.205    0.452   94.342  162.603    5.556
  483.500    0.200    0.483   81.521  162.723    5.483
  483.750    0.184    0.368   79.464  162.945    5.489
  484.000    0.172    0.362   86.982  163.064    5.615
  484.250    0.183    0.367   81.609  163.495    5.716
  484.500    0.185    0.355   69.914  163.822    5.877
  484.750    0.183    0.330   77.433  163.834    6.032
  485.000    0.189    0.320   86.139  163.849    6.201
  485.250    0.203    0.303   96.036  163.863    6.425
  485.500    0.186    0.333  104.055  164.087    6.821
  485.750    0.159    0.379  112.511  164.307    7.079
  486.000    0.139    0.367  248.445  164.322    7.171
  486.250    0.125    0.391  283.249  164.230    7.235
  486.500    0.148    0.409  273.996  164.037    7.343
  486.750    0.220    0.381  227.944  164.050    7.451
  487.000    0.255    0.357  107.860  163.856    7.559
  487.250    0.226    0.348   84.400  163.661    7.686
  487.500    0.221    0.335   80.342  163.158    7.799
  487.750    0.212    0.319   83.103  162.858    7.869
  488.000    0.206    0.319   82.987  162.560    7.971
  488.250    0.225    0.354   78.927  162.260    8.103
  488.500    0.244    0.345   73.116  161.961    8.268
  488.750    0.267    0.346   69.057  161.867    8.795
  489.000    0.283    0.356   65.435  161.470    9.550
  489.250    0.294    0.364   58.623  161.376   10.101
  489.500    0.306    0.369   54.875  161.182   10.404
  489.750    0.266    0.363   58.139  161.091   10.738
  490.000    0.243    0.351   67.471  160.895   10.554
  490.250    0.234    0.330   73.363  160.599   10.027
  490.500    0.231    0.325   73.058  160.402    9.210
  490.750    0.248    0.336   69.749  160.419    8.538
  491.000    0.252    0.342   74.451  160.325    8.112
  491.250    0.228    0.341   81.969  160.131    7.970
  491.500    0.253    0.361   74.218  159.936    7.879
  491.750    0.284    0.378   60.897  159.532    7.891
  492.000    0.314    0.350   50.141  158.297    8.052
  492.250    0.295    0.357   46.144  157.892    8.451
  492.500    0.302    0.378   42.773  159.055    9.057
  492.750    0.300    0.392   47.600  160.111    9.889
  493.000    0.277    0.374   64.882  160.855   10.985
  493.250    0.255    0.351   79.158  161.183   10.264
  493.500    0.220    0.367   83.735  161.091    9.265
  493.750    0.210    0.398   79.488  161.003    8.133
  494.000    0.220    0.424   65.854  161.014    7.711
  494.250    0.258    0.394   62.921  161.238    7.382
  494.500    0.276    0.357   71.690  161.462    7.254
  494.750    0.271    0.376   85.154  161.787    7.225
  495.000    0.265    0.388   84.224  161.801    7.402
  495.250    0.276    0.403   73.781  161.921    7.525
  495.500    0.230    0.328   64.966  161.829    7.623
  495.750    0.214    0.303   89.568  162.053    7.645
  496.000    0.204    0.307   95.021  162.171    7.557
  496.250    0.215    0.321   86.706  162.081    7.357
  496.500    0.234    0.323   90.219  162.304    6.873
  496.750    0.226    0.316  111.067  162.734    6.455
  497.000    0.185    0.320  120.900  164.104    5.962
  497.250    0.157    0.335  111.647  165.266    5.590
