~VERSION INFORMATION
 VERS.                 2.0:   CWLS LOG ASCII STANDARD -VERSION 2.0
 WRAP.                  NO:   ONE LINE PER DEPTH STEP
~WELL INFORMATION BLOCK
#MNEM.UNIT           DATA                    DESCRIPTION OF MNEMONIC
#---------    -------------------            -------------------------------
# Generated from Intellog Unique Number	CX_WELLS/WELL/2984
WELL.         ULSTER HANDST                  : Well_name    - WELL
LOC .         00/11-25-082-11W4/0            : Location     - LOCATION
UWI .         00/11-25-082-11W400            : Uwi          - UNIQUE WELL ID
ENTR.         T                              : Entered      - ENTERED BY
SRVC.         SCHLUMBERGER                   : Scn          - SERVICE COMPANY
STRT.M        265                            : top_depth    - START DEPTH
STOP.M        487                            : bot_depth    - STOP DEPTH
STEP.M        0.25                           : increment    - STEP LENGTH
 NULL. -999.2500:NULL Value
~CURVE INFORMATION BLOCK
#MNEM UNIT       ERCB CURVE CODE    CURVE DESCRIPTION
#-----------   ------------------   ----------------------------------
DEPT.M        00 001 00 00         : DEPTH        - DEPTH
GR  .API      00 310 00 00         : GR           - GAMMA RAY
NPHI.V/V      00 330 00 00         : PHIN         - NEUTRON POROSITY (SANDSTONE)
DPHI.V/V      00 890 00 00         : PHID         - DENSITY POROSITY (SANDSTONE)
ILD .OHMM     00 120 00 00         : RESD         - DEEP RESISTIVITY (OTHER)
~PARAMETER INFORMATION
#MNEM.UNIT           DATA             DESCRIPTION OF MNEMONIC
#---------         -----------     ------------------------------
GL  .M        716                  : gl           - GROUND LEVEL ELEVATION
EREF.M        719.1                : kb           - ELEVATION OF DEPTH REFERENCE
DATM.M        719.1                : datum        - DATUM ELEVATION
TDD .M        492                  : tdd          - TOTAL DEPTH DRILLER
RUN .         ONE                  : Run          - RUN NUMBER
ENG .         BILL                 : Engineer     - RECORDING ENGINEER
WIT .         JIM                  : Witness      - WITNESSED BY
MUD .         GEL                  : Mud_type     - MUD TYPE
MATR.         SANDSTONE            : Logunit      - NEUTRON MATRIX
TMAX.C        16                   : BHT          - MAXIMUM RECORDED TEMPERATURE
BHTD.M        492                  : BHTDEP       - MAXIMUM RECORDED TEMPERATURE
MATR.         1                    : LOGUNIT      - NEUTRON MATRIX
RMT .C        20                   : MDTP         - TEMPERATURE OF MUD
NEUT.         1                    : NEUTRON      - NEUTRON TYPE
RESI.         6.3                  : RESIST       - RESISTIVITY TYPE
RMC .OHMM     7.17                 : RMC          - RESISTIVITY OF MUD CAKE
RMF .OHMM     7.17                 : RMF          - RESISTIVITY OF MUD FILTRATE
SUFT.C        4                    : SUFT         - SURFACE TEMPERATURE
~A  DEPTH       GR     PHIN     PHID     RESD
# ...
  308.500   94.487    0.421    0.343   11.380
  308.750  111.361    0.411    0.337   10.164
  309.000  115.111    0.405    0.329   10.363
  309.250  122.610    0.407    0.308   10.565
  309.500  120.111    0.411    0.275   10.978
  309.750  113.863    0.416    0.283   11.848
  310.000  106.990    0.422    0.291   12.309
  310.250  104.491    0.430    0.290   12.793
  310.500   98.868    0.433    0.277   12.797
  310.750   94.494    0.437    0.261   12.564
  311.000   90.746    0.439    0.256   12.334
  311.250   90.746    0.442    0.263   11.882
  311.500   95.746    0.446    0.269   11.668
  311.750  100.746    0.451    0.275   11.672
  312.000  103.871    0.448    0.285   11.902
  312.250  103.872    0.442    0.294   12.365
  312.500  105.748    0.428    0.302   12.847
  312.750  106.998    0.423    0.312   13.608
  313.000  107.624    0.421    0.320   14.138
  313.250  103.875    0.418    0.322   14.973
  313.500   95.127    0.415    0.328   15.262
  313.750   85.754    0.417    0.343   15.858
  314.000   77.006    0.449    0.365   17.113
  314.250   68.883    0.470    0.426   18.121
  314.500   55.136    0.506    0.411   20.702
  314.750   51.388    0.507    0.394   22.764
  315.000   52.013    0.471    0.392   25.035
  315.250   54.514    0.426    0.391   27.015
  315.500   56.389    0.407    0.389   29.713
  315.750   57.639    0.408    0.385   31.471
  316.000   58.890    0.408    0.383   32.080
  316.250   58.266    0.410    0.380   33.333
  316.500   57.642    0.412    0.381   33.990
  316.750   57.017    0.413    0.384   34.660
  317.000   57.643    0.420    0.387   34.668
  317.250   57.644    0.417    0.391   35.352
  317.500   57.645    0.411    0.395   35.368
  317.750   56.395    0.410    0.397   35.386
  318.000   54.522    0.416    0.395   35.407
  318.250   53.897    0.429    0.391   35.419
  318.500   53.898    0.438    0.390   34.776
  318.750   55.148    0.439    0.394   34.789
  319.000   56.399    0.440    0.400   33.517
  319.250   56.400    0.445    0.410   32.901
  319.500   55.776    0.453    0.408   31.702
  319.750   56.401    0.456    0.403   31.710
  320.000   57.652    0.447    0.397   31.134
  320.250   57.028    0.434    0.394   30.565
  320.500   55.779    0.412    0.390   30.580
  320.750   54.530    0.407    0.390   30.595
  321.000   54.530    0.410    0.390   30.609
  321.250   55.156    0.418    0.390   30.624
  321.500   56.406    0.427    0.389   30.068
  321.750   56.407    0.440    0.389   29.522
  322.000   57.033    0.440    0.389   29.533
  322.250   57.033    0.440    0.392   28.997
  322.500   57.034    0.442    0.396   29.004
  322.750   57.035    0.439    0.393   29.021
  323.000   56.411    0.438    0.391   29.035
  323.250   55.162    0.442    0.390   29.052
  323.500   54.538    0.450    0.393   29.070
  323.750   52.039    0.455    0.398   29.077
  324.000   52.664    0.451    0.402   29.091
  324.250   53.290    0.445    0.405   28.566
  324.500   53.916    0.445    0.406   28.576
  324.750   54.541    0.453    0.407   28.051
  325.000   55.167    0.455    0.407   28.064
  325.250   54.543    0.450    0.407   27.558
  325.500   53.294    0.445    0.407   27.568
  325.750   52.669    0.444    0.406   27.591
  326.000   52.045    0.446    0.403   27.601
  326.250   50.796    0.448    0.402   27.611
  326.500   50.172    0.448    0.401   27.621
  326.750   52.047    0.448    0.401   27.638
  327.000   53.298    0.448    0.402   27.648
  327.250   54.548    0.448    0.402   26.637
  327.500   55.174    0.449    0.402   26.646
  327.750   54.550    0.445    0.402   26.160
  328.000   51.426    0.440    0.402   25.688
  328.250   49.552    0.438    0.402   25.700
  328.500   48.928    0.435    0.401   25.712
  328.750   48.929    0.438    0.401   25.722
  329.000   48.930    0.433    0.399   25.734
  329.250   50.180    0.428    0.399   25.750
  329.500   52.680    0.423    0.398   25.759
  329.750   56.430    0.427    0.398   25.771
  330.000   60.806    0.444    0.398   26.279
  330.250   60.806    0.455    0.398   26.292
  330.500   57.682    0.456    0.397   26.807
  330.750   53.309    0.448    0.396   26.823
  331.000   50.810    0.445    0.394   26.835
  331.250   52.061    0.451    0.392   26.848
  331.500   54.561    0.457    0.392   26.864
  331.750   58.311    0.461    0.392   26.871
  332.000   59.562    0.450    0.392   26.884
  332.250   61.437    0.434    0.392   26.897
  332.500   62.688    0.436    0.391   26.913
  332.750   63.313    0.444    0.391   26.926
  333.000   62.689    0.447    0.389   27.977
  333.250   61.440    0.450    0.388   28.529
  333.500   60.191    0.446    0.388   29.084
  333.750   59.566    0.438    0.387   29.654
  334.000   59.567    0.435    0.386   30.235
  334.250   60.193    0.438    0.383   30.827
  334.500   60.819    0.441    0.382   31.442
  334.750   60.194    0.442    0.380   31.449
  335.000   59.571    0.445    0.377   30.882
  335.250   58.946    0.440    0.376   29.746
  335.500   60.197    0.442    0.376   29.206
  335.750   67.696    0.450    0.376   29.220
  336.000   68.947    0.444    0.373   29.231
  336.250   69.572    0.439    0.371   29.241
  336.500   70.823    0.442    0.367   29.818
  336.750   71.448    0.440    0.366   28.186
  337.000   68.950    0.429    0.365   25.174
  337.250   67.076    0.426    0.362   22.062
  337.500   66.452    0.428    0.360   19.706
  337.750   67.702    0.426    0.356   17.600
  338.000   71.452    0.426    0.352   16.955
  338.250   76.452    0.431    0.352   18.648
  338.500   75.203    0.437    0.356   19.372
  338.750   69.580    0.444    0.357   20.904
  339.000   65.206    0.444    0.357   22.136
  339.250   61.458    0.444    0.357   24.346
  339.500   60.833    0.441    0.355   25.307
  339.750   61.459    0.444    0.354   25.799
  340.000   63.959    0.444    0.349   25.808
  340.250   65.835    0.434    0.342   25.821
  340.500   67.085    0.435    0.333   25.833
  340.750   67.086    0.432    0.319   25.843
  341.000   65.212    0.439    0.328   25.858
  341.250   67.088    0.451    0.344   25.870
  341.500   67.713    0.457    0.353   25.883
  341.750   65.214    0.431    0.356   25.410
  342.000   65.840    0.424    0.357   23.575
  342.250   70.215    0.436    0.356   22.285
  342.500   73.340    0.445    0.348   20.668
  342.750   79.590    0.452    0.345   19.169
  343.000   88.964    0.453    0.336   17.447
  343.250   88.340    0.451    0.336   15.582
  343.500   81.467    0.447    0.336   13.917
  343.750   78.968    0.442    0.337   12.667
  344.000   77.719    0.443    0.341   12.202
  344.250   75.220    0.445    0.345   12.211
  344.500   70.846    0.441    0.346   12.449
  344.750   70.222    0.434    0.341   12.937
  345.000   71.473    0.431    0.339   13.442
  345.250   72.098    0.430    0.336   13.965
  345.500   73.349    0.430    0.334   14.511
  345.750   73.349    0.431    0.331   15.367
  346.000   72.726    0.432    0.329   15.668
  346.250   75.226    0.434    0.326   15.096
  346.500   78.351    0.433    0.320   14.820
  346.750   80.227    0.433    0.313   14.278
  347.000   82.102    0.436    0.306   13.751
  347.250   83.977    0.437    0.298   13.249
  347.500   87.727    0.438    0.285   12.524
  347.750   89.603    0.437    0.280   12.293
  348.000   90.853    0.433    0.289   11.622
  348.250   90.854    0.431    0.295   10.987
  348.500   88.980    0.427    0.295   10.582
  348.750   88.981    0.421    0.289   10.003
  349.000   92.106    0.417    0.288    9.458
  349.250   93.357    0.412    0.290    9.110
  349.500   90.858    0.419    0.290    8.776
  349.750   98.982    0.430    0.280    8.296
  350.000  104.607    0.446    0.268    7.553
  350.250  106.483    0.457    0.262    7.413
  350.500  109.608    0.462    0.254    7.007
  350.750  113.983    0.459    0.250    6.499
  351.000  117.108    0.449    0.251    5.916
  351.250  118.359    0.437    0.253    5.592
  351.500  119.609    0.426    0.252    5.091
  351.750  122.734    0.420    0.251    4.998
