~VERSION INFORMATION
 VERS.                 2.0:   CWLS LOG ASCII STANDARD -VERSION 2.0
 WRAP.                  NO:   ONE LINE PER DEPTH STEP
~WELL INFORMATION BLOCK
#MNEM.UNIT           DATA                    DESCRIPTION OF MNEMONIC
#---------    -------------------            -------------------------------
# Generated from Intellog Unique Number	CN_94_101/WELL/5000
WELL.         10-02-099-13W4                 : Well_name    - WELL
LOC .         00/10-02-099-13W4/0            : Location     - LOCATION
UWI .         00/10-02-099-13W400            : Uwi          - UNIQUE WELL ID
ENTR.         TOP                            : Entered      - ENTERED BY
SRVC.         SCHLUMBERGER                   : Scn          - SERVICE COMPANY
DATE.         08/11/92                       : Date         - LOG DATE
STRT.M        375                            : top_depth    - START DEPTH
STOP.M        575                            : bot_depth    - STOP DEPTH
STEP.M        0.25                           : increment    - STEP LENGTH
 NULL. -999.2500:NULL Value
~CURVE INFORMATION BLOCK
#MNEM UNIT       ERCB CURVE CODE    CURVE DESCRIPTION
#-----------   ------------------   ----------------------------------
DEPT.M        00 001 00 00         : DEPTH        - DEPTH
GR  .API      00 310 00 00         : GR           - GAMMA RAY
ILD .OHMM     00 120 00 00         : RESD         - DEEP RESISTIVITY (DIL)
NPHI.V/V      00 330 00 00         : PHIN         - NEUTRON POROSITY (SANDSTONE)
DPHI.V/V      00 890 00 00         : PHID         - DENSITY POROSITY (SANDSTONE)
~PARAMETER INFORMATION
#MNEM.UNIT           DATA             DESCRIPTION OF MNEMONIC
#---------         -----------     ------------------------------
GL  .M        827                  : gl           - GROUND LEVEL ELEVATION
EREF.M        830                  : kb           - ELEVATION OF DEPTH REFERENCE
DATM.M        830                  : datum        - DATUM ELEVATION
TDD .M        564                  : tdd          - TOTAL DEPTH DRILLER
RUN .         ONE                  : Run          - RUN NUMBER
ENG .         BILL                 : Engineer     - RECORDING ENGINEER
WIT .         JIM                  : Witness      - WITNESSED BY
MUD .         GEL                  : Mud_type     - MUD TYPE
MATR.         SANDSTONE            : Logunit      - NEUTRON MATRIX
TMAX.C        27                   : BHT          - MAXIMUM RECORDED TEMPERATURE
BHTD.M        564                  : BHTDEP       - MAXIMUM RECORDED TEMPERATURE
RMT .C        12                   : MDTP         - TEMPERATURE OF MUD
MUDD.KG/M     1090                 : MWT          - MUD DENSITY
NEUT.         1                    : NEUTRON      - NEUTRON TYPE
RESI.         0                    : RESIST       - RESISTIVITY TYPE
RM  .OHMM     5.8                  : RM           - RESISTIVITY OF MUD
RMC .OHMM     1.8                  : RMC          - RESISTIVITY OF MUD CAKE
RMF .OHMM     5.8                  : RMF          - RESISTIVITY OF MUD FILTRATE
SUFT.C        4                    : SUFT         - SURFACE TEMPERATURE
~A  DEPTH       GR     RESD     PHIN     PHID
# ...
  418.500   79.478    5.626    0.432    0.319
  418.750   82.590    5.428    0.441    0.284
  419.000   86.326    5.237    0.441    0.283
  419.250   87.589    5.052    0.442    0.289
  419.500   90.714    4.874    0.441    0.296
  419.750   91.989    4.791    0.445    0.302
  420.000   92.041    4.622    0.451    0.308
  420.250   89.032    4.459    0.457    0.314
  420.500   88.471    4.301    0.460    0.319
  420.750   92.820    4.152    0.465    0.321
  421.000   92.871    4.080    0.472    0.316
  421.250   90.487    4.012    0.477    0.294
  421.500   89.914    3.943    0.484    0.273
  421.750   89.340    3.874    0.494    0.249
  422.000   90.004    3.811    0.502    0.268
  422.250   90.667    3.814    0.504    0.294
  422.500   90.120    3.822    0.476    0.311
  422.750   88.947    3.899    0.466    0.351
  423.000   88.386    4.135    0.465    0.346
  423.250   88.438    4.298    0.461    0.338
  423.500   90.937    4.469    0.457    0.326
  423.750   93.437    4.649    0.456    0.321
  424.000   94.100    4.655    0.458    0.319
  424.250   93.540    4.664    0.463    0.316
  424.500   93.591    4.585    0.473    0.309
  424.750   94.880    4.505    0.472    0.299
  425.000   96.155    4.346    0.458    0.290
  425.250   93.146    4.117    0.448    0.296
  425.500   89.525    3.898    0.440    0.306
  425.750   86.503    3.832    0.437    0.314
  426.000   82.270    3.984    0.429    0.322
  426.250   78.649    4.381    0.423    0.331
  426.500   76.252    5.098    0.408    0.331
  426.750   75.679    6.397    0.389    0.323
  427.000   77.566    7.447    0.398    0.309
  427.250   81.316    7.317    0.418    0.298
  427.500   85.040    7.062    0.442    0.290
  427.750   84.479    6.939    0.444    0.283
  428.000   82.095    7.216    0.437    0.275
  428.250   80.285    7.646    0.408    0.266
  428.500   74.827    8.411    0.396    0.263
  428.750   69.370    9.084    0.395    0.265
  429.000   66.361    9.807    0.401    0.267
  429.250   65.201    9.648    0.399    0.270
  429.500   64.640    9.659    0.402    0.273
  429.750   64.093    9.675    0.408    0.274
  430.000   63.506    9.507    0.409    0.276
  430.250   64.170    9.345    0.415    0.277
  430.500   67.906    9.023    0.422    0.278
  430.750   67.971    8.866    0.430    0.280
  431.000   67.996    8.550    0.431    0.281
  431.250   68.660    8.099    0.415    0.281
  431.500   69.323    7.526    0.394    0.285
  431.750   71.211    6.861    0.398    0.288
  432.000   73.724    6.143    0.420    0.292
  432.250   76.823    5.394    0.428    0.293
  432.500   84.232    5.013    0.441    0.292
  432.750   88.568    4.662    0.455    0.290
  433.000   91.081    4.666    0.460    0.287
  433.250   91.132    4.673    0.431    0.288
  433.500   91.183    5.045    0.417    0.294
  433.750   90.636    5.764    0.416    0.296
  434.000   88.226    6.338    0.411    0.300
  434.250   85.204    7.104    0.403    0.296
  434.500   79.747    8.116    0.385    0.295
  434.750   74.289    9.100    0.365    0.293
  435.000   67.008    9.825    0.369    0.297
  435.250   63.987   10.023    0.380    0.314
  435.500   62.215   10.422    0.396    0.346
  435.750   61.042   10.439    0.409    0.351
  436.000   59.856   10.456    0.420    0.351
  436.250   57.459   10.282    0.419    0.356
  436.500   55.050   10.112    0.409    0.368
  436.750   53.278   10.120    0.400    0.378
  437.000   53.329   10.136    0.392    0.380
  437.250   54.605   10.152    0.387    0.381
  437.500   54.057   10.177    0.379    0.371
  437.750   53.496   10.189    0.377    0.359
  438.000   54.772   10.398    0.380    0.357
  438.250   56.659   10.415    0.383    0.361
  438.500   56.711   10.432    0.372    0.357
  438.750   55.525   10.072    0.361    0.348
  439.000   55.577    9.893    0.371    0.352
  439.250   58.076    9.725    0.383    0.354
  439.500   62.412    9.564    0.398    0.349
  439.750   65.537    9.227    0.407    0.346
  440.000   66.813    9.070    0.406    0.341
  440.250   65.640    9.260    0.398    0.343
  440.500   63.243    9.446    0.395    0.349
  440.750   62.682    9.823    0.386    0.354
  441.000   63.958   10.025    0.381    0.354
  441.250   65.846    9.672    0.381    0.352
  441.500   68.358    9.504    0.381    0.346
  441.750   71.470    8.842    0.386    0.340
  442.000   74.582    8.523    0.395    0.338
  442.250   76.457    8.220    0.406    0.335
  442.500   79.569    7.783    0.419    0.323
  442.750   85.142    7.650    0.428    0.296
  443.000   88.865    7.381    0.434    0.291
  443.250   85.856    7.255    0.445    0.291
  443.500   82.235    7.132    0.447    0.296
  443.750   78.614    7.282    0.430    0.304
  444.000   74.980    7.572    0.420    0.318
  444.250   71.359    8.333    0.417    0.330
  444.500   69.587    9.170    0.416    0.342
  444.750   67.802    9.716    0.416    0.346
  445.000   64.181   10.099    0.414    0.334
  445.250   62.384   10.907    0.399    0.336
  445.500   58.151   11.127    0.394    0.348
  445.750   56.978   11.351    0.395    0.367
  446.000   57.055   11.594    0.395    0.390
  446.250   57.093   11.612    0.393    0.389
  446.500   57.145   11.406    0.393    0.387
  446.750   57.808   11.013    0.398    0.381
  447.000   60.946   10.817    0.398    0.380
  447.250   63.433   10.242    0.400    0.377
  447.500   65.920    9.697    0.400    0.372
  447.750   69.044    8.848    0.400    0.368
  448.000   72.156    8.222    0.403    0.361
  448.250   75.268    7.781    0.406    0.345
  448.500   78.992    7.368    0.412    0.331
  448.750   82.104    6.979    0.415    0.320
  449.000   85.216    6.605    0.417    0.308
  449.250   88.940    6.140    0.422    0.295
  449.500   92.676    5.814    0.430    0.283
  449.750   95.775    5.503    0.440    0.273
  450.000   97.663    4.838    0.451    0.264
  450.250   98.951    4.665    0.462    0.258
  450.500   99.003    4.256    0.479    0.263
  450.750   99.054    4.027    0.481    0.278
  451.000   96.657    3.885    0.474    0.282
  451.250   93.636    3.544    0.469    0.279
  451.500   91.251    3.420    0.464    0.274
  451.750   91.902    3.179    0.464    0.271
  452.000   97.475    3.066    0.458    0.264
  452.250  100.001    2.956    0.454    0.259
  452.500  100.026    2.801    0.456    0.270
  452.750  100.091    2.753    0.464    0.280
  453.000  100.142    2.655    0.485    0.291
  453.250  100.793    2.610    0.501    0.299
  453.500  100.870    2.566    0.519    0.300
  453.750   99.671    2.570    0.526    0.301
  454.000   97.274    2.574    0.526    0.303
  454.250   97.938    2.579    0.525    0.306
  454.500   99.213    2.584    0.527    0.307
  454.750   98.653    2.635    0.537    0.311
  455.000   96.868    2.689    0.537    0.308
  455.250   96.919    2.693    0.505    0.301
  455.500   98.195    2.801    0.474    0.296
  455.750  100.083    2.915    0.470    0.294
  456.000  100.759    2.973    0.473    0.298
  456.250  100.810    3.094    0.465    0.302
  456.500  101.487    3.098    0.453    0.305
  456.750  101.538    3.103    0.451    0.306
  457.000  100.378    3.049    0.456    0.298
  457.250  100.417    3.054    0.480    0.294
  457.500   99.843    3.002    0.486    0.299
  457.750   97.447    3.007    0.492    0.302
  458.000   95.662    3.014    0.494    0.296
  458.250   94.489    3.075    0.466    0.288
  458.500   92.717    3.137    0.455    0.292
  458.750   91.531    3.325    0.440    0.318
  459.000   89.160    3.456    0.425    0.317
  459.250   87.362    3.802    0.415    0.314
  459.500   84.966    4.682    0.407    0.311
  459.750   82.569    5.448    0.400    0.301
  460.000   81.396    6.106    0.396    0.293
  460.250   84.508    6.592    0.400    0.285
  460.500   87.020    6.603    0.410    0.278
  460.750   85.822    6.373    0.421    0.275
  461.000   84.037    6.148    0.417    0.275
  461.250   82.252    5.931    0.405    0.277
  461.500   84.752    5.831    0.409    0.282
  461.750   89.101    5.625    0.415    0.288
