~VERSION INFORMATION
 VERS.                 2.0:   CWLS LOG ASCII STANDARD -VERSION 2.0
 WRAP.                  NO:   ONE LINE PER DEPTH STEP
~WELL INFORMATION BLOCK
#MNEM.UNIT           DATA                    DESCRIPTION OF MNEMONIC
#---------    -------------------            -------------------------------
# Generated from Intellog Unique Number	CS_73_76/WELL/3228
WELL.         10-01-076-05W4                 : Well_name    - WELL
LOC .         00/10-01-076-05W4/0            : Location     - LOCATION
UWI .         00/10-01-076-05W4/0            : Uwi          - UNIQUE WELL ID
ENTR.         SP                             : Entered      - ENTERED BY
SRVC.         SCHLUMBERGER                   : Scn          - SERVICE COMPANY
STRT.M        228.6                          : top_depth    - START DEPTH
STOP.M        481.35                         : bot_depth    - STOP DEPTH
STEP.M        0.25                           : increment    - STEP LENGTH
 NULL. -999.2500:NULL Value
~CURVE INFORMATION BLOCK
#MNEM UNIT       ERCB CURVE CODE    CURVE DESCRIPTION
#-----------   ------------------   ----------------------------------
DEPT.M        00 001 00 00         : DEPTH        - DEPTH
GR  .API      00 310 00 00         : GR           - GAMMA RAY
DPHI.V/V      00 890 00 00         : PHID         - DENSITY POROSITY (SANDSTONE)
NPHI.V/V      00 330 00 00         : PHIN         - NEUTRON POROSITY (SANDSTONE)
ILD .OHMM     00 120 00 00         : RESD         - DEEP RESISTIVITY (DIL)
~PARAMETER INFORMATION
#MNEM.UNIT           DATA             DESCRIPTION OF MNEMONIC
#---------         -----------     ------------------------------
GL  .M        620.878              : gl           - GROUND LEVEL ELEVATION
EREF.M        624.23               : kb           - ELEVATION OF DEPTH REFERENCE
DATM.M        620.878              : datum        - DATUM ELEVATION
TDD .M        489.204              : tdd          - TOTAL DEPTH DRILLER
RUN .         ONE                  : Run          - RUN NUMBER
ENG .         BILL                 : Engineer     - RECORDING ENGINEER
WIT .         JIM                  : Witness      - WITNESSED BY
MUD .         GEL                  : Mud_type     - MUD TYPE
MATR.         SANDSTONE            : Logunit      - NEUTRON MATRIX
TMAX.C        33.3333              : BHT          - MAXIMUM RECORDED TEMPERATURE
BHTD.M        489.204              : BHTDEP       - MAXIMUM RECORDED TEMPERATURE
MATR.         1                    : LOGUNIT      - NEUTRON MATRIX
RMT .C        25                   : MDTP         - TEMPERATURE OF MUD
NEUT.         1                    : NEUTRON      - NEUTRON TYPE
RESI.         0                    : RESIST       - RESISTIVITY TYPE
RMC .OHMM     0.25                 : RMC          - RESISTIVITY OF MUD CAKE
RMF .OHMM     0.25                 : RMF          - RESISTIVITY OF MUD FILTRATE
SUFT.C        15                   : SUFT         - SURFACE TEMPERATURE
~A  DEPTH       GR     PHID     PHIN     RESD
# ...
  315.600   83.489    0.318    0.455    7.803
  315.850   90.380    0.271    0.467    7.787
  316.100   95.983    0.288    0.480    7.782
  316.350   86.272    0.300    0.483    7.891
  316.600   71.921    0.303    0.454    8.089
  316.850   67.818    0.310    0.460    8.253
  317.100   66.521    0.300    0.450    8.409
  317.350   70.758    0.300    0.430    8.406
  317.600   71.454    0.301    0.429    8.406
  317.850   74.162    0.301    0.431    7.696
  318.100   80.119    0.301    0.445    6.087
  318.350   86.285    0.299    0.450    5.230
  318.600   92.236    0.294    0.461    3.776
  318.850   97.479    0.270    0.476    2.821
  319.100   98.274    0.255    0.488    2.730
  319.350   97.944    0.254    0.475    2.894
  319.600   96.857    0.252    0.475    3.391
  319.850   93.569    0.270    0.466    3.964
  320.100   87.539    0.282    0.465    4.555
  320.350   83.519    0.270    0.457    5.279
  320.600   80.710    0.291    0.446    5.727
  320.850   78.637    0.303    0.440    6.088
  321.100   78.042    0.308    0.438    6.370
  321.350   78.685    0.296    0.441    6.247
  321.600   79.615    0.300    0.442    6.096
  321.850   87.053    0.290    0.449    5.640
  322.100   91.308    0.282    0.467    4.636
  322.350   99.327    0.271    0.504    3.357
  322.600  105.369    0.253    0.526    2.689
  322.850  105.587    0.266    0.544    2.507
  323.100  102.756    0.277    0.556    2.406
  323.350  100.340    0.285    0.561    2.606
  323.600   95.043    0.300    0.531    2.832
  323.850   85.368    0.337    0.494    3.432
  324.100   75.418    0.333    0.461    3.994
  324.350   69.566    0.337    0.449    4.764
  324.600   65.698    0.352    0.439    5.575
  324.850   68.382    0.366    0.435    5.834
  325.100   68.608    0.367    0.432    5.929
  325.350   66.449    0.356    0.429    5.945
  325.600   66.341    0.356    0.447    5.777
  325.850   66.330    0.358    0.465    5.610
  326.100   67.352    0.359    0.461    5.615
  326.350   66.854    0.355    0.454    5.580
  326.600   65.040    0.347    0.451    5.516
  326.850   65.845    0.354    0.445    5.516
  327.100   67.176    0.360    0.456    5.517
  327.350   68.648    0.367    0.469    5.522
  327.600   66.502    0.360    0.482    5.655
  327.850   65.529    0.359    0.494    5.772
  328.100   65.036    0.360    0.480    5.959
  328.350   63.389    0.367    0.452    6.201
  328.600   62.508    0.351    0.453    6.478
  328.850   62.110    0.312    0.434    7.223
  329.100   58.481    0.280    0.406    8.265
  329.350   55.151    0.081    0.215    9.229
  329.600   53.587    0.101    0.215    9.874
  329.850   52.004    0.132    0.232   10.248
  330.100   56.350    0.194    0.261    8.083
  330.350   60.011    0.250    0.350    6.878
  330.600   62.039    0.314    0.452    6.069
  330.850   62.989    0.352    0.469    5.554
  331.100   64.026    0.350    0.473    5.384
  331.350   65.231    0.344    0.472    5.216
  331.600   68.286    0.348    0.465    5.227
  331.850   71.213    0.349    0.450    5.244
  332.100   69.572    0.348    0.469    5.254
  332.350   69.152    0.345    0.482    5.353
  332.600   69.732    0.333    0.457    5.350
  332.850   69.637    0.325    0.443    5.351
  333.100   70.139    0.330    0.440    5.278
  333.350   69.752    0.336    0.445    5.211
  333.600   70.164    0.337    0.447    4.883
  333.850   73.438    0.327    0.445    4.586
  334.100   76.130    0.293    0.457    4.424
  334.350   78.973    0.286    0.483    4.284
  334.600   82.982    0.308    0.495    4.281
  334.850   86.219    0.304    0.502    4.279
  335.100   86.025    0.262    0.491    4.338
  335.350   85.684    0.268    0.484    4.614
  335.600   85.313    0.280    0.493    4.800
  335.850   85.683    0.284    0.498    5.022
  336.100   86.437    0.284    0.491    5.172
  336.350   84.672    0.292    0.488    5.272
  336.600   83.323    0.291    0.486    5.371
  336.850   81.245    0.288    0.482    5.515
  337.100   79.831    0.279    0.469    5.578
  337.350   79.165    0.277    0.461    5.702
  337.600   78.392    0.286    0.460    5.710
  337.850   77.881    0.295    0.471    5.803
  338.100   78.833    0.299    0.476    5.802
  338.350   79.831    0.299    0.463    5.800
  338.600   79.864    0.284    0.458    5.907
  338.850   79.714    0.292    0.460    5.843
  339.100   79.675    0.298    0.467    5.803
  339.350   79.100    0.302    0.474    5.891
  339.600   78.387    0.298    0.471    5.919
  339.850   78.457    0.293    0.481    5.924
  340.100   79.083    0.303    0.464    5.925
  340.350   81.039    0.291    0.450    5.927
  340.600   81.999    0.286    0.445    5.927
  340.850   81.356    0.297    0.461    5.872
  341.100   76.868    0.291    0.463    5.824
  341.350   74.949    0.285    0.458    5.823
  341.600   75.404    0.296    0.460    5.822
  341.850   78.455    0.298    0.451    5.820
  342.100   79.418    0.294    0.452    5.721
  342.350   80.797    0.294    0.463    5.563
  342.600   86.241    0.286    0.455    5.511
  342.850   89.509    0.284    0.449    5.234
  343.100   93.314    0.280    0.462    5.064
  343.350   95.244    0.265    0.483    4.842
  343.600   96.907    0.252    0.491    4.646
  343.850   99.276    0.249    0.495    4.464
  344.100  101.749    0.253    0.495    4.184
  344.350  102.697    0.251    0.502    4.008
  344.600  101.196    0.233    0.507    3.929
  344.850   99.937    0.238    0.496    3.750
  345.100  101.580    0.220    0.489    3.487
  345.350  103.180    0.235    0.496    3.326
  345.600  105.207    0.248    0.503    3.186
  345.850  106.359    0.255    0.518    3.077
  346.100  109.722    0.235    0.521    2.927
  346.350  110.020    0.238    0.518    2.726
  346.600  110.992    0.238    0.532    2.652
  346.850  110.946    0.249    0.538    2.527
  347.100  109.143    0.261    0.540    2.471
  347.350  104.972    0.228    0.545    2.479
  347.600  102.887    0.225    0.569    2.518
  347.850  103.535    0.232    0.577    2.579
  348.100  104.859    0.226    0.582    2.520
  348.350  105.710    0.242    0.558    2.486
  348.600  105.779    0.256    0.550    2.474
  348.850  104.764    0.267    0.565    2.524
  349.100  101.357    0.269    0.569    2.552
  349.350   97.269    0.273    0.568    2.638
  349.600   95.579    0.281    0.510    2.716
  349.850   94.558    0.291    0.493    2.917
  350.100   91.613    0.274    0.476    3.075
  350.350   86.932    0.268    0.466    3.276
  350.600   85.892    0.272    0.467    3.420
  350.850   90.474    0.280    0.465    3.484
  351.100   93.387    0.253    0.475    3.599
  351.350   97.567    0.207    0.470    3.684
  351.600   99.402    0.169    0.424    3.758
  351.850  107.207    0.198    0.436    3.754
  352.100  105.175    0.234    0.478    3.755
  352.350   89.613    0.272    0.488    3.759
  352.600   78.470    0.291    0.485    3.684
  352.850   76.058    0.301    0.470    3.694
  353.100   73.665    0.305    0.457    3.628
  353.350   72.848    0.314    0.439    3.625
  353.600   73.411    0.298    0.426    3.623
  353.850   68.503    0.296    0.430    3.679
  354.100   68.739    0.298    0.428    3.764
  354.350   65.434    0.306    0.419    3.842
  354.600   66.421    0.308    0.413    3.846
  354.850   67.204    0.309    0.419    3.770
  355.100   68.124    0.309    0.419    3.627
  355.350   67.575    0.312    0.419    3.450
  355.600   66.975    0.304    0.418    3.330
  355.850   71.007    0.309    0.416    3.246
  356.100   74.053    0.325    0.418    3.275
  356.350   76.354    0.329    0.426    3.479
  356.600   80.197    0.329    0.433    3.814
  356.850   75.443    0.317    0.442    4.500
  357.100   71.363    0.289    0.439    5.719
  357.350   67.802    0.085    0.410    7.628
  357.600   65.109    0.050    0.221   10.365
  357.850   63.079    0.030    0.202   16.516
  358.100   62.448    0.013    0.176   15.362
  358.350   63.849    0.034    0.182   11.574
  358.600   67.313    0.089    0.277    6.181
  358.850   70.872    0.133    0.341    4.364
