~VERSION INFORMATION
 VERS.                 2.0:   CWLS LOG ASCII STANDARD -VERSION 2.0
 WRAP.                  NO:   ONE LINE PER DEPTH STEP
~WELL INFORMATION BLOCK
#MNEM.UNIT           DATA                    DESCRIPTION OF MNEMONIC
#---------    -------------------            -------------------------------
# Generated from Intellog Unique Number	CW_76_78/WELL/1031
WELL.         CHIEFCO PR ETAL PELICAN 11-34  : Well_name    - WELL
LOC .         00/11-34-077-22W4/0            : Location     - LOCATION
UWI .         00/11-34-077-22W4/0            : Uwi          - UNIQUE WELL ID
ENTR.         jj                             : Entered      - ENTERED BY
SRVC.         SCHLUMBERGER                   : Scn          - SERVICE COMPANY
DATE.         3 MAR 73                       : Date         - LOG DATE
STRT.M        277.368                        : top_depth    - START DEPTH
STOP.M        530.368                        : bot_depth    - STOP DEPTH
STEP.M        0.25                           : increment    - STEP LENGTH
 NULL. -999.2500:NULL Value
~CURVE INFORMATION BLOCK
#MNEM UNIT       ERCB CURVE CODE    CURVE DESCRIPTION
#-----------   ------------------   ----------------------------------
DEPT.M        00 001 00 00         : DEPTH        - DEPTH
DPHI.V/V      00 890 00 00         : PHID         - DENSITY POROSITY (SANDSTONE)
NPHI.V/V      00 330 00 00         : PHIN         - NEUTRON POROSITY (SANDSTONE)
GR  .API      00 310 00 00         : GR           - GAMMA RAY
CALI.MM       00 280 01 00         : CAL          - CALIPER
ILD .OHMM     00 120 00 00         : RESD         - DEEP RESISTIVITY (DIL)
~PARAMETER INFORMATION
#MNEM.UNIT           DATA             DESCRIPTION OF MNEMONIC
#---------         -----------     ------------------------------
GL  .M        606.095              : gl           - GROUND LEVEL ELEVATION
EREF.M        608.381              : kb           - ELEVATION OF DEPTH REFERENCE
DATM.M        606.095              : datum        - DATUM ELEVATION
TDD .M        534.01               : tdd          - TOTAL DEPTH DRILLER
RUN .         ONE                  : Run          - RUN NUMBER
MUD .         GEL CHEM             : Mud_type     - MUD TYPE
MATR.         SANDSTONE            : Logunit      - NEUTRON MATRIX
TMAX.C        24.4444              : BHT          - MAXIMUM RECORDED TEMPERATURE
BHTD.M        534.01               : BHTDEP       - MAXIMUM RECORDED TEMPERATURE
RMT .C        17.2222              : MDTP         - TEMPERATURE OF MUD
MUDD.KG/M     1080                 : MWT          - MUD DENSITY
NEUT.         1                    : NEUTRON      - NEUTRON TYPE
RESI.         0                    : RESIST       - RESISTIVITY TYPE
RM  .OHMM     3.07                 : RM           - RESISTIVITY OF MUD
RMC .OHMM     0                    : RMC          - RESISTIVITY OF MUD CAKE
RMF .OHMM     2.17                 : RMF          - RESISTIVITY OF MUD FILTRATE
SUFT.C        4.5                  : SUFT         - SURFACE TEMPERATURE
~A  DEPTH     PHID     PHIN       GR      CAL     RESD
# ...
  386.868    0.205    0.507   83.496  153.240    6.101
  387.118    0.212    0.520   82.056  152.520    6.075
  387.368    0.216    0.526   82.705  151.686    6.015
  387.618    0.210    0.508   83.353  151.287    5.912
  387.868    0.197    0.506   85.332  152.168    5.834
  388.118    0.191    0.555   88.259  154.660    5.713
  388.368    0.184    0.572   90.301  155.975    5.635
  388.618    0.192    0.585   91.078  156.002    5.611
  388.868    0.181    0.564   90.206  155.383    5.619
  389.118    0.206    0.545   86.106  153.373    5.635
  389.368    0.233    0.522   80.803  152.865    5.643
  389.618    0.233    0.500   77.463  153.108    5.649
  389.868    0.221    0.486   78.239  153.777    5.646
  390.118    0.209    0.488   82.117  154.333    5.580
  390.368    0.197    0.497   85.424  153.718    5.495
  390.618    0.196    0.506   87.719  153.316    5.441
  390.868    0.202    0.508   87.356  153.771    5.448
  391.118    0.194    0.497   86.232  156.692    5.526
  391.368    0.187    0.493   84.220  155.645    6.273
  391.618    0.182    0.483   79.740  153.956    8.919
  391.868    0.170    0.445   75.261  152.910   11.415
  392.118    0.134    0.271   70.084  152.295   11.815
  392.368    0.033    0.257   53.892  152.431   11.678
  392.618    0.065    0.286   57.645  152.241   11.062
  392.868    0.128    0.371   62.849  152.587   10.155
  393.118    0.205    0.432   70.210  152.615    9.237
  393.368    0.207    0.410   76.938  152.643    8.526
  393.618    0.191    0.403   77.016  152.885    8.032
  393.868    0.179    0.411   78.297  153.015    7.750
  394.118    0.174    0.457   81.859  153.257    7.618
  394.368    0.180    0.504   81.748  153.605    7.543
  394.618    0.180    0.510   79.041  157.918    7.580
  394.868    0.171    0.497   77.663  159.767    7.660
  395.118    0.173    0.480   80.401  159.149    7.699
  395.368    0.167    0.467   80.166  159.070    7.651
  395.618    0.161    0.455   78.913  158.456    7.478
  395.868    0.155    0.475   78.295  157.944    7.243
  396.118    0.175    0.479   77.994  157.542    7.067
  396.368    0.187    0.476   79.152  157.249    6.933
  396.618    0.207    0.474   79.291  154.164    6.827
  396.868    0.209    0.487   81.586  150.436    6.773
  397.118    0.196    0.492   83.691  147.354    6.744
  397.368    0.188    0.494   86.494  149.312    6.715
  397.618    0.181    0.502   84.611  151.588    6.698
  397.868    0.194    0.493   83.611  155.045    6.670
  398.118    0.187    0.479   83.249  155.178    6.678
  398.368    0.188    0.478   83.010  153.276    6.649
  398.618    0.180    0.470   83.216  151.586    6.608
  398.868    0.186    0.458   84.054  151.185    6.531
  399.118    0.190    0.461   84.829  152.178    6.455
  399.368    0.193    0.491   85.226  153.273    6.369
  399.618    0.194    0.514   85.052  154.161    6.248
  399.868    0.190    0.521   85.003  154.398    6.244
  400.118    0.191    0.518   85.081  152.173    6.275
  400.368    0.195    0.514   82.755  150.597    6.329
  400.618    0.189    0.508   80.681  150.296    6.408
  400.868    0.180    0.504   79.366  150.322    6.487
  401.118    0.188    0.496   80.143  150.459    6.579
  401.368    0.177    0.487   81.677  151.024    6.539
  401.618    0.193    0.481   84.289  151.262    6.392
  401.868    0.190    0.499   85.317  151.929    6.088
  402.118    0.182    0.539   84.513  152.066    5.799
  402.368    0.172    0.523   84.274  152.411    5.514
  402.618    0.196    0.495   85.428  152.439    5.252
  402.868    0.181    0.471   86.964  152.789    5.059
  403.118    0.197    0.445   88.372  153.455    4.819
  403.368    0.195    0.482   88.006  155.629    4.650
  403.618    0.199    0.525   87.011  156.508    4.604
  403.868    0.179    0.552   89.430  155.571    5.140
  404.118    0.165    0.544   97.677  154.634    5.707
  404.368    0.207    0.517   95.352  153.478    7.400
  404.618    0.206    0.476   92.579  152.328    9.043
  404.868    0.192    0.433   86.962  152.352   10.850
  405.118    0.165    0.389   82.291  152.814   12.001
  405.368    0.144    0.368   74.139  153.483   11.905
  405.618    0.107    0.340   69.088  154.043   10.950
  405.868    0.077    0.338   70.308  154.389   10.127
  406.118    0.170    0.368   75.704  153.986    9.558
  406.368    0.182    0.453   84.205  153.692    9.154
  406.618    0.166    0.443   87.069  154.047    8.916
  406.868    0.174    0.441   84.554  154.281    8.651
  407.118    0.173    0.443   82.732  154.520    8.362
  407.368    0.154    0.446   80.596  154.760    8.144
  407.618    0.144    0.460   80.357  155.003    7.873
  407.868    0.157    0.481   80.499  155.459    7.668
  408.118    0.162    0.486   80.641  155.807    7.550
  408.368    0.175    0.480   81.796  154.975    7.449
  408.618    0.196    0.454   82.888  152.751    7.389
  408.868    0.198    0.451   84.171  152.026    7.303
  409.118    0.190    0.464   87.541  152.268    7.232
  409.368    0.188    0.468   84.011  152.510    7.201
  409.618    0.192    0.465   83.395  152.861    7.143
  409.868    0.188    0.498   85.626  153.311    7.087
  410.118    0.184    0.520   86.021  153.337    7.056
  410.368    0.181    0.519   82.998  152.718    7.077
  410.618    0.189    0.502   79.912  151.354    7.126
  410.868    0.211    0.487   79.041  150.841    7.241
  411.118    0.200    0.484   78.929  150.010    7.357
  411.368    0.208    0.483   79.009  149.286    7.544
  411.618    0.204    0.472   79.340  148.134    7.681
  411.868    0.203    0.457   79.167  146.979    7.877
  412.118    0.172    0.436   78.485  146.471    8.064
  412.368    0.150    0.409   75.905  148.107    8.000
  412.618    0.136    0.486   75.351  149.636    7.833
  412.868    0.198    0.505   77.961  150.195    7.785
  413.118    0.221    0.511   80.319  150.329    7.709
  413.368    0.226    0.496   79.768  149.818    7.647
  413.618    0.234    0.455   78.578  145.663    7.559
  413.868    0.226    0.457   77.897  142.474    7.498
  414.118    0.210    0.473   79.812  141.858    7.466
  414.368    0.205    0.482   84.957  142.206    7.462
  414.618    0.195    0.489   86.175  142.770    7.498
  414.868    0.192    0.500   85.114  142.900    7.536
  415.118    0.180    0.505   84.369  143.894    7.531
  415.368    0.179    0.500   84.639  144.888    7.526
  415.618    0.190    0.512   84.211  145.982    7.493
  415.868    0.209    0.519   82.074  147.406    7.462
  416.118    0.197    0.488   83.230  149.468    7.415
  416.368    0.198    0.455   84.322  151.422    7.383
  416.618    0.175    0.500   86.364  152.951    7.352
  416.868    0.176    0.487   87.835  153.942    7.334
  417.118    0.195    0.471   88.357  152.787    7.315
  417.368    0.183    0.475   88.500  152.493    7.284
  417.618    0.199    0.483   88.959  154.129    7.239
  417.868    0.201    0.487   89.481  155.548    7.235
  418.118    0.203    0.507   90.635  156.540    7.217
  418.368    0.187    0.500   89.132  156.781    7.212
  418.618    0.194    0.486   89.209  156.914    7.195
  418.868    0.168    0.477   90.934  156.724    7.216
  419.118    0.162    0.469   90.255  155.785    7.266
  419.368    0.167    0.452   87.359  153.454    7.369
  419.618    0.182    0.438   87.183  151.656    7.488
  419.868    0.182    0.448   90.744  150.934    7.525
  420.118    0.186    0.458   90.824  150.960    7.520
  420.368    0.182    0.466   88.876  151.740    7.406
  420.618    0.176    0.496   87.627  152.835    6.951
  420.868    0.179    0.493   87.894  154.474    6.393
  421.118    0.182    0.484   89.935  155.246    6.123
  421.368    0.173    0.478   97.169  156.777    5.963
  421.618    0.183    0.479   95.793  157.017    5.872
  421.868    0.187    0.484   92.832  156.507    5.847
  422.118    0.172    0.496   90.061  155.246    5.908
  422.368    0.172    0.477   88.177  154.628    5.993
  422.618    0.161    0.433   85.977  154.654    6.180
  422.868    0.160    0.427   86.626  155.538    6.338
  423.118    0.170    0.430   91.200  155.887    6.428
