~VERSION INFORMATION
 VERS.                 2.0:   CWLS LOG ASCII STANDARD -VERSION 2.0
 WRAP.                  NO:   ONE LINE PER DEPTH STEP
~WELL INFORMATION BLOCK
#MNEM.UNIT           DATA                    DESCRIPTION OF MNEMONIC
#---------    -------------------            -------------------------------
# Generated from Intellog Unique Number	CC_80_83/WELL/2437
NULL.         -999.25                        : NULL_VALUE
COMP .        INTERCITY GAS CORPORATION      :  COMPANY
WELL.         HOMESTEAD CANOXY COWPAR        : Well_name
LOC .         14-36-080-05W4                 : Location     - LOCATION          
UWI .         00/14-36-080-05W400            : Uwi          - UNIQUE WELL ID    
ENTR.         DW                             : Entered      - ENTERED BY        
SRVC.         SCHLUMBERGER                   : Scn          - SERVICE COMPANY   
DATE.         11 FEB 78                      : Date         - LOG DATE
STRT.M        106.68                         : top_depth    - START DEPTH       
STOP.M        274.318                        : bot_depth    - STOP DEPTH        
STEP.M        0.305                          : increment    - STEP LENGTH       
~CURVE INFORMATION BLOCK
#MNEM UNIT       ERCB CURVE CODE    CURVE DESCRIPTION
#-----------   ------------------   ----------------------------------
DEPT.M        00 001 00 00         : DEPTH        - DEPTH                       
DPHI.V/V      00 890 00 00         : PHID         - DENSITY POROSITY (LIMESTONE)
NPHI.V/V      00 330 00 00         : PHIN         - NEUTRON POROSITY (LIMESTONE)
GR  .API      00 310 00 00         : GR           - GAMMA RAY                   
ILD .OHMM     00 120 00 00         : RESD         - DEEP RESISTIVITY (DIL)      
~PARAMETER INFORMATION       
#MNEM.UNIT           DATA             DESCRIPTION OF MNEMONIC
#---------         -----------     ------------------------------
GL  .M        442.874              : gl           - GROUND LEVEL ELEVATION      
EREF.M        446.349              : kb           - ELEVATION OF DEPTH REFERENCE
DATM.M        446.349              : datum        - DATUM ELEVATION             
TDD .M        279.806              : tdd          - TOTAL DEPTH DRILLER         
RUN .         ONE                  : Run          - RUN NUMBER                  
ENG .         BILL                 : Engineer     - RECORDING ENGINEER          
WIT .         JIM                  : Witness      - WITNESSED BY                
MUD .         GEL                  : Mud_type     - MUD TYPE                    
MATR.         LIMESTONE            : Logunit      - NEUTRON MATRIX              
TMAX.C        20.5556              : BHT          - MAXIMUM RECORDED TEMPERATURE
BHTD.M        279.806              : BHTDEP       - MAXIMUM RECORDED TEMPERATURE
MATR.         1                    : LOGUNIT      - NEUTRON MATRIX              
RMT .C        25                   : MDTP         - TEMPERATURE OF MUD          
NEUT.         1                    : NEUTRON      - NEUTRON TYPE                
RESI.         0                    : RESIST       - RESISTIVITY TYPE            
RMC .OHMM     0.25                 : RMC          - RESISTIVITY OF MUD CAKE     
RMF .OHMM     0.25                 : RMF          - RESISTIVITY OF MUD FILTRATE 
SUFT.C        15                   : SUFT         - SURFACE TEMPERATURE         
~A  DEPTH     PHID     PHIN       GR     RESD
  106.680    0.231    0.530  113.081    4.652
  106.985    0.226    0.543  113.098    4.151
  107.290    0.241    0.569  113.107    3.848
  107.594    0.266    0.586  111.280    3.566
  107.899    0.280    0.601  110.675    3.369
  108.204    0.262    0.606  108.843    3.182
  108.509    0.251    0.604  105.788    3.122
  108.814    0.253    0.594  104.573    3.182
  109.118    0.256    0.568  104.584    3.368
  109.423    0.254    0.548  103.367    3.703
  109.728    0.247    0.556   99.692    4.230
  110.033    0.242    0.553   90.493    5.113
  110.338    0.242    0.517   89.891    5.516
  110.642    0.260    0.509   94.201    5.311
  110.947    0.238    0.516   99.743    4.477
  111.252    0.248    0.526  104.673    3.846
  111.557    0.259    0.534  104.681    3.304
  111.862    0.258    0.548  104.702    3.181
  112.166    0.254    0.568  104.096    3.181
  112.471    0.252    0.590  103.489    3.304
  112.776    0.245    0.588  102.276    3.367
  113.081    0.241    0.571  102.288    3.431
  113.386    0.241    0.581  102.915    3.367
  113.690    0.259    0.571  104.152    3.303
  113.995    0.274    0.566  107.238    3.120
  114.300    0.291    0.592  110.322    3.004
  114.605    0.308    0.609  110.332    3.004
  114.910    0.264    0.614  108.501    3.061
  115.214    0.259    0.603   98.075    3.430
  115.519    0.260    0.567   94.399    3.772
  115.824    0.262    0.545   92.570    4.474
  116.129    0.266    0.532   91.356    4.560
  116.434    0.274    0.511   89.523    4.559
  116.738    0.293    0.521   85.853    4.736
  117.043    0.254    0.518   83.408    5.307
  117.348    0.280    0.501   79.735    6.061
  117.653    0.297    0.495   74.221    8.211
  117.958    0.314    0.493   71.160   10.310
  118.262    0.323    0.485   69.332   12.231
  118.567    0.315    0.479   68.121   13.448
  118.872    0.300    0.474   68.129   13.705
  119.177    0.314    0.463   68.139   13.194
  119.482    0.303    0.439   69.380   12.463
  119.786    0.289    0.469   70.622   12.228
  120.091    0.286    0.487   71.249   11.998
  120.396    0.300    0.460   70.647   12.227
  120.701    0.309    0.447   70.047   12.461
  121.006    0.305    0.445   68.832   12.700
  121.310    0.287    0.454   68.226   12.699
  121.615    0.250    0.470   67.628   12.226
  121.920    0.262    0.481   69.482   11.995
  122.225    0.280    0.470   72.566   11.331
  122.530    0.293    0.460   74.426   11.331
  122.835    0.305    0.468   74.436   11.330
  123.139    0.306    0.483   75.061   11.330
  123.444    0.287    0.484   74.456   11.329
  123.749    0.280    0.466   73.243   11.116
  124.054    0.279    0.456   70.799   10.906
  124.359    0.277    0.456   70.809   11.115
  124.663    0.274    0.454   73.891   11.328
  124.968    0.270    0.456   75.130   11.328
  125.273    0.270    0.477   75.142   11.765
  125.578    0.296    0.500   73.926   12.220
  125.883    0.300    0.495   70.872   13.183
  126.187    0.322    0.479   68.424   13.693
  126.492    0.340    0.465   63.528   13.693
  126.797    0.338    0.456   62.307   13.182
  127.102    0.324    0.455   61.096   13.181
  127.407    0.303    0.455   61.720   13.434
  127.711    0.296    0.452   62.344   14.220
  128.016    0.273    0.466   64.202   15.053
  128.321    0.303    0.477   64.832   15.340
  128.626    0.332    0.487   64.840   15.340
  128.931    0.344    0.478   63.626   15.340
  129.235    0.336    0.468   62.407   15.633
  129.540    0.341    0.462   60.576   15.932
  129.845    0.345    0.462   58.751   16.237
  130.150    0.335    0.466   57.534   16.236
  130.454    0.339    0.475   56.935   16.863
  130.759    0.331    0.477   56.330   16.546
  131.064    0.309    0.475   57.572   16.545
  131.369    0.319    0.467   57.581   15.629
  131.674    0.333    0.459   57.598   15.335
  131.978    0.340    0.453   58.218   15.927
  132.283    0.329    0.444   60.691   16.543
  132.588    0.307    0.442   61.314   16.542
  132.893    0.310    0.455   61.332   16.231
  133.198    0.329    0.464   60.726   15.925
  133.502    0.336    0.464   58.899   15.924
  133.807    0.323    0.453   58.907   16.229
  134.112    0.318    0.441   59.536   16.856
  134.417    0.314    0.438   62.005   17.508
  134.722    0.307    0.464   62.629   18.184
  135.026    0.293    0.496   62.032   18.532
  135.331    0.271    0.486   61.429   18.532
  135.636    0.235    0.453   61.439   17.841
  135.941    0.297    0.425   60.835   16.225
  136.246    0.326    0.464   59.619   15.620
  136.550    0.320    0.472   59.022   15.326
  136.855    0.324    0.470   58.422   15.619
  137.160    0.326    0.460   59.046   15.618
  137.465    0.319    0.445   62.743   15.618
  137.770    0.312    0.426   63.370   15.617
  138.074    0.324    0.454   62.772   15.323
  138.379    0.325    0.461   62.780   15.034
  138.684    0.321    0.473   61.569   14.474
  138.989    0.314    0.457   60.350   15.615
  139.294    0.299    0.450   59.745   15.614
  139.598    0.312    0.471   59.148   15.614
  139.903    0.317    0.454   59.769   15.320
  140.208    0.315    0.450   61.627   15.031
  140.513    0.304    0.470   61.636   15.031
  140.817    0.309    0.467   60.425   14.470
  141.122    0.312    0.452   59.817   14.197
  141.427    0.311    0.445   61.061   13.930
  141.732    0.316    0.455   64.760   12.430
  142.037    0.320    0.482   69.073    9.002
  142.341    0.321    0.524   73.382    4.376
  142.646    0.316    0.560   80.762    2.723
  142.951    0.297    0.610   95.516    2.295
  143.256    0.292    0.634   99.828    2.252
  143.561    0.291    0.650  105.984    2.339
  143.865    0.268    0.649  109.685    2.476
  144.170    0.253    0.589  110.307    2.775
  144.475    0.243    0.574  109.702    3.109
  144.780    0.235    0.584  106.032    3.619
  145.085    0.260    0.597  102.358    4.375
  145.389    0.260    0.560   96.844    4.996
  145.694    0.273    0.536   93.786    5.493
  145.999    0.271    0.518   91.345    6.156
  146.304    0.260    0.531   90.123    6.394
  146.609    0.254    0.525   85.838    6.394
  146.913    0.280    0.490   84.007    5.705
  147.218    0.293    0.485   84.635    5.288
  147.523    0.288    0.510   84.034    4.901
  147.828    0.271    0.532   81.588    5.091
  148.133    0.308    0.522   79.764    5.704
  148.437    0.306    0.483   80.385    7.163
  148.742    0.296    0.475   82.240    8.027
  149.047    0.277    0.471   84.094    8.660
  149.352    0.267    0.470   84.106    8.825
  149.657    0.276    0.485   82.889    8.825
  149.961    0.286    0.503   82.289    8.336
  150.266    0.298    0.502   82.919    8.025
  150.571    0.286    0.482   84.155    8.025
  150.876    0.277    0.471   86.625    8.495
  151.180    0.267    0.466   89.709    8.823
  151.485    0.264    0.464   94.019    9.519
  151.790    0.255    0.461   98.332    9.519
  152.095    0.244    0.461   98.962    9.701
  152.400    0.261    0.460   97.743    9.339
  152.704    0.257    0.464   90.998    9.339
  153.009    0.251    0.470   91.012    9.163
  153.314    0.256    0.477   93.486    8.821
  153.619    0.245    0.487   95.339    8.333
  153.924    0.224    0.492   96.576    7.723
  154.228    0.235    0.494   96.592    7.024
  154.533    0.233    0.486   95.985    6.891
  154.838    0.230    0.480   93.542    7.158
  155.143    0.233    0.476   90.482    7.722
  155.448    0.244    0.507   87.424    8.174
  155.752    0.285    0.496   86.210    8.331
  156.057    0.288    0.477   88.677    7.869
  156.362    0.271    0.471   93.602    6.509
  156.667    0.250    0.552   98.529    4.896
  156.972    0.239    0.574  101.614    4.206
  157.276    0.237    0.530  100.401    4.127
  157.581    0.240    0.494   99.796    4.537
  157.886    0.247    0.498   97.355    5.084
  158.191    0.264    0.500   97.363    5.182
  158.496    0.258    0.515   99.218    5.084
  158.800    0.253    0.559   99.844    4.803
  159.105    0.262    0.578   94.329    4.451
  159.410    0.268    0.544   85.744    4.536
