~VERSION INFORMATION
 VERS.                 2.0:   CWLS LOG ASCII STANDARD -VERSION 2.0
 WRAP.                  NO:   ONE LINE PER DEPTH STEP
~WELL INFORMATION BLOCK
#MNEM.UNIT           DATA                    DESCRIPTION OF MNEMONIC
#---------    -------------------            -------------------------------
# Generated from Intellog Unique Number	CW_76_78/WELL/2587
WELL.         SCURRY ET AL MISTAHAE          : Well_name    - WELL
LOC .         00/13-06-078-01W5/0            : Location     - LOCATION
UWI .         00/13-06-078-01W5/0            : Uwi          - UNIQUE WELL ID
ENTR.         MAX                            : Entered      - ENTERED BY
SRVC.         WESTERN ATLAS                  : Scn          - SERVICE COMPANY
STRT.M        330                            : top_depth    - START DEPTH
STOP.M        585                            : bot_depth    - STOP DEPTH
STEP.M        0.25                           : increment    - STEP LENGTH
 NULL. -999.2500:NULL Value
~CURVE INFORMATION BLOCK
#MNEM UNIT       ERCB CURVE CODE    CURVE DESCRIPTION
#-----------   ------------------   ----------------------------------
DEPT.M        00 001 00 00         : DEPTH        - DEPTH
ILD .OHMM     00 120 00 00         : RESD         - DEEP RESISTIVITY (DIL)
NPHI.V/V      00 330 00 00         : PHIN         - NEUTRON POROSITY (SANDSTONE)
DPHI.V/V      00 890 00 00         : PHID         - DENSITY POROSITY (SANDSTONE)
CALI.MM       00 280 01 00         : CAL          - CALIPER
GR  .API      00 310 00 00         : GR           - GAMMA RAY
~PARAMETER INFORMATION
#MNEM.UNIT           DATA             DESCRIPTION OF MNEMONIC
#---------         -----------     ------------------------------
GL  .M        633.3                : gl           - GROUND LEVEL ELEVATION
EREF.M        637.67               : kb           - ELEVATION OF DEPTH REFERENCE
DATM.M        633.3                : datum        - DATUM ELEVATION
TDD .M        611                  : tdd          - TOTAL DEPTH DRILLER
RUN .         ONE                  : Run          - RUN NUMBER
ENG .         BILL                 : Engineer     - RECORDING ENGINEER
WIT .         JIM                  : Witness      - WITNESSED BY
MUD .         GEL                  : Mud_type     - MUD TYPE
MATR.         SANDSTONE            : Logunit      - NEUTRON MATRIX
TMAX.C        29                   : BHT          - MAXIMUM RECORDED TEMPERATURE
BHTD.M        611                  : BHTDEP       - MAXIMUM RECORDED TEMPERATURE
RMT .C        17                   : MDTP         - TEMPERATURE OF MUD
MUDD.KG/M     1220                 : MWT          - MUD DENSITY
NEUT.         1                    : NEUTRON      - NEUTRON TYPE
RESI.         0                    : RESIST       - RESISTIVITY TYPE
RM  .OHMM     3.7                  : RM           - RESISTIVITY OF MUD
RMC .OHMM     2                    : RMC          - RESISTIVITY OF MUD CAKE
RMF .OHMM     4                    : RMF          - RESISTIVITY OF MUD FILTRATE
SUFT.C        -10                  : SUFT         - SURFACE TEMPERATURE
~A  DEPTH     RESD     PHIN     PHID      CAL       GR
# ...
  403.000    6.364    0.404    0.255  195.321   78.759
  403.250    6.303    0.407    0.244  197.728   81.672
  403.500    6.299    0.414    0.243  199.637   87.236
  403.750    6.353    0.416    0.241  202.037   88.381
  404.000    6.347    0.411    0.239  202.964   90.995
  404.250    6.346    0.405    0.237  203.393   93.618
  404.500    6.343    0.401    0.238  203.345   92.100
  404.750    6.225    0.403    0.242  203.276   88.241
  405.000    6.053    0.405    0.248  204.196   85.267
  405.250    5.834    0.403    0.243  204.148   89.652
  405.500    5.621    0.396    0.236  204.577   90.204
  405.750    5.567    0.390    0.235  206.977   91.051
  406.000    5.824    0.397    0.234  207.399   90.723
  406.250    7.380    0.406    0.231  206.376   88.628
  406.500    7.791    0.415    0.261  203.867   80.933
  406.750    8.378    0.410    0.298  198.895   71.179
  407.000    9.427    0.403    0.328  193.938   62.898
  407.250    9.684    0.390    0.339  189.948   58.148
  407.500    9.767    0.382    0.341  190.377   56.936
  407.750    9.762    0.372    0.338  191.802   56.007
  408.000    9.758    0.374    0.327  194.686   57.455
  408.250   10.114    0.373    0.321  197.079   60.074
  408.500   10.975    0.371    0.324  198.006   63.273
  408.750   11.480    0.370    0.326  196.485   64.132
  409.000   11.793    0.368    0.322  192.502   66.455
  409.250   12.338    0.358    0.288  191.452   68.779
  409.500   14.140    0.265    0.230  195.325   67.265
  409.750   16.811    0.229    0.086  199.695   62.523
  410.000   16.197    0.206    0.038  203.568   63.075
  410.250   11.443    0.191    0.039  207.433   66.875
  410.500    9.271    0.248    0.075  208.858   74.207
  410.750    6.919    0.297    0.201  209.294   82.127
  411.000    6.488    0.345    0.225  206.778   87.691
  411.250    5.864    0.392    0.229  206.232   88.832
  411.500    5.651    0.401    0.230  207.145   88.206
  411.750    5.597    0.404    0.233  207.097   85.821
  412.000    5.697    0.407    0.234  205.078   87.841
  412.250    5.697    0.403    0.229  204.034   90.468
  412.500    5.847    0.402    0.223  203.980   94.260
  412.750    5.899    0.407    0.223  204.906   92.750
  413.000    5.842    0.410    0.224  205.820   90.070
  413.250    5.784    0.415    0.226  205.281   87.971
  413.500    5.730    0.414    0.224  205.226   87.938
  413.750    5.572    0.411    0.222  205.171   88.789
  414.000    5.567    0.410    0.223  205.116   89.934
  414.250    5.617    0.407    0.226  205.054   89.607
  414.500    5.770    0.406    0.233  205.006   89.271
  414.750    6.036    0.409    0.232  204.951   87.475
  415.000    6.089    0.412    0.228  205.864   83.019
  415.250    5.921    0.412    0.221  208.755   84.463
  415.500    5.706    0.411    0.218  207.725   86.782
  415.750    5.300    0.410    0.213  204.213   85.571
  416.000    5.155    0.408    0.209  203.183   87.600
  416.250    5.155    0.405    0.205  204.117   90.803
  416.500    5.103    0.402    0.206  206.026   92.243
  416.750    4.962    0.400    0.207  206.462   94.276
  417.000    4.914    0.399    0.203  206.891   94.534
  417.250    4.867    0.396    0.203  207.818   91.261
  417.500    4.909    0.396    0.209  207.265   89.452
  417.750    5.135    0.396    0.219  206.719   91.776
  418.000    5.372    0.389    0.227  203.711   88.801
  418.250    5.518    0.381    0.236  203.166   85.528
  418.500    5.669    0.378    0.239  203.608   83.421
  418.750    5.666    0.390    0.238  205.019   86.043
  419.000    5.662    0.400    0.235  206.928   89.843
  419.250    5.712    0.402    0.232  207.848   90.694
  419.500    6.141    0.402    0.231  207.303   91.835
  419.750    7.367    0.396    0.218  205.782   90.035
  420.000    8.141    0.375    0.198  203.756   87.641
  420.250    9.678    0.345    0.163  203.210   88.197
  420.500   13.193    0.337    0.132  203.639   89.347
  420.750   14.847    0.355    0.139  204.573   86.364
  421.000   15.815    0.378    0.234  204.013   78.083
  421.250   15.243    0.390    0.264  203.467   73.038
  421.500   13.654    0.398    0.287  203.413   69.765
  421.750   12.455    0.402    0.288  203.351   67.371
  422.000   12.002    0.401    0.290  203.296   66.455
  422.250   12.217    0.399    0.303  203.241   67.891
  422.500   12.430    0.396    0.307  203.186   71.102
  422.750   12.774    0.392    0.308  202.647   73.421
  423.000   14.245    0.390    0.307  202.578   71.916
  423.250   15.598    0.391    0.300  202.523   71.879
  423.500   16.170    0.399    0.293  202.966   71.846
  423.750   15.725    0.404    0.293  202.904   70.638
  424.000   14.879    0.409    0.292  202.849   77.667
  424.250   11.944    0.413    0.279  203.278   81.177
  424.500    9.946    0.409    0.257  204.683   86.152
  424.750    8.434    0.386    0.229  205.630   78.157
  425.000    7.980    0.353    0.216  207.041   71.345
  425.250    8.273    0.318    0.191  205.998   67.781
  425.500    8.976    0.284    0.121  205.452   64.504
  425.750    9.651    0.277    0.051  205.895   67.122
  426.000    9.735    0.303    0.052  206.815   74.457
  426.250    9.126    0.341    0.121  208.233   85.618
  426.500    8.479    0.360    0.177  208.669   87.647
  426.750    7.191    0.384    0.230  208.614   89.971
  427.000    6.210    0.394    0.233  207.086   90.813
  427.250    5.876    0.405    0.229  202.114   87.839
  427.500    5.765    0.413    0.229  200.573   86.329
  427.750    5.765    0.416    0.231  199.550   86.881
  428.000    5.760    0.415    0.227  202.911   87.441
  428.250    5.704    0.411    0.220  205.324   88.587
  428.500    5.704    0.408    0.217  201.342   91.491
  428.750    5.646    0.409    0.220  194.898   91.761
  429.000    5.643    0.409    0.226  193.363   88.189
  429.250    5.692    0.404    0.236  194.290   86.384
  429.500    5.689    0.395    0.241  196.206   86.061
  429.750    5.686    0.397    0.245  197.624   86.613
  430.000    5.788    0.407    0.248  197.064   85.987
  430.250    5.732    0.405    0.244  195.536   86.543
  430.500    5.729    0.400    0.236  194.983   87.692
  430.750    5.778    0.403    0.237  194.438   88.539
  431.000    5.778    0.409    0.240  194.867   88.801
  431.250    5.824    0.407    0.235  196.298   89.946
  431.500    5.875    0.405    0.231  197.218   90.793
  431.750    5.926    0.402    0.245  196.679   88.702
  432.000    6.032    0.400    0.253  197.115   83.068
  432.250    6.084    0.404    0.257  199.508   78.322
  432.500    6.307    0.408    0.257  197.490   74.750
  432.750    6.719    0.412    0.262  195.471   73.534
  433.000    7.291    0.415    0.282  198.355   74.684
  433.250    7.768    0.417    0.283  199.275   80.837
  433.500    8.127    0.414    0.276  201.668   84.335
  433.750    7.975    0.409    0.268  206.031   84.592
  434.000    7.342    0.405    0.269  206.965   85.742
  434.250    6.883    0.403    0.261  206.917   87.771
  434.500    6.513    0.401    0.248  204.401   89.206
  434.750    6.389    0.398    0.234  201.400   88.875
  435.000    6.273    0.395    0.228  201.836   86.780
  435.250    6.156    0.392    0.225  198.828   82.921
  435.500    6.210    0.389    0.222  197.294   81.407
  435.750    6.496    0.389    0.216  200.675   82.851
  436.000    6.795    0.390    0.206  201.602   82.229
  436.250    7.044    0.386    0.281  196.147   78.064
  436.500    7.369    0.384    0.303  192.151   76.558
  436.750    7.570    0.381    0.301  193.071   77.114
  437.000    7.706    0.386    0.293  194.993   77.085
  437.250    7.701    0.393    0.288  197.884   75.281
  437.500    7.839    0.398    0.293  199.793   74.356
  437.750    7.978    0.399    0.293  201.702   76.095
  438.000    7.978    0.397    0.279  202.131   77.829
  438.250    8.190    0.392    0.266  202.574   76.033
  438.500    8.888    0.383    0.251  203.985   73.345
  438.750    9.732    0.387    0.245  204.905   68.304
  439.000   10.369    0.392    0.283  205.348   66.798
  439.250   10.554    0.389    0.294  206.268   68.823
