~VERSION INFORMATION
 VERS.                 2.0:   CWLS LOG ASCII STANDARD -VERSION 2.0
 WRAP.                  NO:   ONE LINE PER DEPTH STEP
~WELL INFORMATION BLOCK
#MNEM.UNIT           DATA                    DESCRIPTION OF MNEMONIC
#---------    -------------------            -------------------------------
# Generated from Intellog Unique Number	CN_94_101/WELL/3820
WELL.         10-02-096-18W4                 : Well_name    - WELL
LOC .         00/10-02-096-18W4/0            : Location     - LOCATION
UWI .         00/10-02-096-18W400            : Uwi          - UNIQUE WELL ID
ENTR.         T                              : Entered      - ENTERED BY
SRVC.         SCHLUMBERGER                   : Scn          - SERVICE COMPANY
DATE.         06/18/92                       : Date         - LOG DATE
STRT.M        225                            : top_depth    - START DEPTH
STOP.M        404.75                         : bot_depth    - STOP DEPTH
STEP.M        0.25                           : increment    - STEP LENGTH
 NULL. -999.2500:NULL Value
~CURVE INFORMATION BLOCK
#MNEM UNIT       ERCB CURVE CODE    CURVE DESCRIPTION
#-----------   ------------------   ----------------------------------
DEPT.M        00 001 00 00         : DEPTH        - DEPTH
GR  .API      00 310 00 00         : GR           - GAMMA RAY
CALI.MM       00 280 01 00         : CAL          - CALIPER
NPHI.V/V      00 330 00 00         : PHIN         - NEUTRON POROSITY (SANDSTONE)
DPHI.V/V      00 890 00 00         : PHID         - DENSITY POROSITY (SANDSTONE)
ILD .OHMM     00 120 00 00         : RESD         - DEEP RESISTIVITY (DIL)
~PARAMETER INFORMATION
#MNEM.UNIT           DATA             DESCRIPTION OF MNEMONIC
#---------         -----------     ------------------------------
GL  .M        673.9                : gl           - GROUND LEVEL ELEVATION
EREF.M        676.9                : kb           - ELEVATION OF DEPTH REFERENCE
DATM.M        676.9                : datum        - DATUM ELEVATION
TDD .M        411                  : tdd          - TOTAL DEPTH DRILLER
RUN .         0.000000             : Run          - RUN NUMBER
MUD .         GEL                  : Mud_type     - MUD TYPE
MATR.         SANDSTONE            : Logunit      - NEUTRON MATRIX
TMAX.C        0                    : BHT          - MAXIMUM RECORDED TEMPERATURE
BHTD.M        344                  : BHTDEP       - MAXIMUM RECORDED TEMPERATURE
RMT .C        14                   : MDTP         - TEMPERATURE OF MUD
MUDD.KG/M     1050                 : MWT          - MUD DENSITY
NEUT.         1                    : NEUTRON      - NEUTRON TYPE
RESI.         0                    : RESIST       - RESISTIVITY TYPE
RM  .OHMM     3.15                 : RM           - RESISTIVITY OF MUD
RMC .OHMM     3.15                 : RMC          - RESISTIVITY OF MUD CAKE
RMF .OHMM     0                    : RMF          - RESISTIVITY OF MUD FILTRATE
SUFT.C        4                    : SUFT         - SURFACE TEMPERATURE
BTZC.MM       0                    : BITZC        - BIT SIZE CONSTANT
MDW .KG/M     0                    : MDW          - MUD WEIGHT
~A  DEPTH       GR      CAL     PHIN     PHID     RESD
# ...
  298.000   67.347  171.939    0.242    0.011    9.135
  298.250   78.980  172.959    0.346    0.031   11.983
  298.500  103.469  173.980    0.456    0.137    8.762
  298.750  123.673  173.980    0.463    0.167    7.571
  299.000  125.510  165.816    0.473    0.207    6.275
  299.250  123.673  172.959    0.479    0.198    5.894
  299.500  123.673  170.918    0.477    0.185    6.145
  299.750  121.224  170.918    0.464    0.171    6.275
  300.000  123.061  161.735    0.467    0.163    6.407
  300.250  120.612  162.755    0.472    0.146    6.407
  300.500  117.551  161.735    0.469    0.223    6.018
  300.750  120.000  167.857    0.479    0.228    5.536
  301.000  119.388  165.816    0.496    0.233    5.093
  301.250  119.388  167.857    0.507    0.237    4.588
  301.500  118.776  170.918    0.502    0.240    3.964
  301.750  116.939  170.918    0.483    0.253    3.724
  302.000  115.714  165.816    0.474    0.282    3.647
  302.250  113.878  163.776    0.487    0.291    4.310
  302.500  112.041  163.776    0.486    0.291    3.286
  302.750  114.490  163.776    0.485    0.284    3.218
  303.000  114.490  163.776    0.502    0.281    3.151
  303.250  112.653  163.776    0.502    0.278    3.426
  303.500  112.653  164.796    0.487    0.273    3.498
  303.750  113.265  163.776    0.490    0.263    4.048
  304.000  108.367  162.755    0.493    0.264    4.988
  304.250   97.347  163.776    0.463    0.278    5.536
  304.500   85.714  164.796    0.413    0.289    6.145
  304.750   85.102  163.776    0.397    0.283    6.680
  305.000   88.163  160.714    0.387    0.257    7.894
  305.250   90.612  164.796    0.422    0.262    8.060
  305.500   80.816  165.816    0.454    0.272    8.404
  305.750   71.020  162.755    0.437    0.272    9.525
  306.000   65.510  162.755    0.382    0.168   11.023
  306.250   61.837  164.796    0.200    0.025   12.493
  306.500   67.347  162.755    0.210    0.062   12.757
  306.750   75.918  161.735    0.242    0.138   11.983
  307.000   90.612  160.714    0.368    0.210   11.023
  307.250   94.898  166.837    0.404    0.215    9.931
  307.500   95.510  160.714    0.429    0.220    8.404
  307.750   99.184  166.837    0.433    0.225    8.230
  308.000  101.020  169.898    0.439    0.230    8.060
  308.250   98.571  170.918    0.441    0.237    8.060
  308.500   96.122  169.898    0.421    0.233    8.060
  308.750   94.898  171.939    0.409    0.225    7.894
  309.000   99.184  172.959    0.412    0.227    7.731
  309.250  108.367  172.959    0.415    0.232    6.680
  309.500  108.367  175.000    0.443    0.246    6.680
  309.750  104.082  180.102    0.443    0.269    6.680
  310.000   99.184  186.224    0.444    0.307    6.680
  310.250   91.837  162.755    0.414    0.294    7.571
  310.500   87.551  163.776    0.419    0.284    7.894
  310.750   86.939  161.735    0.427    0.284    8.060
  311.000   82.653  161.735    0.431    0.287    9.135
  311.250   78.367  158.673    0.427    0.291    9.328
  311.500   77.755  161.735    0.415    0.298   10.795
  311.750   78.367  161.735    0.408    0.301   10.795
  312.000   76.531  160.714    0.400    0.298   11.023
  312.250   75.918  159.694    0.395    0.297   10.795
  312.500   77.143  160.714    0.382    0.289    9.328
  312.750   82.041  161.735    0.394    0.268    7.571
  313.000   82.041  164.796    0.437    0.195    6.018
  313.250   83.878  167.857    0.490    0.157    6.145
  313.500   96.122  169.898    0.502    0.191    6.145
  313.750  105.306  167.857    0.491    0.236    5.200
  314.000  105.306  168.878    0.468    0.231    4.885
  314.250  104.082  167.857    0.451    0.230    4.988
  314.500  106.531  170.918    0.442    0.235    5.200
  314.750  102.857  170.918    0.444    0.237    5.653
  315.000   99.184  172.959    0.434    0.235    6.275
  315.250  104.082  173.980    0.428    0.230    6.542
  315.500  107.143  170.918    0.427    0.227    6.821
  315.750  107.143  167.857    0.417    0.231    6.680
  316.000  105.306  167.857    0.412    0.243    6.542
  316.250  107.143  167.857    0.474    0.251    6.275
  316.500  106.531  167.857    0.485    0.244    6.542
  316.750  100.408  167.857    0.454    0.235    7.731
  317.000   84.490  166.837    0.255    0.192    9.726
  317.250   62.449  167.857    0.247    0.037   12.235
  317.500   64.898  167.857    0.242    0.071   13.978
  317.750   67.959  160.714    0.358    0.161   15.521
  318.000   77.755  163.776    0.380    0.233   13.127
  318.250   94.898  162.755    0.413    0.233   10.212
  318.500   95.510  166.837    0.415    0.233    9.793
  318.750   96.122  167.857    0.434    0.241    9.391
  319.000   95.510  169.898    0.453    0.248    9.590
  319.250   94.286  165.816    0.448    0.241   11.103
  319.500   83.878  161.735    0.410    0.218   11.578
  319.750   77.755  160.714    0.377    0.181   11.338
  320.000   77.143  161.735    0.365    0.218   11.338
  320.250   88.163  161.735    0.393    0.233   11.823
  320.500   91.837  161.735    0.426    0.249   10.873
  320.750   91.837  161.735    0.426    0.248   10.648
  321.000   90.000  161.735    0.409    0.232   11.103
  321.250   86.939  161.735    0.384    0.217   12.589
  321.500   91.837  162.755    0.380    0.216   12.589
  321.750   96.122  163.776    0.392    0.232   10.873
  322.000   99.184  161.735    0.417    0.236    9.590
  322.250   99.184  161.735    0.427    0.232    8.820
  322.500   96.735  161.735    0.431    0.242    8.283
  322.750   90.612  162.755    0.426    0.262    9.391
  323.000   79.592  162.755    0.415    0.291   11.338
  323.250   77.755  163.776    0.410    0.306   14.576
  323.500   80.204  160.714    0.399    0.307   10.873
  323.750   86.939  160.714    0.394    0.281   10.000
  324.000   96.735  160.714    0.413    0.251    8.820
  324.250  104.082  160.714    0.464    0.237    6.443
  324.500  105.918  159.694    0.483    0.238    5.565
  324.750  105.306  160.714    0.506    0.254    5.565
  325.000  107.755  160.714    0.521    0.262    5.803
  325.250  107.755  163.776    0.493    0.263    5.337
  325.500  101.633  161.735    0.467    0.267    6.310
  325.750   88.163  161.735    0.447    0.252    4.609
  326.000   74.082  163.776    0.383    0.213    9.793
  326.250   72.245  164.796    0.380    0.192   10.428
  326.500   75.306  162.755    0.385    0.222   12.328
  326.750   75.918  162.755    0.385    0.266   14.274
  327.000   77.143  162.755    0.414    0.291   13.978
  327.250   78.367  161.735    0.414    0.286   13.689
  327.500   76.531  163.776    0.400    0.248   10.648
  327.750   78.980  165.816    0.375    0.213   11.578
  328.000   85.102  165.816    0.382    0.225   10.212
  328.250   91.837  164.796    0.412    0.251    8.637
  328.500   97.959  163.776    0.441    0.259    7.460
  328.750   99.796  162.755    0.437    0.261    6.719
  329.000   96.735  164.796    0.421    0.263    6.861
  329.250   94.898  161.735    0.408    0.256    6.579
  329.500   96.122  161.735    0.393    0.246    7.154
  329.750   97.347  162.755    0.400    0.249    7.154
  330.000   97.131  162.755    0.413    0.254    7.305
  330.250   93.443  161.735    0.408    0.263    7.943
  330.500   90.369  161.735    0.409    0.269    9.590
  330.750   88.525  162.755    0.436    0.249   10.648
  331.000   85.451  162.755    0.437    0.213   12.073
  331.250   86.066  162.755    0.393    0.153   14.576
  331.500   91.598  167.857    0.364    0.160   12.856
  331.750   96.516  172.959    0.380    0.191   12.073
  332.000   99.590  172.959    0.409    0.252   10.648
  332.250   95.902  169.898    0.417    0.258    9.590
  332.500   94.057  166.837    0.419    0.248    9.391
  332.750   96.516  164.796    0.407    0.231    9.197
  333.000   99.590  162.755    0.413    0.230    9.391
  333.250  103.893  167.857    0.434    0.226    8.458
  333.500  102.664  168.878    0.436    0.226    7.943
  333.750  100.820  168.878    0.418    0.226    7.006
  334.000  102.664  168.878    0.417    0.221    6.719
  334.250  104.508  168.878    0.431    0.216    6.719
