~VERSION INFORMATION
 VERS.                 2.0:   CWLS LOG ASCII STANDARD -VERSION 2.0
 WRAP.                  NO:   ONE LINE PER DEPTH STEP
~WELL INFORMATION BLOCK
#MNEM.UNIT           DATA                    DESCRIPTION OF MNEMONIC
#---------    -------------------            -------------------------------
# Generated from Intellog Unique Number	CS_77_79/WELL/1015
WELL.         H. B. LEISMER                  : Well_name    - WELL
LOC .         00/12-30-078-11W4/0            : Location     - LOCATION
UWI .         00/12-30-078-11W4/0            : Uwi          - UNIQUE WELL ID
ENTR.         JHS                            : Entered      - ENTERED BY
SRVC.         SCHLUMBERGER                   : Scn          - SERVICE COMPANY
STRT.M        245                            : top_depth    - START DEPTH
STOP.M        485                            : bot_depth    - STOP DEPTH
STEP.M        0.25                           : increment    - STEP LENGTH
 NULL. -999.2500:NULL Value
~CURVE INFORMATION BLOCK
#MNEM UNIT       ERCB CURVE CODE    CURVE DESCRIPTION
#-----------   ------------------   ----------------------------------
DEPT.M        00 001 00 00         : DEPTH        - DEPTH
DPHI.V/V      00 890 00 00         : PHID         - DENSITY POROSITY (LIMESTONE)
NPHI.V/V      00 330 00 00         : PHIN         - NEUTRON POROSITY (LIMESTONE)
GR  .API      00 310 00 00         : GR           - GAMMA RAY
ILD .OHMM     00 120 00 00         : RESD         - DEEP RESISTIVITY (DIL)
RHOB.KG/M3    00 350 00 00         : DENS         - BULK DENSITY
~PARAMETER INFORMATION
#MNEM.UNIT           DATA             DESCRIPTION OF MNEMONIC
#---------         -----------     ------------------------------
GL  .M        683                  : gl           - GROUND LEVEL ELEVATION
EREF.M        687.9                : kb           - ELEVATION OF DEPTH REFERENCE
DATM.M        687.9                : datum        - DATUM ELEVATION
TDD .M        488                  : tdd          - TOTAL DEPTH DRILLER
RUN .         ONE                  : Run          - RUN NUMBER
ENG .         BILL                 : Engineer     - RECORDING ENGINEER
WIT .         JIM                  : Witness      - WITNESSED BY
MUD .         GEL                  : Mud_type     - MUD TYPE
MATR.         LIMESTONE            : Logunit      - NEUTRON MATRIX
TMAX.C        27.8                 : BHT          - MAXIMUM RECORDED TEMPERATURE
BHTD.M        488                  : BHTDEP       - MAXIMUM RECORDED TEMPERATURE
MATR.         1                    : LOGUNIT      - NEUTRON MATRIX
RMT .C        25                   : MDTP         - TEMPERATURE OF MUD
NEUT.         1                    : NEUTRON      - NEUTRON TYPE
RESI.         0                    : RESIST       - RESISTIVITY TYPE
RMC .OHMM     0.25                 : RMC          - RESISTIVITY OF MUD CAKE
RMF .OHMM     0.25                 : RMF          - RESISTIVITY OF MUD FILTRATE
SUFT.C        15                   : SUFT         - SURFACE TEMPERATURE
~A  DEPTH     PHID     PHIN       GR     RESD     DENS
# ...
  354.500    0.314    0.572   86.160    3.098    0.000
  354.750    0.265    0.604   88.645    2.713    0.000
  355.000    0.272    0.622   86.192    2.467    0.000
  355.250    0.277    0.625   85.587    2.421    0.000
  355.500    0.283    0.615   90.546    2.420    0.000
  355.750    0.267    0.623   91.794    2.514    0.000
  356.000    0.281    0.620   92.429    2.871    0.000
  356.250    0.294    0.621   96.142    3.405    0.000
  356.500    0.282    0.621  101.712    3.889    0.000
  356.750    0.270    0.591  106.666    4.791    0.000
  357.000    0.256    0.528  101.741    5.576    0.000
  357.250    0.243    0.517   82.620    6.131    0.000
  357.500    0.268    0.502   78.315    6.368    0.000
  357.750    0.263    0.504   77.097    6.489    0.000
  358.000    0.239    0.537   77.727    6.367    0.000
  358.250    0.235    0.510   80.829    6.247    0.000
  358.500    0.268    0.477   81.460    5.901    0.000
  358.750    0.247    0.483   83.945    5.574    0.000
  359.000    0.245    0.522   83.962    5.265    0.000
  359.250    0.263    0.570   82.743    4.974    0.000
  359.500    0.263    0.580   83.371    4.610    0.000
  359.750    0.283    0.563   85.856    4.354    0.000
  360.000    0.263    0.535   85.875    4.438    0.000
  360.250    0.261    0.526   87.124    4.609    0.000
  360.500    0.272    0.539   87.136    4.972    0.000
  360.750    0.279    0.526   82.831    5.263    0.000
  361.000    0.293    0.543   79.760    5.678    0.000
  361.250    0.307    0.544   76.688    6.010    0.000
  361.500    0.314    0.530   73.615    6.484    0.000
  361.750    0.311    0.518   76.099    6.995    0.000
  362.000    0.301    0.534   78.583    7.264    0.000
  362.250    0.300    0.550   75.511    7.128    0.000
  362.500    0.297    0.503   69.354    6.360    0.000
  362.750    0.299    0.453   73.690    4.876    0.000
  363.000    0.274    0.456   82.348    4.033    0.000
  363.250    0.255    0.508   89.770    3.668    0.000
  363.500    0.264    0.570   94.107    3.809    0.000
  363.750    0.280    0.589   92.268    3.809    0.000
  364.000    0.291    0.542   89.196    3.667    0.000
  364.250    0.276    0.539   89.213    3.530    0.000
  364.500    0.285    0.553   87.375    3.335    0.000
  364.750    0.290    0.524   88.010    3.210    0.000
  365.000    0.272    0.540   89.874    3.090    0.000
  365.250    0.263    0.560   89.893    3.090    0.000
  365.500    0.268    0.572   89.285    3.149    0.000
  365.750    0.281    0.582   89.918    3.271    0.000
  366.000    0.286    0.574   88.698    3.333    0.000
  366.250    0.270    0.577   85.629    3.397    0.000
  366.500    0.265    0.563   83.172    3.397    0.000
  366.750    0.274    0.580   86.274    3.397    0.000
  367.000    0.270    0.590   89.374    3.270    0.000
  367.250    0.264    0.590   86.923    3.208    0.000
  367.500    0.288    0.590   88.792    3.208    0.000
  367.750    0.281    0.595   89.423    3.208    0.000
  368.000    0.283    0.591   88.200    3.208    0.000
  368.250    0.291    0.586   85.128    3.147    0.000
  368.500    0.296    0.568   87.613    3.147    0.000
  368.750    0.293    0.554   87.012    3.147    0.000
  369.000    0.294    0.560   87.647    3.268    0.000
  369.250    0.274    0.549   89.513    3.268    0.000
  369.500    0.274    0.549   90.762    3.459    0.000
  369.750    0.273    0.550   92.626    3.525    0.000
  370.000    0.279    0.538   96.961    3.593    0.000
  370.250    0.266    0.539   97.597    3.731    0.000
  370.500    0.282    0.538   92.671    3.876    0.000
  370.750    0.278    0.521   84.660    3.950    0.000
  371.000    0.287    0.510   82.208    4.181    0.000
  371.250    0.276    0.519   83.454    4.510    0.000
  371.500    0.290    0.510   84.704    5.054    0.000
  371.750    0.296    0.490   82.249    5.452    0.000
  372.000    0.283    0.473   77.328    6.345    0.000
  372.250    0.290    0.492   72.404    7.110    0.000
  372.500    0.279    0.537   68.097    7.817    0.000
  372.750    0.257    0.508   65.025    8.434    0.000
  373.000    0.177    0.461   60.101    9.272    0.000
  373.250    0.147    0.341   53.943    9.449    0.000
  373.500    0.136    0.344   66.924    9.271    0.000
  373.750    0.164    0.434   73.109    8.925    0.000
  374.000    0.248    0.480   75.593    8.272    0.000
  374.250    0.251    0.488   73.762    7.667    0.000
  374.500    0.262    0.493   73.774    7.106    0.000
  374.750    0.268    0.475   76.258    6.841    0.000
  375.000    0.271    0.497   76.887    7.105    0.000
  375.250    0.271    0.494   77.526    7.241    0.000
  375.500    0.264    0.494   78.152    7.521    0.000
  375.750    0.258    0.502   79.403    7.664    0.000
  376.000    0.274    0.509   76.952    7.960    0.000
  376.250    0.284    0.499   78.200    7.960    0.000
  376.500    0.276    0.504   79.447    7.810    0.000
  376.750    0.274    0.502   76.994    7.809    0.000
  377.000    0.265    0.500   78.242    7.376    0.000
  377.250    0.267    0.490   78.876    7.238    0.000
  377.500    0.256    0.487   77.659    6.968    0.000
  377.750    0.269    0.521   77.054    6.836    0.000
  378.000    0.269    0.499   79.539    6.836    0.000
  378.250    0.244    0.498   79.555    6.966    0.000
  378.500    0.259    0.494   78.950    7.099    0.000
  378.750    0.272    0.475   76.498    7.235    0.000
  379.000    0.255    0.479   75.276    7.514    0.000
  379.250    0.255    0.475   75.289    7.514    0.000
  379.500    0.275    0.454   79.010    7.513    0.000
  379.750    0.254    0.438   82.111    7.233    0.000
  380.000    0.247    0.443   83.365    6.963    0.000
  380.250    0.257    0.456   82.144    6.577    0.000
  380.500    0.268    0.473   81.542    6.454    0.000
  380.750    0.266    0.486   80.942    6.453    0.000
  381.000    0.276    0.491   81.570    6.332    0.000
  381.250    0.283    0.491   83.435    5.981    0.000
  381.500    0.293    0.471   82.832    5.337    0.000
  381.750    0.274    0.486   76.056    4.673    0.000
  382.000    0.292    0.510   73.602    3.792    0.000
  382.250    0.321    0.529   78.556    3.136    0.000
  382.500    0.293    0.519   82.892    2.852    0.000
  382.750    0.288    0.553   85.994    2.694    0.000
  383.000    0.294    0.569   83.540    2.694    0.000
  383.250    0.289    0.556   82.318    2.852    0.000
  383.500    0.280    0.543   84.186    3.135    0.000
  383.750    0.312    0.537   83.583    3.447    0.000
  384.000    0.294    0.559   79.277    3.937    0.000
  384.250    0.302    0.555   76.206    4.167    0.000
  384.500    0.332    0.543   73.754    4.582    0.000
  384.750    0.300    0.543   73.149    4.759    0.000
  385.000    0.313    0.567   75.014    5.037    0.000
  385.250    0.327    0.547   79.351    5.232    0.000
  385.500    0.303    0.529   79.987    5.434    0.000
  385.750    0.311    0.510   78.146    5.752    0.000
  386.000    0.313    0.481   75.691    5.974    0.000
  386.250    0.286    0.493   77.558    6.323    0.000
  386.500    0.303    0.519   74.489    6.444    0.000
  386.750    0.322    0.478   70.797    6.444    0.000
  387.000    0.323    0.465   69.578    6.322    0.000
  387.250    0.334    0.457   74.532    6.086    0.000
  387.500    0.321    0.475   73.314    6.086    0.000
  387.750    0.290    0.486   75.795    6.086    0.000
  388.000    0.265    0.461   80.135    6.321    0.000
  388.250    0.251    0.450   82.001    6.691    0.000
  388.500    0.260    0.466   82.016    6.818    0.000
  388.750    0.264    0.468   80.794    6.818    0.000
  389.000    0.280    0.458   81.428    6.817    0.000
  389.250    0.299    0.472   80.210    6.563    0.000
  389.500    0.307    0.457   77.757    6.688    0.000
  389.750    0.293    0.461   75.303    6.688    0.000
  390.000    0.280    0.482   73.464    6.816    0.000
  390.250    0.273    0.483   71.007    6.815    0.000
  390.500    0.235    0.468   68.556    6.815    0.000
  390.750    0.203    0.456   66.716    6.814    0.000
