~VERSION INFORMATION
 VERS.                 2.0:   CWLS LOG ASCII STANDARD -VERSION 2.0
 WRAP.                  NO:   ONE LINE PER DEPTH STEP
~WELL INFORMATION BLOCK
#MNEM.UNIT           DATA                    DESCRIPTION OF MNEMONIC
#---------    -------------------            -------------------------------
# Generated from Intellog Unique Number	CS_77_79/WELL/1010
WELL.         MAYNARD ET AL THORNBURY        : Well_name    - WELL
LOC .         00/11-35-079-12W4/0            : Location     - LOCATION
UWI .         00/11-35-079-12W4/0            : Uwi          - UNIQUE WELL ID
ENTR.         JHS                            : Entered      - ENTERED BY
SRVC.         SCHLUMBERGER                   : Scn          - SERVICE COMPANY
STRT.M        215                            : top_depth    - START DEPTH
STOP.M        480                            : bot_depth    - STOP DEPTH
STEP.M        0.25                           : increment    - STEP LENGTH
 NULL. -999.2500:NULL Value
~CURVE INFORMATION BLOCK
#MNEM UNIT       ERCB CURVE CODE    CURVE DESCRIPTION
#-----------   ------------------   ----------------------------------
DEPT.M        00 001 00 00         : DEPTH        - DEPTH
DPHI.V/V      00 890 00 00         : PHID         - DENSITY POROSITY (LIMESTONE)
NPHI.V/V      00 330 00 00         : PHIN         - NEUTRON POROSITY (LIMESTONE)
GR  .API      00 310 00 00         : GR           - GAMMA RAY
ILD .OHMM     00 120 00 00         : RESD         - DEEP RESISTIVITY (DIL)
RHOB.KG/M3    00 350 00 00         : DENS         - BULK DENSITY
~PARAMETER INFORMATION
#MNEM.UNIT           DATA             DESCRIPTION OF MNEMONIC
#---------         -----------     ------------------------------
GL  .M        681.99               : gl           - GROUND LEVEL ELEVATION
EREF.M        685.19               : kb           - ELEVATION OF DEPTH REFERENCE
DATM.M        685.19               : datum        - DATUM ELEVATION
TDD .M        495                  : tdd          - TOTAL DEPTH DRILLER
RUN .         ONE                  : Run          - RUN NUMBER
ENG .         BILL                 : Engineer     - RECORDING ENGINEER
WIT .         JIM                  : Witness      - WITNESSED BY
MUD .         GEL                  : Mud_type     - MUD TYPE
MATR.         LIMESTONE            : Logunit      - NEUTRON MATRIX
TMAX.C        20                   : BHT          - MAXIMUM RECORDED TEMPERATURE
BHTD.M        495                  : BHTDEP       - MAXIMUM RECORDED TEMPERATURE
MATR.         1                    : LOGUNIT      - NEUTRON MATRIX
RMT .C        25                   : MDTP         - TEMPERATURE OF MUD
NEUT.         1                    : NEUTRON      - NEUTRON TYPE
RESI.         0                    : RESIST       - RESISTIVITY TYPE
RMC .OHMM     0.25                 : RMC          - RESISTIVITY OF MUD CAKE
RMF .OHMM     0.25                 : RMF          - RESISTIVITY OF MUD FILTRATE
SUFT.C        15                   : SUFT         - SURFACE TEMPERATURE
~A  DEPTH     PHID     PHIN       GR     RESD     DENS
  215.000    0.235    0.498  127.773    3.539    0.000
  215.250    0.239    0.508  129.036    3.540    0.000
  215.500    0.243    0.511  126.610    3.458    0.000
  215.750    0.252    0.500  125.402    3.458    0.000
  216.000    0.255    0.497  124.196    3.541    0.000
  216.250    0.258    0.494  118.059    3.541    0.000
  216.500    0.251    0.491  115.629    3.624    0.000
  216.750    0.253    0.492  113.808    3.707    0.000
  217.000    0.247    0.497  113.224    3.707    0.000
  217.250    0.248    0.495  116.346    3.626    0.000
  217.500    0.256    0.491  120.077    3.461    0.000
  217.750    0.253    0.495  125.677    3.380    0.000
  218.000    0.247    0.501  127.553    3.298    0.000
  218.250    0.250    0.489  126.971    3.216    0.000
  218.500    0.248    0.487  124.530    3.216    0.000
  218.750    0.250    0.494  120.245    3.217    0.000
  219.000    0.248    0.500  118.426    3.217    0.000
  219.250    0.253    0.505  113.532    3.217    0.000
  219.500    0.248    0.514  114.177    3.218    0.000
  219.750    0.241    0.515  117.295    3.218    0.000
  220.000    0.243    0.488  121.647    3.383    0.000
  220.250    0.246    0.470  120.447    3.713    0.000
  220.500    0.243    0.449  106.280    4.372    0.000
  220.750    0.230    0.433   79.156    5.854    0.000
  221.000    0.223    0.419   62.525    7.254    0.000
  221.250    0.224    0.414   57.625    9.559    0.000
  221.500    0.236    0.412   58.275   13.016    0.000
  221.750    0.256    0.399   63.866   14.333    0.000
  222.000    0.258    0.399   69.448   14.251    0.000
  222.250    0.257    0.408   72.575   13.758    0.000
  222.500    0.259    0.396   70.130   13.429    0.000
  222.750    0.275    0.374   57.821   15.240    0.000
  223.000    0.244    0.351   49.211   20.492    0.000
  223.250    0.197    0.340   35.669   22.951    0.000
  223.500    0.173    0.346   31.381   26.230    0.000
  223.750    0.123    0.359   35.121   29.508    0.000
  224.000    0.178    0.372   38.857   31.967    0.000
  224.250    0.207    0.392   45.681   26.230    0.000
  224.500    0.244    0.405   51.263   21.311    0.000
  224.750    0.298    0.427   63.023   12.116    0.000
  225.000    0.287    0.435   79.727    9.318    0.000
  225.250    0.283    0.447   92.104    7.343    0.000
  225.500    0.273    0.451  100.775    5.533    0.000
  225.750    0.256    0.454  104.513    4.711    0.000
  226.000    0.248    0.459  105.166    4.299    0.000
  226.250    0.251    0.471  103.961    4.053    0.000
  226.500    0.245    0.479  104.622    3.807    0.000
  226.750    0.236    0.480  104.033    3.725    0.000
  227.000    0.246    0.479  103.450    3.643    0.000
  227.250    0.262    0.474  106.565    3.561    0.000
  227.500    0.260    0.475  109.682    3.479    0.000
  227.750    0.265    0.484  112.189    3.480    0.000
  228.000    0.258    0.497  112.220    3.480    0.000
  228.250    0.248    0.514  110.400    3.480    0.000
  228.500    0.251    0.521  107.964    3.481    0.000
  228.750    0.249    0.503  104.913    3.481    0.000
  229.000    0.255    0.489  100.628    3.482    0.000
  229.250    0.256    0.478  100.664    3.482    0.000
  229.500    0.262    0.466  102.546    3.483    0.000
  229.750    0.266    0.458  103.199    3.565    0.000
  230.000    0.263    0.460  104.471    3.566    0.000
  230.250    0.246    0.457  104.493    3.649    0.000
  230.500    0.232    0.452  103.912    3.649    0.000
  230.750    0.224    0.452  103.952    3.732    0.000
  231.000    0.219    0.452  103.986    3.732    0.000
  231.250    0.209    0.449  103.393    3.815    0.000
  231.500    0.208    0.450  101.584    3.733    0.000
  231.750    0.220    0.456  100.998    3.816    0.000
  232.000    0.233    0.465   99.795    3.816    0.000
  232.250    0.241    0.464   99.833    3.817    0.000
  232.500    0.234    0.457  101.091    3.817    0.000
  232.750    0.231    0.452  106.682    3.818    0.000
  233.000    0.234    0.446  106.716    3.818    0.000
  233.250    0.242    0.449  108.602    3.901    0.000
  233.500    0.254    0.472  109.874    3.901    0.000
  233.750    0.246    0.472  109.290    3.819    0.000
  234.000    0.236    0.474  109.317    3.738    0.000
  234.250    0.229    0.491  109.355    3.656    0.000
  234.500    0.226    0.489  109.382    3.574    0.000
  234.750    0.226    0.476  110.650    3.492    0.000
  235.000    0.220    0.464  111.924    3.328    0.000
  235.250    0.221    0.460  112.577    3.246    0.000
  235.500    0.218    0.458  112.606    3.164    0.000
  235.750    0.220    0.456  113.253    3.082    0.000
  236.000    0.225    0.459  115.136    3.083    0.000
  236.250    0.227    0.460  117.025    3.001    0.000
  236.500    0.242    0.455  117.058    3.084    0.000
  236.750    0.241    0.456  116.480    3.084    0.000
  237.000    0.248    0.468  115.889    3.002    0.000
  237.250    0.247    0.476  114.079    3.003    0.000
  237.500    0.238    0.481  112.874    2.921    0.000
  237.750    0.233    0.489  111.670    2.921    0.000
  238.000    0.242    0.497  113.566    2.922    0.000
  238.250    0.233    0.493  114.207    3.004    0.000
  238.500    0.227    0.493  114.853    3.005    0.000
  238.750    0.227    0.483  117.363    3.088    0.000
  239.000    0.219    0.474  118.624    3.088    0.000
  239.250    0.218    0.470  119.895    3.088    0.000
  239.500    0.216    0.467  120.546    3.089    0.000
  239.750    0.215    0.470  119.965    3.089    0.000
  240.000    0.221    0.479  118.145    3.090    0.000
  240.250    0.235    0.485  118.790    3.090    0.000
  240.500    0.240    0.491  117.588    3.173    0.000
  240.750    0.243    0.504  112.688    3.256    0.000
  241.000    0.235    0.522  110.247    3.421    0.000
  241.250    0.226    0.519  107.815    3.504    0.000
  241.500    0.221    0.512  104.760    3.504    0.000
  241.750    0.221    0.508  101.712    3.422    0.000
  242.000    0.228    0.505  102.357    3.340    0.000
  242.250    0.237    0.502  103.009    3.258    0.000
  242.500    0.243    0.500  104.894    3.012    0.000
  242.750    0.248    0.506  106.163    2.848    0.000
  243.000    0.253    0.510  106.201    2.684    0.000
  243.250    0.265    0.505  104.999    2.602    0.000
  243.500    0.282    0.507  105.658    2.520    0.000
  243.750    0.289    0.515  107.541    2.438    0.000
  244.000    0.286    0.523  108.806    2.356    0.000
  244.250    0.289    0.524  110.074    2.357    0.000
  244.500    0.278    0.526  110.721    2.357    0.000
  244.750    0.267    0.527  111.366    2.358    0.000
  245.000    0.261    0.518  109.547    2.440    0.000
  245.250    0.258    0.516  104.648    2.441    0.000
  245.500    0.252    0.512  102.828    2.441    0.000
  245.750    0.254    0.503  103.483    2.524    0.000
  246.000    0.255    0.505  102.277    2.524    0.000
  246.250    0.250    0.512   98.615    2.525    0.000
  246.500    0.229    0.513   98.641    2.608    0.000
  246.750    0.229    0.513   99.291    2.690    0.000
  247.000    0.243    0.514   99.943    2.691    0.000
  247.250    0.234    0.511  101.206    2.691    0.000
  247.500    0.233    0.498  104.953    2.692    0.000
  247.750    0.259    0.491  108.066    2.610    0.000
  248.000    0.250    0.484  109.950    2.610    0.000
  248.250    0.250    0.484  106.899    2.611    0.000
  248.500    0.242    0.483  105.081    2.693    0.000
  248.750    0.226    0.474  104.500    2.858    0.000
  249.000    0.216    0.469  100.827    3.024    0.000
  249.250    0.209    0.470  102.097    3.024    0.000
  249.500    0.203    0.468  105.215    3.189    0.000
  249.750    0.214    0.461  108.959    3.272    0.000
  250.000    0.226    0.461  110.220    3.354    0.000
  250.250    0.227    0.467  112.716    3.437    0.000
  250.500    0.222    0.472  115.221    3.520    0.000
  250.750    0.214    0.472  112.792    3.603    0.000
  251.000    0.201    0.483  111.583    3.685    0.000
  251.250    0.194    0.491  110.385    3.768    0.000
