~VERSION INFORMATION
 VERS.                 2.0:   CWLS LOG ASCII STANDARD -VERSION 2.0
 WRAP.                  NO:   ONE LINE PER DEPTH STEP
~WELL INFORMATION BLOCK
#MNEM.UNIT           DATA                    DESCRIPTION OF MNEMONIC
#---------    -------------------            -------------------------------
# Generated from Intellog Unique Number	CW_70_72/WELL/1056
NULL.         -999.25                        : NULL_VALUE
WELL.         SACKVILLE ET AL MITSUE 11-12   : Well_name    - WELL              
LOC .         11-12-071-03W5                 : Location     - LOCATION          
UWI .         00/11-12-071-03W5/2            : Uwi          - UNIQUE WELL ID    
ENTR.         JAYE                           : Entered      - ENTERED BY        
SRVC.         SCHLUMBERGER                   : Scn          - SERVICE COMPANY   
DATE.         9 DEC 77                       : Date         - LOG DATE          
STRT.M        417.576                        : top_depth    - START DEPTH       
STOP.M        652.326                        : bot_depth    - STOP DEPTH        
STEP.M        0.25                           : increment    - STEP LENGTH       
~CURVE INFORMATION BLOCK
#MNEM UNIT       ERCB CURVE CODE    CURVE DESCRIPTION
#-----------   ------------------   ----------------------------------
DEPT.M        00 001 00 00         : DEPTH        - DEPTH                       
DPHI.V/V      00 890 00 00         : PHID         - DENSITY POROSITY (SANDSTONE)
NPHI.V/V      00 330 00 00         : PHIN         - NEUTRON POROSITY (SANDSTONE)
GR  .API      00 310 00 00         : GR           - GAMMA RAY                   
CALI.MM       00 280 01 00         : CAL          - CALIPER                     
ILD .OHMM     00 120 00 00         : RESD         - DEEP RESISTIVITY (DIL)      
~PARAMETER INFORMATION       
#MNEM.UNIT           DATA             DESCRIPTION OF MNEMONIC
#---------         -----------     ------------------------------
GL  .M        610.514              : gl           - GROUND LEVEL ELEVATION      
EREF.M        613.562              : kb           - ELEVATION OF DEPTH REFERENCE
DATM.M        610.514              : datum        - DATUM ELEVATION             
TDD .M        659.892              : tdd          - TOTAL DEPTH DRILLER         
RUN .         ONE                  : Run          - RUN NUMBER                  
ENG .         KOOYMAN              : Engineer     - RECORDING ENGINEER          
WIT .         MINKEN/PODULSKY      : Witness      - WITNESSED BY                
BASE.         EDM                  : Branch       - HOME BASE OF LOGGING UNIT   
MUD .         GEL                  : Mud_type     - MUD TYPE                    
MATR.         SANDSTONE            : Logunit      - NEUTRON MATRIX              
TMAX.C        23.8889              : BHT          - MAXIMUM RECORDED TEMPERATURE
BHTD.M        658.063              : BHTDEP       - MAXIMUM RECORDED TEMPERATURE
RMT .C        10                   : MDTP         - TEMPERATURE OF MUD          
MUDD.KG/M     1140                 : MWT          - MUD DENSITY                 
NEUT.         1                    : NEUTRON      - NEUTRON TYPE                
RESI.         0                    : RESIST       - RESISTIVITY TYPE            
RM  .OHMM     4.33                 : RM           - RESISTIVITY OF MUD          
RMC .OHMM     0                    : RMC          - RESISTIVITY OF MUD CAKE     
RMF .OHMM     4.09                 : RMF          - RESISTIVITY OF MUD FILTRATE 
SUFT.C        -17.7778             : SUFT         - SURFACE TEMPERATURE         
~A  DEPTH     PHID     PHIN       GR      CAL     RESD
# ...
  527.076    0.192    0.399  110.304  158.172    3.820
  527.326    0.201    0.394  108.484  156.669    3.740
  527.576    0.189    0.396  108.838  152.946    3.662
  527.826    0.202    0.407  110.438  149.966    3.606
  528.076    0.194    0.414  110.423  149.098    3.570
  528.326    0.185    0.426  109.474  151.809    3.562
  528.576    0.193    0.428  109.270  157.578    3.560
  528.826    0.195    0.418  110.374  161.871    3.558
  529.076    0.191    0.421  112.223  164.057    3.550
  529.326    0.190    0.439  111.088  164.976    3.561
  529.576    0.188    0.435  109.577  165.583    3.573
  529.826    0.183    0.426  108.065  166.185    3.530
  530.076    0.175    0.422  106.429  166.262    3.476
  530.326    0.166    0.419  106.725  165.710    3.410
  530.576    0.188    0.438  110.941  159.356    2.979
  530.826    0.199    0.475  115.034  154.899    2.686
  531.076    0.211    0.496  118.878  157.397    2.529
  531.326    0.236    0.514  118.050  161.485    2.448
  531.576    0.237    0.514  110.997  166.623    2.362
  531.826    0.233    0.478  100.710  167.962    2.278
  532.076    0.255    0.458   91.105  164.349    2.185
  532.326    0.275    0.435   76.768  156.943    2.049
  532.576    0.301    0.414   73.078  155.854    1.838
  532.826    0.326    0.386   70.819  156.354    1.714
  533.076    0.342    0.384   68.623  157.173    1.653
  533.326    0.344    0.419   70.099  157.778    1.659
  533.576    0.337    0.434   72.387  158.272    1.806
  533.826    0.330    0.431   77.539  158.560    1.910
  534.076    0.301    0.419   84.182  158.848    2.019
  534.326    0.272    0.420   87.840  158.927    2.060
  534.576    0.286    0.443   82.967  159.004    2.051
  534.826    0.301    0.478   76.911  159.189    2.038
  535.076    0.314    0.454   77.828  159.160    2.053
  535.326    0.324    0.447   80.053  157.762    2.122
  535.576    0.299    0.443   79.973  155.301    2.316
  535.826    0.305    0.433   80.704  155.068    2.503
  536.076    0.312    0.422   78.446  156.516    2.676
  536.326    0.315    0.415   75.004  159.223    2.808
  536.576    0.312    0.416   76.855  160.988    2.941
  536.826    0.305    0.425   79.018  162.015    3.080
  537.076    0.294    0.428   80.246  162.302    3.172
  537.326    0.294    0.426   78.299  162.383    3.153
  537.576    0.291    0.416   79.963  160.036    3.134
  537.826    0.294    0.428   83.867  151.678    3.120
  538.076    0.300    0.440   87.650  141.211    3.124
  538.326    0.285    0.450   93.548  140.866    3.146
  538.576    0.279    0.452   98.014  142.314    3.180
  538.826    0.293    0.446   95.507  144.814    3.214
  539.076    0.302    0.439   92.564  149.003    3.165
  539.326    0.318    0.438   96.158  152.453    3.139
  539.576    0.320    0.450  100.061  154.853    3.138
  539.826    0.318    0.458  101.666  155.562    3.119
  540.076    0.328    0.467  100.527  155.218    3.169
  540.326    0.312    0.474   96.278  155.186    3.295
  540.576    0.309    0.428   96.759  154.632    3.596
  540.826    0.296    0.409   94.874  152.600    3.946
  541.076    0.263    0.375   88.194  148.458    4.243
  541.326    0.239    0.352   85.499  152.543    3.891
  541.576    0.253    0.342   87.602  157.155    3.509
  541.826    0.279    0.366   93.063  157.231    3.117
  542.076    0.307    0.391   95.536  151.932    2.546
  542.326    0.314    0.419   93.279  150.534    2.224
  542.576    0.309    0.435   92.015  153.554    2.082
  542.826    0.310    0.446   93.430  155.427    1.985
  543.076    0.313    0.452   96.278  156.455    1.930
  543.326    0.308    0.446   98.566  157.481    1.861
  543.576    0.315    0.455  100.293  158.085    1.792
  543.826    0.339    0.451   90.936  158.478    1.716
  544.076    0.330    0.426   92.973  158.557    1.661
  544.326    0.343    0.421   95.571  157.474    1.641
  544.576    0.348    0.430   97.547  154.809    1.647
  544.826    0.336    0.432  102.263  151.723    1.652
  545.076    0.323    0.434   97.763  149.269    1.704
  545.326    0.330    0.444   94.883  148.924    1.775
  545.576    0.322    0.436   93.308  150.269    1.909
  545.826    0.303    0.420   89.121  155.721    2.207
  546.076    0.276    0.401   88.042  159.278    2.818
  546.326    0.210    0.349   88.215  159.986    3.396
  546.576    0.151    0.282   80.666  160.274    3.282
  546.826    0.152    0.291   85.629  160.562    2.861
  547.076    0.199    0.323   90.220  160.852    2.629
  547.326    0.279    0.378   94.872  161.137    2.221
  547.576    0.316    0.418   98.653  161.213    2.040
  547.826    0.291    0.425   97.454  161.399    2.047
  548.076    0.267    0.434   97.810  161.574    2.136
  548.326    0.280    0.446   98.728  161.863    2.183
  548.576    0.295    0.460   99.146  162.156    2.170
  548.826    0.304    0.469  100.811  162.444    2.129
  549.076    0.287    0.459  103.969  162.727    2.088
  549.326    0.281    0.451  102.397  162.598    2.091
  549.576    0.306    0.449  103.562  162.885    2.117
  549.826    0.297    0.438  106.843  163.173    2.148
  550.076    0.281    0.443  104.463  160.821    2.163
  550.326    0.264    0.449  102.079  157.002    2.186
  550.576    0.258    0.437  104.553  153.495    2.185
  550.826    0.278    0.422  106.529  152.517    2.200
  551.076    0.293    0.410  104.395  152.486    2.304
  551.326    0.279    0.400  103.506  153.301    2.491
  551.576    0.258    0.391  101.747  154.751    2.781
  551.826    0.225    0.393   98.679  157.145    3.414
  552.076    0.201    0.388   94.553  160.173    3.955
  552.326    0.174    0.309   91.298  162.677    4.390
  552.576    0.153    0.263   93.522  165.282    4.495
  552.826    0.191    0.280   98.550  165.257    3.986
  553.076    0.225    0.312  103.015  162.060    3.917
  553.326    0.253    0.370   96.336  163.511    4.065
  553.576    0.258    0.409   89.346  163.907    4.411
  553.826    0.252    0.381   85.531  160.925    5.355
  554.076    0.244    0.339   85.202  155.728    6.010
  554.326    0.243    0.351   84.626  154.641    6.584
  554.576    0.251    0.341   83.925  154.407    6.495
  554.826    0.245    0.320   82.724  153.851    5.868
  555.076    0.250    0.325   81.338  153.297    5.311
  555.326    0.273    0.338   83.064  151.370    4.807
  555.576    0.262    0.338   87.905  150.606    4.287
  555.826    0.266    0.329   93.615  154.370    3.844
  556.076    0.284    0.340   97.645  158.982    3.460
  556.326    0.289    0.359  100.492  155.576    3.126
  556.576    0.281    0.385  101.971  154.498    2.883
  556.826    0.276    0.404  105.749  154.146    2.812
  557.076    0.263    0.420  109.345  154.544    2.805
  557.326    0.254    0.418  113.873  155.993    2.804
  557.576    0.242    0.424  114.355  158.282    2.792
  557.826    0.247    0.418  110.540  160.783    2.743
  558.076    0.250    0.418  105.791  161.806    2.717
  558.326    0.265    0.449  101.853  161.573    2.695
  558.576    0.279    0.440   95.546  158.799    2.673
  558.826    0.288    0.430   91.671  156.139    2.667
  559.076    0.275    0.421   97.631  154.107    2.651
  559.326    0.262    0.402  100.041  153.234    2.620
  559.576    0.280    0.404  100.336  152.678    2.584
  559.826    0.281    0.419  100.071  152.645    2.545
  560.076    0.288    0.413  100.553  153.044    2.501
  560.326    0.301    0.408  104.769  153.648    2.449
  560.576    0.291    0.407  109.360  154.780    2.434
  560.826    0.276    0.408  112.081  158.755    2.478
  561.076    0.243    0.413  114.432  162.209    2.528
  561.326    0.222    0.422  112.795  153.112    2.575
  561.576    0.237    0.453  109.479  152.451    2.691
  561.826    0.264    0.435  109.089  155.689    2.756
  562.076    0.252    0.414  110.940  157.665    2.807
  562.326    0.242    0.424  113.476  159.320    2.896
  562.576    0.237    0.421  115.762  160.558    3.056
  562.826    0.219    0.406  117.800  161.375    3.183
  563.076    0.207    0.407  121.143  161.978    3.241
  563.326    0.198    0.424  122.996  161.741    3.239
