~VERSION INFORMATION
 VERS.                 2.0:   CWLS LOG ASCII STANDARD -VERSION 2.0
 WRAP.                  NO:   ONE LINE PER DEPTH STEP
~WELL INFORMATION BLOCK
#MNEM.UNIT           DATA                    DESCRIPTION OF MNEMONIC
#---------    -------------------            -------------------------------
# Generated from Intellog Unique Number	CS_77_79/WELL/928
WELL.         NORCEN ENERGY RESOURCES        : Well_name    - WELL
LOC .         00/10-02-077-12W4/0            : Location     - LOCATION
UWI .         00/10-02-077-12W4/0            : Uwi          - UNIQUE WELL ID
ENTR.         SP                             : Entered      - ENTERED BY
SRVC.         SCHLUMBERGER                   : Scn          - SERVICE COMPANY
STRT.M        260                            : top_depth    - START DEPTH
STOP.M        520                            : bot_depth    - STOP DEPTH
STEP.M        0.25                           : increment    - STEP LENGTH
 NULL. -999.2500:NULL Value
~CURVE INFORMATION BLOCK
#MNEM UNIT       ERCB CURVE CODE    CURVE DESCRIPTION
#-----------   ------------------   ----------------------------------
DEPT.M        00 001 00 00         : DEPTH        - DEPTH
ILD .OHMM     00 120 00 00         : RESD         - DEEP RESISTIVITY (DIL)
DPHI.V/V      00 890 00 00         : PHID         - DENSITY POROSITY (LIMESTONE)
NPHI.V/V      00 330 00 00         : PHIN         - NEUTRON POROSITY (LIMESTONE)
GR  .API      00 310 00 00         : GR           - GAMMA RAY
~PARAMETER INFORMATION
#MNEM.UNIT           DATA             DESCRIPTION OF MNEMONIC
#---------         -----------     ------------------------------
GL  .M        662.7                : gl           - GROUND LEVEL ELEVATION
EREF.M        666                  : kb           - ELEVATION OF DEPTH REFERENCE
DATM.M        662.7                : datum        - DATUM ELEVATION
TDD .M        531                  : tdd          - TOTAL DEPTH DRILLER
RUN .         ONE                  : Run          - RUN NUMBER
ENG .         BILL                 : Engineer     - RECORDING ENGINEER
WIT .         JIM                  : Witness      - WITNESSED BY
MUD .         GEL                  : Mud_type     - MUD TYPE
MATR.         LIMESTONE            : Logunit      - NEUTRON MATRIX
TMAX.C        15.5                 : BHT          - MAXIMUM RECORDED TEMPERATURE
BHTD.M        531                  : BHTDEP       - MAXIMUM RECORDED TEMPERATURE
MATR.         1                    : LOGUNIT      - NEUTRON MATRIX
RMT .C        25                   : MDTP         - TEMPERATURE OF MUD
NEUT.         1                    : NEUTRON      - NEUTRON TYPE
RESI.         0                    : RESIST       - RESISTIVITY TYPE
RMC .OHMM     0.25                 : RMC          - RESISTIVITY OF MUD CAKE
RMF .OHMM     0.25                 : RMF          - RESISTIVITY OF MUD FILTRATE
SUFT.C        15                   : SUFT         - SURFACE TEMPERATURE
~A  DEPTH     RESD     PHID     PHIN       GR
# ...
  390.500    5.761    0.374    0.439   57.356
  390.750    5.763    0.382    0.426   57.953
  391.000    5.660    0.376    0.420   59.150
  391.250    5.661    0.376    0.432   57.310
  391.500    5.663    0.382    0.437   56.075
  391.750    5.562    0.391    0.435   56.670
  392.000    5.564    0.386    0.435   59.684
  392.250    5.464    0.378    0.439   60.889
  392.500    5.465    0.370    0.438   62.080
  392.750    5.570    0.363    0.436   61.461
  393.000    5.676    0.368    0.427   59.013
  393.250    5.677    0.364    0.422   57.782
  393.500    6.118    0.364    0.420   56.556
  393.750    6.592    0.368    0.418   55.323
  394.000    7.510    0.379    0.418   53.479
  394.250    8.556    0.323    0.396   52.862
  394.500    8.719    0.292    0.365   52.839
  394.750    8.405    0.205    0.272   52.214
  395.000    7.805    0.122    0.252   50.379
  395.250    6.134    0.140    0.264   50.361
  395.500    5.804    0.180    0.303   52.158
  395.750    5.699    0.316    0.367   53.962
  396.000    5.701    0.366    0.406   54.557
  396.250    5.598    0.374    0.418   55.151
  396.500    5.498    0.367    0.422   55.136
  396.750    5.500    0.365    0.430   55.725
  397.000    5.709    0.360    0.436   56.315
  397.250    5.402    0.358    0.431   56.908
  397.500    5.405    0.363    0.427   60.528
  397.750    5.405    0.370    0.427   62.339
  398.000    5.308    0.372    0.429   64.744
  398.250    5.410    0.376    0.434   65.947
  398.500    5.513    0.382    0.435   65.322
  398.750    5.515    0.372    0.432   62.879
  399.000    5.416    0.366    0.422   59.824
  399.250    5.418    0.359    0.417   61.621
  399.500    5.320    0.356    0.420   62.823
  399.750    5.322    0.356    0.450   62.808
  400.000    5.226    0.379    0.463   64.008
  400.250    5.228    0.383    0.463   62.777
  400.500    5.229    0.376    0.461   60.938
  400.750    5.136    0.368    0.447   60.312
  401.000    5.138    0.361    0.439   61.503
  401.250    5.139    0.359    0.442   61.493
  401.500    5.141    0.363    0.429   62.080
  401.750    5.143    0.352    0.417   60.245
  402.000    5.144    0.347    0.427   59.010
  402.250    5.243    0.346    0.436   58.386
  402.500    5.245    0.362    0.450   57.767
  402.750    5.248    0.368    0.461   57.747
  403.000    5.249    0.378    0.461   57.735
  403.250    5.251    0.378    0.468   58.319
  403.500    5.253    0.377    0.474   58.307
  403.750    5.255    0.375    0.458   58.281
  404.000    5.160    0.373    0.438   58.875
  404.250    5.259    0.376    0.432   58.855
  404.500    5.261    0.371    0.430   59.444
  404.750    5.361    0.366    0.429   60.035
  405.000    5.463    0.362    0.425   60.626
  405.250    5.465    0.365    0.424   60.610
  405.500    5.675    0.364    0.423   61.206
  405.750    5.783    0.360    0.424   60.577
  406.000    6.348    0.359    0.428   59.351
  406.250    6.968    0.358    0.430   57.515
  406.500    8.711    0.344    0.404   56.277
  406.750   11.948    0.335    0.357   55.046
  407.000   16.390    0.046    0.293   52.605
  407.250   17.336    0.025    0.189   47.732
  407.500   16.709    0.008    0.153   44.680
  407.750   13.375    0.016    0.144   43.444
  408.000   10.510    0.018    0.170   44.644
  408.250    9.407    0.042    0.191   47.059
  408.500    8.899    0.083    0.218   50.682
  408.750    8.267    0.146    0.241   53.693
  409.000    8.269    0.241    0.324   54.895
  409.250    8.585    0.218    0.344   56.098
  409.500    8.913    0.235    0.370   55.474
  409.750    9.253    0.278    0.391   57.278
  410.000    9.086    0.327    0.411   53.612
  410.250    8.284    0.298    0.402   52.994
  410.500    7.414    0.199    0.376   56.615
  410.750    6.759    0.257    0.372   59.030
  411.000    6.394    0.334    0.401   60.228
  411.250    6.050    0.363    0.418   60.817
  411.500    5.941    0.357    0.424   63.227
  411.750    5.943    0.352    0.431   63.214
  412.000    6.058    0.355    0.427   61.981
  412.250    6.060    0.354    0.426   58.924
  412.500    6.061    0.351    0.437   57.699
  412.750    5.952    0.349    0.443   59.504
  413.000    5.955    0.357    0.431   60.696
  413.250    5.847    0.362    0.414   60.682
  413.500    5.742    0.357    0.399   61.873
  413.750    5.639    0.360    0.392   62.470
  414.000    5.536    0.364    0.400   63.059
  414.250    5.337    0.362    0.405   62.434
  414.500    5.240    0.361    0.407   61.205
  414.750    5.145    0.349    0.423   60.580
  415.000    4.960    0.352    0.436   62.383
  415.250    4.870    0.360    0.445   62.970
  415.500    4.695    0.358    0.441   63.566
  415.750    4.610    0.354    0.422   65.368
  416.000    4.612    0.346    0.411   68.989
  416.250    4.700    0.359    0.418   70.803
  416.500    4.880    0.348    0.434   75.034
  416.750    4.972    0.336    0.446   76.842
  417.000    5.357    0.330    0.456   76.217
  417.250    6.823    0.327    0.451   73.161
  417.500    7.490    0.316    0.441   67.070
  417.750    7.632    0.295    0.443   61.592
  418.000    7.222    0.113    0.437   57.329
  418.250    6.707    0.047    0.351   55.486
  418.500    6.230    0.120    0.258   57.290
  418.750    6.117    0.171    0.312   61.523
  419.000    5.896    0.224    0.363   64.536
  419.250    5.898    0.324    0.413   65.741
  419.500    5.900    0.338    0.458   67.540
  419.750    5.794    0.340    0.461   68.132
  420.000    5.483    0.340    0.455   68.121
  420.250    5.284    0.340    0.451   68.097
  420.500    4.817    0.341    0.461   68.086
  420.750    4.558    0.355    0.474   68.060
  421.000    4.732    0.338    0.476   68.049
  421.250    5.005    0.305    0.477   69.854
  421.500    5.597    0.262    0.488   71.051
  421.750    5.920    0.270    0.479   72.248
  422.000    5.922    0.299    0.452   71.624
  422.250    6.036    0.314    0.436   70.399
  422.500    6.038    0.313    0.442   72.807
  422.750    6.040    0.310    0.443   76.437
  423.000    6.155    0.300    0.440   79.455
  423.250    6.391    0.263    0.441   80.652
  423.500    6.759    0.254    0.454   82.457
  423.750    7.018    0.265    0.470   82.441
  424.000    7.019    0.259    0.477   86.066
  424.250    7.155    0.270    0.481   88.475
  424.500    7.157    0.274    0.459   90.281
  424.750    7.027    0.252    0.452   90.257
  425.000    6.773    0.243    0.454   90.246
  425.250    6.529    0.235    0.459   89.622
  425.500    6.411    0.243    0.447   92.636
  425.750    6.415    0.253    0.430   94.447
  426.000    6.537    0.261    0.440   97.463
  426.250    6.538    0.257    0.457   98.665
  426.500    6.541    0.254    0.458   96.825
  426.750    6.424    0.228    0.441   98.622
  427.000    6.307    0.235    0.420   99.221
  427.250    5.968    0.249    0.406   96.168
  427.500    5.646    0.249    0.402   91.898
  427.750    4.960    0.248    0.408   89.457
  428.000    4.781    0.239    0.420   93.689
  428.250    4.609    0.219    0.432   96.100
  428.500    4.525    0.241    0.434   88.796
  428.750    4.282    0.258    0.428   86.956
  429.000    3.624    0.247    0.431   85.725
  429.250    2.901    0.241    0.440   88.746
  429.500    2.501    0.256    0.451   86.907
  429.750    2.197    0.287    0.463   83.842
  430.000    2.079    0.303    0.474   83.220
  430.250    2.041    0.313    0.485   83.207
  430.500    2.005    0.324    0.506   83.194
  430.750    2.006    0.310    0.526   83.788
  431.000    2.006    0.299    0.544   84.376
  431.250    2.007    0.313    0.523   85.577
  431.500    2.045    0.314    0.516   89.203
  431.750    2.046    0.312    0.528   92.218
  432.000    2.246    0.306    0.534   95.230
  432.250    2.512    0.294    0.531   97.036
  432.500    2.970    0.265    0.535   98.239
  432.750    3.260    0.245    0.548   98.226
  433.000    3.927    0.259    0.538   92.138
  433.250    4.231    0.236    0.519   87.868
  433.500    4.731    0.215    0.494   86.030
  433.750    5.193    0.186    0.462   89.658
