~VERSION INFORMATION
 VERS.                 2.0:   CWLS LOG ASCII STANDARD -VERSION 2.0
 WRAP.                  NO:   ONE LINE PER DEPTH STEP
~WELL INFORMATION BLOCK
#MNEM.UNIT           DATA                    DESCRIPTION OF MNEMONIC
#---------    -------------------            -------------------------------
# Generated from Intellog Unique Number	CS_77_79/WELL/946
WELL.         AMOCO B-1 LEISMER              : Well_name    - WELL
LOC .         00/10-11-078-10W4/0            : Location     - LOCATION
UWI .         00/10-11-078-10W4/0            : Uwi          - UNIQUE WELL ID
ENTR.         JHS                            : Entered      - ENTERED BY
SRVC.         SCHLUMBERGER                   : Scn          - SERVICE COMPANY
STRT.M        198.12                         : top_depth    - START DEPTH
STOP.M        429.62                         : bot_depth    - STOP DEPTH
STEP.M        0.25                           : increment    - STEP LENGTH
 NULL. -999.2500:NULL Value
~CURVE INFORMATION BLOCK
#MNEM UNIT       ERCB CURVE CODE    CURVE DESCRIPTION
#-----------   ------------------   ----------------------------------
DEPT.M        00 001 00 00         : DEPTH        - DEPTH
RHOB.KG/M3    00 350 00 00         : DENS         - BULK DENSITY
GR  .API      00 310 00 00         : GR           - GAMMA RAY
DPHI.V/V      00 890 00 00         : PHID         - DENSITY POROSITY (SANDSTONE)
NPHI.V/V      00 330 00 00         : PHIN         - NEUTRON POROSITY (SANDSTONE)
ILD .OHMM     00 120 00 00         : RESD         - DEEP RESISTIVITY (DIL)
~PARAMETER INFORMATION
#MNEM.UNIT           DATA             DESCRIPTION OF MNEMONIC
#---------         -----------     ------------------------------
GL  .M        619.354              : gl           - GROUND LEVEL ELEVATION
EREF.M        622.097              : kb           - ELEVATION OF DEPTH REFERENCE
DATM.M        622.097              : datum        - DATUM ELEVATION
TDD .M        429.768              : tdd          - TOTAL DEPTH DRILLER
RUN .         ONE                  : Run          - RUN NUMBER
ENG .         BILL                 : Engineer     - RECORDING ENGINEER
WIT .         JIM                  : Witness      - WITNESSED BY
MUD .         GEL                  : Mud_type     - MUD TYPE
MATR.         SANDSTONE            : Logunit      - NEUTRON MATRIX
TMAX.C        30                   : BHT          - MAXIMUM RECORDED TEMPERATURE
BHTD.M        429.768              : BHTDEP       - MAXIMUM RECORDED TEMPERATURE
MATR.         1                    : LOGUNIT      - NEUTRON MATRIX
RMT .C        25                   : MDTP         - TEMPERATURE OF MUD
NEUT.         1                    : NEUTRON      - NEUTRON TYPE
RESI.         0                    : RESIST       - RESISTIVITY TYPE
RMC .OHMM     0.25                 : RMC          - RESISTIVITY OF MUD CAKE
RMF .OHMM     0.25                 : RMF          - RESISTIVITY OF MUD FILTRATE
SUFT.C        15                   : SUFT         - SURFACE TEMPERATURE
~A  DEPTH     DENS       GR     PHID     PHIN     RESD
# ...
  271.120    0.000   55.634    0.367    0.500   19.596
  271.370    0.000   57.135    0.366    0.473   16.805
  271.620    0.000   56.746    0.356    0.453   16.725
  271.870   -0.000   54.735    0.321    0.480   18.126
  272.120   -0.000   52.297    0.343    0.483   21.032
  272.370   -0.000   52.059    0.351    0.418   25.493
  272.620    0.000   47.513    0.308    0.303   29.579
  272.870    0.000   43.213    0.244    0.255   33.897
  273.120    0.000   42.176    0.111    0.231   36.156
  273.370   -0.000   43.190    0.065    0.208   35.610
  273.620   -0.000   44.810    0.067    0.199   34.279
  273.870   -0.000   47.077    0.074    0.194   30.002
  274.120    0.000   47.079    0.048    0.194   24.854
  274.370    0.000   47.468    0.039    0.225   20.820
  274.620   -0.000   48.314    0.048    0.270   18.070
  274.870   -0.000   51.552    0.132    0.404   16.506
  275.120   -0.000   55.413    0.226    0.492   16.139
  275.370    0.000   56.148    0.353    0.534   16.169
  275.620    0.000   57.684    0.362    0.526   16.822
  275.870    0.000   55.297    0.340    0.494   17.527
  276.120   -0.000   51.780    0.330    0.471   18.128
  276.370   -0.000   50.688    0.318    0.454   18.146
  276.620   -0.000   50.420    0.302    0.430   17.786
  276.870    0.000   51.508    0.298    0.472   17.804
  277.120    0.000   51.646    0.314    0.498   17.705
  277.370    0.000   51.696    0.334    0.497   17.507
  277.620   -0.000   53.059    0.341    0.503   17.164
  277.870   -0.000   55.082    0.352    0.498   17.126
  278.120    0.000   56.567    0.326    0.482   16.918
  278.370    0.000   55.448    0.325    0.478   16.616
  278.620    0.000   52.901    0.345    0.497   16.307
  278.870   -0.000   53.569    0.346    0.500   16.076
  279.120   -0.000   56.034    0.360    0.502   16.054
  279.370   -0.000   58.573    0.350    0.515   16.058
  279.620    0.000   58.189    0.354    0.514   16.061
  279.870    0.000   55.109    0.356    0.510   15.971
  280.120    0.000   53.865    0.341    0.526   15.800
  280.370   -0.000   55.321    0.339    0.511   15.778
  280.620   -0.000   56.677    0.330    0.507   16.167
  280.870    0.000   57.546    0.348    0.523   15.837
  281.120    0.000   56.168    0.352    0.520   15.665
  281.370    0.000   55.725    0.331    0.502   15.534
  281.620   -0.000   54.718    0.351    0.514   14.809
  281.870   -0.000   54.098    0.333    0.531   14.073
  282.120   -0.000   54.395    0.344    0.514   13.730
  282.370    0.000   57.431    0.349    0.502   14.152
  282.620    0.000   60.594    0.347    0.508   15.434
  282.870    0.000   61.394    0.357    0.485   16.881
  283.120   -0.000   61.477    0.344    0.473   17.957
  283.370   -0.000   60.955    0.332    0.487   17.750
  283.620   -0.000   62.080    0.326    0.513   13.752
  283.870    0.000   64.190    0.323    0.545   10.383
  284.120    0.000   65.761    0.322    0.495    8.205
  284.370   -0.000   70.956    0.273    0.460    6.920
  284.620   -0.000   73.505    0.230    0.471    6.683
  284.870   -0.000   72.077    0.196    0.553    6.910
  285.120    0.000   68.445    0.294    0.553    7.501
  285.370    0.000   67.262    0.323    0.534    7.956
  285.620    0.000   64.579    0.333    0.524    8.640
  285.870   -0.000   65.856    0.329    0.524    9.348
  286.120   -0.000   69.428    0.324    0.517    9.892
  286.370   -0.000   68.961    0.317    0.531    9.770
  286.620    0.000   68.708    0.325    0.534    9.177
  286.870    0.000   71.553    0.333    0.513    7.229
  287.120   -0.000   76.778    0.311    0.513    5.583
  287.370   -0.000   81.336    0.321    0.536    3.891
  287.620   -0.000   86.110    0.331    0.545    3.026
  287.870    0.000   92.794    0.270    0.565    2.581
  288.120    0.000   94.955    0.256    0.599    2.597
  288.370    0.000   96.272    0.239    0.603    2.677
  288.620   -0.000   96.804    0.245    0.599    2.807
  288.870   -0.000   96.626    0.250    0.607    2.906
  289.120   -0.000   94.886    0.249    0.590    2.936
  289.370    0.000   93.574    0.228    0.588    3.022
  289.620    0.000   95.434    0.226    0.608    3.295
  289.870    0.000   99.379    0.233    0.611    3.876
  290.120   -0.000   98.906    0.257    0.601    4.544
  290.370   -0.000   94.819    0.267    0.595    5.393
  290.620    0.000   89.986    0.249    0.560    6.457
  290.870    0.000   89.680    0.266    0.519    7.332
  291.120    0.000   89.016    0.288    0.525    7.480
  291.370   -0.000   85.694    0.295    0.509    6.934
  291.620   -0.000   78.510    0.268    0.493    5.794
  291.870   -0.000   82.110    0.256    0.503    4.715
  292.120    0.000   87.387    0.256    0.528    4.122
  292.370    0.000   91.490    0.230    0.559    3.802
  292.620    0.000   93.784    0.213    0.572    3.550
  292.870   -0.000   94.433    0.243    0.576    3.488
  293.120   -0.000   93.504    0.225    0.579    3.563
  293.370    0.000   93.821    0.208    0.598    3.696
  293.620    0.000   93.759    0.218    0.608    3.874
  293.870    0.000   89.775    0.242    0.608    4.188
  294.120   -0.000   85.387    0.266    0.577    4.760
  294.370   -0.000   80.593    0.253    0.574    5.395
  294.620   -0.000   74.084    0.247    0.567    5.916
  294.870    0.000   71.364    0.241    0.533    6.025
  295.120    0.000   71.938    0.260    0.507    5.644
  295.370    0.000   80.249    0.273    0.494    5.033
  295.620   -0.000   86.601    0.241    0.490    4.512
  295.870   -0.000   89.933    0.224    0.494    4.199
  296.120   -0.000   93.640    0.222    0.523    4.400
  296.370    0.000   94.338    0.231    0.553    4.694
  296.620    0.000   92.743    0.230    0.545    5.148
  296.870   -0.000   89.129    0.214    0.538    5.683
  297.120   -0.000   83.772    0.235    0.538    5.809
  297.370   -0.000   83.739    0.235    0.511    5.811
  297.620    0.000   84.182    0.220    0.498    5.820
  297.870    0.000   85.745    0.218    0.491    5.616
  298.120    0.000   88.143    0.233    0.496    5.288
  298.370   -0.000   91.652    0.238    0.509    4.904
  298.620   -0.000   93.710    0.219    0.518    4.615
  298.870   -0.000   92.641    0.224    0.524    4.257
  299.120    0.000   90.504    0.227    0.533    4.063
  299.370    0.000   90.794    0.220    0.538    3.943
  299.620   -0.000   92.269    0.238    0.551    3.904
  299.870   -0.000   91.454    0.263    0.569    3.789
  300.120   -0.000   91.918    0.281    0.552    3.678
  300.370    0.000   93.413    0.279    0.550    3.587
  300.620    0.000   96.355    0.248    0.552    3.205
  300.870    0.000   99.198    0.240    0.564    3.057
  301.120   -0.000  100.139    0.256    0.601    2.975
  301.370   -0.000   99.930    0.266    0.621    3.025
  301.620   -0.000   99.565    0.256    0.621    3.234
  301.870    0.000   97.428    0.254    0.599    3.703
  302.120    0.000   96.717    0.261    0.567    4.700
  302.370    0.000   96.813    0.267    0.576    5.917
  302.620   -0.000   94.455    0.272    0.574    7.183
  302.870   -0.000   87.695    0.280    0.541    7.708
  303.120    0.000   80.219    0.279    0.506    8.212
  303.370    0.000   84.082    0.255    0.491    8.313
  303.620    0.000   87.610    0.244    0.501    8.386
  303.870   -0.000   86.585    0.256    0.487    8.248
  304.120   -0.000   80.843    0.264    0.496    8.181
  304.370   -0.000   79.716    0.267    0.505    7.929
  304.620    0.000   79.743    0.254    0.491    7.681
  304.870    0.000   80.686    0.248    0.479    7.554
  305.120    0.000   81.673    0.251    0.482    7.399
  305.370   -0.000   83.106    0.261    0.492    7.249
  305.620   -0.000   85.166    0.262    0.482    7.443
  305.870    0.000   85.922    0.243    0.471    7.982
  306.120    0.000   82.736    0.226    0.474    9.035
  306.370    0.000   78.279    0.242    0.498   10.545
  306.620   -0.000   74.278    0.235    0.505   11.115
  306.870   -0.000   69.394    0.210    0.387   11.245
  307.120   -0.000   64.879    0.145    0.301   10.796
  307.370    0.000   64.132    0.077    0.279    9.387
