~VERSION INFORMATION
 VERS.                 2.0:   CWLS LOG ASCII STANDARD -VERSION 2.0
 WRAP.                  NO:   ONE LINE PER DEPTH STEP
~WELL INFORMATION BLOCK
#MNEM.UNIT           DATA                    DESCRIPTION OF MNEMONIC
#---------    -------------------            -------------------------------
# Generated from Intellog Unique Number	CW_76_78/WELL/1031
WELL.         CHIEFCO PR ETAL PELICAN 11-34  : Well_name    - WELL
LOC .         00/11-34-077-22W4/0            : Location     - LOCATION
UWI .         00/11-34-077-22W4/0            : Uwi          - UNIQUE WELL ID
ENTR.         jj                             : Entered      - ENTERED BY
SRVC.         SCHLUMBERGER                   : Scn          - SERVICE COMPANY
DATE.         3 MAR 73                       : Date         - LOG DATE
STRT.M        277.368                        : top_depth    - START DEPTH
STOP.M        530.368                        : bot_depth    - STOP DEPTH
STEP.M        0.25                           : increment    - STEP LENGTH
 NULL. -999.2500:NULL Value
~CURVE INFORMATION BLOCK
#MNEM UNIT       ERCB CURVE CODE    CURVE DESCRIPTION
#-----------   ------------------   ----------------------------------
DEPT.M        00 001 00 00         : DEPTH        - DEPTH
DPHI.V/V      00 890 00 00         : PHID         - DENSITY POROSITY (SANDSTONE)
NPHI.V/V      00 330 00 00         : PHIN         - NEUTRON POROSITY (SANDSTONE)
GR  .API      00 310 00 00         : GR           - GAMMA RAY
CALI.MM       00 280 01 00         : CAL          - CALIPER
ILD .OHMM     00 120 00 00         : RESD         - DEEP RESISTIVITY (DIL)
~PARAMETER INFORMATION
#MNEM.UNIT           DATA             DESCRIPTION OF MNEMONIC
#---------         -----------     ------------------------------
GL  .M        606.095              : gl           - GROUND LEVEL ELEVATION
EREF.M        608.381              : kb           - ELEVATION OF DEPTH REFERENCE
DATM.M        606.095              : datum        - DATUM ELEVATION
TDD .M        534.01               : tdd          - TOTAL DEPTH DRILLER
RUN .         ONE                  : Run          - RUN NUMBER
MUD .         GEL CHEM             : Mud_type     - MUD TYPE
MATR.         SANDSTONE            : Logunit      - NEUTRON MATRIX
TMAX.C        24.4444              : BHT          - MAXIMUM RECORDED TEMPERATURE
BHTD.M        534.01               : BHTDEP       - MAXIMUM RECORDED TEMPERATURE
RMT .C        17.2222              : MDTP         - TEMPERATURE OF MUD
MUDD.KG/M     1080                 : MWT          - MUD DENSITY
NEUT.         1                    : NEUTRON      - NEUTRON TYPE
RESI.         0                    : RESIST       - RESISTIVITY TYPE
RM  .OHMM     3.07                 : RM           - RESISTIVITY OF MUD
RMC .OHMM     0                    : RMC          - RESISTIVITY OF MUD CAKE
RMF .OHMM     2.17                 : RMF          - RESISTIVITY OF MUD FILTRATE
SUFT.C        4.5                  : SUFT         - SURFACE TEMPERATURE
~A  DEPTH     PHID     PHIN       GR      CAL     RESD
# ...
  423.368    0.171    0.432   92.735  155.380    6.508
  423.618    0.190    0.420   91.041  154.438    6.723
  423.868    0.191    0.453   88.715  152.749    7.168
  424.118    0.181    0.441   87.400  150.313    7.827
  424.368    0.163    0.416   85.895  149.695    9.339
  424.618    0.136    0.390   82.493  149.825   11.887
  424.868    0.119    0.347   77.886  150.500   13.847
  425.118    0.125    0.314   72.900  150.843   14.305
  425.368    0.101    0.277   63.038  151.084   13.931
  425.618    0.072    0.258   47.733  151.111   12.837
  425.868    0.052    0.272   46.798  151.248   10.966
  426.118    0.073    0.362   47.509  151.167    9.420
  426.368    0.118    0.447   53.732  151.298    8.136
  426.618    0.161    0.433   58.937  150.788    7.319
  426.868    0.217    0.444   63.132  150.495    6.794
  427.118    0.230    0.479   64.733  150.519    6.317
  427.368    0.229    0.471   65.758  151.083    6.130
  427.618    0.230    0.460   67.483  151.645    6.014
  427.868    0.228    0.454   69.525  152.207    5.922
  428.118    0.233    0.473   71.631  152.877    5.875
  428.368    0.236    0.485   72.659  152.901    5.861
  428.618    0.238    0.495   70.966  152.717    5.868
  428.868    0.245    0.506   69.271  152.419    5.897
  429.118    0.214    0.516   68.529  151.589    5.959
  429.368    0.209    0.519   68.290  151.186    5.999
  429.618    0.221    0.502   67.800  151.105    6.085
  429.868    0.230    0.451   66.550  151.132    6.194
  430.118    0.240    0.480   67.010  150.836    6.236
  430.368    0.242    0.501   67.656  151.187    6.290
  430.618    0.237    0.527   68.367  151.427    6.298
  430.868    0.240    0.540   68.635  151.666    6.293
  431.118    0.244    0.527   68.653  151.262    6.325
  431.368    0.233    0.490   68.161  151.078    6.332
  431.618    0.235    0.485   67.037  150.778    6.411
  431.868    0.240    0.476   64.963  149.843    6.514
  432.118    0.241    0.466   63.460  149.765    6.818
  432.368    0.235    0.458   62.651  150.433    7.377
  432.618    0.221    0.448   61.592  150.992    8.085
  432.868    0.221    0.437   60.846  151.875    8.927
  433.118    0.227    0.429   60.356  152.228    9.412
  433.368    0.219    0.422   60.184  152.252    9.599
  433.618    0.192    0.416   60.197  152.386    9.331
  433.868    0.196    0.431   60.404  151.984    8.693
  434.118    0.213    0.493   61.305  151.578    8.220
  434.368    0.212    0.490   62.966  150.747    7.902
  434.618    0.226    0.484   65.895  149.701    7.597
  434.868    0.246    0.487   67.999  148.657    7.386
  435.118    0.236    0.479   68.459  147.825    7.166
  435.368    0.216    0.477   66.953  148.282    7.031
  435.618    0.217    0.481   66.212  149.056    7.250
  435.868    0.226    0.478   66.731  149.941    7.686
  436.118    0.244    0.464   66.812  150.722    8.225
  436.368    0.203    0.441   66.130  150.962    9.048
  436.618    0.149    0.423   64.689  151.520   10.214
  436.868    0.131    0.357   63.440  151.441   11.113
  437.118    0.143    0.379   62.757  150.824   11.587
  437.368    0.161    0.405   62.709  149.135   11.160
  437.618    0.183    0.418   64.626  148.840   10.572
  437.868    0.196    0.427   68.883  149.511    9.148
  438.118    0.201    0.460   73.204  149.753    8.666
  438.368    0.200    0.480   77.778  150.205    8.316
  438.618    0.163    0.478   80.326  150.232    8.174
  438.868    0.147    0.471   80.784  149.937    8.064
  439.118    0.178    0.461   82.003  149.964    7.985
  439.368    0.175    0.454   81.767  149.883    7.907
  439.618    0.167    0.443   82.224  150.444    7.785
  439.868    0.151    0.437   83.506  151.328    7.724
  440.118    0.152    0.428   81.558  152.749    7.704
  440.368    0.152    0.417   80.564  153.631    7.672
  440.618    0.152    0.417   81.083  154.194    7.610
  440.868    0.153    0.465   82.112  154.224    7.564
  441.118    0.159    0.480   83.268  154.247    7.517
  441.368    0.167    0.470   85.120  154.704    7.485
  441.618    0.161    0.465   87.479  155.050    7.466
  441.868    0.150    0.476   87.177  154.327    7.421
  442.118    0.134    0.474   85.609  153.603    7.361
  442.368    0.131    0.464   85.689  153.951    7.316
  442.618    0.147    0.452   86.338  154.833    7.298
  442.868    0.150    0.463   87.238  155.504    7.294
  443.118    0.177    0.480   88.456  156.174    7.235
  443.368    0.152    0.472   89.486  156.414    7.178
  443.618    0.164    0.462   90.831  156.338    7.147
  443.868    0.174    0.453   90.783  156.468    7.103
  444.118    0.181    0.459   88.899  156.173    7.046
  444.368    0.175    0.476   87.079  156.090    6.990
  444.618    0.158    0.489   86.081  155.907    6.948
  444.868    0.141    0.493   86.033  155.608    6.943
  445.118    0.135    0.496   86.112  155.421    6.977
  445.368    0.124    0.506   83.468  155.126    7.077
  445.618    0.128    0.498   83.169  155.152    7.311
  445.868    0.138    0.484   84.767  155.500    7.666
  446.118    0.153    0.458   83.958  155.099    8.112
  446.368    0.165    0.411   82.899  154.267    8.569
  446.618    0.181    0.394   84.243  153.863    8.935
  446.868    0.182    0.393   83.184  154.213    9.197
  447.118    0.172    0.396   80.666  154.451    9.209
  447.368    0.170    0.428   77.768  154.478    9.169
  447.618    0.155    0.445   75.125  154.613    8.831
  447.868    0.139    0.440   74.317  155.284    8.459
  448.118    0.169    0.437   78.449  155.735    8.132
  448.368    0.168    0.439   84.606  156.086    8.278
  448.618    0.158    0.457   89.117  156.326    8.908
  448.868    0.151    0.461   91.285  156.136   10.019
  449.118    0.149    0.444   88.958  156.162   11.351
  449.368    0.076    0.293   81.122  154.581   13.645
  449.618    0.016    0.262   75.186  153.644   15.149
  449.868    0.003    0.270   65.641  153.347   15.593
  450.118    0.096    0.300   65.087  152.624   14.078
  450.368    0.138    0.358   69.218  152.975   12.618
  450.618    0.152    0.364   74.046  153.322   11.001
  450.868    0.145    0.375   92.168  153.776   10.305
  451.118    0.143    0.390   95.984  153.801   10.167
  451.368    0.172    0.418   98.784  154.256   10.255
  451.618    0.177    0.411   97.787  154.390   10.344
  451.868    0.166    0.398   91.409  154.416   10.568
  452.118    0.175    0.384   89.146  154.228   10.799
  452.368    0.165    0.374   88.907  153.934   11.156
  452.618    0.162    0.376   88.799  153.961   11.612
  452.868    0.157    0.390   88.117  153.238   12.130
  453.118    0.155    0.401   85.725  153.153   12.672
  453.368    0.144    0.396   81.752  152.752   13.311
  453.618    0.124    0.370   78.347  152.134   13.854
  453.868    0.076    0.357   75.262  151.518   14.393
  454.118    0.112    0.363   75.150  151.228   14.761
  454.368    0.147    0.407   78.206  151.143   14.916
  454.618    0.163    0.391   77.840  151.601   14.313
  454.868    0.148    0.373   73.930  152.053   13.659
  455.118    0.097    0.353   72.363  152.296   12.963
  455.368    0.174    0.427   77.318  152.533   12.303
  455.618    0.177    0.421   82.144  153.528   11.525
  455.868    0.181    0.419   83.742  153.553   10.858
  456.118    0.167    0.419   81.795  154.330   10.191
  456.368    0.155    0.419   79.976  155.108    9.671
  456.618    0.156    0.419   80.751  155.347    8.978
  456.868    0.155    0.420   79.183  155.588    8.583
  457.118    0.143    0.421   79.138  155.941    8.086
  457.368    0.127    0.450   84.436  156.071    7.631
  457.618    0.136    0.451   86.037  156.206    7.336
  457.868    0.152    0.428   85.803  156.336    7.171
  458.118    0.144    0.420   84.807  156.041    7.220
  458.368    0.128    0.428   86.659  156.069    7.529
  458.618    0.136    0.438   89.463  155.775    7.707
  458.868    0.110    0.435   87.834  155.583    7.519
  459.118    0.129    0.432   89.117  155.503    7.176
  459.368    0.134    0.439   94.519  155.637    6.314
  459.618    0.136    0.435  100.808  155.667    5.690
