~VERSION INFORMATION
 VERS.                 2.0:   CWLS LOG ASCII STANDARD -VERSION 2.0
 WRAP.                  NO:   ONE LINE PER DEPTH STEP
~WELL INFORMATION BLOCK
#MNEM.UNIT           DATA                    DESCRIPTION OF MNEMONIC
#---------    -------------------            -------------------------------
# Generated from Intellog Unique Number	CC_84_87/WELL/1182
NULL.         -999.25                        : NULL_VALUE
WELL.         CANADIAN SUPERIOR ALGAR        : Well_name    - WELL              
LOC .         10-01-084-16W4                 : Location     - LOCATION          
UWI .         00/10-01-084-16W400            : Uwi          - UNIQUE WELL ID    
ENTR.         JHS                            : Entered      - ENTERED BY        
SRVC.         SCHLUMBERGER                   : Scn          - SERVICE COMPANY   
DATE.         25 MAR 76                      : Date         - LOG DATE
STRT.M        85.344                         : top_depth    - START DEPTH       
STOP.M        271.645                        : bot_depth    - STOP DEPTH        
STEP.M        0.3                            : increment    - STEP LENGTH       
~CURVE INFORMATION BLOCK
#MNEM UNIT       ERCB CURVE CODE    CURVE DESCRIPTION
#-----------   ------------------   ----------------------------------
DEPT.M        00 001 00 00         : DEPTH        - DEPTH                       
ILD .OHMM     00 120 00 00         : RESD         - DEEP RESISTIVITY (DIL)      
GR  .API      00 310 00 00         : GR           - GAMMA RAY                   
NPHI.V/V      00 330 00 00         : PHIN         - NEUTRON POROSITY (LIMESTONE)
DPHI.V/V      00 890 00 00         : PHID         - DENSITY POROSITY (LIMESTONE)
~PARAMETER INFORMATION       
#MNEM.UNIT           DATA             DESCRIPTION OF MNEMONIC
#---------         -----------     ------------------------------
GL  .M        527.609              : gl           - GROUND LEVEL ELEVATION      
EREF.M        531.754              : kb           - ELEVATION OF DEPTH REFERENCE
DATM.M        531.754              : datum        - DATUM ELEVATION             
TDD .M        271.272              : tdd          - TOTAL DEPTH DRILLER         
RUN .         ONE                  : Run          - RUN NUMBER                  
ENG .         BILL                 : Engineer     - RECORDING ENGINEER          
WIT .         JIM                  : Witness      - WITNESSED BY                
MUD .         GEL                  : Mud_type     - MUD TYPE                    
MATR.         LIMESTONE            : Logunit      - NEUTRON MATRIX              
TMAX.C        60                   : BHT          - MAXIMUM RECORDED TEMPERATURE
BHTD.M        271.272              : BHTDEP       - MAXIMUM RECORDED TEMPERATURE
MATR.         1                    : LOGUNIT      - NEUTRON MATRIX              
RMT .C        25                   : MDTP         - TEMPERATURE OF MUD          
NEUT.         1                    : NEUTRON      - NEUTRON TYPE                
RESI.         0                    : RESIST       - RESISTIVITY TYPE            
RMC .OHMM     0.25                 : RMC          - RESISTIVITY OF MUD CAKE     
RMF .OHMM     0.25                 : RMF          - RESISTIVITY OF MUD FILTRATE 
SUFT.C        15                   : SUFT         - SURFACE TEMPERATURE         
~A  DEPTH     RESD       GR     PHIN     PHID
   85.344    8.180   78.572    0.469    0.308
   85.644    7.891   76.195    0.438    0.328
   85.944    8.495   72.031    0.394    0.345
   86.244   10.204   63.107    0.350    0.327
   86.544   12.714   60.730    0.359    0.342
   86.844   14.993   62.520    0.378    0.372
   87.144   16.741   60.738    0.400    0.339
   87.444   18.022   56.575    0.399    0.295
   87.744   18.031   55.984    0.369    0.293
   88.044   17.395   58.368    0.379    0.348
   88.344   16.777   61.944    0.407    0.342
   88.644   15.320   64.329    0.449    0.305
   88.944   13.245   67.903    0.494    0.270
   89.244   11.242   70.883    0.445    0.290
   89.544    8.244   76.245    0.418    0.297
   89.844    5.937   81.010    0.440    0.304
   90.144    4.434   86.371    0.481    0.283
   90.444    3.833   87.565    0.491    0.303
   90.744    3.698   83.998    0.489    0.295
   91.044    3.980   80.430    0.501    0.293
   91.344    4.959   70.315    0.396    0.272
   91.644    7.283   59.009    0.350    0.318
   91.944   11.507   47.703    0.349    0.335
   92.244   15.997   40.565    0.374    0.357
   92.544   16.909   42.949    0.398    0.362
   92.844   16.313   44.739    0.407    0.329
   93.144   15.736   42.362    0.397    0.316
   93.444   15.743   38.794    0.403    0.324
   93.744   16.947   38.202    0.403    0.344
   94.044   16.957   39.992    0.387    0.335
   94.344   16.060   44.163    0.403    0.336
   94.644   14.666   47.739    0.429    0.329
   94.944   12.450   47.147    0.425    0.335
   95.244   11.162   54.888    0.411    0.297
   95.544    8.186   67.392    0.432    0.254
   95.844    6.003   77.515    0.466    0.296
   96.144    4.913   85.852    0.480    0.321
   96.444    4.094   94.785    0.532    0.315
   96.744    3.739   90.622    0.518    0.313
   97.044    3.542   92.411    0.511    0.321
   97.344    3.294   96.582    0.523    0.331
   97.644    2.954   95.396    0.550    0.310
   97.944    2.849   91.233    0.563    0.324
   98.244    2.799   92.427    0.580    0.313
   98.544    3.068   88.859    0.547    0.305
   98.844    3.893   78.744    0.451    0.297
   99.144    6.991   72.200    0.375    0.296
   99.444   11.249   70.418    0.332    0.322
   99.744   15.078   63.279    0.297    0.351
  100.044   17.146   62.093    0.350    0.379
  100.344   16.845   65.669    0.407    0.364
  100.644   17.806   70.434    0.419    0.331
  100.944   17.815   76.390    0.410    0.322
  101.244   16.570   82.941    0.419    0.326
  101.544   15.693   86.516    0.419    0.300
  101.844   14.594   88.306    0.417    0.277
  102.144   13.825   85.334    0.417    0.280
  102.444   13.833   82.361    0.410    0.298
  102.744   14.095   82.961    0.424    0.306
  103.044   14.363   84.154    0.446    0.320
  103.344   14.372   85.349    0.459    0.305
  103.644   14.118   91.900    0.425    0.313
  103.944   13.373   91.904    0.406    0.290
  104.244   12.211   88.337    0.417    0.259
  104.544   10.949   82.388    0.431    0.263
  104.844   10.000   77.035    0.434    0.260
  105.144    9.646   78.229    0.444    0.211
  105.444    9.651   77.638    0.417    0.261
  105.744    9.834   81.809    0.393    0.257
  106.044    9.662   87.169    0.413    0.244
  106.344    9.151   93.125    0.440    0.254
  106.644    8.356   99.677    0.468    0.232
  106.944    7.093  103.847    0.503    0.209
  107.244    6.020  107.423    0.493    0.229
  107.544    5.301  106.831    0.490    0.230
  107.844    4.930  104.454    0.499    0.223
  108.144    4.933  102.672    0.499    0.209
  108.444    5.120  100.295    0.520    0.213
  108.744    5.216  103.276    0.519    0.180
  109.044    5.125  108.636    0.515    0.209
  109.344    4.766  113.402    0.516    0.250
  109.644    4.352  115.192    0.538    0.276
  109.944    3.562  112.814    0.546    0.269
  110.244    3.436  108.056    0.533    0.288
  110.544    3.698   99.131    0.488    0.316
  110.844    4.779   95.564    0.439    0.313
  111.144    6.407   92.591    0.440    0.293
  111.444    7.982   87.238    0.451    0.288
  111.744    9.588   92.599    0.441    0.285
  112.044    9.248   94.984    0.445    0.273
  112.344    8.602  103.916    0.455    0.257
  112.644    8.147  103.920    0.469    0.245
  112.944    7.305   99.162    0.483    0.247
  113.244    7.176   95.594    0.498    0.241
  113.544    8.160   90.836    0.487    0.282
  113.844    9.625   86.079    0.468    0.317
  114.144   11.352   81.916    0.449    0.348
  114.444   12.909   77.157    0.434    0.352
  114.744   14.678   70.614    0.437    0.336
  115.044   16.389   60.498    0.411    0.339
  115.344   17.641   50.978    0.380    0.321
  115.644   18.649   44.435    0.390    0.317
  115.944   18.659   45.034    0.397    0.325
  116.244   18.331   45.633    0.408    0.327
  116.544   17.680   46.828    0.419    0.336
  116.844   16.747   46.831    0.422    0.343
  117.144   16.453   47.430    0.420    0.344
  117.444   16.166   49.814    0.416    0.333
  117.744   15.880   51.009    0.433    0.327
  118.044   16.185   49.823    0.448    0.321
  118.344   16.191   49.231    0.452    0.339
  118.644   17.117   49.830    0.438    0.350
  118.944   17.440   51.026    0.425    0.337
  119.244   17.770   51.623    0.415    0.343
  119.544   17.780   52.818    0.424    0.347
  119.844   18.119   55.797    0.441    0.340
  120.144   17.800   52.826    0.441    0.342
  120.444   17.487   51.044    0.432    0.350
  120.744   17.181   49.857    0.442    0.346
  121.044   17.193   49.266    0.452    0.350
  121.344   17.198   49.864    0.450    0.349
  121.644   16.898   52.250    0.428    0.350
  121.944   16.601   54.039    0.419    0.356
  122.244   16.309   55.829    0.434    0.356
  122.544   16.024   56.428    0.431    0.349
  122.844   15.741   56.431    0.438    0.341
  123.144   15.187   54.649    0.459    0.347
  123.444   15.195   55.248    0.452    0.338
  123.744   15.203   54.062    0.421    0.339
  124.044   15.491   54.065    0.412    0.333
  124.344   15.499   54.070    0.409    0.331
  124.644   15.227   52.288    0.413    0.353
  124.944   15.237   54.077    0.435    0.359
  125.244   14.432   58.843    0.438    0.364
  125.544   13.670   60.037    0.473    0.366
  125.844   12.712   58.255    0.474    0.357
  126.144   11.823   58.854    0.450    0.346
  126.444   11.616   59.453    0.432    0.360
  126.744   11.622   60.648    0.454    0.353
  127.044   11.627   58.271    0.471    0.352
  127.344   11.848   55.298    0.496    0.356
  127.644   12.525   54.111    0.483    0.346
  127.944   13.236   53.520    0.454    0.264
  128.244   15.330   51.143    0.406    0.189
  128.544   16.201   46.385    0.338    0.136
  128.844   16.814   47.579    0.416    0.194
  129.144   17.134   52.941    0.483    0.264
  129.444   17.143   57.706    0.445    0.345
  129.744   16.845   55.924    0.445    0.357
  130.044   15.954   53.547    0.438    0.347
  130.344   15.389   51.765    0.472    0.348
  130.644   14.576   52.959    0.484    0.347
  130.944   14.321   55.939    0.465    0.346
  131.244   14.071   54.158    0.423    0.344
  131.544   14.338   51.780    0.414    0.334
  131.844   14.346   52.975    0.426    0.333
  132.144   14.354   57.145    0.455    0.350
  132.444   14.101   59.530    0.485    0.352
  132.744   13.601   58.343    0.466    0.337
  133.044   12.885   56.562    0.436    0.348
  133.344   13.130   57.755    0.447    0.351
  133.644   13.625   59.545    0.440    0.360
  133.944   14.139   58.359    0.427    0.352
  134.244   13.892   58.958    0.448    0.351
  134.544   12.685   61.937    0.478    0.347
  134.844   10.572   71.465    0.471    0.333
  135.145    8.042   78.612    0.467    0.275
  135.445    7.211   76.235    0.459    0.284
  135.745    7.216   73.857    0.470    0.253
  136.045    7.352   67.909    0.460    0.300
  136.345    7.771   60.770    0.443    0.290
  136.645    8.364   59.583    0.431    0.303
  136.945    9.512   60.779    0.443    0.315
  137.245   10.620   59.591    0.447    0.320
