~VERSION INFORMATION
 VERS.                 2.0:   CWLS LOG ASCII STANDARD -VERSION 2.0
 WRAP.                  NO:   ONE LINE PER DEPTH STEP
~WELL INFORMATION BLOCK
#MNEM.UNIT           DATA                    DESCRIPTION OF MNEMONIC
#---------    -------------------            -------------------------------
# Generated from Intellog Unique Number	CW_73_75/WELL/2745
WELL.         SEA-JOR ET AL BLANCHE 11-14    : Well_name    - WELL
LOC .         00/11-14-073-02W5/0            : Location     - LOCATION
UWI .         00/11-14-073-02W5/0            : Uwi          - UNIQUE WELL ID
ENTR.         JAYE                           : Entered      - ENTERED BY
SRVC.         SCHLUMBERGER                   : Scn          - SERVICE COMPANY
DATE.         2 FEB 80                       : Date         - LOG DATE
STRT.M        385                            : top_depth    - START DEPTH
STOP.M        625                            : bot_depth    - STOP DEPTH
STEP.M        0.25                           : increment    - STEP LENGTH
 NULL. -999.2500:NULL Value
~CURVE INFORMATION BLOCK
#MNEM UNIT       ERCB CURVE CODE    CURVE DESCRIPTION
#-----------   ------------------   ----------------------------------
DEPT.M        00 001 00 00         : DEPTH        - DEPTH
DPHI.V/V      00 890 00 00         : PHID         - DENSITY POROSITY (SANDSTONE)
NPHI.V/V      00 330 00 00         : PHIN         - NEUTRON POROSITY (SANDSTONE)
GR  .API      00 310 00 00         : GR           - GAMMA RAY
CALI.MM       00 280 01 00         : CAL          - CALIPER
ILD .OHMM     00 120 00 00         : RESD         - DEEP RESISTIVITY (DIL)
~PARAMETER INFORMATION
#MNEM.UNIT           DATA             DESCRIPTION OF MNEMONIC
#---------         -----------     ------------------------------
GL  .M        602                  : gl           - GROUND LEVEL ELEVATION
EREF.M        605.2                : kb           - ELEVATION OF DEPTH REFERENCE
DATM.M        602                  : datum        - DATUM ELEVATION
TDD .M        629                  : tdd          - TOTAL DEPTH DRILLER
RUN .         ONE                  : Run          - RUN NUMBER
BASE.         EDM                  : Branch       - HOME BASE OF LOGGING UNIT
MUD .         GEL                  : Mud_type     - MUD TYPE
MATR.         SANDSTONE            : Logunit      - NEUTRON MATRIX
TMAX.C        25                   : BHT          - MAXIMUM RECORDED TEMPERATURE
BHTD.M        630                  : BHTDEP       - MAXIMUM RECORDED TEMPERATURE
RMT .C        13.3                 : MDTP         - TEMPERATURE OF MUD
MUDD.KG/M     1170                 : MWT          - MUD DENSITY
NEUT.         1                    : NEUTRON      - NEUTRON TYPE
RESI.         0                    : RESIST       - RESISTIVITY TYPE
RM  .OHMM     4.9                  : RM           - RESISTIVITY OF MUD
RMC .OHMM     0                    : RMC          - RESISTIVITY OF MUD CAKE
RMF .OHMM     5.12                 : RMF          - RESISTIVITY OF MUD FILTRATE
SUFT.C        0                    : SUFT         - SURFACE TEMPERATURE
~A  DEPTH     PHID     PHIN       GR      CAL     RESD
# ...
  531.000    0.190    0.444   75.124    0.000    4.320
  531.250    0.171    0.439   71.913    0.000    4.533
  531.500    0.199    0.409   69.821    0.000    4.782
  531.750    0.216    0.383   66.114    0.000    5.143
  532.000    0.215    0.360   60.418    0.000    5.552
  532.250    0.208    0.340   55.593    0.000    5.983
  532.500    0.148    0.313   50.333    0.000    6.325
  532.750    0.116    0.269   46.191    0.000    6.661
  533.000    0.113    0.244   50.436    0.000    6.625
  533.250    0.140    0.265   57.038    0.000    6.344
  533.500    0.175    0.313   60.227    0.000    6.051
  533.750    0.235    0.346   59.937    0.000    5.761
  534.000    0.196    0.321   58.091    0.000    5.432
  534.250    0.193    0.330   56.310    0.000    5.191
  534.500    0.209    0.358   52.541    0.000    5.028
  534.750    0.232    0.340   48.274    0.000    5.020
  535.000    0.192    0.276   48.605    0.000    5.099
  535.250    0.154    0.236   53.283    0.000    5.149
  535.500    0.130    0.339   58.893    0.000    5.035
  535.750    0.191    0.384   65.124    0.000    4.848
  536.000    0.228    0.453   65.145    0.000    4.581
  536.250    0.266    0.447   63.923    0.000    4.166
  536.500    0.264    0.443   64.997    0.000    3.620
  536.750    0.258    0.432   66.508    0.000    3.466
  537.000    0.272    0.426   66.094    0.000    3.561
  537.250    0.289    0.423   64.747    0.000    3.715
  537.500    0.274    0.421   64.331    0.000    3.766
  537.750    0.260    0.432   64.226    0.000    3.818
  538.000    0.276    0.445   64.372    0.000    3.740
  538.250    0.299    0.442   64.701    0.000    3.574
  538.500    0.295    0.429   65.466    0.000    3.429
  538.750    0.294    0.418   66.791    0.000    3.365
  539.000    0.277    0.433   68.053    0.000    3.411
  539.250    0.260    0.437   69.501    0.000    3.620
  539.500    0.241    0.419   66.042    0.000    3.842
  539.750    0.218    0.393   63.951    0.000    3.939
  540.000    0.195    0.385   65.713    0.000    3.919
  540.250    0.253    0.425   66.226    0.000    3.861
  540.500    0.288    0.418   65.999    0.000    3.804
  540.750    0.271    0.427   66.018    0.000    3.740
  541.000    0.242    0.427   66.163    0.000    3.735
  541.250    0.219    0.398   65.497    0.000    3.779
  541.500    0.207    0.381   64.960    0.000    3.831
  541.750    0.223    0.387   65.786    0.000    3.854
  542.000    0.221    0.400   66.799    0.000    3.863
  542.250    0.235    0.416   68.060    0.000    3.894
  542.500    0.243    0.412   70.628    0.000    3.933
  542.750    0.208    0.395   71.827    0.000    4.010
  543.000    0.189    0.369   67.996    0.000    4.151
  543.250    0.165    0.342   63.358    0.000    4.799
  543.500    0.124    0.273   59.898    0.000    5.230
  543.750    0.088    0.249   60.787    0.000    5.979
  544.000    0.089    0.263   63.726    0.000    6.679
  544.250    0.108    0.300   68.219    0.000    6.823
  544.500    0.129    0.341   71.841    0.000    6.422
  544.750    0.167    0.373   76.892    0.000    5.731
  545.000    0.231    0.387   80.764    0.000    4.913
  545.250    0.221    0.387   85.566    0.000    4.196
  545.500    0.200    0.388   91.175    0.000    3.838
  545.750    0.184    0.392   93.370    0.000    3.682
  546.000    0.175    0.403   91.961    0.000    3.805
  546.250    0.170    0.410   90.551    0.000    4.076
  546.500    0.163    0.407   89.329    0.000    4.375
  546.750    0.170    0.405   86.802    0.000    4.495
  547.000    0.167    0.401   84.523    0.000    4.592
  547.250    0.174    0.400   84.171    0.000    4.673
  547.500    0.161    0.396   85.498    0.000    4.701
  547.750    0.162    0.398   85.576    0.000    4.721
  548.000    0.171    0.403   85.039    0.000    4.741
  548.250    0.181    0.407   84.809    0.000    4.788
  548.500    0.167    0.401   84.269    0.000    4.799
  548.750    0.171    0.395   81.743    0.000    4.828
  549.000    0.179    0.388   80.085    0.000    4.866
  549.250    0.185    0.382   79.919    0.000    5.029
  549.500    0.184    0.373   80.807    0.000    4.992
  549.750    0.162    0.385   81.758    0.000    4.716
  550.000    0.172    0.385   83.145    0.000    4.809
  550.250    0.193    0.374   83.725    0.000    5.055
  550.500    0.172    0.360   82.875    0.000    5.541
  550.750    0.157    0.370   80.595    0.000    5.857
  551.000    0.157    0.382   77.139    0.000    6.018
  551.250    0.171    0.397   75.852    0.000    6.148
  551.500    0.173    0.403   76.369    0.000    6.209
  551.750    0.180    0.400   78.377    0.000    6.246
  552.000    0.201    0.386   80.695    0.000    6.225
  552.250    0.200    0.383   84.567    0.000    6.156
  552.500    0.195    0.390   88.374    0.000    5.872
  552.750    0.175    0.397   90.195    0.000    5.382
  553.000    0.168    0.406   87.978    0.000    5.007
  553.250    0.163    0.405   85.392    0.000    4.934
  553.500    0.176    0.396   85.968    0.000    5.059
  553.750    0.178    0.403   86.921    0.000    5.328
  554.000    0.166    0.406   85.263    0.000    5.422
  554.250    0.187    0.406   84.475    0.000    5.424
  554.500    0.187    0.398   85.303    0.000    5.468
  554.750    0.182    0.393   87.186    0.000    5.511
  555.000    0.175    0.378   89.751    0.000    5.556
  555.250    0.164    0.379   90.764    0.000    5.536
  555.500    0.158    0.383   92.090    0.000    5.475
  555.750    0.150    0.385   93.972    0.000    5.456
  556.000    0.156    0.394   97.036    0.000    5.396
  556.250    0.153    0.406   98.920    0.000    5.286
  556.500    0.161    0.420   98.628    0.000    5.188
  556.750    0.153    0.396   93.057    0.000    5.190
  557.000    0.147    0.389   91.400    0.000    5.302
  557.250    0.151    0.395   93.408    0.000    5.437
  557.500    0.153    0.396   93.430    0.000    5.596
  557.750    0.153    0.391   92.394    0.000    5.783
  558.000    0.154    0.386   93.902    0.000    5.953
  558.250    0.153    0.397   98.269    0.000    6.034
  558.500    0.165    0.411   97.916    0.000    6.037
  558.750    0.158    0.418   91.972    0.000    6.073
  559.000    0.146    0.392   88.576    0.000    6.252
  559.250    0.152    0.372   90.211    0.000    6.762
  559.500    0.139    0.360   91.350    0.000    7.231
  559.750    0.139    0.350   89.257    0.000    7.673
  560.000    0.157    0.356   86.543    0.000    8.081
  560.250    0.175    0.370   80.477    0.000    8.255
  560.500    0.195    0.362   75.217    0.000    8.305
  560.750    0.200    0.362   71.323    0.000    8.598
  561.000    0.204    0.347   67.739    0.000    9.176
  561.250    0.212    0.332   70.306    0.000    9.831
  561.500    0.203    0.319   74.301    0.000   10.453
  561.750    0.196    0.309   78.545    0.000   11.071
  562.000    0.181    0.324   80.924    0.000   11.396
  562.250    0.190    0.341   80.945    0.000   10.325
  562.500    0.188    0.341   81.524    0.000    9.249
  562.750    0.188    0.350   82.288    0.000    8.721
  563.000    0.185    0.353   81.251    0.000    8.609
  563.250    0.168    0.351   82.701    0.000    8.778
  563.500    0.149    0.343   87.257    0.000    8.899
  563.750    0.143    0.334   92.057    0.000    8.734
  564.000    0.142    0.330   97.046    0.000    8.331
  564.250    0.125    0.347  101.414    0.000    7.811
  564.500    0.113    0.357   94.166    0.000    7.565
  564.750    0.111    0.341   89.092    0.000    7.553
  565.000    0.109    0.327   85.323    0.000    7.629
  565.250    0.102    0.337   80.746    0.000    7.778
  565.500    0.090    0.332   79.835    0.000    8.067
  565.750    0.094    0.315   82.462    0.000    8.496
  566.000    0.096    0.315   84.470    0.000    8.880
  566.250    0.113    0.320   85.546    0.000    9.019
  566.500    0.127    0.332   83.889    0.000    8.937
  566.750    0.156    0.349   83.040    0.000    8.772
  567.000    0.165    0.361   84.861    0.000    8.479
  567.250    0.153    0.364   86.184    0.000    8.165
