~VERSION INFORMATION
 VERS.                 2.0:   CWLS LOG ASCII STANDARD -VERSION 2.0
 WRAP.                  NO:   ONE LINE PER DEPTH STEP
~WELL INFORMATION BLOCK
#MNEM.UNIT           DATA                    DESCRIPTION OF MNEMONIC
#---------    -------------------            -------------------------------
# Generated from Intellog Unique Number	CW_79_81/WELL/2475
WELL.         GULF AMOCO HOOLE               : Well_name    - WELL
LOC .         00/10-26-081-25W4/0            : Location     - LOCATION
UWI .         00/10-26-081-25W4/0            : Uwi          - UNIQUE WELL ID
ENTR.         MAX                            : Entered      - ENTERED BY
SRVC.         SCHLUMBERGER                   : Scn          - SERVICE COMPANY
STRT.M        195.072                        : top_depth    - START DEPTH
STOP.M        457.072                        : bot_depth    - STOP DEPTH
STEP.M        0.25                           : increment    - STEP LENGTH
 NULL. -999.2500:NULL Value
~CURVE INFORMATION BLOCK
#MNEM UNIT       ERCB CURVE CODE    CURVE DESCRIPTION
#-----------   ------------------   ----------------------------------
DEPT.M        00 001 00 00         : DEPTH        - DEPTH
ILD .OHMM     00 120 00 00         : RESD         - DEEP RESISTIVITY (DIL)
NPHI.V/V      00 330 00 00         : PHIN         - NEUTRON POROSITY (SANDSTONE)
DPHI.V/V      00 890 00 00         : PHID         - DENSITY POROSITY (SANDSTONE)
GR  .API      00 310 00 00         : GR           - GAMMA RAY
CALI.MM       00 280 01 00         : CAL          - CALIPER
~PARAMETER INFORMATION
#MNEM.UNIT           DATA             DESCRIPTION OF MNEMONIC
#---------         -----------     ------------------------------
GL  .M        579.76               : gl           - GROUND LEVEL ELEVATION
EREF.M        583.021              : kb           - ELEVATION OF DEPTH REFERENCE
DATM.M        579.76               : datum        - DATUM ELEVATION
TDD .M        466.344              : tdd          - TOTAL DEPTH DRILLER
RUN .         ONE                  : Run          - RUN NUMBER
ENG .         BILL                 : Engineer     - RECORDING ENGINEER
WIT .         JIM                  : Witness      - WITNESSED BY
MUD .         GEL                  : Mud_type     - MUD TYPE
MATR.         SANDSTONE            : Logunit      - NEUTRON MATRIX
TMAX.C        27.2222              : BHT          - MAXIMUM RECORDED TEMPERATURE
BHTD.M        466.344              : BHTDEP       - MAXIMUM RECORDED TEMPERATURE
MATR.         1                    : LOGUNIT      - NEUTRON MATRIX
RMT .C        11.1111              : MDTP         - TEMPERATURE OF MUD
NEUT.         1                    : NEUTRON      - NEUTRON TYPE
RESI.         0                    : RESIST       - RESISTIVITY TYPE
RMC .OHMM     5.73                 : RMC          - RESISTIVITY OF MUD CAKE
RMF .OHMM     5.46                 : RMF          - RESISTIVITY OF MUD FILTRATE
SUFT.C        -20.5556             : SUFT         - SURFACE TEMPERATURE
~A  DEPTH     RESD     PHIN     PHID       GR      CAL
# ...
  268.072   11.419    0.488    0.354   61.277  165.426
  268.322   11.231    0.496    0.356   62.186  165.333
  268.572   11.206    0.494    0.353   62.730  165.229
  268.822   11.269    0.495    0.348   61.919  165.143
  269.072   11.263    0.497    0.346   62.067  165.042
  269.322   11.240    0.495    0.347   62.853  165.148
  269.572   11.239    0.492    0.348   62.989  165.470
  269.822   11.293    0.500    0.343   60.054  165.793
  270.072   11.372    0.503    0.344   57.591  166.702
  270.322   11.346    0.493    0.343   58.787  166.596
  270.572   11.385    0.484    0.343   59.161  166.506
  270.822   11.447    0.481    0.345   58.630  166.413
  271.072   11.488    0.485    0.347   58.163  166.224
  271.322   11.460    0.490    0.345   60.019  165.744
  271.572   11.335    0.497    0.343   60.856  165.629
  271.822   11.224    0.502    0.347   59.058  165.523
  272.072   11.186    0.498    0.348   59.197  165.128
  272.322   11.284    0.495    0.344   59.501  164.422
  272.572   11.607    0.492    0.338   59.146  163.620
  272.822   12.274    0.482    0.330   57.888  163.149
  273.072   13.164    0.458    0.329   58.731  163.034
  273.322   14.470    0.431    0.310   58.164  162.928
  273.572   15.463    0.368    0.214   56.396  162.837
  273.822   15.897    0.303    0.141   53.712  162.749
  274.072   15.519    0.273    0.130   51.326  162.664
  274.322   14.524    0.313    0.161   51.272  162.571
  274.572   12.884    0.387    0.214   55.995  162.467
  274.822   11.648    0.442    0.244   60.435  162.361
  275.072   11.106    0.487    0.303   60.020  162.277
  275.322   11.006    0.507    0.335   58.406  162.185
  275.572   11.340    0.502    0.323   57.156  162.088
  275.822   12.081    0.495    0.301   56.633  162.004
  276.072   12.838    0.439    0.266   56.558  161.877
  276.322   13.008    0.400    0.198   58.242  161.790
  276.572   12.531    0.368    0.195   59.800  161.676
  276.822   11.754    0.389    0.236   61.311  161.588
  277.072   10.981    0.461    0.300   62.461  161.631
  277.322   10.426    0.520    0.354   62.880  161.945
  277.572    9.939    0.513    0.351   62.512  161.829
  277.822    9.844    0.518    0.354   62.710  162.165
  278.072    9.862    0.508    0.353   61.990  162.162
  278.322    9.914    0.500    0.350   61.100  162.075
  278.572    9.949    0.496    0.344   60.151  162.190
  278.822    9.938    0.483    0.336   58.646  162.964
  279.072    9.994    0.482    0.338   58.584  163.290
  279.322    9.972    0.493    0.336   58.529  163.567
  279.572    9.951    0.485    0.344   58.478  163.297
  279.822    9.933    0.484    0.348   58.669  162.817
  280.072    9.898    0.496    0.346   59.157  162.316
  280.322    9.787    0.504    0.342   59.908  161.814
  280.572    9.693    0.498    0.343   60.338  161.698
  280.822    9.606    0.495    0.339   61.019  162.039
  281.072    9.415    0.493    0.339   62.406  162.359
  281.322    9.195    0.494    0.340   63.669  162.469
  281.572    8.996    0.498    0.334   64.213  162.374
  281.822    8.808    0.508    0.317   63.968  162.255
  282.072    8.594    0.501    0.319   65.414  162.169
  282.322    8.454    0.498    0.328   65.120  162.085
  282.572    8.316    0.491    0.329   64.826  161.988
  282.822    8.181    0.490    0.327   65.013  162.098
  283.072    8.047    0.499    0.322   66.100  162.317
  283.322    7.900    0.508    0.311   68.824  162.292
  283.572    7.826    0.511    0.306   70.769  162.627
  283.822    7.753    0.515    0.319   71.912  162.941
  284.072    7.683    0.518    0.321   74.493  162.943
  284.322    7.501    0.512    0.321   76.238  163.048
  284.572    7.139    0.502    0.320   76.847  163.364
  284.822    6.330    0.497    0.310   78.184  163.922
  285.072    5.293    0.503    0.295   79.125  165.103
  285.322    4.230    0.510    0.276   80.513  167.030
  285.572    3.659    0.533    0.267   82.253  168.666
  285.822    3.357    0.559    0.273   83.875  171.413
  286.072    3.228    0.581    0.291   85.382  174.254
  286.322    3.261    0.596    0.316   87.532  173.992
  286.572    3.483    0.593    0.327   88.972  175.173
  286.822    3.787    0.578    0.321   89.157  174.288
  287.072    4.184    0.555    0.305   86.291  170.035
  287.322    4.730    0.532    0.297   83.122  166.291
  287.572    5.296    0.514    0.296   81.268  164.683
  287.822    5.364    0.498    0.284   81.219  164.581
  288.072    5.025    0.495    0.270   83.554  163.462
  288.322    4.718    0.538    0.230   86.735  162.098
  288.572    4.628    0.542    0.233   88.233  160.525
  288.822    4.619    0.529    0.249   89.142  159.617
  289.072    4.653    0.514    0.268   89.090  159.836
  289.322    4.713    0.508    0.286   86.873  160.960
  289.572    4.962    0.512    0.286   83.218  161.375
  289.822    5.297    0.537    0.290   81.160  161.259
  290.072    5.712    0.549    0.298   80.891  161.478
  290.322    6.215    0.548    0.305   79.755  161.597
  290.572    6.732    0.536    0.311   77.359  161.615
  290.822    7.173    0.526    0.319   75.159  161.938
  291.072    7.760    0.526    0.331   71.798  162.318
  291.322    8.221    0.539    0.327   72.489  162.221
  291.572    8.531    0.535    0.320   73.844  162.146
  291.822    8.608    0.526    0.317   73.550  162.257
  292.072    8.424    0.518    0.319   71.640  162.457
  292.322    8.111    0.508    0.323   70.633  162.373
  292.572    7.457    0.506    0.295   71.456  162.246
  292.822    7.008    0.529    0.286   73.651  161.737
  293.072    6.690    0.559    0.280   75.486  161.884
  293.322    6.488    0.576    0.279   76.989  162.202
  293.572    6.440    0.569    0.282   78.614  162.612
  293.822    6.567    0.550    0.283   81.685  163.340
  294.072    6.731    0.525    0.276   86.400  163.742
  294.322    6.923    0.518    0.253   87.097  163.646
  294.572    7.103    0.519    0.241   86.477  163.557
  294.822    7.296    0.524    0.231   85.228  163.465
  295.072    7.482    0.526    0.229   84.038  163.476
  295.322    7.630    0.523    0.257   83.738  163.798
  295.572    7.543    0.506    0.254   83.976  163.660
  295.822    7.413    0.503    0.244   84.668  164.005
  296.072    7.178    0.502    0.251   85.120  164.005
  296.322    6.911    0.499    0.258   85.779  163.903
  296.572    6.617    0.494    0.261   86.743  163.804
  296.822    6.156    0.492    0.262   88.291  163.885
  297.072    5.787    0.503    0.262   90.236  164.614
  297.322    5.650    0.519    0.263   86.098  164.946
  297.572    5.762    0.515    0.266   83.413  165.568
  297.822    6.067    0.516    0.270   80.849  165.886
  298.072    6.532    0.522    0.276   78.039  165.800
  298.322    7.276    0.508    0.287   74.679  165.604
  298.572    8.198    0.506    0.281   70.131  165.085
  298.822    9.100    0.501    0.327   62.883  163.360
  299.072    9.958    0.498    0.341   56.359  161.643
  299.322   10.690    0.497    0.343   50.915  159.522
  299.572   11.226    0.496    0.339   47.685  157.406
  299.822   11.528    0.494    0.327   48.870  156.670
  300.072   11.506    0.509    0.330   50.305  157.419
  300.322   11.153    0.497    0.345   51.225  159.346
  300.572   10.697    0.485    0.347   52.132  160.048
  300.822   10.262    0.486    0.343   53.390  159.347
  301.072    9.896    0.497    0.342   54.828  157.853
  301.322    9.591    0.500    0.346   56.286  157.118
  301.572    9.573    0.511    0.332   58.974  157.866
  301.822    9.621    0.524    0.329   59.398  160.199
  302.072    9.725    0.523    0.332   59.639  160.415
  302.322    9.671    0.514    0.336   60.186  159.714
  302.572    9.516    0.501    0.337   60.559  159.110
  302.822    9.660    0.482    0.327   59.293  159.244
  303.072   10.158    0.469    0.306   59.224  158.302
  303.322   10.970    0.445    0.291   57.743  161.455
  303.572   11.725    0.419    0.256   55.356  161.579
  303.822   12.183    0.392    0.214   52.067  161.081
  304.072   12.247    0.377    0.197   49.437  161.484
  304.322   12.024    0.409    0.268   51.168  163.412
