~VERSION INFORMATION
 VERS.                 2.0:   CWLS LOG ASCII STANDARD -VERSION 2.0
 WRAP.                  NO:   ONE LINE PER DEPTH STEP
~WELL INFORMATION BLOCK
#MNEM.UNIT           DATA                    DESCRIPTION OF MNEMONIC
#---------    -------------------            -------------------------------
# Generated from Intellog Unique Number	CX_WELLS/WELL/2975
WELL.         ULSTER ET AL HANGST            : Well_name    - WELL
LOC .         00/12-23-082-11W4/0            : Location     - LOCATION
UWI .         00/12-23-082-11W400            : Uwi          - UNIQUE WELL ID
ENTR.         T                              : Entered      - ENTERED BY
SRVC.         SCHLUMBERGER                   : Scn          - SERVICE COMPANY
STRT.M        270                            : top_depth    - START DEPTH
STOP.M        493                            : bot_depth    - STOP DEPTH
STEP.M        0.25                           : increment    - STEP LENGTH
 NULL. -999.2500:NULL Value
~CURVE INFORMATION BLOCK
#MNEM UNIT       ERCB CURVE CODE    CURVE DESCRIPTION
#-----------   ------------------   ----------------------------------
DEPT.M        00 001 00 00         : DEPTH        - DEPTH
GR  .API      00 310 00 00         : GR           - GAMMA RAY
NPHI.V/V      00 330 00 00         : PHIN         - NEUTRON POROSITY (SANDSTONE)
DPHI.V/V      00 890 00 00         : PHID         - DENSITY POROSITY (SANDSTONE)
ILD .OHMM     00 120 00 00         : RESD         - DEEP RESISTIVITY (OTHER)
~PARAMETER INFORMATION
#MNEM.UNIT           DATA             DESCRIPTION OF MNEMONIC
#---------         -----------     ------------------------------
GL  .M        716                  : gl           - GROUND LEVEL ELEVATION
EREF.M        721.2                : kb           - ELEVATION OF DEPTH REFERENCE
DATM.M        721.2                : datum        - DATUM ELEVATION
TDD .M        497                  : tdd          - TOTAL DEPTH DRILLER
RUN .         ONE                  : Run          - RUN NUMBER
ENG .         BILL                 : Engineer     - RECORDING ENGINEER
WIT .         JIM                  : Witness      - WITNESSED BY
MUD .         GEL                  : Mud_type     - MUD TYPE
MATR.         SANDSTONE            : Logunit      - NEUTRON MATRIX
TMAX.C        22                   : BHT          - MAXIMUM RECORDED TEMPERATURE
BHTD.M        496                  : BHTDEP       - MAXIMUM RECORDED TEMPERATURE
MATR.         1                    : LOGUNIT      - NEUTRON MATRIX
RMT .C        20                   : MDTP         - TEMPERATURE OF MUD
NEUT.         1                    : NEUTRON      - NEUTRON TYPE
RESI.         7                    : RESIST       - RESISTIVITY TYPE
RMC .OHMM     8.2                  : RMC          - RESISTIVITY OF MUD CAKE
RMF .OHMM     8.2                  : RMF          - RESISTIVITY OF MUD FILTRATE
SUFT.C        4                    : SUFT         - SURFACE TEMPERATURE
~A  DEPTH       GR     PHIN     PHID     RESD
  270.000  107.206    0.487    0.244    3.427
  270.250  107.316    0.492    0.246    3.633
  270.500  107.383    0.503    0.242    3.852
  270.750  106.870    0.513    0.231    4.084
  271.000  106.379    0.535    0.229    4.256
  271.250  107.070    0.537    0.228    4.344
  271.500  107.180    0.527    0.228    4.278
  271.750  107.225    0.505    0.224    4.208
  272.000  106.734    0.475    0.225    4.067
  272.250  106.221    0.463    0.230    4.157
  272.500  106.310    0.477    0.234    4.244
  272.750  105.819    0.491    0.235    4.413
  273.000  104.103    0.489    0.234    4.596
  273.250  102.945    0.482    0.235    4.532
  273.500   98.824    0.473    0.236    4.454
  273.750   97.732    0.467    0.236    4.305
  274.000  100.204    0.465    0.239    4.231
  274.250  100.916    0.471    0.242    4.242
  274.500  101.628    0.486    0.245    4.334
  274.750   98.688    0.496    0.251    4.681
  275.000   95.747    0.487    0.261    5.351
  275.250   87.416    0.440    0.275    6.348
  275.500   79.686    0.429    0.287    7.247
  275.750   69.529    0.419    0.320   10.553
  276.000   58.770    0.409    0.330   17.510
  276.250   58.279    0.408    0.334   20.001
  276.500   58.368    0.404    0.334   22.026
  276.750   59.058    0.407    0.332   22.922
  277.000   62.176    0.414    0.329   23.415
  277.250   65.873    0.420    0.325   23.058
  277.500   68.990    0.414    0.321   21.472
  277.750   70.237    0.409    0.315   20.332
  278.000   74.558    0.401    0.310   18.934
  278.250   78.255    0.393    0.298   17.952
  278.500   83.155    0.385    0.290   16.717
  278.750   88.077    0.386    0.283   15.840
  279.000   89.970    0.391    0.275   15.310
  279.250   90.660    0.399    0.272   14.770
  279.500   88.343    0.414    0.271   14.545
  279.750   82.395    0.423    0.271   14.304
  280.000   74.666    0.435    0.274   14.351
  280.250   68.740    0.442    0.285   15.502
  280.500   64.040    0.418    0.335   16.735
  280.750   62.903    0.413    0.377   19.128
  281.000   62.391    0.437    0.459   21.475
  281.250   63.682    0.577    0.428   22.334
  281.500   67.379    0.531    0.398   22.799
  281.750   71.076    0.479    0.346   23.773
  282.000   74.773    0.403    0.345   24.268
  282.250   73.080    0.395    0.343   24.316
  282.500   72.567    0.408    0.341   23.070
  282.750   81.677    0.431    0.338   20.289
  283.000  101.032    0.438    0.298   14.005
  283.250  106.578    0.411    0.251   12.565
  283.500  101.811    0.396    0.178   12.366
  283.750   91.074    0.365    0.211   12.623
  284.000   83.323    0.346    0.223   13.154
  284.250   76.818    0.344    0.237   13.428
  284.500   73.899    0.359    0.232   13.965
  284.750   72.184    0.371    0.229   15.678
  285.000   68.062    0.363    0.234   16.936
  285.250   63.919    0.355    0.242   18.294
  285.500   61.001    0.348    0.254   19.383
  285.750   58.082    0.348    0.263   21.776
  286.000   61.156    0.347    0.270   21.804
  286.250   72.092    0.347    0.243   21.904
  286.500   83.028    0.352    0.215   21.131
  286.750   88.529    0.360    0.191   19.652
  287.000   92.872    0.370    0.184   16.976
  287.250   93.562    0.377    0.185   14.118
  287.500   94.831    0.377    0.186   12.904
  287.750   93.116    0.370    0.188   12.947
  288.000   88.994    0.368    0.217   13.465
  288.250   83.648    0.374    0.234   14.276
  288.500   70.506    0.379    0.268   15.146
  288.750   63.957    0.381    0.275   16.361
  289.000   59.836    0.388    0.276   17.673
  289.250   59.323    0.391    0.271   19.462
  289.500   60.013    0.388    0.264   21.009
  289.750   55.290    0.385    0.255   22.275
  290.000   51.770    0.385    0.263   23.182
  290.250   47.649    0.381    0.275   24.141
  290.500   45.310    0.370    0.286   23.757
  290.750   45.398    0.370    0.291   23.380
  291.000   49.118    0.369    0.288   22.584
  291.250   54.619    0.367    0.281   21.031
  291.500   61.947    0.367    0.251   18.856
  291.750   68.673    0.373    0.239   17.525
  292.000   83.195    0.375    0.217   14.315
  292.250   81.480    0.377    0.201   12.145
  292.500   80.967    0.372    0.226   12.169
  292.750   75.041    0.369    0.239   12.447
  293.000   70.898    0.365    0.253   12.463
  293.250   71.031    0.362    0.257   12.979
  293.500   70.518    0.358    0.259   13.013
  293.750   70.005    0.358    0.263   13.551
  294.000   70.718    0.363    0.260   13.578
  294.250   71.363    0.378    0.254   13.870
  294.500   70.850    0.389    0.254   14.177
  294.750   68.533    0.394    0.259   14.754
  295.000   64.390    0.401    0.263   15.071
  295.250   58.465    0.396    0.273   15.674
  295.500   53.140    0.386    0.295   17.597
  295.750   46.614    0.375    0.310   18.995
  296.000   41.869    0.345    0.321   21.298
  296.250   36.545    0.344    0.316   23.454
  296.500   31.243    0.343    0.316   23.957
  296.750   33.737    0.352    0.313   24.036
  297.000   37.412    0.359    0.303   24.099
  297.250   51.355    0.353    0.293   23.279
  297.500   65.900    0.358    0.285   22.486
  297.750   84.654    0.372    0.269   20.940
  298.000   94.409    0.387    0.255   19.475
  298.250   93.919    0.406    0.240   17.139
  298.500   93.985    0.413    0.230   15.063
  298.750  104.298    0.424    0.209   12.077
  299.000  112.205    0.433    0.166    9.865
  299.250  114.699    0.456    0.155    8.521
  299.500  112.983    0.461    0.144    7.365
  299.750  111.268    0.473    0.131    6.974
  300.000  110.755    0.478    0.121    6.253
  300.250  116.880    0.480    0.119    5.819
  300.500  118.171    0.482    0.124    5.316
  300.750  118.260    0.491    0.140    4.950
  301.000  118.371    0.505    0.176    4.690
  301.250  117.858    0.514    0.184    4.368
  301.500  117.946    0.528    0.191    4.216
  301.750  118.035    0.534    0.207    4.149
  302.000  119.326    0.509    0.222    3.937
  302.250  120.618    0.498    0.235    3.944
  302.500  121.308    0.474    0.254    3.882
  302.750  118.367    0.444    0.260    4.520
  303.000  113.645    0.415    0.270    5.994
  303.250  104.712    0.404    0.278    7.805
  303.500  100.569    0.398    0.289    9.428
  303.750   95.846    0.399    0.290   10.578
  304.000   97.739    0.407    0.279   12.083
  304.250   97.828    0.415    0.263   13.052
  304.500   93.127    0.412    0.263   14.108
  304.750   90.186    0.408    0.268   14.136
  305.000   86.667    0.403    0.273   13.673
  305.250   87.357    0.395    0.281   12.946
  305.500   89.851    0.392    0.284   11.826
  305.750   94.171    0.388    0.271    9.841
  306.000   99.071    0.389    0.249    8.039
  306.250  103.971    0.399    0.209    7.770
  306.500  107.668    0.433    0.168    8.551
  306.750  111.989    0.442    0.111    9.237
  307.000  110.295    0.423    0.125   10.166
  307.250  107.355    0.396    0.149   11.187
  307.500  102.009    0.397    0.177   12.092
  307.750  100.917    0.399    0.223   13.071
  308.000   99.201    0.402    0.245   13.612
  308.250   96.260    0.407    0.252   13.895
  308.500   90.936    0.408    0.268   13.922
  308.750   86.236    0.410    0.279   14.231
  309.000   86.325    0.413    0.277   14.527
  309.250   88.819    0.412    0.272   14.565
  309.500   91.291    0.399    0.261   14.078
  309.750   96.213    0.394    0.246   13.348
  310.000  101.113    0.392    0.249   12.193
  310.250  104.810    0.390    0.247   11.553
  310.500  101.290    0.387    0.220   10.953
  310.750   88.125    0.386    0.186   10.982
  311.000   76.186    0.387    0.167   11.863
  311.250   70.840    0.396    0.143   13.072
  311.500   67.342    0.407    0.150   12.627
  311.750   68.611    0.420    0.175   12.419
  312.000   71.707    0.424    0.200   11.790
  312.250   77.252    0.418    0.230   11.374
  312.500   80.348    0.415    0.274   10.592
  312.750   82.241    0.415    0.276    9.857
  313.000   87.119    0.415    0.268    9.339
  313.250   94.446    0.416    0.255    8.385
