~VERSION INFORMATION
 VERS.                 2.0:   CWLS LOG ASCII STANDARD -VERSION 2.0
 WRAP.                  NO:   ONE LINE PER DEPTH STEP
~WELL INFORMATION BLOCK
#MNEM.UNIT           DATA                    DESCRIPTION OF MNEMONIC
#---------    -------------------            -------------------------------
# Generated from Intellog Unique Number	CS_69_70/WELL/881
WELL.         HUSKEY OIL OPERATION           : Well_name    - WELL
LOC .         00/10-34-069-05W4/0            : Location     - LOCATION
UWI .         00/10-34-069-05W4/0            : Uwi          - UNIQUE WELL ID
ENTR.         SP                             : Entered      - ENTERED BY
SRVC.         SCHLUMBERGER                   : Scn          - SERVICE COMPANY
STRT.M        300                            : top_depth    - START DEPTH
STOP.M        550                            : bot_depth    - STOP DEPTH
STEP.M        0.25                           : increment    - STEP LENGTH
 NULL. -999.2500:NULL Value
~CURVE INFORMATION BLOCK
#MNEM UNIT       ERCB CURVE CODE    CURVE DESCRIPTION
#-----------   ------------------   ----------------------------------
DEPT.M        00 001 00 00         : DEPTH        - DEPTH
ILD .OHMM     00 120 00 00         : RESD         - DEEP RESISTIVITY (DIL)
DPHI.V/V      00 890 00 00         : PHID         - DENSITY POROSITY (LIMESTONE)
NPHI.V/V      00 330 00 00         : PHIN         - NEUTRON POROSITY (LIMESTONE)
GR  .API      00 310 00 00         : GR           - GAMMA RAY
~PARAMETER INFORMATION
#MNEM.UNIT           DATA             DESCRIPTION OF MNEMONIC
#---------         -----------     ------------------------------
GL  .M        673.5                : gl           - GROUND LEVEL ELEVATION
EREF.M        677.2                : kb           - ELEVATION OF DEPTH REFERENCE
DATM.M        673.5                : datum        - DATUM ELEVATION
TDD .M        558                  : tdd          - TOTAL DEPTH DRILLER
RUN .         ONE                  : Run          - RUN NUMBER
ENG .         BILL                 : Engineer     - RECORDING ENGINEER
WIT .         JIM                  : Witness      - WITNESSED BY
MUD .         GEL                  : Mud_type     - MUD TYPE
MATR.         LIMESTONE            : Logunit      - NEUTRON MATRIX
TMAX.C        22                   : BHT          - MAXIMUM RECORDED TEMPERATURE
BHTD.M        558                  : BHTDEP       - MAXIMUM RECORDED TEMPERATURE
MATR.         1                    : LOGUNIT      - NEUTRON MATRIX
RMT .C        25                   : MDTP         - TEMPERATURE OF MUD
NEUT.         1                    : NEUTRON      - NEUTRON TYPE
RESI.         0                    : RESIST       - RESISTIVITY TYPE
RMC .OHMM     0.25                 : RMC          - RESISTIVITY OF MUD CAKE
RMF .OHMM     0.25                 : RMF          - RESISTIVITY OF MUD FILTRATE
SUFT.C        15                   : SUFT         - SURFACE TEMPERATURE
~A  DEPTH     RESD     PHID     PHIN       GR
# ...
  343.500    7.072    0.264    0.403   85.358
  343.750    6.632    0.253    0.413   83.051
  344.000    6.326    0.277    0.420   81.592
  344.250    5.899    0.283    0.427   87.770
  344.500    5.563    0.282    0.426   95.645
  344.750    5.532    0.283    0.438  100.126
  345.000    5.638    0.291    0.447   98.607
  345.250    5.800    0.274    0.451   97.754
  345.500    5.911    0.248    0.455  100.962
  345.750    5.934    0.240    0.471  102.715
  346.000    5.945    0.258    0.484  101.560
  346.250    6.048    0.259    0.481   96.526
  346.500    6.293    0.250    0.482   91.673
  346.750    6.586    0.244    0.498   89.851
  347.000    6.853    0.237    0.505   91.544
  347.250    7.050    0.248    0.486   93.540
  347.500    7.172    0.272    0.469   93.172
  347.750    7.392    0.250    0.466   90.805
  348.000    7.491    0.210    0.468   92.315
  348.250    7.491    0.214    0.461   91.887
  348.500    7.379    0.243    0.475   88.308
  348.750    7.079    0.254    0.496   87.697
  349.000    6.702    0.260    0.471   93.087
  349.250    6.564    0.256    0.457   98.356
  349.500    6.527    0.250    0.452  102.110
  349.750    6.677    0.263    0.460   96.772
  350.000    6.896    0.278    0.467   93.981
  350.250    7.108    0.289    0.462   91.976
  350.500    7.481    0.285    0.452   91.488
  350.750    7.784    0.283    0.443   92.089
  351.000    8.177    0.286    0.435   90.752
  351.250    8.524    0.289    0.429   90.021
  351.500    8.720    0.287    0.427   92.805
  351.750    8.721    0.282    0.425   94.134
  352.000    8.607    0.274    0.412   90.493
  352.250    8.414    0.268    0.401   94.610
  352.500    8.041    0.258    0.394   97.758
  352.750    7.846    0.249    0.398  100.239
  353.000    7.743    0.242    0.409   99.084
  353.250    7.700    0.254    0.420   91.625
  353.500    7.686    0.249    0.431   95.742
  353.750    7.715    0.240    0.447   99.677
  354.000    7.774    0.240    0.444  102.098
  354.250    7.834    0.251    0.439   93.003
  354.500    7.834    0.253    0.453   88.696
  354.750    7.879    0.254    0.462   91.782
  355.000    7.939    0.256    0.466   93.839
  355.250    8.091    0.267    0.483   82.381
  355.500    8.309    0.282    0.476   68.255
  355.750    8.484    0.293    0.463   63.463
  356.000    8.662    0.302    0.450   63.944
  356.250    8.811    0.311    0.437   64.243
  356.500    8.862    0.314    0.436   61.330
  356.750    8.762    0.318    0.437   49.993
  357.000    8.550    0.325    0.403   44.837
  357.250    8.359    0.333    0.385   49.015
  357.500    8.125    0.339    0.397   52.708
  357.750    8.049    0.347    0.406   42.825
  358.000    7.944    0.352    0.417   40.094
  358.250    7.840    0.356    0.414   42.453
  358.500    7.737    0.356    0.422   45.721
  358.750    7.664    0.361    0.425   47.960
  359.000    7.622    0.367    0.415   49.956
  359.250    7.665    0.366    0.408   51.468
  359.500    7.768    0.359    0.412   55.464
  359.750    7.827    0.356    0.412   59.156
  360.000    7.872    0.355    0.424   61.516
  360.250    7.932    0.351    0.430   52.724
  360.500    7.948    0.349    0.420   54.174
  360.750    7.963    0.344    0.432   56.534
  361.000    7.933    0.339    0.435   53.439
  361.250    7.934    0.343    0.421   48.405
  361.500    7.845    0.354    0.407   50.644
  361.750    7.830    0.343    0.402   54.518
  362.000    7.816    0.336    0.413   57.726
  362.250    7.831    0.331    0.428   59.541
  362.500    7.846    0.332    0.438   61.718
  362.750    7.891    0.329    0.436   67.350
  363.000    7.921    0.320    0.416   73.528
  363.250    7.937    0.297    0.411   80.433
  363.500    7.892    0.285    0.445   79.581
  363.750    7.863    0.309    0.456   74.425
  364.000    7.878    0.338    0.444   70.967
  364.250    7.893    0.330    0.437   75.872
  364.500    7.939    0.325    0.440   78.837
  364.750    7.939    0.324    0.440   77.864
  365.000    7.939    0.315    0.440   79.556
  365.250    7.940    0.310    0.447   81.795
  365.500    7.762    0.305    0.441   83.851
  365.750    7.574    0.301    0.437   84.999
  366.000    7.432    0.295    0.443   85.904
  366.250    7.419    0.292    0.450   84.203
  366.500    7.419    0.303    0.479   68.744
  366.750    7.447    0.318    0.479   60.861
  367.000    7.490    0.325    0.441   55.524
  367.250    7.505    0.328    0.410   56.732
  367.500    7.491    0.328    0.418   60.546
  367.750    7.435    0.327    0.432   62.785
  368.000    7.119    0.326    0.432   60.781
  368.250    6.404    0.326    0.431   61.504
  368.500    6.120    0.319    0.426   66.652
  368.750    6.120    0.311    0.436   70.466
  369.000    6.417    0.312    0.454   70.582
  369.250    6.843    0.319    0.470   70.458
  369.500    7.175    0.315    0.479   63.726
  369.750    7.396    0.305    0.476   56.995
  370.000    7.538    0.295    0.448   50.324
  370.250    7.624    0.307    0.415   45.956
  370.500    7.667    0.333    0.396   44.074
  370.750    7.755    0.340    0.395   42.979
  371.000    7.829    0.335    0.403   42.429
  371.250    7.845    0.332    0.395   43.819
  371.500    7.786    0.331    0.385   44.664
  371.750    7.713    0.337    0.379   44.357
  372.000    7.612    0.339    0.382   43.141
  372.250    7.540    0.336    0.389   41.378
  372.500    7.512    0.332    0.393   40.648
  372.750    7.513    0.331    0.381   41.129
  373.000    7.556    0.331    0.376   42.882
  373.250    7.585    0.340    0.369   44.211
  373.500    7.628    0.346    0.376   43.480
  373.750    7.629    0.350    0.379   42.688
  374.000    7.586    0.351    0.377   44.563
  374.250    7.586    0.348    0.375   47.225
  374.500    7.572    0.344    0.381   48.676
  374.750    7.516    0.340    0.365   48.854
  375.000    7.516    0.342    0.356   48.607
  375.250    7.502    0.338    0.362   48.603
  375.500    7.488    0.328    0.377   48.539
  375.750    7.489    0.320    0.390   48.534
  376.000    7.475    0.318    0.396   48.894
  376.250    7.461    0.320    0.386   49.678
  376.500    7.462    0.323    0.387   50.462
  376.750    7.490    0.328    0.390   48.518
  377.000    7.519    0.338    0.391   48.999
  377.250    7.591    0.341    0.391   50.450
  377.500    7.634    0.337    0.394   50.324
  377.750    7.693    0.337    0.396   48.927
  378.000    7.796    0.341    0.388   47.892
  378.250    7.885    0.343    0.372   52.554
  378.500    8.066    0.340    0.363   56.611
  378.750    9.491    0.338    0.381   60.365
  379.000   10.917    0.347    0.417   57.755
  379.250   12.919    0.324    0.440   52.720
  379.500   14.444    0.163    0.452   49.504
  379.750   15.521    0.127    0.372   45.319
  380.000   12.277    0.109    0.238   48.526
  380.250   10.357    0.138    0.283   50.219
  380.500    8.954    0.172    0.288   48.094
  380.750    7.844    0.176    0.268   46.939
  381.000    7.342    0.145    0.292   48.814
  381.250    7.070    0.305    0.335   50.809
  381.500    7.057    0.331    0.383   52.380
  381.750    7.084    0.327    0.423   53.165
  382.000    7.098    0.330    0.421   53.464
  382.250    7.098    0.347    0.432   53.823
  382.500    7.098    0.357    0.443   53.940
  382.750    7.112    0.355    0.443   53.634
  383.000    7.153    0.355    0.444   52.356
  383.250    7.221    0.356    0.447   50.959
  383.500    7.318    0.349    0.445   49.440
  383.750    7.402    0.341    0.438   49.314
  384.000    7.515    0.342    0.433   48.340
  384.250    7.601    0.348    0.427   47.003
  384.500    8.261    0.342    0.422   44.939
  384.750    9.962    0.341    0.423   49.420
  385.000   11.923    0.108    0.417   52.688
  385.250   14.136    0.067    0.415   53.775
  385.500   16.823    0.043    0.426   49.225
  385.750   18.988    0.020    0.218   45.706
  386.000   20.059    0.010    0.151   43.217
  386.250   20.559    0.010    0.126   43.456
  386.500   20.874    0.007    0.113   46.361
  386.750   20.757    0.004    0.107   48.296
