~VERSION INFORMATION
 VERS.                 2.0:   CWLS LOG ASCII STANDARD -VERSION 2.0
 WRAP.                  NO:   ONE LINE PER DEPTH STEP
~WELL INFORMATION BLOCK
#MNEM.UNIT           DATA                    DESCRIPTION OF MNEMONIC
#---------    -------------------            -------------------------------
# Generated from Intellog Unique Number	CS_73_76/WELL/2207
WELL.         HOUSTON OILS LIMITED           : Well_name    - WELL
LOC .         00/11-36-074-15W4/0            : Location     - LOCATION
UWI .         00/11-36-074-15W4/0            : Uwi          - UNIQUE WELL ID
ENTR.         SP                             : Entered      - ENTERED BY
SRVC.         SCHLUMBERGER                   : Scn          - SERVICE COMPANY
STRT.M        390.144                        : top_depth    - START DEPTH
STOP.M        606.394                        : bot_depth    - STOP DEPTH
STEP.M        0.25                           : increment    - STEP LENGTH
 NULL. -999.2500:NULL Value
~CURVE INFORMATION BLOCK
#MNEM UNIT       ERCB CURVE CODE    CURVE DESCRIPTION
#-----------   ------------------   ----------------------------------
DEPT.M        00 001 00 00         : DEPTH        - DEPTH
GR  .API      00 310 00 00         : GR           - GAMMA RAY
DPHI.V/V      00 890 00 00         : PHID         - DENSITY POROSITY (SANDSTONE)
NPHI.V/V      00 330 00 00         : PHIN         - NEUTRON POROSITY (SANDSTONE)
ILD .OHMM     00 120 00 00         : RESD         - DEEP RESISTIVITY (DIL)
~PARAMETER INFORMATION
#MNEM.UNIT           DATA             DESCRIPTION OF MNEMONIC
#---------         -----------     ------------------------------
GL  .M        748.589              : gl           - GROUND LEVEL ELEVATION
EREF.M        751.637              : kb           - ELEVATION OF DEPTH REFERENCE
DATM.M        748.589              : datum        - DATUM ELEVATION
TDD .M        608.99               : tdd          - TOTAL DEPTH DRILLER
RUN .         ONE                  : Run          - RUN NUMBER
ENG .         BILL                 : Engineer     - RECORDING ENGINEER
WIT .         JIM                  : Witness      - WITNESSED BY
MUD .         GEL                  : Mud_type     - MUD TYPE
MATR.         SANDSTONE            : Logunit      - NEUTRON MATRIX
TMAX.C        6.66667              : BHT          - MAXIMUM RECORDED TEMPERATURE
BHTD.M        608.99               : BHTDEP       - MAXIMUM RECORDED TEMPERATURE
MATR.         1                    : LOGUNIT      - NEUTRON MATRIX
RMT .C        25                   : MDTP         - TEMPERATURE OF MUD
NEUT.         1                    : NEUTRON      - NEUTRON TYPE
RESI.         0                    : RESIST       - RESISTIVITY TYPE
RMC .OHMM     0.25                 : RMC          - RESISTIVITY OF MUD CAKE
RMF .OHMM     0.25                 : RMF          - RESISTIVITY OF MUD FILTRATE
SUFT.C        15                   : SUFT         - SURFACE TEMPERATURE
~A  DEPTH       GR     PHID     PHIN     RESD
# ...
  433.644   91.936    0.253    0.521    5.945
  433.894   90.629    0.238    0.538    5.931
  434.144   93.242    0.228    0.530    5.852
  434.394   94.091    0.222    0.537    5.616
  434.644   99.519    0.223    0.547    5.210
  434.894  103.132    0.208    0.558    4.917
  435.144  104.071    0.208    0.539    4.554
  435.394  100.326    0.203    0.549    4.576
  435.644   99.265    0.232    0.554    4.616
  435.894   99.076    0.249    0.549    4.782
  436.144   94.568    0.277    0.489    5.158
  436.394   86.511    0.299    0.487    5.629
  436.644   77.732    0.313    0.499    6.156
  436.894   73.907    0.314    0.519    6.649
  437.144   71.672    0.303    0.534    6.788
  437.394   73.516    0.298    0.538    5.868
  437.644   79.265    0.288    0.509    4.939
  437.894   84.185    0.285    0.531    4.126
  438.144   86.092    0.321    0.558    3.664
  438.394   79.248    0.334    0.570    3.335
  438.644   74.630    0.347    0.593    3.197
  438.894   71.813    0.346    0.611    3.136
  439.144   72.569    0.339    0.557    3.568
  439.394   74.879    0.327    0.515    4.362
  439.644   73.867    0.322    0.524    5.906
  439.894   72.254    0.313    0.538    7.750
  440.144   69.888    0.307    0.517    9.149
  440.394   67.884    0.304    0.506   10.518
  440.644   68.265    0.318    0.496   11.553
  440.894   72.354    0.317    0.510   12.167
  441.144   72.305    0.316    0.517   11.792
  441.394   68.511    0.317    0.530   11.427
  441.644   64.867    0.318    0.537   11.306
  441.894   62.826    0.317    0.522   10.853
  442.144   61.718    0.319    0.532   10.622
  442.394   62.962    0.325    0.531   10.486
  442.644   60.673    0.332    0.518   10.280
  442.894   59.828    0.337    0.522   10.080
  443.144   59.760    0.339    0.523    9.936
  443.394   60.995    0.334    0.537    9.833
  443.644   62.351    0.330    0.515    9.711
  443.894   63.402    0.326    0.503    9.705
  444.144   63.599    0.323    0.503    9.700
  444.394   62.396    0.321    0.486    9.696
  444.644   61.362    0.322    0.477    9.689
  444.894   61.070    0.323    0.478    9.685
  445.144   60.580    0.325    0.473    9.678
  445.394   60.723    0.325    0.470    9.584
  445.644   63.105    0.328    0.538    9.497
  445.894   63.058    0.330    0.570    9.507
  446.144   61.270    0.330    0.572    9.318
  446.394   59.364    0.332    0.545    9.151
  446.644   58.467    0.333    0.532    9.500
  446.894   57.945    0.335    0.519    9.478
  447.144   60.064    0.334    0.499    9.468
  447.394   62.474    0.331    0.503    9.656
  447.644   63.779    0.329    0.511    9.681
  447.894   64.336    0.323    0.498    9.801
  448.144   60.962    0.314    0.493   10.006
  448.394   61.645    0.310    0.499   10.015
  448.644   63.536    0.322    0.489   10.009
  448.894   65.934    0.328    0.477    9.688
  449.144   66.070    0.332    0.493    9.610
  449.394   65.764    0.329    0.515    9.458
  449.644   65.060    0.322    0.508    9.440
  449.894   67.945    0.315    0.495    9.240
  450.144   70.132    0.309    0.487    9.138
  450.394   72.066    0.302    0.486    8.886
  450.644   75.483    0.294    0.485    8.900
  450.894   86.940    0.284    0.482    8.735
  451.144   95.626    0.278    0.471    8.552
  451.394  100.278    0.282    0.501    8.562
  451.644  101.627    0.283    0.568    8.477
  451.894   90.751    0.283    0.554    8.408
  452.144   80.970    0.283    0.521    8.266
  452.394   75.160    0.287    0.507    8.246
  452.644   72.009    0.294    0.500    8.243
  452.894   69.642    0.293    0.509    8.509
  453.144   67.768    0.287    0.522    8.522
  453.394   66.186    0.285    0.512    8.690
  453.644   65.566    0.282    0.526    8.840
  453.894   66.653    0.278    0.536    9.066
  454.144   65.821    0.281    0.539    9.162
  454.394   61.845    0.289    0.526    9.452
  454.644   61.116    0.292    0.509    9.527
  454.894   63.728    0.288    0.508    9.663
  455.144   65.907    0.283    0.515    9.940
  455.394   68.881    0.288    0.523   10.245
  455.644   71.854    0.295    0.518   10.899
  455.894   73.734    0.302    0.522   11.235
  456.144   73.998    0.305    0.517   11.819
  456.394   73.012    0.297    0.545   11.992
  456.644   72.049    0.293    0.563   12.248
  456.894   71.077    0.291    0.563   12.218
  457.144   72.054    0.288    0.533   12.217
  457.394   74.926    0.293    0.514   12.254
  457.644   71.957    0.301    0.492   12.428
  457.894   68.618    0.305    0.491   12.421
  458.144   66.214    0.311    0.512   12.412
  458.394   65.706    0.313    0.559   12.405
  458.644   66.790    0.313    0.584   12.394
  458.894   69.432    0.312    0.600   12.378
  459.144   68.655    0.311    0.612   12.143
  459.394   64.389    0.311    0.602   12.070
  459.644   61.599    0.316    0.575   11.926
  459.894   58.961    0.310    0.557   11.682
  460.144   55.212    0.300    0.564   11.639
  460.394   53.941    0.293    0.551   11.485
  460.644   52.945    0.292    0.532   11.120
  460.894   52.892    0.299    0.507   11.022
  461.144   55.535    0.305    0.470   10.859
  461.394   56.633    0.308    0.466   10.626
  461.644   56.864    0.314    0.483   10.636
  461.894   55.822    0.317    0.502   10.800
  462.144   55.756    0.317    0.518   10.824
  462.394   55.742    0.317    0.517   10.824
  462.644   54.308    0.312    0.525   10.803
  462.894   53.242    0.310    0.531   11.089
  463.144   51.627    0.307    0.523   11.416
  463.394   50.717    0.302    0.522   11.757
  463.644   48.939    0.293    0.423   12.108
  463.894   49.744    0.281    0.387   12.484
  464.144   50.776    0.261    0.348   12.505
  464.394   51.854    0.244    0.400   12.220
  464.644   53.364    0.258    0.467   11.644
  464.894   54.333    0.291    0.529   11.510
  465.144   55.313    0.309    0.545   11.407
  465.394   56.283    0.312    0.535   11.983
  465.644   57.128    0.314    0.530   11.981
  465.894   56.426    0.319    0.537   12.223
  466.144   54.620    0.317    0.545   12.214
  466.394   56.925    0.309    0.551   12.269
  466.644   59.353    0.303    0.556   12.427
  466.894   62.928    0.289    0.557   12.420
  467.144   65.704    0.282    0.536   12.414
  467.394   65.523    0.270    0.514   12.403
  467.644   68.289    0.259    0.502   12.284
  467.894   74.030    0.249    0.515   12.171
  468.144   75.604    0.268    0.518   12.181
  468.394   75.818    0.288    0.524   11.913
  468.644   79.355    0.295    0.535   11.929
  468.894   83.447    0.298    0.535   11.924
  469.144   87.089    0.294    0.563   11.922
  469.394   88.707    0.291    0.581   11.911
  469.644   86.021    0.281    0.560   12.141
  469.894   77.768    0.299    0.541   12.109
  470.144   67.122    0.301    0.531   12.321
  470.394   60.476    0.298    0.533   12.193
  470.644   56.933    0.302    0.525   12.078
  470.894   56.577    0.308    0.520   11.692
  471.144   57.689    0.312    0.534   11.343
  471.394   60.366    0.305    0.555   11.006
  471.644   62.379    0.300    0.583   10.513
  471.894   62.554    0.297    0.582   10.096
  472.144   62.587    0.294    0.530    9.678
  472.394   61.584    0.302    0.475    9.388
  472.644   60.469    0.308    0.462    9.142
  472.894   59.058    0.311    0.470    9.152
  473.144   59.209    0.318    0.482    9.147
  473.394   62.498    0.323    0.472    9.142
  473.644   63.286    0.318    0.462    9.137
  473.894   62.408    0.325    0.471    9.127
  474.144   60.795    0.314    0.482    9.107
  474.394   60.873    0.317    0.475    8.947
  474.644   62.238    0.319    0.481    8.877
  474.894   68.315    0.324    0.493    8.778
  475.144   72.070    0.327    0.496    8.628
  475.394   69.044    0.325    0.507    8.443
  475.644   66.264    0.320    0.514    8.456
  475.894   63.211    0.325    0.515    8.469
  476.144   62.879    0.330    0.501    8.280
  476.394   63.883    0.335    0.483    8.292
  476.644   65.207    0.338    0.478    8.286
  476.894   66.446    0.336    0.492    8.273
