~VERSION INFORMATION
 VERS.                 2.0:   CWLS LOG ASCII STANDARD -VERSION 2.0
 WRAP.                  NO:   ONE LINE PER DEPTH STEP
~WELL INFORMATION BLOCK
#MNEM.UNIT           DATA                    DESCRIPTION OF MNEMONIC
#---------    -------------------            -------------------------------
# Generated from Intellog Unique Number	CS_69_70/WELL/869
WELL.         BOW VALLEY EXPLORATION         : Well_name    - WELL
LOC .         00/10-18-069-13W4/0            : Location     - LOCATION
UWI .         00/10-18-069-13W4/0            : Uwi          - UNIQUE WELL ID
ENTR.         SP                             : Entered      - ENTERED BY
SRVC.         SCHLUMBERGER                   : Scn          - SERVICE COMPANY
STRT.M        243.840                        : top_depth    - START DEPTH
STOP.M        441.590                        : bot_depth    - STOP DEPTH
STEP.M        0.25                           : increment    - STEP LENGTH
 NULL. -999.2500:NULL Value
~CURVE INFORMATION BLOCK
#MNEM UNIT       ERCB CURVE CODE    CURVE DESCRIPTION
#-----------   ------------------   ----------------------------------
DEPT.M        00 001 00 00         : DEPTH        - DEPTH
GR  .API      00 310 00 00         : GR           - GAMMA RAY
DPHI.V/V      00 890 00 00         : PHID         - DENSITY POROSITY (SANDSTONE)
NPHI.V/V      00 330 00 00         : PHIN         - NEUTRON POROSITY (SANDSTONE)
ILD .OHMM     00 120 00 00         : RESD         - DEEP RESISTIVITY (DIL)
~PARAMETER INFORMATION
#MNEM.UNIT           DATA             DESCRIPTION OF MNEMONIC
#---------         -----------     ------------------------------
GL  .M        547.421              : gl           - GROUND LEVEL ELEVATION
EREF.M        550.469              : kb           - ELEVATION OF DEPTH REFERENCE
DATM.M        547.421              : datum        - DATUM ELEVATION
TDD .M        445.008              : tdd          - TOTAL DEPTH DRILLER
RUN .         ONE                  : Run          - RUN NUMBER
ENG .         BILL                 : Engineer     - RECORDING ENGINEER
WIT .         JIM                  : Witness      - WITNESSED BY
MUD .         GEL                  : Mud_type     - MUD TYPE
MATR.         SANDSTONE            : Logunit      - NEUTRON MATRIX
TMAX.C        25                   : BHT          - MAXIMUM RECORDED TEMPERATURE
BHTD.M        441.96               : BHTDEP       - MAXIMUM RECORDED TEMPERATURE
MATR.         1                    : LOGUNIT      - NEUTRON MATRIX
RMT .C        25                   : MDTP         - TEMPERATURE OF MUD
NEUT.         1                    : NEUTRON      - NEUTRON TYPE
RESI.         0                    : RESIST       - RESISTIVITY TYPE
RMC .OHMM     0.25                 : RMC          - RESISTIVITY OF MUD CAKE
RMF .OHMM     0.25                 : RMF          - RESISTIVITY OF MUD FILTRATE
SUFT.C        15                   : SUFT         - SURFACE TEMPERATURE
~A  DEPTH       GR     PHID     PHIN     RESD
# ...
  374.340   79.865    0.301    0.433    2.837
  374.590   81.876    0.294    0.433    2.959
  374.840   84.926    0.286    0.428    3.044
  375.090   89.324    0.293    0.422    3.142
  375.340   94.153    0.291    0.415    3.214
  375.590   97.333    0.280    0.410    3.240
  375.840  100.340    0.261    0.423    3.266
  376.090  102.618    0.243    0.447    3.284
  376.340  104.037    0.246    0.468    3.291
  376.590  104.003    0.255    0.473    3.319
  376.840  102.987    0.261    0.452    3.363
  377.090  100.018    0.267    0.437    3.415
  377.340   96.007    0.278    0.448    3.430
  377.590   92.364    0.291    0.461    3.430
  377.840   90.385    0.283    0.474    3.414
  378.090   91.969    0.263    0.466    3.369
  378.340   98.967    0.277    0.452    3.258
  378.590  104.315    0.254    0.442    3.130
  378.840  109.223    0.225    0.446    3.013
  379.090  112.641    0.226    0.465    2.911
  379.340  113.830    0.246    0.476    2.839
  379.590  110.173    0.256    0.473    2.779
  379.840  110.245    0.253    0.474    2.739
  380.090  113.084    0.252    0.480    2.687
  380.340  113.049    0.251    0.489    2.630
  380.590  112.077    0.237    0.489    2.566
  380.840  111.537    0.234    0.478    2.484
  381.090  112.507    0.246    0.469    2.392
  381.340  114.862    0.253    0.480    2.325
  381.590  117.020    0.257    0.494    2.295
  381.840  119.651    0.261    0.491    2.331
  382.090  119.688    0.262    0.493    2.405
  382.340  115.123    0.248    0.500    2.494
  382.590  112.811    0.247    0.485    2.641
  382.840  110.164    0.239    0.470    2.788
  383.090  113.474    0.229    0.453    2.967
  383.340  109.719    0.224    0.452    3.146
  383.590  105.415    0.225    0.465    3.270
  383.840  100.871    0.225    0.472    3.380
  384.090   97.695    0.227    0.442    3.537
  384.340   95.167    0.238    0.413    3.777
  384.590   92.597    0.245    0.398    4.048
  384.840   94.227    0.233    0.385    4.247
  385.090   96.230    0.202    0.372    4.419
  385.340   87.171    0.152    0.358    4.592
  385.590   86.150    0.127    0.339    4.715
  385.840   89.832    0.221    0.356    4.697
  386.090   92.464    0.236    0.372    4.446
  386.340   95.688    0.251    0.396    4.303
  386.590   97.795    0.229    0.416    4.351
  386.840   96.337    0.211    0.433    4.625
  387.090   90.823    0.222    0.436    5.267
  387.340   86.766    0.170    0.432    5.717
  387.590   82.925    0.140    0.332    6.064
  387.840   82.704    0.119    0.319    6.380
  388.090   87.706    0.139    0.356    5.950
  388.340   95.730    0.187    0.389    5.314
  388.590   99.189    0.202    0.414    4.621
  388.840  100.522    0.206    0.417    4.499
  389.090   99.073    0.204    0.409    4.633
  389.340   98.405    0.188    0.410    4.780
  389.590   97.551    0.185    0.405    4.890
  389.840   97.545    0.168    0.392    4.973
  390.090   98.697    0.143    0.380    4.834
  390.340  101.150    0.138    0.380    4.595
  390.590  102.539    0.161    0.391    4.395
  390.840  103.012    0.180    0.403    4.306
  391.090  102.449    0.191    0.412    4.239
  391.340  104.064    0.200    0.408    4.190
  391.590  106.433    0.208    0.399    4.151
  391.840  108.387    0.211    0.398    4.211
  392.090  109.761    0.212    0.395    4.263
  392.340  110.052    0.212    0.391    4.368
  392.590  109.065    0.211    0.388    4.415
  392.840  108.743    0.209    0.386    4.456
  393.090  108.848    0.211    0.385    4.488
  393.340  106.243    0.202    0.386    4.503
  393.590  103.119    0.193    0.392    4.562
  393.840  101.179    0.189    0.402    4.580
  394.090  102.530    0.188    0.408    4.604
  394.340  104.461    0.193    0.415    4.625
  394.590  106.927    0.207    0.415    4.635
  394.840  109.842    0.207    0.405    4.634
  395.090  110.286    0.200    0.404    4.680
  395.340  108.925    0.193    0.400    4.704
  395.590  106.745    0.194    0.391    4.731
  395.840  107.906    0.193    0.379    4.796
  396.090  110.690    0.195    0.370    4.870
  396.340  114.543    0.197    0.364    4.919
  396.590  115.694    0.200    0.361    4.963
  396.840  113.908    0.200    0.360    4.907
  397.090  110.837    0.200    0.358    4.701
  397.340  107.626    0.194    0.357    4.218
  397.590  106.567    0.187    0.358    3.607
  397.840  106.525    0.181    0.373    3.257
  398.090  107.527    0.177    0.386    2.980
  398.340  108.180    0.214    0.397    2.670
  398.590  107.609    0.225    0.420    2.459
  398.840  106.031    0.235    0.458    2.296
  399.090  106.522    0.224    0.468    2.195
  399.340  109.177    0.215    0.471    2.207
  399.590  109.836    0.202    0.474    2.334
  399.840  106.605    0.197    0.478    2.387
  400.090  101.797    0.209    0.478    2.435
  400.340   96.542    0.217    0.416    2.658
  400.590   93.094    0.229    0.394    3.400
  400.840   92.334    0.224    0.390    4.456
  401.090   90.430    0.203    0.387    5.328
  401.340   86.157    0.178    0.374    5.901
  401.590   78.271    0.119    0.348    6.169
  401.840   78.313    0.080    0.272    6.266
  402.090   83.267    0.104    0.282    6.268
  402.340   86.451    0.131    0.301    6.262
  402.590   88.141    0.155    0.366    6.105
  402.840   75.937    0.151    0.331    5.753
  403.090   79.362    0.079    0.295    5.253
  403.340   88.960    0.070    0.266    4.686
  403.590   97.156    0.106    0.300    4.394
  403.840  101.859    0.137    0.339    4.220
  404.090  104.478    0.160    0.391    4.111
  404.340  105.446    0.179    0.383    4.025
  404.590  108.237    0.177    0.381    3.969
  404.840  109.758    0.176    0.386    3.968
  405.090  107.776    0.185    0.392    3.972
  405.340  104.931    0.190    0.388    3.942
  405.590  105.575    0.192    0.384    3.835
  405.840  107.305    0.193    0.398    3.689
  406.090  109.053    0.182    0.411    3.530
  406.340  110.773    0.178    0.427    3.329
  406.590  113.157    0.176    0.444    3.159
  406.840  114.817    0.192    0.457    3.068
  407.090  116.294    0.178    0.469    3.016
  407.340  112.562    0.164    0.465    2.942
  407.590  115.767    0.155    0.454    2.890
  407.840  119.302    0.173    0.460    2.833
  408.090  120.485    0.202    0.468    2.811
  408.340  118.297    0.216    0.454    2.874
  408.590  119.225    0.207    0.448    2.941
  408.840  120.717    0.201    0.452    3.092
  409.090  121.137    0.194    0.466    3.171
  409.340  119.788    0.182    0.468    3.260
  409.590  114.551    0.174    0.445    3.267
  409.840  109.162    0.162    0.416    3.075
  410.090  114.492    0.150    0.422    2.856
  410.340  121.851    0.177    0.449    2.687
  410.590  125.832    0.201    0.471    2.816
  410.840  121.327    0.195    0.482    3.397
  411.090  108.862    0.190    0.475    4.318
  411.340   98.870    0.187    0.438    5.571
  411.590   86.248    0.185    0.363    6.890
  411.840   80.556    0.193    0.311    7.981
  412.090   76.323    0.193    0.283    8.980
  412.340   71.150    0.168    0.259    9.815
  412.590   71.169    0.138    0.242   10.178
  412.840   74.851    0.140    0.222    9.569
  413.090   78.871    0.222    0.247    8.359
  413.340   79.138    0.258    0.274    7.048
  413.590   82.199    0.258    0.297    6.123
  413.840   88.862    0.218    0.311    5.616
  414.090   91.416    0.184    0.326    5.905
  414.340   90.621    0.185    0.341    7.456
  414.590   83.297    0.215    0.343    9.473
  414.840   75.409    0.242    0.294   11.178
  415.090   65.986    0.262    0.271   12.560
  415.340   58.719    0.289    0.246   13.607
  415.590   55.914    0.187    0.251   13.092
  415.840   58.505    0.119    0.261   11.401
  416.090   65.441    0.085    0.274    9.415
  416.340   70.410    0.090    0.282    8.331
  416.590   69.704    0.088    0.283    7.507
  416.840   75.496    0.071    0.281    6.800
  417.090   82.372    0.096    0.307    6.147
  417.340   88.180    0.154    0.325    5.750
  417.590   87.907    0.183    0.337    5.448
