~VERSION INFORMATION
 VERS.                 2.0:   CWLS LOG ASCII STANDARD -VERSION 2.0
 WRAP.                  NO:   ONE LINE PER DEPTH STEP
~WELL INFORMATION BLOCK
#MNEM.UNIT           DATA                    DESCRIPTION OF MNEMONIC
#---------    -------------------            -------------------------------
# Generated from Intellog Unique Number	CW_70_72/WELL/1057
NULL.         -999.25                        : NULL_VALUE
WELL.         MIKAS AMOCO CALLING LAKE 11-12 : Well_name    - WELL              
LOC .         11-12-072-20W4                 : Location     - LOCATION          
UWI .         00/11-12-072-20W4/0            : Uwi          - UNIQUE WELL ID    
ENTR.         JAYE                           : Entered      - ENTERED BY        
SRVC.         SCHLUMBERGER                   : Scn          - SERVICE COMPANY   
DATE.         24 FEB 73                      : Date         - LOG DATE          
STRT.M        316.992                        : top_depth    - START DEPTH       
STOP.M        518.242                        : bot_depth    - STOP DEPTH        
STEP.M        0.25                           : increment    - STEP LENGTH       
~CURVE INFORMATION BLOCK
#MNEM UNIT       ERCB CURVE CODE    CURVE DESCRIPTION
#-----------   ------------------   ----------------------------------
DEPT.M        00 001 00 00         : DEPTH        - DEPTH                       
DPHI.V/V      00 890 00 00         : PHID         - DENSITY POROSITY (SANDSTONE)
NPHI.V/V      00 330 00 00         : PHIN         - NEUTRON POROSITY (SANDSTONE)
GR  .API      00 310 00 00         : GR           - GAMMA RAY                   
CALI.MM       00 280 01 00         : CAL          - CALIPER                     
ILD .OHMM     00 120 00 00         : RESD         - DEEP RESISTIVITY (DLL)      
~PARAMETER INFORMATION       
#MNEM.UNIT           DATA             DESCRIPTION OF MNEMONIC
#---------         -----------     ------------------------------
GL  .M        594.055              : gl           - GROUND LEVEL ELEVATION      
EREF.M        597.408              : kb           - ELEVATION OF DEPTH REFERENCE
DATM.M        594.055              : datum        - DATUM ELEVATION             
TDD .M        542.544              : tdd          - TOTAL DEPTH DRILLER         
RUN .         ONE                  : Run          - RUN NUMBER                  
ENG .         LYE                  : Engineer     - RECORDING ENGINEER          
WIT .         COVENEY/BOUPLAND     : Witness      - WITNESSED BY                
BASE.         R.D.                 : Branch       - HOME BASE OF LOGGING UNIT   
MUD .         GEL CHEM             : Mud_type     - MUD TYPE                    
MATR.         SANDSTONE            : Logunit      - NEUTRON MATRIX              
TMAX.C        28.8889              : BHT          - MAXIMUM RECORDED TEMPERATURE
BHTD.M        542.239              : BHTDEP       - MAXIMUM RECORDED TEMPERATURE
RMT .C        18.8889              : MDTP         - TEMPERATURE OF MUD          
MUDD.KG/M     1104                 : MWT          - MUD DENSITY                 
NEUT.         1                    : NEUTRON      - NEUTRON TYPE                
RESI.         1                    : RESIST       - RESISTIVITY TYPE            
RM  .OHMM     4.29                 : RM           - RESISTIVITY OF MUD          
RMC .OHMM     0                    : RMC          - RESISTIVITY OF MUD CAKE     
RMF .OHMM     5.03                 : RMF          - RESISTIVITY OF MUD FILTRATE 
SUFT.C        -17.7778             : SUFT         - SURFACE TEMPERATURE         
~A  DEPTH     PHID     PHIN       GR      CAL     RESD
# ...
  426.492    0.245    0.469   76.571  163.787    4.008
  426.742    0.236    0.445   80.626  165.789    3.899
  426.992    0.214    0.501   83.882  170.997    3.704
  427.242    0.212    0.547   88.056  174.345    3.489
  427.492    0.237    0.572   93.209  176.344    3.303
  427.742    0.223    0.555   94.332  177.628    3.175
  427.992    0.225    0.533   93.803  178.385    3.068
  428.242    0.236    0.550   95.536  178.113    2.909
  428.492    0.248    0.582   98.244  176.079    2.703
  428.742    0.260    0.592  101.076  170.118    2.432
  428.992    0.267    0.591  102.441  162.915    2.362
  429.242    0.239    0.567  102.340  162.643    2.439
  429.492    0.231    0.552   99.675  165.783    2.664
  429.742    0.217    0.550  101.835  172.129    3.000
  429.992    0.203    0.521  100.634  173.302    3.373
  430.242    0.235    0.488   97.421  170.238    3.728
  430.492    0.222    0.464   93.166  167.588    4.100
  430.742    0.222    0.494   94.534  168.766    4.284
  430.992    0.216    0.520   98.950  170.661    4.254
  431.242    0.232    0.511   98.363  172.659    4.231
  431.492    0.206    0.512   93.192  179.627    4.215
  431.742    0.228    0.498   89.000  173.665    4.235
  431.992    0.227    0.475   86.641  165.950    4.285
  432.242    0.194    0.446   88.375  164.123    4.365
  432.492    0.207    0.447   89.556  164.056    4.432
  432.742    0.210    0.469   89.334  164.507    4.453
  432.992    0.211    0.460   88.193  164.862    4.490
  433.242    0.200    0.448   86.384  165.302    4.520
  433.492    0.190    0.462   86.039  165.754    4.525
  433.742    0.206    0.479   87.588  166.518    4.562
  433.992    0.211    0.474   89.441  166.663    4.600
  434.242    0.202    0.457   89.464  166.904    4.622
  434.492    0.215    0.437   89.243  166.939    4.612
  434.742    0.224    0.466   87.309  166.879    4.588
  434.992    0.227    0.472   86.110  166.917    4.564
  435.242    0.189    0.464   90.161  166.954    4.546
  435.492    0.187    0.490   88.229  166.787    4.538
  435.742    0.198    0.487   86.422  166.603    4.560
  435.992    0.200    0.466   88.029  166.033    4.590
  436.242    0.199    0.456   90.738  165.648    4.596
  436.492    0.222    0.467   94.119  165.169    4.579
  436.742    0.227    0.465   97.866  164.592    4.546
  436.992    0.198    0.458   97.340  164.415    4.507
  437.242    0.216    0.446   94.917  164.654    4.483
  437.492    0.213    0.435   93.108  164.690    4.442
  437.742    0.193    0.439   91.907  164.836    4.396
  437.992    0.188    0.458   90.342  164.979    4.358
  438.242    0.203    0.462   89.079  164.905    4.312
  438.492    0.209    0.458   85.256  164.631    4.275
  438.742    0.205    0.469   82.283  163.846    4.238
  438.992    0.197    0.461   85.541  163.472    4.214
  439.242    0.197    0.464   83.549  163.190    4.135
  439.492    0.213    0.455   79.905  162.714    4.050
  439.742    0.239    0.458   78.707  162.230    3.974
  439.992    0.262    0.467   78.055  161.751    3.840
  440.242    0.277    0.461   73.376  160.753    3.755
  440.492    0.272    0.459   68.511  158.728    3.653
  440.742    0.275    0.465   64.747  156.797    3.536
  440.992    0.287    0.459   60.677  155.796    3.399
  441.242    0.304    0.452   58.194  155.012    3.212
  441.492    0.314    0.463   55.163  155.045    3.057
  441.742    0.312    0.458   52.129  156.015    2.933
  441.992    0.306    0.441   50.991  157.292    2.858
  442.242    0.307    0.437   52.051  159.089    2.977
  442.492    0.309    0.446   56.715  160.160    3.153
  442.742    0.298    0.457   60.767  160.819    3.473
  442.992    0.279    0.411   64.698  160.850    3.932
  443.242    0.232    0.389   68.446  161.003    4.451
  443.492    0.235    0.395   70.910  161.029    4.845
  443.742    0.278    0.443   67.389  161.280    4.705
  443.992    0.288    0.468   67.411  161.728    4.500
  444.242    0.278    0.478   69.390  162.074    4.210
  444.492    0.269    0.473   71.364  162.110    4.014
  444.742    0.291    0.473   75.722  162.039    3.951
  444.992    0.293    0.486   71.838  162.185    3.863
  445.242    0.277    0.475   68.682  162.328    3.784
  445.492    0.275    0.473   65.283  162.051    3.751
  445.742    0.271    0.504   66.651  161.985    3.712
  445.992    0.276    0.512   68.442  161.610    3.698
  446.242    0.279    0.497   68.525  161.341    3.659
  446.492    0.266    0.480   67.571  161.269    3.640
  446.742    0.274    0.468   66.799  161.310    3.632
  446.992    0.283    0.486   67.246  161.237    3.619
  447.242    0.279    0.520   67.636  161.686    3.612
  447.492    0.270    0.489   66.374  161.832    3.600
  447.742    0.273    0.465   64.015  161.656    3.610
  447.992    0.281    0.478   65.075  160.146    3.615
  448.242    0.265    0.485   66.624  158.941    3.608
  448.492    0.259    0.495   66.706  157.737    3.613
  448.742    0.255    0.508   66.299  157.979    3.600
  448.992    0.259    0.492   64.306  158.428    3.580
  449.242    0.265    0.476   61.945  159.195    3.597
  449.492    0.263    0.460   60.381  160.159    3.627
  449.742    0.250    0.431   61.806  161.027    3.745
  449.992    0.233    0.400   60.668  161.576    3.981
  450.242    0.210    0.379   57.698  162.026    4.303
  450.492    0.186    0.358   57.108  162.688    5.083
  450.742    0.167    0.337   59.328  163.345    6.181
  450.992    0.156    0.313   60.267  163.910    7.388
  451.242    0.144    0.304   60.960  164.460    7.604
  451.492    0.159    0.350   63.367  165.327    7.460
  451.742    0.189    0.371   62.164  165.568    6.931
  451.992    0.210    0.371   60.904  165.805    6.517
  452.242    0.180    0.355   63.430  165.425    6.056
  452.492    0.173    0.368   67.484  165.054    5.374
  452.742    0.191    0.452   72.271  164.985    4.919
  452.992    0.232    0.484   72.107  165.022    4.616
  453.242    0.253    0.477   70.113  164.959    4.167
  453.492    0.266    0.465   72.151  164.786    3.899
  453.742    0.284    0.455   73.885  164.301    3.760
  453.992    0.268    0.447   74.149  163.517    3.627
  454.242    0.258    0.441   74.112  162.726    3.499
  454.492    0.259    0.442   74.194  162.551    3.445
  454.742    0.264    0.449   73.848  162.387    3.443
  454.992    0.258    0.460   73.381  162.626    3.478
  455.242    0.252    0.472   72.854  162.978    3.530
  455.492    0.243    0.478   72.081  163.423    3.778
  455.742    0.245    0.457   70.639  164.191    4.212
  455.992    0.213    0.435   69.743  164.842    4.639
  456.242    0.159    0.413   70.438  165.296    5.015
  456.492    0.147    0.392   74.489  166.159    5.031
  456.742    0.164    0.398   80.315  167.124    4.573
  456.992    0.181    0.447   85.527  169.542    4.135
  457.242    0.196    0.521   92.145  175.475    3.706
  457.492    0.212    0.527   99.130  177.992    3.363
  457.742    0.204    0.536   98.846  178.344    3.157
  457.992    0.202    0.546   96.302  178.896    3.029
  458.242    0.213    0.583   94.187  180.793    2.933
  458.492    0.201    0.574   94.270  181.762    2.912
  458.742    0.191    0.556  100.094  181.281    2.951
  458.992    0.183    0.535   95.659  182.044    3.120
  459.242    0.156    0.548   91.038  180.216    3.300
  459.492    0.103    0.602   85.563  174.668    3.484
  459.742    0.054    0.464   85.828  166.845    3.560
  459.992    0.113    0.483   92.507  175.371    3.676
  460.242    0.147    0.514   97.599  177.783    3.796
  460.492    0.190    0.500   94.018  178.542    4.007
  460.742    0.182    0.507   90.070  177.441    4.230
  460.992    0.159    0.498   86.916  166.307    4.481
  461.242    0.128    0.476   87.001  166.968    4.636
  461.492    0.154    0.487   90.439  169.379    4.626
  461.742    0.186    0.475   96.753  175.003    4.531
  461.992    0.174    0.470  101.357  170.799    4.386
  462.242    0.176    0.480  102.170  172.285    4.195
  462.492    0.184    0.497   98.712  172.424    4.032
  462.742    0.169    0.513   92.690  171.325    3.983
