~VERSION INFORMATION
 VERS.                 2.0:   CWLS LOG ASCII STANDARD -VERSION 2.0
 WRAP.                  NO:   ONE LINE PER DEPTH STEP
~WELL INFORMATION BLOCK
#MNEM.UNIT           DATA                    DESCRIPTION OF MNEMONIC
#---------    -------------------            -------------------------------
# Generated from Intellog Unique Number	CX_WELLS/WELL/4035
WELL.         PACIFIC AMADOU                 : Well_name    - WELL
LOC .         00/10-06-076-20W4/0            : Location     - LOCATION
UWI .         00/10-06-076-20W4/0            : Uwi          - UNIQUE WELL ID
ENTR.         T                              : Entered      - ENTERED BY
SRVC.         SCHLUMBERGER                   : Scn          - SERVICE COMPANY
STRT.F        1000                           : top_depth    - START DEPTH
STOP.F        1749.67                        : bot_depth    - STOP DEPTH
STEP.F        0.82                           : increment    - STEP LENGTH
 NULL. -999.2500:NULL Value
~CURVE INFORMATION BLOCK
#MNEM UNIT       ERCB CURVE CODE    CURVE DESCRIPTION
#-----------   ------------------   ----------------------------------
DEPT.F        00 001 00 00         : DEPTH        - DEPTH
GR  .API      00 310 00 00         : GR           - GAMMA RAY
NPHI.V/V      00 330 00 00         : PHIN         - NEUTRON POROSITY (SANDSTONE)
DPHI.V/V      00 890 00 00         : PHID         - DENSITY POROSITY (SANDSTONE)
ILD .OHMM     00 120 00 00         : RESD         - DEEP RESISTIVITY (DIL)
~PARAMETER INFORMATION
#MNEM.UNIT           DATA             DESCRIPTION OF MNEMONIC
#---------         -----------     ------------------------------
GL  .F        2101.6               : gl           - GROUND LEVEL ELEVATION
EREF.F        2109.8               : kb           - ELEVATION OF DEPTH REFERENCE
DATM.F        2109.8               : datum        - DATUM ELEVATION
TDD .F        1942                 : tdd          - TOTAL DEPTH DRILLER
RUN .         ONE                  : Run          - RUN NUMBER
ENG .         BILL                 : Engineer     - RECORDING ENGINEER
WIT .         JIM                  : Witness      - WITNESSED BY
MUD .         GEL                  : Mud_type     - MUD TYPE
MATR.         SANDSTONE            : Logunit      - NEUTRON MATRIX
TMAX.F        76                   : BHT          - MAXIMUM RECORDED TEMPERATURE
BHTD.F        1947                 : BHTDEP       - MAXIMUM RECORDED TEMPERATURE
MATR.         1                    : LOGUNIT      - NEUTRON MATRIX
RMT .F        77                   : MDTP         - TEMPERATURE OF MUD
NEUT.         1                    : NEUTRON      - NEUTRON TYPE
RESI.         4.42                 : RESIST       - RESISTIVITY TYPE
RMC .OHMM     4.3                  : RMC          - RESISTIVITY OF MUD CAKE
RMF .OHMM     3                    : RMF          - RESISTIVITY OF MUD FILTRATE
SUFT.F        39.2                 : SUFT         - SURFACE TEMPERATURE
~A  DEPTH       GR     PHIN     PHID     RESD
# ...
 1285.430   78.414    0.482    0.281    5.858
 1286.250   76.689    0.488    0.284    6.070
 1287.070   76.123    0.496    0.292    6.289
 1287.890   76.136    0.508    0.301    6.401
 1288.710   76.153    0.514    0.305    6.516
 1289.530   75.584    0.517    0.305    6.514
 1290.350   74.445    0.517    0.304    6.395
 1291.170   73.297    0.517    0.296    6.507
 1291.990   70.993    0.509    0.288    6.624
 1292.810   66.371    0.484    0.274    7.245
 1293.640   61.750    0.479    0.260    7.784
 1294.460   58.287    0.473    0.256    8.515
 1295.280   58.304    0.494    0.266    9.656
 1296.100   58.897    0.516    0.300   10.375
 1296.920   58.910    0.522    0.311   10.559
 1297.740   58.348    0.526    0.312    9.999
 1298.560   57.202    0.527    0.312    9.133
 1299.380   56.057    0.527    0.313    8.648
 1300.200   54.915    0.526    0.312    8.338
 1301.020   54.343    0.525    0.308    8.041
 1301.840   53.783    0.523    0.306    7.613
 1302.660   53.793    0.520    0.303    7.080
 1303.480   54.386    0.519    0.303    6.827
 1304.300   55.562    0.519    0.303    6.583
 1305.120   56.151    0.520    0.303    6.347
 1305.940   56.744    0.521    0.304    5.903
 1306.760   57.340    0.522    0.307    5.692
 1307.580   57.350    0.522    0.309    5.389
 1308.400   57.367    0.522    0.310    5.196
 1309.220   56.801    0.524    0.309    5.010
 1310.040   55.655    0.526    0.303    4.919
 1310.860   55.669    0.522    0.301    4.829
 1311.680   55.682    0.520    0.303    4.656
 1312.500   56.275    0.517    0.303    4.571
 1313.320   55.133    0.520    0.303    4.406
 1314.140   53.988    0.526    0.309    4.405
 1314.960   54.008    0.529    0.314    4.324
 1315.780   55.759    0.530    0.318    4.323
 1316.600   56.346    0.529    0.316    4.321
 1317.420   56.362    0.529    0.314    4.319
 1318.240   55.793    0.525    0.311    4.318
 1319.060   55.227    0.523    0.312    4.394
 1319.880   55.240    0.519    0.312    4.392
 1320.700   55.257    0.518    0.311    4.391
 1321.520   56.429    0.518    0.306    4.389
 1322.340   57.601    0.518    0.301    4.387
 1323.160   58.774    0.513    0.297    4.385
 1323.980   59.373    0.512    0.295    4.464
 1324.800   59.383    0.506    0.292    4.461
 1325.620   59.393    0.499    0.288    4.460
 1326.440   59.410    0.493    0.287    4.457
 1327.260   59.423    0.499    0.292    4.456
 1328.080   60.016    0.505    0.295    4.454
 1328.900   60.609    0.504    0.290    4.452
 1329.720   61.208    0.498    0.281    4.450
 1330.540   61.798    0.487    0.284    4.529
 1331.360   62.387    0.492    0.290    4.527
 1332.190   62.987    0.495    0.292    4.526
 1333.010   64.155    0.495    0.287    4.524
 1333.830   66.493    0.488    0.274    4.522
 1334.650   67.662    0.477    0.262    4.520
 1335.470   69.993    0.467    0.263    4.517
 1336.290   72.899    0.465    0.260    4.516
 1337.110   82.186    0.463    0.258    4.515
 1337.930   86.255    0.455    0.223    4.513
 1338.750   89.744    0.452    0.215    4.511
 1339.570   92.082    0.441    0.221    4.509
 1340.390   92.668    0.434    0.226    4.507
 1341.210   94.419    0.435    0.227    4.505
 1342.030   96.181    0.436    0.224    4.504
 1342.850   96.187    0.436    0.223    4.501
 1343.670   95.621    0.436    0.225    4.500
 1344.490   95.062    0.437    0.225    4.416
 1345.310   94.490    0.438    0.225    4.416
 1346.130   93.927    0.441    0.224    4.414
 1346.950   93.937    0.444    0.223    4.333
 1347.770   93.381    0.452    0.223    4.332
 1348.590   93.391    0.459    0.223    4.329
 1349.410   93.405    0.450    0.224    4.328
 1350.230   93.415    0.440    0.225    4.326
 1351.050   93.428    0.431    0.220    4.324
 1351.870   92.283    0.428    0.216    4.402
 1352.690   89.403    0.430    0.224    4.560
 1353.510   85.940    0.460    0.268    4.727
 1354.330   81.319    0.487    0.280    4.987
 1355.150   74.959    0.506    0.301    5.168
 1355.970   65.124    0.524    0.314    5.354
 1356.790   64.558    0.532    0.321    5.353
 1357.610   63.992    0.527    0.312    5.449
 1358.430   63.426    0.515    0.303    5.544
 1359.250   64.598    0.517    0.304    5.543
 1360.070   64.612    0.521    0.306    5.541
 1360.890   66.373    0.518    0.300    5.538
 1361.710   67.538    0.494    0.288    5.536
 1362.530   75.083    0.472    0.255    5.435
 1363.350   80.890    0.433    0.219    5.054
 1364.170   86.118    0.428    0.201    4.534
 1364.990   87.869    0.452    0.230    4.372
 1365.810   86.155    0.475    0.252    4.215
 1366.630   83.847    0.482    0.271    4.214
 1367.450   80.964    0.489    0.285    4.367
 1368.270   78.077    0.487    0.258    4.691
 1369.090   72.301    0.473    0.230    4.950
 1369.910   69.417    0.451    0.208    5.318
 1370.730   66.534    0.434    0.149    5.818
 1371.560   63.071    0.387    0.109    6.480
 1372.380   60.185    0.293    0.082    7.619
 1373.200   61.939    0.293    0.109   12.390
 1374.020   69.484    0.295    0.137   14.309
 1374.840   72.395    0.301    0.203   13.308
 1375.660   74.725    0.328    0.244   11.514
 1376.480   77.636    0.377    0.266   10.709
 1377.300   81.132    0.426    0.265    9.435
 1378.120   83.459    0.459    0.258    8.465
 1378.940   85.793    0.454    0.246    7.194
 1379.760   88.124    0.449    0.246    6.812
 1380.580   90.452    0.448    0.242    6.222
 1381.400   91.624    0.445    0.235    5.581
 1382.220   89.320    0.441    0.229    5.007
 1383.040   87.023    0.436    0.227    5.189
 1383.860   87.036    0.435    0.227    5.675
 1384.680   88.208    0.434    0.227    5.777
 1385.500   90.539    0.431    0.224    5.880
 1386.320   93.446    0.429    0.222    6.093
 1387.140   94.618    0.428    0.209    6.201
 1387.960   94.055    0.428    0.206    6.199
 1388.780   93.489    0.425    0.203    6.309
 1389.600   92.923    0.418    0.195    6.307
 1390.420   92.937    0.412    0.195    6.304
 1391.240   93.533    0.411    0.195    6.302
 1392.060   94.705    0.411    0.195    6.185
 1392.880   94.719    0.410    0.191    5.752
 1393.700   94.728    0.405    0.188    5.547
 1394.520   94.166    0.400    0.183    5.349
 1395.340   93.024    0.406    0.194    5.065
 1396.160   91.299    0.417    0.210    4.543
 1396.980   88.413    0.425    0.218    4.149
 1397.800   83.791    0.430    0.225    3.930
 1398.620   80.332    0.436    0.225    3.858
 1399.440   82.087    0.443    0.226    3.926
 1400.260   82.676    0.448    0.229    4.069
 1401.080   79.796    0.449    0.225    4.217
 1401.900   76.330    0.448    0.212    4.370
 1402.720   73.450    0.438    0.200    4.529
 1403.540   72.302    0.431    0.193    4.778
 1404.360   67.101    0.424    0.197    4.952
 1405.180   61.903    0.419    0.214    5.319
 1406.000   60.761    0.422    0.274    5.318
 1406.820   60.772    0.433    0.276    5.611
 1407.640   60.782    0.446    0.275    5.711
 1408.460   60.802    0.461    0.270    5.917
 1409.280   60.232    0.487    0.254    6.244
 1410.100   59.670    0.449    0.204    6.355
 1410.930   59.104    0.419    0.184    6.827
 1411.750   59.117    0.402    0.163    7.336
 1412.570   59.127    0.364    0.154    8.319
 1413.390   60.303    0.392    0.196    9.435
 1414.210   64.951    0.435    0.222   10.700
 1415.030   72.496    0.440    0.240    9.257
 1415.850   78.886    0.464    0.256    7.061
 1416.670   80.061    0.483    0.274    6.567
 1417.490   80.071    0.490    0.281    6.219
 1418.310   80.081    0.482    0.277    5.578
 1419.130   80.681    0.478    0.270    5.379
 1419.950   83.012    0.464    0.253    5.185
 1420.770   85.342    0.441    0.227    5.091
 1421.590   86.514    0.434    0.224    5.089
 1422.410   87.687    0.441    0.228    4.996
 1423.230   88.859    0.443    0.232    4.996
 1424.050   88.296    0.443    0.232    4.991
 1424.870   87.727    0.443    0.234    4.813
 1425.690   87.164    0.443    0.240    4.811
 1426.510   86.602    0.446    0.242    4.809
 1427.330   86.029    0.449    0.243    4.807
