~VERSION INFORMATION
 VERS.                 2.0:   CWLS LOG ASCII STANDARD -VERSION 2.0
 WRAP.                  NO:   ONE LINE PER DEPTH STEP
~WELL INFORMATION BLOCK
#MNEM.UNIT           DATA                    DESCRIPTION OF MNEMONIC
#---------    -------------------            -------------------------------
# Generated from Intellog Unique Number	CW_82_90/WELL/3073
WELL.         10-11-086-23W4                 : Well_name    - WELL
LOC .         00/10-11-086-23W4/0            : Location     - LOCATION
UWI .         00/10-11-086-23W4/0            : Uwi          - UNIQUE WELL ID
ENTR.         MAX                            : Entered      - ENTERED BY
SRVC.         SCHLUMBERGER                   : Scn          - SERVICE COMPANY
STRT.M        289.56                         : top_depth    - START DEPTH
STOP.M        350.56                         : bot_depth    - STOP DEPTH
STEP.M        0.25                           : increment    - STEP LENGTH
 NULL. -999.2500:NULL Value
~CURVE INFORMATION BLOCK
#MNEM UNIT       ERCB CURVE CODE    CURVE DESCRIPTION
#-----------   ------------------   ----------------------------------
DEPT.M        00 001 00 00         : DEPTH        - DEPTH
ILD .OHMM     00 120 00 00         : RESD         - DEEP RESISTIVITY (DIL)
NPHI.V/V      00 330 00 00         : PHIN         - NEUTRON POROSITY (SANDSTONE)
DPHI.V/V      00 890 00 00         : PHID         - DENSITY POROSITY (SANDSTONE)
CALI.MM       00 280 01 00         : CAL          - CALIPER
GR  .API      00 310 00 00         : GR           - GAMMA RAY
~PARAMETER INFORMATION
#MNEM.UNIT           DATA             DESCRIPTION OF MNEMONIC
#---------         -----------     ------------------------------
GL  .M        562.966              : gl           - GROUND LEVEL ELEVATION
EREF.M        566.014              : kb           - ELEVATION OF DEPTH REFERENCE
DATM.M        562.966              : datum        - DATUM ELEVATION
TDD .M        407.518              : tdd          - TOTAL DEPTH DRILLER
RUN .         ONE                  : Run          - RUN NUMBER
ENG .         BILL                 : Engineer     - RECORDING ENGINEER
WIT .         JIM                  : Witness      - WITNESSED BY
MUD .         GEL                  : Mud_type     - MUD TYPE
MATR.         SANDSTONE            : Logunit      - NEUTRON MATRIX
TMAX.C        24.4444              : BHT          - MAXIMUM RECORDED TEMPERATURE
BHTD.M        407.518              : BHTDEP       - MAXIMUM RECORDED TEMPERATURE
MATR.         1                    : LOGUNIT      - NEUTRON MATRIX
RMT .C        17.2222              : MDTP         - TEMPERATURE OF MUD
NEUT.         1                    : NEUTRON      - NEUTRON TYPE
RESI.         0                    : RESIST       - RESISTIVITY TYPE
RMC .OHMM     1.02                 : RMC          - RESISTIVITY OF MUD CAKE
RMF .OHMM     1.02                 : RMF          - RESISTIVITY OF MUD FILTRATE
SUFT.C        -20.5556             : SUFT         - SURFACE TEMPERATURE
~A  DEPTH     RESD     PHIN     PHID      CAL       GR
  289.560   20.009    0.454    0.188  203.304   88.324
  289.810   19.645    0.447    0.206  202.785   88.615
  290.060   18.262    0.424    0.189  202.775   88.609
  290.310   16.222    0.405    0.149  202.761   88.303
  290.560   14.807    0.397    0.124  202.750   89.797
  290.810   14.146    0.423    0.162  203.245   92.193
  291.060   14.144    0.449    0.191  203.742   93.989
  291.310   14.534    0.462    0.214  203.732   95.485
  291.560   14.935    0.459    0.187  203.720   98.181
  291.810   15.208    0.462    0.179  204.215   97.274
  292.060   15.345    0.443    0.186  204.712   95.162
  292.310   15.624    0.437    0.170  206.228   97.859
  292.560   15.910    0.458    0.127  207.232   99.054
  292.810   16.053    0.451    0.177  207.222   98.146
  293.060   15.619    0.444    0.183  208.735   96.036
  293.310   15.616    0.431    0.159  209.741   98.433
  293.560   15.902    0.451    0.147  210.746   96.924
  293.810   15.331    0.452    0.174  211.243   94.513
  294.060   13.995    0.430    0.191  211.740   94.507
  294.310   13.615    0.412    0.150  212.236   95.701
  294.560   14.643    0.420    0.186  212.224   99.600
  294.810   14.775    0.436    0.197  212.214   99.592
  295.060   14.245    0.486    0.172  212.202   98.084
  295.310   14.242    0.464    0.194  212.187  101.381
  295.560   14.635    0.443    0.138  212.178  104.378
  295.810   14.633    0.453    0.155  212.675  103.770
  296.060   14.900    0.467    0.195  213.172  100.458
  296.310   14.763    0.472    0.210  213.159   95.945
  296.560   13.600    0.460    0.202  212.128   91.132
  296.810   16.315    0.443    0.194  208.554   86.317
  297.060   16.312    0.464    0.159  206.510   83.907
  297.310   15.871    0.460    0.132  205.481   78.493
  297.560   16.457    0.399    0.092  205.977   76.983
  297.810   16.455    0.338    0.014  206.474   86.590
  298.060   15.865    0.395    0.059  207.479   96.797
  298.310   14.748    0.418    0.108  207.975  104.000
  298.560   14.479    0.446    0.148  207.965  101.890
  298.810   14.478    0.450    0.165  207.953  100.081
  299.060   14.215    0.442    0.165  207.942  100.675
  299.310   13.214    0.446    0.169  207.931  101.869
  299.560   13.092    0.451    0.179  207.916  104.867
  299.810   13.577    0.458    0.184  208.413  103.356
  300.060   15.281    0.470    0.179  208.911  101.547
  300.310   15.419    0.457    0.166  209.407   97.636
  300.560   15.700    0.441    0.138  209.395   93.422
  300.810   16.732    0.386    0.098  209.894   95.217
  301.060   16.729    0.418    0.182  210.390   95.810
  301.310   16.880    0.446    0.241  210.376  100.611
  301.560   17.664    0.415    0.259  210.365  104.810
  301.810   19.346    0.384    0.200  208.819  103.001
  302.060   19.520    0.393    0.166  209.835   98.788
  302.310   18.820    0.396    0.131  208.804   92.772
  302.560   17.179    0.380    0.097  208.284   90.963
  302.810   14.448    0.352    0.065  208.270   89.754
  303.060   15.119    0.354    0.085  207.241   91.850
  303.310   15.395    0.323    0.167  206.722   96.951
  303.560   15.393    0.352    0.200  207.219  101.148
  303.810   16.554    0.393    0.220  207.715  100.241
  304.060   19.323    0.438    0.194  208.212   97.529
  304.310   19.146    0.403    0.181  208.200  102.029
  304.560   17.798    0.406    0.176  208.188   97.516
  304.810   16.395    0.423    0.126  208.178   92.100
  305.060   13.417    0.407    0.093  207.146   91.794
  305.310   10.781    0.404    0.137  206.624   88.182
  305.560    9.067    0.481    0.246  206.106   81.265
  305.810    8.506    0.528    0.398  205.586   74.649
  306.060    8.983    0.591    0.431  205.064   65.327
  306.310    9.928    0.596    0.408  205.050   67.124
  306.560    9.747    0.594    0.393  205.042   77.331
  306.810   10.200    0.569    0.345  204.521   80.628
  307.060   11.273    0.547    0.268  204.509   75.515
  307.310   13.401    0.594    0.233  204.496   74.006
  307.560   15.786    0.592    0.327  204.993   84.514
  307.810   18.427    0.575    0.279  205.492   97.725
  308.060   22.308    0.509    0.222  205.478  101.322
  308.310   23.990    0.453    0.127  205.467   96.810
  308.560   23.341    0.379    0.096  205.964   89.292
  308.810   21.307    0.354    0.058  205.952   87.784
  309.060   19.988    0.363    0.063  206.957   88.376
  309.310   18.246    0.399    0.153  207.962   95.580
  309.560   17.273    0.413    0.206  208.459   99.778
  309.810   16.653    0.440    0.196  208.957  101.874
  310.060   15.766    0.458    0.192  209.454  104.872
  310.310   14.523    0.468    0.165  210.460  102.462
  310.560   14.002    0.463    0.155  210.957   99.150
  310.810   14.786    0.449    0.201  210.942   95.536
  311.060   15.056    0.455    0.195  210.929   93.728
  311.310   15.191    0.475    0.161  210.918   89.515
  311.560   15.052    0.457    0.094  210.908   86.504
  311.810   14.645    0.444    0.024  211.405   85.295
  312.060   14.248    0.409    0.015  211.392   94.601
  312.310   15.184    0.370    0.040  211.381  104.208
  312.560   15.889    0.388    0.107  211.878  112.612
  312.810   16.179    0.454    0.150  211.865  109.901
  313.060   16.177    0.455    0.140  211.852  107.190
  313.310   16.028    0.446    0.097  212.352  103.279
  313.560   15.174    0.455    0.066  212.847  105.375
  313.810   13.356    0.398    0.136  214.362  114.681
  314.060   13.113    0.435    0.162  214.350  114.674
  314.310   12.875    0.461    0.180  214.847  111.662
  314.560   12.412    0.463    0.196  216.360  111.054
  314.810   11.751    0.488    0.211  217.873  114.052
  315.060   11.329    0.490    0.223  217.355  115.547
  315.310   11.431    0.484    0.229  216.326  111.935
  315.560   13.344    0.501    0.244  215.804  105.919
  315.810   15.156    0.521    0.358  216.801   96.599
  316.060   16.152    0.569    0.407  216.291  100.498
  316.310   16.298    0.576    0.362  215.770  114.610
  316.560   16.001    0.348    0.044  215.757  121.513
  316.810   14.740    0.403    0.078  215.745  119.704
  317.060   13.578    0.390    0.152  215.733  116.092
  317.310   13.211    0.389    0.160  215.213  113.681
  317.560   13.951    0.403    0.170  214.692  109.769
  317.810   16.584    0.412    0.198  214.172  104.955
  318.060   20.822    0.428    0.225  213.649   99.239
  318.310   26.622    0.462    0.281  213.131   98.631
  318.560   27.605    0.523    0.285  212.608   93.817
  318.810   26.134    0.500    0.060  212.090   92.309
  319.060   20.250    0.418    0.008  211.061   96.207
  319.310   18.151    0.281    0.055  210.539  103.110
  319.560   17.984    0.318    0.111  210.526  100.999
  319.810   18.480    0.362    0.152  212.040  100.392
  320.060   20.424    0.395    0.152  212.030  100.386
  320.310   23.199    0.396    0.146  210.999   95.271
  320.560   26.350    0.399    0.124  209.461   90.156
  320.810   27.324    0.397    0.096  208.942   85.943
  321.060   27.073    0.331    0.053  208.422   83.532
  321.310   25.630    0.304    0.044  208.409   84.727
  321.560   22.152    0.296    0.063  207.887   87.425
  321.810   18.629    0.360    0.095  207.368   91.924
  322.060   18.458    0.374    0.135  206.847   96.724
  322.310   19.851    0.394    0.157  206.835   93.713
  322.560   24.923    0.405    0.166  206.822   90.101
  322.810   27.048    0.421    0.204  207.828   79.279
  323.060   27.291    0.446    0.228  208.323   67.555
  323.310   27.288    0.470    0.252  208.823   74.758
  323.560   27.037    0.457    0.066  209.827   81.358
  323.810   25.831    0.318    0.108  210.326   83.757
  324.060   24.012    0.353    0.157  210.823   87.654
  324.310   19.830    0.381    0.141  211.320   88.848
  324.560   17.454    0.384    0.143  212.324   90.644
  324.810   16.078    0.389    0.156  213.330   93.341
  325.060   15.930    0.418    0.182  214.335   96.640
  325.310   15.640    0.435    0.171  215.339   93.929
  325.560   14.673    0.440    0.144  216.344   96.025
  325.810   13.033    0.432    0.109  216.842   99.623
