~VERSION INFORMATION
 VERS.                 2.0:   CWLS LOG ASCII STANDARD -VERSION 2.0
 WRAP.                  NO:   ONE LINE PER DEPTH STEP
~WELL INFORMATION BLOCK
#MNEM.UNIT           DATA                    DESCRIPTION OF MNEMONIC
#---------    -------------------            -------------------------------
# Generated from Intellog Unique Number	CS_69_70/WELL/858
NULL.         -999.25                        : NULL_VALUE
WELL.         HB CS PITLOCHRIE               : Well_name    - WELL              
LOC .         00/10-04-070-12W4/0            : Location     - LOCATION          
UWI .         00/10-04-070-12W4/0            : Uwi          - UNIQUE WELL ID    
ENTR.         SP                             : Entered      - ENTERED BY        
SRVC.         SCHLUMBERGER                   : Scn          - SERVICE COMPANY   
STRT.M        286.512                        : top_depth    - START DEPTH       
STOP.M        493.512                        : bot_depth    - STOP DEPTH        
STEP.M        0.25                           : increment    - STEP LENGTH       
~CURVE INFORMATION BLOCK
#MNEM UNIT       ERCB CURVE CODE    CURVE DESCRIPTION
#-----------   ------------------   ----------------------------------
DEPT.M        00 001 00 00         : DEPTH        - DEPTH                       
GR  .API      00 310 00 00         : GR           - GAMMA RAY                   
DPHI.V/V      00 890 00 00         : PHID         - DENSITY POROSITY (SANDSTONE)
NPHI.V/V      00 330 00 00         : PHIN         - NEUTRON POROSITY (SANDSTONE)
ILD .OHMM     00 120 00 00         : RESD         - DEEP RESISTIVITY (DIL)      
~PARAMETER INFORMATION       
#MNEM.UNIT           DATA             DESCRIPTION OF MNEMONIC
#---------         -----------     ------------------------------
GL  .M        601.98               : gl           - GROUND LEVEL ELEVATION      
EREF.M        604.418              : kb           - ELEVATION OF DEPTH REFERENCE
DATM.M        601.98               : datum        - DATUM ELEVATION             
TDD .M        496.824              : tdd          - TOTAL DEPTH DRILLER         
RUN .         ONE                  : Run          - RUN NUMBER                  
ENG .         BILL                 : Engineer     - RECORDING ENGINEER          
WIT .         JIM                  : Witness      - WITNESSED BY                
MUD .         GEL                  : Mud_type     - MUD TYPE                    
MATR.         SANDSTONE            : Logunit      - NEUTRON MATRIX              
TMAX.C        21                   : BHT          - MAXIMUM RECORDED TEMPERATURE
BHTD.M        481.2                : BHTDEP       - MAXIMUM RECORDED TEMPERATURE
MATR.         1                    : LOGUNIT      - NEUTRON MATRIX              
RMT .C        25                   : MDTP         - TEMPERATURE OF MUD          
NEUT.         1                    : NEUTRON      - NEUTRON TYPE                
RESI.         0                    : RESIST       - RESISTIVITY TYPE            
RMC .OHMM     0.25                 : RMC          - RESISTIVITY OF MUD CAKE     
RMF .OHMM     0.25                 : RMF          - RESISTIVITY OF MUD FILTRATE 
SUFT.C        15                   : SUFT         - SURFACE TEMPERATURE         
~A  DEPTH       GR     PHID     PHIN     RESD
# ...
  330.012   98.767    0.237    0.516    5.545
  330.262   93.374    0.239    0.504    5.544
  330.512   90.578    0.246    0.507    5.529
  330.762   91.846    0.251    0.493    5.469
  331.012   93.557    0.248    0.488    5.434
  331.262   95.207    0.261    0.496    5.421
  331.512   96.997    0.259    0.508    5.399
  331.762   96.888    0.254    0.510    5.396
  332.012   96.181    0.240    0.494    5.391
  332.262   95.799    0.255    0.486    5.404
  332.512   95.548    0.235    0.508    5.402
  332.762   96.083    0.224    0.522    5.497
  333.012   97.177    0.228    0.535    5.578
  333.262   97.916    0.242    0.522    5.658
  333.512   98.537    0.244    0.514    5.695
  333.762  100.684    0.239    0.506    5.675
  334.012  103.523    0.232    0.505    5.574
  334.262  104.931    0.222    0.493    5.518
  334.512  104.607    0.210    0.492    5.495
  334.762  102.774    0.257    0.504    5.504
  335.012  100.861    0.265    0.503    5.599
  335.262  100.251    0.252    0.507    5.747
  335.512   99.465    0.243    0.500    5.930
  335.762   97.850    0.236    0.495    6.010
  336.012   97.405    0.231    0.502    5.898
  336.262   99.636    0.229    0.518    5.792
  336.512  103.055    0.228    0.531    5.866
  336.762   97.777    0.234    0.534    5.722
  337.012   92.009    0.245    0.489    5.615
  337.262   86.787    0.257    0.461    5.512
  337.512   83.174    0.273    0.466    5.420
  337.762   83.773    0.285    0.463    5.307
  338.012   85.095    0.293    0.452    5.193
  338.262   84.802    0.285    0.448    5.097
  338.512   83.603    0.282    0.462    5.028
  338.762   81.993    0.293    0.468    4.998
  339.012   79.925    0.294    0.474    5.047
  339.262   79.088    0.291    0.478    5.255
  339.512   80.374    0.277    0.476    5.360
  339.762   81.951    0.261    0.472    5.557
  340.012   84.794    0.251    0.463    5.741
  340.262   87.102    0.252    0.455    5.894
  340.512   87.776    0.254    0.447    6.024
  340.762   87.820    0.258    0.440    6.050
  341.012   89.520    0.250    0.432    6.007
  341.262   92.068    0.240    0.426    5.966
  341.512   94.106    0.227    0.422    6.058
  341.762   94.985    0.216    0.424    6.298
  342.012   94.895    0.234    0.434    6.658
  342.262   93.933    0.242    0.444    6.877
  342.512   94.260    0.249    0.454    7.164
  342.762   96.564    0.258    0.468    7.255
  343.012   98.757    0.240    0.467    7.239
  343.262  101.977    0.227    0.462    7.290
  343.512  102.759    0.222    0.473    7.290
  343.762  104.223    0.223    0.487    7.251
  344.012  104.657    0.210    0.479    7.184
  344.262  103.960    0.175    0.475    7.036
  344.512   98.601    0.201    0.476    6.817
  344.762   90.101    0.221    0.495    6.550
  345.012   82.260    0.248    0.514    6.233
  345.262   76.785    0.277    0.515    6.001
  345.512   75.885    0.302    0.500    5.766
  345.762   77.768    0.318    0.506    5.622
  346.012   78.090    0.313    0.511    5.504
  346.262   76.807    0.306    0.504    5.413
  346.512   74.964    0.302    0.492    5.295
  346.762   72.562    0.303    0.485    5.296
  347.012   68.748    0.297    0.482    5.387
  347.262   66.282    0.290    0.477    5.424
  347.512   64.587    0.280    0.485    5.432
  347.762   63.221    0.288    0.504    5.308
  348.012   62.649    0.299    0.504    5.090
  348.262   64.701    0.304    0.475    4.848
  348.512   69.389    0.279    0.464    4.785
  348.762   71.862    0.254    0.458    4.899
  349.012   67.754    0.229    0.436    5.156
  349.262   65.680    0.205    0.405    5.565
  349.512   69.073    0.189    0.381    5.946
  349.762   74.154    0.229    0.435    6.353
  350.012   77.505    0.281    0.485    6.582
  350.262   81.317    0.281    0.508    6.568
  350.512   83.572    0.285    0.500    6.451
  350.762   85.521    0.272    0.487    6.218
  351.012   86.060    0.262    0.468    5.930
  351.262   87.604    0.263    0.470    5.851
  351.512   88.848    0.273    0.474    6.070
  351.762   86.375    0.264    0.477    6.312
  352.012   82.674    0.258    0.463    6.328
  352.262   80.277    0.269    0.451    6.216
  352.512   76.981    0.274    0.445    5.943
  352.762   76.067    0.285    0.448    5.660
  353.012   76.774    0.296    0.443    5.527
  353.262   77.963    0.295    0.438    5.494
  353.512   79.649    0.284    0.445    5.510
  353.762   80.457    0.273    0.464    5.567
  354.012   78.466    0.266    0.485    5.670
  354.262   76.918    0.275    0.501    5.748
  354.512   80.029    0.272    0.484    5.915
  354.762   82.681    0.261    0.469    6.048
  355.012   82.686    0.263    0.476    6.245
  355.262   77.589    0.264    0.496    6.349
  355.512   74.850    0.273    0.515    6.396
  355.762   77.415    0.290    0.525    6.291
  356.012   81.284    0.306    0.509    6.128
  356.262   83.159    0.307    0.490    5.935
  356.512   85.870    0.282    0.479    5.828
  356.762   88.382    0.269    0.487    5.801
  357.012   92.764    0.271    0.490    5.776
  357.262   95.152    0.265    0.485    5.404
  357.512   96.684    0.247    0.504    5.090
  357.762   92.253    0.261    0.554    4.885
  358.012   89.400    0.299    0.550    4.855
  358.262   91.773    0.280    0.523    4.979
  358.512   93.339    0.271    0.516    5.147
  358.762   91.162    0.260    0.529    5.251
  359.012   87.319    0.243    0.540    5.429
  359.262   83.431    0.257    0.555    5.571
  359.512   79.963    0.276    0.540    5.623
  359.762   76.978    0.295    0.524    5.579
  360.012   75.552    0.305    0.514    5.751
  360.262   74.461    0.318    0.511    6.016
  360.512   74.014    0.324    0.506    6.170
  360.762   71.275    0.303    0.503    6.100
  361.012   67.340    0.302    0.498    5.926
  361.262   65.842    0.317    0.485    5.682
  361.512   64.420    0.313    0.486    5.466
  361.762   64.187    0.303    0.495    5.350
  362.012   64.230    0.299    0.498    5.287
  362.262   65.494    0.294    0.484    5.372
  362.512   67.220    0.299    0.481    5.467
  362.762   70.275    0.310    0.487    5.559
  363.012   72.136    0.318    0.495    5.640
  363.262   73.635    0.295    0.496    5.696
  363.512   73.138    0.280    0.487    5.738
  363.762   72.165    0.276    0.478    5.804
  364.012   70.648    0.290    0.471    5.874
  364.262   70.364    0.300    0.464    5.931
  364.512   72.903    0.294    0.467    5.961
  364.762   74.745    0.299    0.470    5.998
  365.012   75.531    0.280    0.466    6.037
  365.262   75.642    0.264    0.470    6.097
  365.512   76.398    0.264    0.473    6.139
  365.762   76.462    0.256    0.469    6.192
  366.012   78.365    0.262    0.461    6.235
  366.262   82.594    0.276    0.445    6.248
  366.512   87.622    0.261    0.435    6.262
  366.762   91.789    0.244    0.450    6.250
  367.012   94.403    0.243    0.470    6.211
  367.262   93.160    0.237    0.500    6.189
  367.512   88.786    0.236    0.531    6.128
  367.762   84.082    0.258    0.523    6.128
  368.012   79.090    0.230    0.503    6.293
  368.262   72.596    0.222    0.486    6.294
  368.512   67.723    0.196    0.437    6.461
  368.762   62.457    0.141    0.325    8.186
  369.012   56.450    0.060    0.157   11.044
  369.262   53.343   -0.009    0.140   16.018
  369.512   52.823   -0.015    0.134   33.048
  369.762   54.127   -0.011    0.146   39.067
  370.012   57.094    0.001    0.175   23.009
  370.262   62.907    0.098    0.252   13.742
  370.512   70.554    0.258    0.376    9.790
  370.762   77.334    0.289    0.470    8.356
  371.012   81.008    0.297    0.514    7.328
  371.262   83.245    0.270    0.500    6.716
  371.512   82.469    0.256    0.483    6.338
  371.762   80.324    0.247    0.479    6.368
  372.012   81.158    0.240    0.491    6.467
  372.262   83.011    0.258    0.504    6.587
  372.512   83.209    0.267    0.507    6.598
  372.762   83.458    0.261    0.489    6.518
  373.012   85.613    0.256    0.503    6.474
  373.262   87.180    0.261    0.501    6.497
