~VERSION INFORMATION
 VERS.                 2.0:   CWLS LOG ASCII STANDARD -VERSION 2.0
 WRAP.                  NO:   ONE LINE PER DEPTH STEP
~WELL INFORMATION BLOCK
#MNEM.UNIT           DATA                    DESCRIPTION OF MNEMONIC
#---------    -------------------            -------------------------------
# Generated from Intellog Unique Number	CW_73_75/WELL/1054
WELL.         HOME UNIT MARTIN HILLS 16-21   : Well_name    - WELL
LOC .         00/16-21-074-24W4/0            : Location     - LOCATION
UWI .         00/16-21-074-24W4/0            : Uwi          - UNIQUE WELL ID
ENTR.         JAYE                           : Entered      - ENTERED BY
SRVC.         SCHLUMBERGER                   : Scn          - SERVICE COMPANY
DATE.         23 NOV 77                      : Date         - LOG DATE
STRT.M        374.904                        : top_depth    - START DEPTH
STOP.M        585.154                        : bot_depth    - STOP DEPTH
STEP.M        0.25                           : increment    - STEP LENGTH
 NULL. -999.2500:NULL Value
~CURVE INFORMATION BLOCK
#MNEM UNIT       ERCB CURVE CODE    CURVE DESCRIPTION
#-----------   ------------------   ----------------------------------
DEPT.M        00 001 00 00         : DEPTH        - DEPTH
ILD .OHMM     00 120 00 00         : RESD         - DEEP RESISTIVITY (DIL)
NPHI.V/V      00 330 00 00         : PHIN         - NEUTRON POROSITY (SANDSTONE)
DPHI.V/V      00 890 00 00         : PHID         - DENSITY POROSITY (SANDSTONE)
CALI.MM       00 280 01 00         : CAL          - CALIPER
GR  .API      00 310 00 00         : GR           - GAMMA RAY
~PARAMETER INFORMATION
#MNEM.UNIT           DATA             DESCRIPTION OF MNEMONIC
#---------         -----------     ------------------------------
GL  .M        649.224              : gl           - GROUND LEVEL ELEVATION
EREF.M        653.796              : kb           - ELEVATION OF DEPTH REFERENCE
DATM.M        649.224              : datum        - DATUM ELEVATION
TDD .M        585.216              : tdd          - TOTAL DEPTH DRILLER
RUN .         ONE                  : Run          - RUN NUMBER
BASE.         EDM                  : Branch       - HOME BASE OF LOGGING UNIT
MATR.         SANDSTONE            : Logunit      - NEUTRON MATRIX
TMAX.C        28.8889              : BHT          - MAXIMUM RECORDED TEMPERATURE
BHTD.M        585.826              : BHTDEP       - MAXIMUM RECORDED TEMPERATURE
RMT .C        13.8889              : MDTP         - TEMPERATURE OF MUD
MUDD.KG/M     0                    : MWT          - MUD DENSITY
NEUT.         1                    : NEUTRON      - NEUTRON TYPE
RESI.         0                    : RESIST       - RESISTIVITY TYPE
RM  .OHMM     6.22                 : RM           - RESISTIVITY OF MUD
RMC .OHMM     0                    : RMC          - RESISTIVITY OF MUD CAKE
RMF .OHMM     6.72                 : RMF          - RESISTIVITY OF MUD FILTRATE
SUFT.C        -17.7778             : SUFT         - SURFACE TEMPERATURE
~A  DEPTH     RESD     PHIN     PHID      CAL       GR
# ...
  484.404    6.563    0.407    0.163  177.759   90.073
  484.654    6.551    0.404    0.147  176.014   90.850
  484.904    6.478    0.397    0.195  177.120   91.067
  485.154    6.430    0.398    0.180  178.536   91.653
  485.404    6.358    0.403    0.143  178.480   92.181
  485.654    6.264    0.405    0.160  176.316   92.519
  485.904    6.183    0.392    0.169  177.524   92.671
  486.154    6.160    0.391    0.178  181.897   92.764
  486.404    6.137    0.402    0.195  183.948   93.728
  486.654    6.183    0.407    0.161  183.571   94.439
  486.904    6.184    0.421    0.176  181.618   94.905
  487.154    6.184    0.431    0.162  180.715   97.236
  487.404    6.266    0.417    0.160  180.764   95.894
  487.654    6.337    0.415    0.145  181.236   93.930
  487.904    6.433    0.408    0.160  181.917   90.159
  488.154    6.605    0.375    0.157  181.541   78.793
  488.404    6.692    0.370    0.196  179.904   76.827
  488.654    6.434    0.374    0.208  178.685   80.156
  488.904    6.174    0.418    0.216  177.995   81.742
  489.154    5.981    0.416    0.192  177.517   81.085
  489.404    6.060    0.412    0.148  176.827   77.875
  489.654    6.423    0.394    0.125  176.034   76.472
  489.904    6.795    0.363    0.112  174.919   76.438
  490.154    7.029    0.350    0.113  173.702   80.702
  490.404    7.069    0.370    0.129  173.012   83.344
  490.654    7.016    0.396    0.154  172.324   83.687
  490.904    6.912    0.398    0.172  172.159   83.402
  491.154    6.645    0.406    0.199  173.684   83.307
  491.404    6.200    0.426    0.195  176.579   84.083
  491.654    5.785    0.423    0.194  180.107   87.724
  491.904    5.583    0.417    0.214  181.741   89.307
  492.154    5.510    0.425    0.209  181.998   89.771
  492.404    5.531    0.417    0.194  182.152   90.051
  492.654    5.563    0.421    0.165  182.518   89.080
  492.904    5.594    0.430    0.172  182.773   87.056
  493.154    5.615    0.422    0.164  183.143   86.088
  493.404    5.626    0.416    0.190  183.297   86.927
  493.654    5.648    0.407    0.190  183.558   89.507
  493.904    5.722    0.401    0.188  183.811   90.968
  494.154    5.831    0.395    0.197  183.861   91.245
  494.404    6.146    0.413    0.201  183.379   86.419
  494.654    6.563    0.376    0.160  182.586   81.649
  494.904    6.891    0.352    0.125  182.320   75.513
  495.154    6.917    0.342    0.098  182.266   73.736
  495.404    6.802    0.388    0.143  182.525   80.738
  495.654    6.651    0.393    0.176  182.678   85.438
  495.904    6.503    0.391    0.163  182.510   90.510
  496.154    6.347    0.390    0.177  182.563   93.154
  496.404    6.182    0.407    0.191  182.816   92.123
  496.654    6.079    0.406    0.211  182.870   90.471
  496.904    6.023    0.403    0.189  182.598   89.815
  497.154    5.945    0.397    0.183  180.746   89.099
  497.404    5.912    0.398    0.175  179.318   89.000
  497.654    5.934    0.398    0.185  180.634   91.396
  497.904    5.957    0.390    0.186  182.376   95.097
  498.154    6.036    0.395    0.179  182.841   96.682
  498.404    6.162    0.394    0.165  183.202   92.787
  498.654    6.385    0.386    0.177  183.572   90.824
  498.904    6.605    0.378    0.153  183.090   89.731
  499.154    6.705    0.357    0.126  182.401   83.532
  499.404    6.807    0.352    0.102  182.557   82.003
  499.654    6.845    0.376    0.152  183.022   86.517
  499.904    6.807    0.389    0.158  184.123   88.289
  500.154    6.744    0.389    0.151  184.383   88.752
  500.404    6.582    0.395    0.174  183.588   90.837
  500.654    6.496    0.391    0.172  182.268   94.416
  500.904    6.558    0.373    0.173  178.835   95.439
  501.154    6.657    0.379    0.174  175.826   93.973
  501.404    6.822    0.381    0.143  178.513   92.446
  501.654    7.123    0.379    0.148  181.829   91.852
  501.904    7.244    0.373    0.123  181.351   91.570
  502.154    7.137    0.373    0.140  180.340   91.845
  502.404    6.939    0.374    0.165  178.493   93.056
  502.654    6.671    0.374    0.169  176.640   97.631
  502.904    6.475    0.379    0.179  178.694   98.658
  503.154    6.402    0.381    0.192  182.432   97.689
  503.404    6.451    0.374    0.181  183.327   94.291
  503.654    6.685    0.367    0.155  183.054   89.650
  503.904    6.928    0.380    0.155  182.364   87.996
  504.154    7.261    0.391    0.160  182.104   87.281
  504.404    7.468    0.384    0.165  181.939   91.852
  504.654    7.653    0.388    0.176  182.199   96.988
  504.904    7.639    0.381    0.143  182.566   89.979
  505.154    7.654    0.365    0.096  182.609   80.105
  505.404    7.640    0.371    0.108  182.660   82.998
  505.654    7.626    0.391    0.168  182.597   87.638
  505.904    7.612    0.391    0.161  182.765   85.173
  506.154    7.541    0.386    0.154  182.802   82.774
  506.404    7.429    0.392    0.153  182.852   83.550
  506.654    7.443    0.411    0.156  183.116   87.064
  506.904    7.374    0.413    0.161  183.165   87.533
  507.154    7.306    0.399    0.175  183.422   86.937
  507.404    7.211    0.388    0.166  183.676   86.031
  507.654    7.157    0.384    0.169  184.255   85.872
  507.904    7.091    0.385    0.169  184.515   87.334
  508.154    7.012    0.386    0.163  184.772   88.544
  508.404    6.947    0.391    0.158  184.821   89.321
  508.654    6.908    0.415    0.172  184.870   89.037
  508.904    6.960    0.422    0.168  184.912   82.525
  509.154    7.907    0.417    0.144  184.645   76.390
  509.404    9.084    0.390    0.128  184.376   70.940
  509.654   10.755    0.372    0.153  183.158   65.983
  509.904   14.989    0.328    0.179  179.411   56.359
  510.154   18.984    0.229    0.071  174.713   53.896
  510.404   23.553    0.181    0.035  176.771   56.603
  510.654   26.858    0.180    0.026  179.452   56.072
  510.904   27.214    0.184    0.034  180.662   60.271
  511.154   26.710    0.214    0.043  181.024   68.521
  511.404   26.019    0.249    0.066  181.175   75.399
  511.654   25.489    0.393    0.105  181.225   76.674
  511.904   25.252    0.411    0.195  181.066   64.059
  512.154   25.349    0.409    0.246  180.587   58.796
  512.404   25.493    0.399    0.234  179.681   61.252
  512.654   25.637    0.395    0.225  177.830   65.517
  512.904   25.832    0.401    0.231  176.936   67.539
  513.154   26.027    0.409    0.233  176.558   68.501
  513.404   26.472    0.411    0.220  176.719   67.469
  513.654   26.722    0.399    0.205  177.395   63.762
  513.904   27.178    0.391    0.212  179.236   62.794
  514.154   27.435    0.397    0.215  181.073   63.260
  514.404   27.851    0.408    0.217  181.756   65.343
  514.654   28.115    0.411    0.224  181.914   66.120
  514.904   28.595    0.406    0.231  181.643   65.211
  515.154   29.192    0.400    0.235  181.055   64.244
  515.404   29.579    0.405    0.237  180.262   63.090
  515.654   29.635    0.412    0.246  178.938   61.809
  515.904   29.415    0.425    0.243  177.512   61.217
  516.154   29.088    0.416    0.242  176.819   66.164
  516.404   28.817    0.397    0.230  177.185   66.752
  516.654   28.765    0.391    0.218  179.554   66.034
  516.904   28.874    0.388    0.205  181.186   63.697
  517.154   29.093    0.388    0.208  180.913   63.039
  517.404   29.589    0.393    0.203  181.389   59.829
  517.654   30.378    0.401    0.194  181.855   60.729
  517.904   31.363    0.385    0.192  182.009   62.876
  518.154   33.242    0.368    0.189  181.637   61.910
  518.404   34.838    0.346    0.186  181.473   60.067
  518.654   36.375    0.317    0.179  181.626   57.170
  518.904   36.719    0.310    0.149  182.624   56.886
  519.154   35.436    0.312    0.148  182.568   57.975
  519.404   34.714    0.336    0.164  182.507   58.812
  519.654   33.816    0.367    0.184  179.185   58.967
  519.904   32.512    0.380    0.180  177.964   58.059
  520.154   31.969    0.369    0.195  178.442   58.709
  520.404   31.026    0.366    0.230  178.482   60.172
  520.654   30.394    0.374    0.223  178.638   61.010
