~VERSION INFORMATION
 VERS.                 2.0:   CWLS LOG ASCII STANDARD -VERSION 2.0
 WRAP.                  NO:   ONE LINE PER DEPTH STEP
~WELL INFORMATION BLOCK
#MNEM.UNIT           DATA                    DESCRIPTION OF MNEMONIC
#---------    -------------------            -------------------------------
# Generated from Intellog Unique Number	CS_73_76/WELL/2205
WELL.         BOW VALLEY INDUSTRIES LTD      : Well_name    - WELL
LOC .         00/11-30-074-16W4/0            : Location     - LOCATION
UWI .         00/11-30-074-16W4/0            : Uwi          - UNIQUE WELL ID
ENTR.         SP                             : Entered      - ENTERED BY
SRVC.         SCHLUMBERGER                   : Scn          - SERVICE COMPANY
STRT.M        271.272                        : top_depth    - START DEPTH
STOP.M        444.772                        : bot_depth    - STOP DEPTH
STEP.M        0.25                           : increment    - STEP LENGTH
 NULL. -999.2500:NULL Value
~CURVE INFORMATION BLOCK
#MNEM UNIT       ERCB CURVE CODE    CURVE DESCRIPTION
#-----------   ------------------   ----------------------------------
DEPT.M        00 001 00 00         : DEPTH        - DEPTH
GR  .API      00 310 00 00         : GR           - GAMMA RAY
DPHI.V/V      00 890 00 00         : PHID         - DENSITY POROSITY (SANDSTONE)
NPHI.V/V      00 330 00 00         : PHIN         - NEUTRON POROSITY (SANDSTONE)
ILD .OHMM     00 120 00 00         : RESD         - DEEP RESISTIVITY (DIL)
~PARAMETER INFORMATION
#MNEM.UNIT           DATA             DESCRIPTION OF MNEMONIC
#---------         -----------     ------------------------------
GL  .M        620.116              : gl           - GROUND LEVEL ELEVATION
EREF.M        623.621              : kb           - ELEVATION OF DEPTH REFERENCE
DATM.M        620.116              : datum        - DATUM ELEVATION
TDD .M        454.762              : tdd          - TOTAL DEPTH DRILLER
RUN .         ONE                  : Run          - RUN NUMBER
ENG .         BILL                 : Engineer     - RECORDING ENGINEER
WIT .         JIM                  : Witness      - WITNESSED BY
MUD .         GEL                  : Mud_type     - MUD TYPE
MATR.         SANDSTONE            : Logunit      - NEUTRON MATRIX
TMAX.C        60                   : BHT          - MAXIMUM RECORDED TEMPERATURE
BHTD.M        454.762              : BHTDEP       - MAXIMUM RECORDED TEMPERATURE
MATR.         1                    : LOGUNIT      - NEUTRON MATRIX
RMT .C        25                   : MDTP         - TEMPERATURE OF MUD
NEUT.         1                    : NEUTRON      - NEUTRON TYPE
RESI.         0                    : RESIST       - RESISTIVITY TYPE
RMC .OHMM     0.25                 : RMC          - RESISTIVITY OF MUD CAKE
RMF .OHMM     0.25                 : RMF          - RESISTIVITY OF MUD FILTRATE
SUFT.C        15                   : SUFT         - SURFACE TEMPERATURE
~A  DEPTH       GR     PHID     PHIN     RESD
# ...
  401.772  101.551    0.217    0.446    6.739
  402.022  100.740    0.195    0.436    6.853
  402.272   98.223    0.180    0.443    6.798
  402.522   93.409    0.170    0.420    6.586
  402.772   89.983    0.148    0.384    6.488
  403.022   87.304    0.130    0.363    6.484
  403.272   84.696    0.133    0.369    6.635
  403.522   80.903    0.135    0.384    7.070
  403.772   75.698    0.099    0.352    7.336
  404.022   72.700    0.069    0.278    7.972
  404.272   77.858    0.126    0.311    8.274
  404.522   82.951    0.158    0.347    8.270
  404.772   85.975    0.200    0.376    8.112
  405.022   89.019    0.221    0.416    8.142
  405.272   86.269    0.229    0.429    7.784
  405.522   86.353    0.252    0.433    7.816
  405.772   90.542    0.280    0.434    7.889
  406.022   93.191    0.283    0.428    7.957
  406.272   95.640    0.278    0.420    7.867
  406.522   98.361    0.263    0.431    7.216
  406.772  100.289    0.239    0.446    6.458
  407.022   98.541    0.212    0.463    5.893
  407.272   95.525    0.232    0.449    5.519
  407.522   93.540    0.238    0.438    5.295
  407.772   95.266    0.214    0.431    5.191
  408.022   98.183    0.196    0.429    5.191
  408.272  100.748    0.221    0.441    5.289
  408.522  102.417    0.206    0.450    5.293
  408.772  104.105    0.205    0.455    5.295
  409.022  105.656    0.217    0.457    5.295
  409.272  105.770    0.234    0.455    5.305
  409.522  105.794    0.222    0.457    5.193
  409.772  103.889    0.215    0.460    5.132
  410.022  101.269    0.226    0.466    5.002
  410.272  103.467    0.224    0.468    5.009
  410.522  102.306    0.232    0.462    5.008
  410.772   98.563    0.240    0.454    5.004
  411.022   94.969    0.247    0.445    5.099
  411.272   92.609    0.254    0.459    5.254
  411.522   90.406    0.250    0.469    5.408
  411.772   87.799    0.235    0.481    5.776
  412.022   85.534    0.209    0.467    6.205
  412.272   82.578    0.195    0.435    6.651
  412.522   79.409    0.148    0.393    7.083
  412.772   81.513    0.121    0.356    7.367
  413.022   84.108    0.165    0.369    7.667
  413.272   88.683    0.217    0.387    7.336
  413.522   90.146    0.247    0.404    6.660
  413.772   89.529    0.258    0.436    6.253
  414.022   90.298    0.253    0.442    5.818
  414.272   92.490    0.249    0.450    5.804
  414.522   92.043    0.248    0.444    5.907
  414.772   91.793    0.239    0.453    6.022
  415.022   88.579    0.219    0.457    6.146
  415.272   86.918    0.215    0.453    6.243
  415.522   91.285    0.203    0.430    6.306
  415.772   94.183    0.215    0.428    6.358
  416.022   97.920    0.234    0.433    6.259
  416.272   98.246    0.237    0.445    6.090
  416.522   96.933    0.235    0.458    5.911
  416.772   98.953    0.248    0.455    5.738
  417.022  100.549    0.253    0.451    5.596
  417.272  103.067    0.235    0.458    5.497
  417.522  105.195    0.240    0.460    5.507
  417.772  105.595    0.232    0.466    5.372
  418.022  104.444    0.247    0.466    5.117
  418.272  104.590    0.251    0.466    4.860
  418.522  106.284    0.234    0.469    4.615
  418.772  108.889    0.227    0.475    4.335
  419.022  110.561    0.234    0.478    4.155
  419.272  112.918    0.210    0.482    4.085
  419.522  110.002    0.191    0.480    4.255
  419.772  105.077    0.205    0.454    4.891
  420.022   99.450    0.163    0.432    5.928
  420.272   89.956    0.132    0.397    6.939
  420.522   85.701    0.112    0.386    8.160
  420.772   84.366    0.123    0.389    9.011
  421.022   83.106    0.122    0.371   10.327
  421.272   81.265    0.120    0.349   10.006
  421.522   83.907    0.134    0.374    8.674
  421.772   89.039    0.149    0.410    7.718
  422.022   97.351    0.184    0.436    7.203
  422.272  101.447    0.204    0.453    6.662
  422.522   99.830    0.209    0.460    6.311
  422.772   96.520    0.200    0.452    6.132
  423.022   95.282    0.174    0.447    6.025
  423.272   93.919    0.159    0.453    6.063
  423.522   97.844    0.167    0.450    6.141
  423.772  101.229    0.179    0.441    6.141
  424.022  104.391    0.180    0.435    6.141
  424.272  105.245    0.196    0.451    6.140
  424.522  103.669    0.190    0.463    6.140
  424.772  101.455    0.189    0.472    6.136
  425.022  100.416    0.197    0.462    6.242
  425.272   99.822    0.192    0.445    6.308
  425.522   99.157    0.182    0.448    6.378
  425.772   98.045    0.177    0.444    6.583
  426.022   97.786    0.167    0.440    6.775
  426.272   96.736    0.161    0.436    7.127
  426.522   93.230    0.179    0.450    7.331
  426.772   90.993    0.192    0.451    7.761
  427.022   88.344    0.189    0.446    8.240
  427.272   86.305    0.179    0.426    9.154
  427.522   85.160    0.153    0.392    9.922
  427.772   83.816    0.106    0.365   11.599
  428.022   91.516    0.091    0.302   13.316
  428.272   99.436    0.122    0.346   11.977
  428.522  106.705    0.163    0.376    9.829
  428.772  109.441    0.186    0.403    8.453
  429.022  112.188    0.178    0.434    7.491
  429.272  112.358    0.179    0.444    6.934
  429.522  112.644    0.173    0.439    6.561
  429.772  116.404    0.170    0.436    6.373
  430.022  122.071    0.169    0.448    6.348
  430.272  126.923    0.162    0.457    6.639
  430.522  131.361    0.156    0.438    6.608
  430.772  135.132    0.153    0.419    6.823
  431.022  132.092    0.173    0.402    6.886
  431.272  129.560    0.192    0.400    6.880
  431.522  128.921    0.198    0.400    6.798
  431.772  130.005    0.183    0.395    6.707
  432.022  130.553    0.180    0.392    6.291
  432.272  130.244    0.191    0.408    5.858
  432.522  127.475    0.202    0.425    5.593
  432.772  126.254    0.198    0.441    5.604
  433.022  123.901    0.165    0.432    5.628
  433.272  124.506    0.155    0.428    5.703
  433.522  126.208    0.172    0.430    5.675
  433.772  128.476    0.194    0.438    5.117
  434.022  129.973    0.226    0.446    4.287
  434.272  131.320    0.225    0.460    3.833
  434.522  131.795    0.238    0.472    3.341
  434.772  127.417    0.243    0.488    2.893
  435.022  118.722    0.256    0.504    2.530
  435.272  112.351    0.261    0.523    2.204
  435.522  115.715    0.250    0.539    2.046
  435.772  116.867    0.242    0.545    1.890
  436.022  117.910    0.223    0.522    1.877
  436.272  117.723    0.203    0.514    1.896
  436.522  114.303    0.199    0.515    2.016
  436.772  110.838    0.197    0.516    2.202
  437.022  107.494    0.178    0.499    2.550
  437.272  104.916    0.162    0.465    3.053
  437.522  104.511    0.141    0.426    3.737
  437.772  105.429    0.125    0.401    4.214
  438.022  107.138    0.144    0.407    4.959
  438.272  107.720    0.164    0.418    5.408
  438.522  105.525    0.146    0.424    6.010
  438.772  101.472    0.122    0.394    6.634
  439.022  100.312    0.101    0.368    7.175
  439.272  100.497    0.093    0.365    7.625
  439.522  101.585    0.125    0.391    7.958
  439.772  101.702    0.117    0.408    7.639
  440.022  100.117    0.108    0.411    7.157
  440.272  100.317    0.089    0.417    6.738
  440.522  101.201    0.122    0.426    6.672
  440.772   98.797    0.135    0.436    6.620
  441.022   92.166    0.133    0.383    6.574
  441.272   89.013    0.110    0.365    6.565
  441.522   93.382    0.093    0.378    7.599
  441.772   95.744    0.127    0.402    7.766
  442.022   99.086    0.150    0.410    7.807
  442.272   99.261    0.167    0.419    7.812
  442.522   98.636    0.149    0.414    7.742
  442.772   98.804    0.137    0.408    7.336
  443.022   99.873    0.127    0.398    7.131
  443.272  100.781    0.130    0.404    6.970
  443.522   97.558    0.133    0.410    7.147
  443.772   95.467    0.112    0.399    7.483
  444.022   88.718    0.089    0.376    7.934
  444.272   84.972    0.075    0.344    8.601
  444.522   83.942    0.074    0.332    9.129
  444.772   84.060    0.099    0.386    9.535
