~VERSION INFORMATION
 VERS.                 2.0:   CWLS LOG ASCII STANDARD -VERSION 2.0
 WRAP.                  NO:   ONE LINE PER DEPTH STEP
~WELL INFORMATION BLOCK
#MNEM.UNIT           DATA                    DESCRIPTION OF MNEMONIC
#---------    -------------------            -------------------------------
# Generated from Intellog Unique Number	CW_73_75/WELL/1045
WELL.         L56 ET AL MARTIN 11-28         : Well_name    - WELL
LOC .         00/11-28-074-23W4/0            : Location     - LOCATION
UWI .         00/11-28-074-23W4/0            : Uwi          - UNIQUE WELL ID
ENTR.         JAYE                           : Entered      - ENTERED BY
SRVC.         SCHLUMBERGER                   : Scn          - SERVICE COMPANY
DATE.         1 JAN 76                       : Date         - LOG DATE
STRT.M        396.24                         : top_depth    - START DEPTH
STOP.M        624.74                         : bot_depth    - STOP DEPTH
STEP.M        0.25                           : increment    - STEP LENGTH
 NULL. -999.2500:NULL Value
~CURVE INFORMATION BLOCK
#MNEM UNIT       ERCB CURVE CODE    CURVE DESCRIPTION
#-----------   ------------------   ----------------------------------
DEPT.M        00 001 00 00         : DEPTH        - DEPTH
ILD .OHMM     00 120 00 00         : RESD         - DEEP RESISTIVITY (DIL)
DPHI.V/V      00 890 00 00         : PHID         - DENSITY POROSITY (SANDSTONE)
NPHI.V/V      00 330 00 00         : PHIN         - NEUTRON POROSITY (SANDSTONE)
GR  .API      00 310 00 00         : GR           - GAMMA RAY
CALI.MM       00 280 01 00         : CAL          - CALIPER
~PARAMETER INFORMATION
#MNEM.UNIT           DATA             DESCRIPTION OF MNEMONIC
#---------         -----------     ------------------------------
GL  .M        691.896              : gl           - GROUND LEVEL ELEVATION
EREF.M        695.249              : kb           - ELEVATION OF DEPTH REFERENCE
DATM.M        691.896              : datum        - DATUM ELEVATION
TDD .M        636.422              : tdd          - TOTAL DEPTH DRILLER
RUN .         ONE                  : Run          - RUN NUMBER
MATR.         SANDSTONE            : Logunit      - NEUTRON MATRIX
TMAX.C        22.2222              : BHT          - MAXIMUM RECORDED TEMPERATURE
BHTD.M        637.032              : BHTDEP       - MAXIMUM RECORDED TEMPERATURE
RMT .C        26.6667              : MDTP         - TEMPERATURE OF MUD
MUDD.KG/M     0                    : MWT          - MUD DENSITY
NEUT.         1                    : NEUTRON      - NEUTRON TYPE
RESI.         0                    : RESIST       - RESISTIVITY TYPE
RM  .OHMM     1.11                 : RM           - RESISTIVITY OF MUD
RMC .OHMM     0                    : RMC          - RESISTIVITY OF MUD CAKE
RMF .OHMM     1.02                 : RMF          - RESISTIVITY OF MUD FILTRATE
SUFT.C        -17.7778             : SUFT         - SURFACE TEMPERATURE
~A  DEPTH     RESD     PHID     PHIN       GR      CAL
# ...
  505.740    5.093    0.270    0.426   58.340  152.138
  505.990    5.104    0.291    0.424   58.136  150.244
  506.240    4.986    0.301    0.443   57.993  149.075
  506.490    4.888    0.313    0.448   58.644  147.178
  506.740    4.724    0.308    0.434   58.440  147.248
  506.990    4.564    0.306    0.428   56.039  148.348
  507.240    4.378    0.306    0.420   54.738  148.933
  507.490    4.262    0.299    0.424   53.802  150.137
  507.740    4.171    0.293    0.417   57.442  151.857
  507.990    4.119    0.308    0.411   59.007  152.337
  508.240    4.128    0.301    0.424   61.182  152.922
  508.490    4.221    0.291    0.450   61.710  153.816
  508.740    4.459    0.285    0.458   59.494  154.403
  508.990    4.823    0.290    0.445   59.531  154.572
  509.240    5.068    0.275    0.435   59.757  155.261
  509.490    5.088    0.264    0.434   59.187  155.637
  509.740    4.980    0.272    0.437   57.884  156.018
  509.990    4.794    0.282    0.418   56.827  156.189
  510.240    4.558    0.271    0.414   54.610  156.257
  510.490    4.380    0.269    0.410   56.908  156.221
  510.740    4.240    0.270    0.411   59.754  155.978
  510.990    4.241    0.264    0.427   56.439  156.353
  511.240    4.336    0.252    0.422   53.612  156.319
  511.490    4.442    0.201    0.357   51.151  156.285
  511.740    4.419    0.160    0.300   51.190  156.148
  511.990    4.332    0.087    0.265   49.402  156.830
  512.240    4.389    0.065    0.186   46.331  157.729
  512.490    4.612    0.056    0.173   43.747  159.760
  512.740    4.872    0.045    0.170   42.385  161.996
  512.990    5.299    0.037    0.166   41.937  162.067
  513.240    5.967    0.012    0.163   41.671  160.273
  513.490    7.096    0.035    0.158   41.709  159.102
  513.740    8.546    0.026    0.152   41.630  158.759
  513.990   10.181    0.039    0.154   42.035  158.516
  514.240   11.075    0.048    0.186   43.662  157.547
  514.490   11.489    0.057    0.241   46.203  156.587
  514.740   11.450    0.095    0.326   49.780  155.826
  514.990   11.024    0.228    0.370   52.933  155.273
  515.240   10.594    0.276    0.423   57.182  154.415
  515.490   10.145    0.279    0.428   58.687  154.687
  515.740    9.556    0.276    0.433   60.862  154.963
  515.990    7.796    0.269    0.438   62.794  154.412
  516.240    6.188    0.287    0.446   60.758  151.896
  516.490    5.332    0.315    0.456   58.908  150.623
  516.740    4.755    0.333    0.463   58.398  151.414
  516.990    4.143    0.315    0.464   58.559  154.788
  517.240    3.902    0.302    0.458   58.479  153.615
  517.490    3.812    0.320    0.449   56.629  151.306
  517.740    3.827    0.313    0.436   53.497  151.891
  517.990    3.842    0.295    0.422   49.937  153.095
  518.240    3.885    0.262    0.461   50.099  153.265
  518.490    3.943    0.257    0.476   51.788  153.233
  518.740    4.024    0.250    0.457   53.900  152.578
  518.990    4.160    0.244    0.441   51.441  150.991
  519.240    4.347    0.241    0.428   50.383  150.543
  519.490    4.584    0.287    0.440   52.618  150.923
  519.740    4.843    0.303    0.453   51.376  153.054
  519.990    4.996    0.269    0.464   54.589  154.364
  520.240    5.035    0.284    0.484   59.266  153.192
  520.490    4.963    0.294    0.465   63.638  148.198
  520.740    4.857    0.269    0.463   65.264  150.230
  520.990    4.668    0.253    0.480   65.731  156.081
  521.240    4.445    0.303    0.488   67.235  149.230
  521.490    4.264    0.278    0.458   69.288  148.575
  521.740    4.083    0.249    0.427   71.770  153.600
  521.990    3.889    0.227    0.436   78.947  156.456
  522.240    3.724    0.232    0.448   79.655  156.113
  522.490    3.644    0.244    0.445   78.905  150.601
  522.740    3.639    0.217    0.437   82.849  150.049
  522.990    3.734    0.202    0.458   88.561  149.602
  523.240    4.024    0.220    0.451   89.700  149.255
  523.490    4.322    0.205    0.449   85.288  149.528
  523.740    4.516    0.188    0.453   85.876  150.219
  523.990    4.567    0.194    0.450   90.736  151.939
  524.240    4.577    0.199    0.445   89.738  155.001
  524.490    4.545    0.211    0.443   89.414  156.827
  524.740    4.489    0.201    0.433   90.978  157.203
  524.990    4.393    0.208    0.425   92.361  156.136
  525.240    4.371    0.201    0.424   92.095  155.273
  525.490    4.460    0.193    0.424   94.210  155.654
  525.740    4.619    0.183    0.428   94.129  158.098
  525.990    4.748    0.190    0.445   93.313  161.471
  526.240    4.837    0.199    0.432   92.438  159.576
  526.490    4.865    0.211    0.428   91.563  156.958
  526.740    4.849    0.198    0.439   89.347  155.579
  526.990    4.832    0.183    0.417   87.008  155.752
  527.240    4.843    0.162    0.416   89.855  160.159
  527.490    4.871    0.176    0.436   95.081  162.292
  527.740    4.899    0.184    0.453   96.462  162.051
  527.990    5.101    0.190    0.458   95.039  161.499
  528.240    5.438    0.188    0.433   95.993  159.191
  528.490    5.851    0.181    0.440   98.901  157.502
  528.740    6.047    0.163    0.467   95.770  158.707
  528.990    5.983    0.173    0.456   92.394  160.630
  529.240    5.782    0.165    0.440   93.226  161.941
  529.490    5.648    0.157    0.439   95.889  162.424
  529.740    5.548    0.171    0.435   98.613  162.698
  529.990    5.400    0.167    0.447  100.301  162.764
  530.240    5.314    0.161    0.450   98.633  162.006
  530.490    5.210    0.182    0.438   96.112  160.940
  530.740    5.127    0.204    0.441   88.709  159.974
  530.990    5.054    0.197    0.446   86.858  156.840
  531.240    4.947    0.184    0.434   86.350  153.601
  531.490    4.859    0.164    0.399   84.376  152.431
  531.740    4.764    0.106    0.375   79.903  152.705
  531.990    4.740    0.124    0.382   79.820  152.975
  532.240    4.741    0.149    0.412   81.448  153.565
  532.490    4.847    0.179    0.446   87.771  154.355
  532.740    5.047    0.194    0.463   89.701  155.147
  532.990    5.459    0.201    0.463   93.219  156.145
  533.240    5.949    0.212    0.445   92.039  156.830
  533.490    5.940    0.195    0.448   90.310  157.106
  533.740    5.771    0.187    0.440   90.043  157.375
  533.990    5.597    0.201    0.423   91.001  157.447
  534.240    5.498    0.197    0.412   92.078  157.310
  534.490    5.420    0.187    0.413   92.667  157.790
  534.740    5.363    0.176    0.418   92.646  158.271
  534.990    5.296    0.174    0.414   92.808  158.959
  535.240    5.231    0.197    0.426   93.032  159.338
  535.490    5.176    0.183    0.430   93.193  159.610
  535.740    5.140    0.184    0.433   90.489  159.679
  535.990    5.141    0.190    0.446   90.528  159.647
  536.240    5.133    0.167    0.447   91.787  159.612
  536.490    5.154    0.157    0.432   94.268  159.267
  536.740    5.165    0.173    0.423   94.553  159.230
  536.990    5.195    0.189    0.418   90.445  159.399
  537.240    5.225    0.167    0.427   92.377  159.157
  537.490    5.255    0.174    0.446   93.880  158.708
  537.740    5.285    0.189    0.451   92.213  158.464
  537.990    5.296    0.174    0.445   92.740  158.433
  538.240    5.259    0.163    0.439   93.148  158.503
  538.490    5.194    0.155    0.437   90.687  159.396
  538.740    5.206    0.161    0.437   91.214  161.737
  538.990    5.293    0.176    0.433   93.817  162.529
  539.240    5.431    0.186    0.421   93.734  162.905
  539.490    5.513    0.172    0.397   94.079  162.870
  539.740    5.555    0.171    0.397   95.402  162.836
  539.990    5.556    0.182    0.422   95.442  162.697
  540.240    5.528    0.176    0.438   93.590  162.559
  540.490    5.420    0.164    0.430   91.130  159.735
  540.740    5.353    0.172    0.399   88.669  158.248
  540.990    5.394    0.181    0.378   87.305  157.593
  541.240    5.504    0.182    0.368   87.224  157.045
  541.490    5.567    0.175    0.386   88.972  156.908
  541.740    5.468    0.176    0.413   91.879  157.386
  541.990    5.274    0.169    0.420   92.347  160.969
