~VERSION INFORMATION
 VERS.                 2.0:   CWLS LOG ASCII STANDARD -VERSION 2.0
 WRAP.                  NO:   ONE LINE PER DEPTH STEP
~WELL INFORMATION BLOCK
#MNEM.UNIT           DATA                    DESCRIPTION OF MNEMONIC
#---------    -------------------            -------------------------------
# Generated from Intellog Unique Number	CW_79_81/WELL/2490
WELL.         13-31-080-23W4                 : Well_name    - WELL
LOC .         00/13-31-080-23W4/0            : Location     - LOCATION
UWI .         00/13-31-080-23W4/0            : Uwi          - UNIQUE WELL ID
ENTR.         MAX                            : Entered      - ENTERED BY
SRVC.         SCHLUMBERGER                   : Scn          - SERVICE COMPANY
STRT.M        250                            : top_depth    - START DEPTH
STOP.M        479.75                         : bot_depth    - STOP DEPTH
STEP.M        0.25                           : increment    - STEP LENGTH
 NULL. -999.2500:NULL Value
~CURVE INFORMATION BLOCK
#MNEM UNIT       ERCB CURVE CODE    CURVE DESCRIPTION
#-----------   ------------------   ----------------------------------
DEPT.M        00 001 00 00         : DEPTH        - DEPTH
ILD .OHMM     00 120 00 00         : RESD         - DEEP RESISTIVITY (DIL)
NPHI.V/V      00 330 00 00         : PHIN         - NEUTRON POROSITY (SANDSTONE)
DPHI.V/V      00 890 00 00         : PHID         - DENSITY POROSITY (SANDSTONE)
GR  .API      00 310 00 00         : GR           - GAMMA RAY
CALI.MM       00 280 01 00         : CAL          - CALIPER
~PARAMETER INFORMATION
#MNEM.UNIT           DATA             DESCRIPTION OF MNEMONIC
#---------         -----------     ------------------------------
GL  .M        599.82               : gl           - GROUND LEVEL ELEVATION
EREF.M        604.05               : kb           - ELEVATION OF DEPTH REFERENCE
DATM.M        599.82               : datum        - DATUM ELEVATION
TDD .M        482                  : tdd          - TOTAL DEPTH DRILLER
RUN .         ONE                  : Run          - RUN NUMBER
ENG .         BILL                 : Engineer     - RECORDING ENGINEER
WIT .         JIM                  : Witness      - WITNESSED BY
MUD .         GEL                  : Mud_type     - MUD TYPE
MATR.         SANDSTONE            : Logunit      - NEUTRON MATRIX
TMAX.C        29                   : BHT          - MAXIMUM RECORDED TEMPERATURE
BHTD.M        482                  : BHTDEP       - MAXIMUM RECORDED TEMPERATURE
MATR.         1                    : LOGUNIT      - NEUTRON MATRIX
RMT .C        15                   : MDTP         - TEMPERATURE OF MUD
NEUT.         1                    : NEUTRON      - NEUTRON TYPE
RESI.         0                    : RESIST       - RESISTIVITY TYPE
RMC .OHMM     6.9                  : RMC          - RESISTIVITY OF MUD CAKE
RMF .OHMM     6.67                 : RMF          - RESISTIVITY OF MUD FILTRATE
SUFT.C        -20                  : SUFT         - SURFACE TEMPERATURE
~A  DEPTH     RESD     PHIN     PHID       GR      CAL
# ...
  323.000    5.861    0.470    0.265   88.086  215.688
  323.250    6.890    0.473    0.265   88.082  214.725
  323.500    9.636    0.508    0.261   86.627  213.538
  323.750   10.921    0.519    0.266   82.120  211.232
  324.000   12.330    0.518    0.291   77.255  210.105
  324.250   13.185    0.499    0.299   73.351  209.372
  324.500   13.246    0.480    0.290   71.303  208.639
  324.750   13.121    0.502    0.300   71.639  207.837
  325.000   12.935    0.499    0.318   71.928  207.496
  325.250   12.857    0.460    0.327   74.602  207.568
  325.500   12.837    0.452    0.332   76.199  207.633
  325.750   12.850    0.465    0.331   75.522  207.904
  326.000   12.870    0.484    0.328   72.813  208.281
  326.250   12.896    0.480    0.321   69.811  208.372
  326.500   13.030    0.471    0.318   70.091  208.431
  326.750   13.137    0.474    0.315   70.617  208.495
  327.000   13.323    0.459    0.315   69.880  208.564
  327.250   13.784    0.444    0.317   68.246  208.632
  327.500   14.611    0.439    0.318   66.794  208.700
  327.750   16.075    0.441    0.315   67.423  208.627
  328.000   17.815    0.441    0.312   67.966  207.870
  328.250   20.626    0.450    0.319   68.487  207.942
  328.500   24.041    0.453    0.305   68.115  208.605
  328.750   27.195    0.445    0.267   66.242  209.869
  329.000   27.550    0.425    0.202   63.348  211.633
  329.250   22.457    0.372    0.116   60.657  213.790
  329.500   20.044    0.248    0.121   58.948  214.286
  329.750   15.357    0.244    0.126   57.804  213.553
  330.000   12.177    0.258    0.134   58.802  212.526
  330.250   10.176    0.273    0.202   61.592  211.003
  330.500    9.102    0.298    0.303   65.577  209.280
  330.750    8.927    0.378    0.335   70.085  208.003
  331.000    9.006    0.429    0.356   70.882  207.239
  331.250    9.356    0.493    0.363   71.159  207.310
  331.500    9.771    0.521    0.355   71.257  207.381
  331.750   10.153    0.529    0.343   70.343  207.445
  332.000   10.377    0.520    0.334   69.372  207.488
  332.250   10.250    0.490    0.330   71.441  207.605
  332.500    9.951    0.487    0.328   73.226  208.191
  332.750    9.669    0.505    0.327   73.751  208.248
  333.000    9.395    0.503    0.322   72.656  208.305
  333.250    9.094    0.492    0.319   71.261  208.576
  333.500    8.774    0.482    0.321   70.586  208.955
  333.750    8.428    0.484    0.320   71.753  209.117
  334.000    8.243    0.505    0.322   73.786  209.606
  334.250    8.070    0.506    0.322   74.786  209.663
  334.500    7.858    0.504    0.322   75.609  210.035
  334.750    7.752    0.502    0.324   74.932  210.508
  335.000    7.760    0.503    0.327   73.414  210.861
  335.250    7.781    0.506    0.326   74.252  210.893
  335.500    7.851    0.507    0.325   77.038  211.057
  335.750    7.918    0.506    0.321   78.046  211.512
  336.000    7.942    0.509    0.316   77.785  211.968
  336.250    7.980    0.509    0.314   76.628  212.235
  336.500    8.003    0.507    0.315   75.236  212.310
  336.750    7.847    0.506    0.317   74.868  212.470
  337.000    7.617    0.503    0.315   76.408  212.952
  337.250    7.129    0.538    0.314   78.838  213.429
  337.500    6.635    0.554    0.307   79.837  213.901
  337.750    6.264    0.544    0.303   81.793  214.371
  338.000    6.045    0.521    0.300   85.303  215.036
  338.250    5.982    0.513    0.282   89.527  216.472
  338.500    6.082    0.512    0.271   91.320  217.384
  338.750    6.180    0.543    0.268   92.555  218.252
  339.000    6.244    0.544    0.263   94.334  219.126
  339.250    6.298    0.528    0.257   95.096  219.988
  339.500    6.329    0.507    0.249   94.539  220.840
  339.750    6.261    0.494    0.238   93.526  221.891
  340.000    6.125    0.490    0.241   93.072  222.803
  340.250    5.951    0.487    0.253   91.923  223.665
  340.500    5.815    0.485    0.252   91.123  224.531
  340.750    5.800    0.483    0.248   90.563  225.201
  341.000    5.947    0.487    0.241   90.190  225.571
  341.250    6.386    0.507    0.227   89.761  225.575
  341.500    7.022    0.507    0.224   88.555  225.242
  341.750    7.135    0.500    0.238   86.445  224.893
  342.000    7.856    0.505    0.246   83.966  224.261
  342.250    8.833    0.525    0.251   81.017  223.336
  342.500    9.580    0.544    0.253   79.031  222.408
  342.750    9.469    0.527    0.251   80.988  222.089
  343.000    8.915    0.533    0.265   81.037  222.163
  343.250    8.219    0.515    0.270   82.267  222.248
  343.500    8.062    0.485    0.255   84.760  222.312
  343.750    7.921    0.479    0.228   86.359  222.380
  344.000    7.648    0.493    0.207   86.885  222.455
  344.250    7.333    0.478    0.215   88.285  222.532
  344.500    7.118    0.455    0.220   89.073  222.599
  344.750    7.125    0.442    0.216   89.355  222.677
  345.000    7.574    0.449    0.213   89.272  222.745
  345.250    8.228    0.462    0.215   88.834  222.813
  345.500    8.785    0.472    0.223   88.101  222.286
  345.750    8.808    0.480    0.241   87.091  219.565
  346.000    8.551    0.488    0.242   86.633  217.562
  346.250    8.432    0.487    0.249   86.436  217.221
  346.500    8.317    0.497    0.243   86.419  217.194
  346.750    8.264    0.504    0.229   86.823  217.069
  347.000    8.273    0.503    0.217   87.527  216.838
  347.250    8.285    0.493    0.228   88.106  216.911
  347.500    8.294    0.466    0.244   88.395  216.993
  347.750    8.302    0.469    0.243   88.438  217.071
  348.000    8.314    0.475    0.242   88.657  217.139
  348.250    8.324    0.479    0.239   89.056  217.203
  348.500    8.331    0.479    0.234   89.637  217.367
  348.750    8.343    0.478    0.238   90.457  217.930
  349.000    8.350    0.472    0.243   90.755  218.435
  349.250    8.298    0.487    0.238   90.554  218.897
  349.500    8.293    0.491    0.235   90.171  219.360
  349.750    8.272    0.485    0.232   89.853  219.624
  350.000    8.219    0.480    0.232   89.120  219.789
  350.250    8.142    0.487    0.239   86.726  220.275
  350.500    8.027    0.476    0.235   86.521  220.357
  350.750    7.859    0.463    0.227   87.038  220.421
  351.000    7.696    0.455    0.228   87.737  220.784
  351.250    7.563    0.463    0.233   88.978  221.055
  351.500    7.514    0.485    0.233   90.757  221.131
  351.750    7.728    0.498    0.229   93.167  221.214
  352.000    8.233    0.495    0.238   95.459  221.274
  352.250    9.133    0.502    0.242   93.101  219.750
  352.500   10.297    0.526    0.232   83.392  218.526
  352.750   11.617    0.530    0.230   74.699  217.205
  353.000   12.626    0.506    0.250   69.896  215.885
  353.250   12.534    0.478    0.297   66.562  214.917
  353.500   12.943    0.483    0.307   67.599  213.745
  353.750   13.541    0.482    0.293   71.469  213.005
  354.000   14.481    0.481    0.280   72.465  212.580
  354.250   14.949    0.482    0.271   70.594  212.455
  354.500   14.518    0.480    0.272   67.648  212.528
  354.750   13.112    0.470    0.299   67.512  212.617
  355.000   11.442    0.467    0.312   69.051  212.669
  355.250   11.371    0.470    0.282   70.290  212.754
  355.500   11.617    0.475    0.271   69.735  212.818
  355.750   11.849    0.469    0.272   68.579  212.882
  356.000   11.770    0.457    0.278   67.544  213.055
  356.250   11.015    0.457    0.278   67.330  213.630
  356.500   10.212    0.471    0.270   69.617  214.119
  356.750    9.202    0.457    0.252   74.439  214.575
  357.000    8.396    0.447    0.239   81.059  215.041
  357.250    7.810    0.447    0.233   86.606  215.308
  357.500    7.412    0.460    0.233   90.120  215.376
  357.750    7.196    0.487    0.239   92.564  215.469
  358.000    7.433    0.501    0.246   92.608  215.543
  358.250    7.664    0.490    0.274   89.776  215.607
  358.500    7.304    0.481    0.264   87.483  215.976
  358.750    6.683    0.473    0.239   85.849  216.246
  359.000    6.144    0.471    0.220   84.816  216.417
  359.250    5.900    0.482    0.229   84.054  216.900
