~VERSION INFORMATION
 VERS.                 2.0:   CWLS LOG ASCII STANDARD -VERSION 2.0
 WRAP.                  NO:   ONE LINE PER DEPTH STEP
~WELL INFORMATION BLOCK
#MNEM.UNIT           DATA                    DESCRIPTION OF MNEMONIC
#---------    -------------------            -------------------------------
# Generated from Intellog Unique Number	CW_70_72/WELL/1075
NULL.         -999.25                        : NULL_VALUE
WELL.         WESTM ET AL CALLW 16-23        : Well_name    - WELL              
LOC .         16-23-071-20W4                 : Location     - LOCATION          
UWI .         00/16-23-071-20W4/0            : Uwi          - UNIQUE WELL ID    
ENTR.         JAYE                           : Entered      - ENTERED BY        
SRVC.         SCHLUMBERGER                   : Scn          - SERVICE COMPANY   
DATE.         21 FEB 84                      : Date         - LOG DATE          
STRT.M        315                            : top_depth    - START DEPTH       
STOP.M        510                            : bot_depth    - STOP DEPTH        
STEP.M        0.25                           : increment    - STEP LENGTH       
~CURVE INFORMATION BLOCK
#MNEM UNIT       ERCB CURVE CODE    CURVE DESCRIPTION
#-----------   ------------------   ----------------------------------
DEPT.M        00 001 00 00         : DEPTH        - DEPTH                       
DPHI.V/V      00 890 00 00         : PHID         - DENSITY POROSITY (SANDSTONE)
NPHI.V/V      00 330 00 00         : PHIN         - NEUTRON POROSITY (SANDSTONE)
GR  .API      00 310 00 00         : GR           - GAMMA RAY                   
CALI.MM       00 280 01 00         : CAL          - CALIPER                     
ILD .OHMM     00 120 00 00         : RESD         - DEEP RESISTIVITY (DIL)      
~PARAMETER INFORMATION       
#MNEM.UNIT           DATA             DESCRIPTION OF MNEMONIC
#---------         -----------     ------------------------------
GL  .M        586.4                : gl           - GROUND LEVEL ELEVATION      
EREF.M        588.9                : kb           - ELEVATION OF DEPTH REFERENCE
DATM.M        586.4                : datum        - DATUM ELEVATION             
TDD .M        518                  : tdd          - TOTAL DEPTH DRILLER         
RUN .         ONE                  : Run          - RUN NUMBER                  
ENG .         DOWNIE               : Engineer     - RECORDING ENGINEER          
WIT .         JACKSON              : Witness      - WITNESSED BY                
BASE.         EDSON                : Branch       - HOME BASE OF LOGGING UNIT   
MUD .         GEL CHEN             : Mud_type     - MUD TYPE                    
MATR.         SANDSTONE            : Logunit      - NEUTRON MATRIX              
TMAX.C        26                   : BHT          - MAXIMUM RECORDED TEMPERATURE
BHTD.M        517.3                : BHTDEP       - MAXIMUM RECORDED TEMPERATURE
RMT .C        18.9                 : MDTP         - TEMPERATURE OF MUD          
MUDD.KG/M     1170                 : MWT          - MUD DENSITY                 
NEUT.         1                    : NEUTRON      - NEUTRON TYPE                
RESI.         0                    : RESIST       - RESISTIVITY TYPE            
RM  .OHMM     4.57                 : RM           - RESISTIVITY OF MUD          
RMC .OHMM     0                    : RMC          - RESISTIVITY OF MUD CAKE     
RMF .OHMM     4.13                 : RMF          - RESISTIVITY OF MUD FILTRATE 
SUFT.C        0                    : SUFT         - SURFACE TEMPERATURE         
~A  DEPTH     PHID     PHIN       GR      CAL     RESD
# ...
  388.000    0.291    0.460   66.854  159.555    8.822
  388.250    0.312    0.445   67.426  159.462    7.803
  388.500    0.300    0.419   68.310  158.856    6.547
  388.750    0.301    0.414   69.947  158.447    5.340
  389.000    0.304    0.422   71.145  158.150    4.591
  389.250    0.299    0.432   72.278  157.856    4.281
  389.500    0.291    0.442   70.409  157.865    4.239
  389.750    0.263    0.430   67.727  158.088    4.400
  390.000    0.229    0.385   67.672  158.208    4.636
  390.250    0.190    0.371   71.811  158.218    4.922
  390.500    0.180    0.402   76.888  158.547    5.304
  390.750    0.196    0.432   84.720  158.872    5.892
  391.000    0.220    0.433   84.165  158.991    6.138
  391.250    0.242    0.437   82.045  159.006    6.147
  391.500    0.245    0.443   80.739  158.602    5.973
  391.750    0.202    0.429   80.936  158.308    5.719
  392.000    0.198    0.419   82.134  158.317    5.619
  392.250    0.215    0.407   84.332  158.125    5.575
  392.500    0.235    0.407   84.653  158.140    5.604
  392.750    0.257    0.424   82.597  158.365    5.656
  393.000    0.249    0.418   82.481  158.373    5.738
  393.250    0.239    0.400   82.926  158.388    5.833
  393.500    0.237    0.385   84.061  158.507    5.953
  393.750    0.228    0.407   84.382  158.521    6.074
  394.000    0.222    0.442   83.264  158.640    6.164
  394.250    0.215    0.422   82.960  158.444    6.256
  394.500    0.210    0.430   84.595  158.562    6.311
  394.750    0.208    0.445   86.856  158.680    6.358
  395.000    0.203    0.437   84.737  158.070    6.414
  395.250    0.212    0.410   84.684  157.666    6.436
  395.500    0.214    0.399   85.317  157.470    6.432
  395.750    0.202    0.413   86.515  161.136    6.369
  396.000    0.195    0.424   88.463  163.756    6.191
  396.250    0.204    0.422   92.101  165.336    5.981
  396.500    0.195    0.414   93.111  166.600    5.651
  396.750    0.191    0.404   90.303  167.867    5.278
  397.000    0.203    0.430   92.126  167.984    4.875
  397.250    0.213    0.459   95.889  166.851    4.701
  397.500    0.227    0.481   89.264  161.964    4.586
  397.750    0.250    0.469   85.080  159.370    4.540
  398.000    0.240    0.428   84.713  158.863    4.530
  398.250    0.230    0.416   86.975  159.814    4.537
  398.500    0.222    0.430   89.110  160.874    4.568
  398.750    0.244    0.441   84.738  160.574    4.610
  399.000    0.282    0.438   79.177  159.231    4.669
  399.250    0.290    0.432   76.244  157.263    4.738
  399.500    0.265    0.418   78.131  156.967    4.809
  399.750    0.246    0.441   81.830  156.876    4.879
  400.000    0.249    0.448   84.531  156.369    4.970
  400.250    0.258    0.453   85.477  156.173    5.062
  400.500    0.257    0.457   81.043  155.770    5.195
  400.750    0.267    0.469   76.983  155.367    5.321
  401.000    0.275    0.459   75.364  155.380    5.430
  401.250    0.249    0.435   78.189  155.501    5.500
  401.500    0.225    0.422   81.765  155.827    5.549
  401.750    0.210    0.414   82.148  156.154    5.557
  402.000    0.216    0.417   82.094  156.481    5.484
  402.250    0.228    0.443   80.851  156.496    5.389
  402.500    0.240    0.457   78.106  156.299    5.275
  402.750    0.265    0.467   74.860  156.315    5.118
  403.000    0.293    0.464   71.551  156.538    4.991
  403.250    0.317    0.448   68.870  156.653    4.804
  403.500    0.333    0.427   65.498  157.503    4.625
  403.750    0.335    0.422   63.379  157.831    4.418
  404.000    0.327    0.430   65.077  158.159    4.198
  404.250    0.321    0.420   64.459  158.381    4.056
  404.500    0.275    0.422   61.213  158.810    4.016
  404.750    0.249    0.312   59.157  159.035    4.137
  405.000    0.162    0.248   60.793  159.047    4.360
  405.250    0.135    0.297   64.055  158.958    4.699
  405.500    0.194    0.384   70.009  158.762    5.298
  405.750    0.252    0.424   74.460  158.151    6.145
  406.000    0.310    0.453   74.969  157.643    6.697
  406.250    0.332    0.450   71.599  157.243    6.532
  406.500    0.331    0.433   69.479  157.046    5.977
  406.750    0.333    0.437   67.610  158.002    5.428
  407.000    0.343    0.454   66.492  159.058    4.966
  407.250    0.335    0.461   65.812  159.489    4.518
  407.500    0.324    0.467   65.883  159.186    4.308
  407.750    0.318    0.472   65.766  158.575    4.242
  408.000    0.316    0.478   66.338  158.381    4.233
  408.250    0.323    0.478   69.037  159.129    4.240
  408.500    0.314    0.446   72.487  159.660    4.269
  408.750    0.293    0.409   77.940  159.988    4.373
  409.000    0.279    0.396   76.322  160.106    4.480
  409.250    0.291    0.404   73.702  160.121    4.502
  409.500    0.304    0.427   69.956  160.240    4.492
  409.750    0.313    0.449   65.271  160.776    4.366
  410.000    0.295    0.469   60.335  160.581    4.250
  410.250    0.189    0.357   55.462  160.075    4.192
  410.500    0.207    0.311   56.159  159.774    4.143
  410.750    0.254    0.386   56.730  158.958    4.134
  411.000    0.290    0.420   59.118  158.344    4.140
  411.250    0.330    0.449   62.880  157.837    4.123
  411.500    0.331    0.438   66.331  157.434    4.090
  411.750    0.329    0.439   61.520  157.133    4.035
  412.000    0.331    0.420   59.527  157.148    3.973
  412.250    0.340    0.409   60.035  157.162    3.927
  412.500    0.350    0.476   61.170  157.175    3.903
  412.750    0.359    0.500   62.430  157.084    3.915
  413.000    0.373    0.521   63.941  157.097    3.944
  413.250    0.373    0.544   64.825  157.110    4.002
  413.500    0.318    0.511   63.708  157.233    4.077
  413.750    0.278    0.476   62.276  157.139    4.136
  414.000    0.227    0.442   56.401  157.259    4.252
  414.250    0.202    0.377   47.523  157.271    4.723
  414.500    0.234    0.347   53.039  157.284    5.256
  414.750    0.289    0.381   64.625  157.303    5.794
  415.000    0.297    0.410   67.700  157.209    6.105
  415.250    0.292    0.434   68.398  157.018    6.149
  415.500    0.285    0.422   70.346  157.029    5.941
  415.750    0.287    0.404   73.921  156.625    5.324
  416.000    0.281    0.416   75.493  156.221    4.844
  416.250    0.279    0.451   72.185  155.513    4.317
  416.500    0.281    0.442   68.877  155.519    4.048
  416.750    0.261    0.438   69.824  155.534    4.025
  417.000    0.276    0.443   73.525  155.345    4.052
  417.250    0.290    0.447   72.657  155.358    4.096
  417.500    0.292    0.438   69.536  155.262    4.156
  417.750    0.286    0.430   69.546  155.178    4.259
  418.000    0.275    0.414   71.493  155.084    4.370
  418.250    0.264    0.401   73.817  155.097    4.442
  418.500    0.271    0.416   69.945  155.214    4.517
  418.750    0.260    0.416   69.829  155.338    4.582
  419.000    0.240    0.408   72.278  155.454    4.730
  419.250    0.228    0.460   76.792  155.882    4.918
  419.500    0.240    0.458   78.240  156.730    5.134
  419.750    0.239    0.440   81.127  156.849    5.170
  420.000    0.232    0.419   85.955  158.949    4.995
  420.250    0.226    0.421   89.280  166.891    4.809
  420.500    0.230    0.442   91.979  170.973    4.493
  420.750    0.237    0.470   93.552  172.864    4.235
  421.000    0.225    0.459   95.250  174.024    3.912
  421.250    0.223    0.448   98.012  174.769    3.661
  421.500    0.231    0.509  103.090  175.410    3.439
  421.750    0.246    0.522  103.286  174.799    3.248
  422.000    0.243    0.533   98.914  173.976    2.989
  422.250    0.232    0.538   95.604  172.530    2.793
  422.500    0.242    0.515   99.743  170.044    2.698
  422.750    0.242    0.477  102.130  168.805    2.672
  423.000    0.236    0.461  100.323  168.611    2.691
  423.250    0.215    0.451   96.640  168.831    2.819
  423.500    0.228    0.444   99.026  169.681    3.096
  423.750    0.232    0.447  101.412  170.215    3.544
  424.000    0.213    0.456  104.613  170.545    3.936
  424.250    0.213    0.448   99.677  169.513    4.187
