~VERSION INFORMATION
 VERS.                 2.0:   CWLS LOG ASCII STANDARD -VERSION 2.0
 WRAP.                  NO:   ONE LINE PER DEPTH STEP
~WELL INFORMATION BLOCK
#MNEM.UNIT           DATA                    DESCRIPTION OF MNEMONIC
#---------    -------------------            -------------------------------
# Generated from Intellog Unique Number	CW_82_90/WELL/3449
WELL.         CHEVRON FINA TROUT             : Well_name    - WELL
LOC .         00/11-18-088-02W5/0            : Location     - LOCATION
UWI .         00/11-18-088-02W5/0            : Uwi          - UNIQUE WELL ID
ENTR.         MAX                            : Entered      - ENTERED BY
SRVC.         SCHLUMBERGER                   : Scn          - SERVICE COMPANY
STRT.M        381                            : top_depth    - START DEPTH
STOP.M        551.75                         : bot_depth    - STOP DEPTH
STEP.M        0.25                           : increment    - STEP LENGTH
 NULL. -999.2500:NULL Value
~CURVE INFORMATION BLOCK
#MNEM UNIT       ERCB CURVE CODE    CURVE DESCRIPTION
#-----------   ------------------   ----------------------------------
DEPT.M        00 001 00 00         : DEPTH        - DEPTH
ILD .OHMM     00 120 00 00         : RESD         - DEEP RESISTIVITY (DIL)
NPHI.V/V      00 330 00 00         : PHIN         - NEUTRON POROSITY (SANDSTONE)
DPHI.V/V      00 890 00 00         : PHID         - DENSITY POROSITY (SANDSTONE)
CALI.MM       00 280 01 00         : CAL          - CALIPER
GR  .API      00 310 00 00         : GR           - GAMMA RAY
~PARAMETER INFORMATION
#MNEM.UNIT           DATA             DESCRIPTION OF MNEMONIC
#---------         -----------     ------------------------------
GL  .M        738.896              : gl           - GROUND LEVEL ELEVATION
EREF.M        742.493              : kb           - ELEVATION OF DEPTH REFERENCE
DATM.M        738.896              : datum        - DATUM ELEVATION
TDD .M        555.041              : tdd          - TOTAL DEPTH DRILLER
RUN .         ONE                  : Run          - RUN NUMBER
ENG .         BILL                 : Engineer     - RECORDING ENGINEER
WIT .         JIM                  : Witness      - WITNESSED BY
MUD .         GEL                  : Mud_type     - MUD TYPE
MATR.         SANDSTONE            : Logunit      - NEUTRON MATRIX
TMAX.C        23.3333              : BHT          - MAXIMUM RECORDED TEMPERATURE
BHTD.M        555.041              : BHTDEP       - MAXIMUM RECORDED TEMPERATURE
MATR.         1                    : LOGUNIT      - NEUTRON MATRIX
RMT .C        17.2222              : MDTP         - TEMPERATURE OF MUD
NEUT.         1                    : NEUTRON      - NEUTRON TYPE
RESI.         0                    : RESIST       - RESISTIVITY TYPE
RMC .OHMM     5.05                 : RMC          - RESISTIVITY OF MUD CAKE
RMF .OHMM     8.05                 : RMF          - RESISTIVITY OF MUD FILTRATE
SUFT.C        -23.3333             : SUFT         - SURFACE TEMPERATURE
~A  DEPTH     RESD     PHIN     PHID      CAL       GR
# ...
  454.000    5.571    0.427    0.213  196.370   72.989
  454.250    5.481    0.446    0.199  196.999   76.881
  454.500    5.298    0.455    0.200  198.655   79.033
  454.750    5.120    0.464    0.202  198.771   78.524
  455.000    4.773    0.460    0.203  198.423   78.309
  455.250    4.447    0.488    0.205  198.075   81.028
  455.500    4.145    0.538    0.223  196.717   79.062
  455.750    4.116    0.567    0.261  195.342   75.609
  456.000    4.090    0.565    0.271  194.481   72.166
  456.250    4.096    0.541    0.265  194.613   71.951
  456.500    4.068    0.531    0.277  194.779   72.626
  456.750    3.897    0.544    0.269  194.928   74.191
  457.000    3.731    0.585    0.260  194.530   76.597
  457.250    3.477    0.616    0.267  196.219   80.802
  457.500    3.211    0.666    0.239  196.318   83.521
  457.750    2.912    0.654    0.223  196.451   86.837
  458.000    2.666    0.642    0.207  196.583   89.859
  458.250    2.396    0.639    0.179  196.732   93.174
  458.500    2.233    0.628    0.226  196.864   95.600
  458.750    2.119    0.622    0.239  197.494   95.101
  459.000    2.124    0.616    0.228  198.653   94.876
  459.250    2.148    0.613    0.229  199.249   94.367
  459.500    2.253    0.601    0.229  200.888   93.291
  459.750    2.362    0.586    0.225  201.518   90.425
  460.000    2.546    0.583    0.208  201.667   91.677
  460.250    2.719    0.583    0.209  200.308   94.406
  460.500    2.983    0.569    0.236  198.453   91.834
  460.750    3.185    0.537    0.237  196.631   87.510
  461.000    3.593    0.497    0.224  196.234   83.491
  461.250    3.835    0.474    0.227  196.383   81.808
  461.500    4.326    0.469    0.246  196.018   81.877
  461.750    5.340    0.510    0.270  194.693   79.607
  462.000    5.915    0.579    0.293  194.295   75.588
  462.250    7.044    0.597    0.315  194.428   70.668
  462.500    7.451    0.571    0.315  194.560   64.868
  462.750    8.479    0.536    0.299  194.709   66.726
  463.000   10.859    0.509    0.280  194.841   65.630
  463.250   15.501    0.452    0.232  194.990   62.178
  463.500   16.702    0.379    0.076  195.636   57.561
  463.750   19.350    0.243    0.014  196.762   53.815
  464.000   24.110    0.186    0.003  199.379   50.372
  464.250   34.115    0.174   -0.007  202.012   47.526
  464.500   46.541    0.178   -0.009  202.128   47.301
  464.750   39.258    0.193   -0.000  201.266   51.497
  465.000   31.070    0.210    0.031  200.919   54.235
  465.250   24.820    0.299    0.112  201.067   56.358
  465.500   13.298    0.381    0.210  197.722   59.390
  465.750   10.063    0.481    0.286  195.850   62.099
  466.000    8.718    0.580    0.312  195.005   65.424
  466.250    7.353    0.610    0.298  195.138   64.622
  466.500    7.238    0.582    0.304  195.270   64.710
  466.750    7.125    0.570    0.317  194.939   65.375
  467.000    6.946    0.564    0.328  195.038   66.636
  467.250    6.652    0.553    0.337  195.236   67.585
  467.500    6.033    0.540    0.333  195.319   68.857
  467.750    5.325    0.535    0.318  195.965   71.008
  468.000    4.178    0.528    0.276  196.097   72.827
  468.250    3.930    0.523    0.253  196.230   75.840
  468.500    3.698    0.586    0.232  196.892   82.099
  468.750    3.476    0.604    0.223  197.008   83.058
  469.000    3.328    0.588    0.218  197.654   84.613
  469.250    3.159    0.586    0.208  198.763   87.028
  469.500    2.998    0.587    0.201  200.403   90.060
  469.750    2.846    0.592    0.201  201.562   92.476
  470.000    2.750    0.591    0.200  201.661   95.205
  470.250    2.706    0.591    0.204  201.793   95.870
  470.500    2.711    0.595    0.211  201.942   95.655
  470.750    2.767    0.590    0.219  201.578   95.165
  471.000    2.824    0.581    0.222  201.710   92.300
  471.250    2.908    0.575    0.229  201.859   92.388
  471.500    2.994    0.566    0.228  201.014   93.053
  471.750    3.382    0.549    0.219  199.673   92.260
  472.000    3.776    0.531    0.215  198.778   90.265
  472.250    3.921    0.506    0.214  197.917   85.952
  472.500    4.188    0.462    0.222  197.602   81.619
  472.750    4.275    0.458    0.237  197.237   79.936
  473.000    4.284    0.479    0.242  196.840   82.665
  473.250    4.175    0.503    0.245  196.972   88.621
  473.500    3.754    0.564    0.242  196.641   93.991
  473.750    3.374    0.591    0.245  196.276   94.959
  474.000    3.232    0.602    0.253  195.895   91.506
  474.250    3.389    0.600    0.261  195.531   85.706
  474.500    3.651    0.586    0.272  195.713   75.222
  474.750    4.042    0.568    0.285  195.812   70.889
  475.000    4.642    0.550    0.293  195.961   68.042
  475.250    5.428    0.558    0.281  195.613   67.240
  475.500    6.348    0.543    0.265  194.752   67.318
  475.750    6.902    0.520    0.239  193.874   65.352
  476.000    6.918    0.513    0.219  193.045   66.898
  476.250    6.273    0.536    0.237  192.648   70.203
  476.500    4.789    0.552    0.266  192.797   74.693
  476.750    4.002    0.559    0.273  193.426   80.649
  477.000    3.376    0.560    0.274  194.072   82.791
  477.250    2.822    0.584    0.267  194.701   86.097
  477.500    2.337    0.602    0.258  195.347   90.283
  477.750    2.199    0.603    0.262  195.959   89.197
  478.000    2.243    0.598    0.260  196.605   86.634
  478.250    2.373    0.575    0.252  197.731   82.888
  478.500    2.628    0.560    0.241  199.851   75.044
  478.750    3.102    0.524    0.237  201.010   75.425
  479.000    3.830    0.507    0.235  201.143   75.210
  479.250    4.519    0.511    0.236  199.768   75.592
  479.500    4.488    0.501    0.238  196.936   77.421
  479.750    4.416    0.489    0.238  196.555   81.626
  480.000    4.388    0.491    0.238  198.194   83.748
  480.250    4.318    0.505    0.239  201.308   85.010
  480.500    4.249    0.515    0.237  200.960   87.142
  480.750    4.142    0.509    0.231  200.612   88.697
  481.000    4.041    0.507    0.220  199.750   89.656
  481.250    3.976    0.524    0.209  199.866   92.384
  481.500    3.949    0.554    0.210  201.009   93.930
  481.750    3.958    0.544    0.220  201.654   91.954
  482.000    4.038    0.530    0.223  201.787   89.988
  482.250    4.159    0.529    0.229  201.919   89.782
  482.500    4.322    0.552    0.233  202.052   90.438
  482.750    4.412    0.567    0.233  203.178   90.516
  483.000    4.423    0.576    0.232  201.819   90.310
  483.250    4.390    0.574    0.228  198.987   87.171
  483.500    4.358    0.552    0.225  198.126   84.295
  483.750    4.252    0.542    0.235  197.778   80.275
  484.000    4.147    0.523    0.249  197.413   76.236
  484.250    4.080    0.509    0.269  197.049   70.455
  484.500    3.873    0.496    0.271  196.684   71.130
  484.750    3.709    0.503    0.265  196.817   73.849
  485.000    3.552    0.536    0.258  196.966   76.265
  485.250    3.402    0.560    0.250  196.618   75.472
  485.500    3.318    0.560    0.250  196.270   72.626
  485.750    3.326    0.556    0.260  196.369   70.044
  486.000    3.455    0.555    0.274  196.534   67.188
  486.250    3.656    0.554    0.276  196.137   66.102
  486.500    3.834    0.540    0.256  196.286   65.310
  486.750    3.949    0.526    0.227  195.921   65.094
  487.000    3.993    0.527    0.212  196.054   66.053
  487.250    4.001    0.525    0.266  196.219   68.782
  487.500    3.975    0.552    0.253  196.351   70.024
  487.750    3.798    0.598    0.225  194.850   71.942
  488.000    3.770    0.586    0.234  195.408   74.899
  488.250    3.879    0.533    0.253  195.952   74.648
  488.500    4.214    0.492    0.227  196.510   74.677
  488.750    4.832    0.496    0.176  199.048   76.761
  489.000    5.540    0.463    0.174  202.570   78.553
  489.250    6.129    0.477    0.186  205.102   79.175
  489.500    6.304    0.560    0.207  206.643   79.208
  489.750    6.147    0.550    0.207  209.669   78.948
  490.000    5.884    0.541    0.208  210.723   80.151
  490.250    5.684    0.548    0.202  209.300   82.523
