~VERSION INFORMATION
 VERS.                 2.0:   CWLS LOG ASCII STANDARD -VERSION 2.0
 WRAP.                  NO:   ONE LINE PER DEPTH STEP
~WELL INFORMATION BLOCK
#MNEM.UNIT           DATA                    DESCRIPTION OF MNEMONIC
#---------    -------------------            -------------------------------
# Generated from Intellog Unique Number	CS_67_68/WELL/850
LOC .         00/11-32-068-16W4/0            : Location     - LOCATION
UWI .         00/11-32-068-16W4/0            : Uwi          - UNIQUE WELL ID
ENTR.         SP                             : Entered      - ENTERED BY
SRVC.         SCHLUMBERGER                   : Scn          - SERVICE COMPANY
STRT.M        243.84                         : top_depth    - START DEPTH
STOP.M        487.34                         : bot_depth    - STOP DEPTH
STEP.M        0.25                           : increment    - STEP LENGTH
 NULL. -999.2500:NULL Value
~CURVE INFORMATION BLOCK
#MNEM UNIT       ERCB CURVE CODE    CURVE DESCRIPTION
#-----------   ------------------   ----------------------------------
DEPT.M        00 001 00 00         : DEPTH        - DEPTH
GR  .API      00 310 00 00         : GR           - GAMMA RAY
DPHI.V/V      00 890 00 00         : PHID         - DENSITY POROSITY (SANDSTONE)
NPHI.V/V      00 330 00 00         : PHIN         - NEUTRON POROSITY (SANDSTONE)
ILD .OHMM     00 120 00 00         : RESD         - DEEP RESISTIVITY (DIL)
~PARAMETER INFORMATION
#MNEM.UNIT           DATA             DESCRIPTION OF MNEMONIC
#---------         -----------     ------------------------------
GL  .M        558.576              : gl           - GROUND LEVEL ELEVATION
EREF.M        562.234              : kb           - ELEVATION OF DEPTH REFERENCE
DATM.M        558.576              : datum        - DATUM ELEVATION
TDD .M        494.995              : tdd          - TOTAL DEPTH DRILLER
RUN .         ONE                  : Run          - RUN NUMBER
ENG .         BILL                 : Engineer     - RECORDING ENGINEER
WIT .         JIM                  : Witness      - WITNESSED BY
MUD .         GEL                  : Mud_type     - MUD TYPE
MATR.         SANDSTONE            : Logunit      - NEUTRON MATRIX
TMAX.C        23.8889              : BHT          - MAXIMUM RECORDED TEMPERATURE
BHTD.M        494.995              : BHTDEP       - MAXIMUM RECORDED TEMPERATURE
MATR.         1                    : LOGUNIT      - NEUTRON MATRIX
RMT .C        25                   : MDTP         - TEMPERATURE OF MUD
NEUT.         1                    : NEUTRON      - NEUTRON TYPE
RESI.         0                    : RESIST       - RESISTIVITY TYPE
RMC .OHMM     0.25                 : RMC          - RESISTIVITY OF MUD CAKE
RMF .OHMM     0.25                 : RMF          - RESISTIVITY OF MUD FILTRATE
SUFT.C        15                   : SUFT         - SURFACE TEMPERATURE
~A  DEPTH       GR     PHID     PHIN     RESD
# ...
  417.840   87.957    0.279    0.452    3.241
  418.090   87.542    0.262    0.457    3.360
  418.340   86.770    0.262    0.453    3.463
  418.590   86.478    0.255    0.450    3.507
  418.840   86.910    0.239    0.457    3.514
  419.090   87.277    0.226    0.447    3.481
  419.340   87.279    0.213    0.422    3.540
  419.590   87.774    0.196    0.397    3.687
  419.840   89.027    0.188    0.386    3.800
  420.090   87.778    0.231    0.417    3.788
  420.340   88.024    0.247    0.440    3.642
  420.590   89.222    0.259    0.458    3.476
  420.840   90.850    0.253    0.448    3.355
  421.090   93.383    0.258    0.438    3.301
  421.340   96.575    0.256    0.440    3.266
  421.590   99.837    0.229    0.442    3.247
  421.840  103.479    0.209    0.443    3.303
  422.090  105.830    0.198    0.451    3.393
  422.340  107.608    0.199    0.446    3.482
  422.590  109.202    0.194    0.440    3.548
  422.840  109.627    0.215    0.445    3.653
  423.090  109.325    0.212    0.446    3.699
  423.340  107.936    0.203    0.440    3.721
  423.590  106.626    0.195    0.430    3.719
  423.840  106.495    0.185    0.418    3.696
  424.090  107.569    0.203    0.422    3.693
  424.340  108.751    0.211    0.426    3.730
  424.590  109.384    0.214    0.431    3.770
  424.840  109.542    0.205    0.436    3.784
  425.090  108.875    0.202    0.444    3.782
  425.340  109.539    0.215    0.450    3.745
  425.590  110.609    0.219    0.454    3.689
  425.840  111.719    0.211    0.451    3.591
  426.090  112.398    0.209    0.445    3.534
  426.340  112.902    0.212    0.438    3.516
  426.590  111.779    0.207    0.446    3.587
  426.840  110.686    0.196    0.446    3.703
  427.090  109.730    0.186    0.434    3.788
  427.340  110.098    0.175    0.447    3.832
  427.590  110.940    0.204    0.454    3.888
  427.840  111.263    0.195    0.434    3.948
  428.090  109.592    0.203    0.402    3.951
  428.340  110.450    0.203    0.398    3.958
  428.590  111.980    0.198    0.398    3.967
  428.840  112.926    0.198    0.404    3.991
  429.090  113.711    0.186    0.420    4.009
  429.340  111.476    0.193    0.433    4.026
  429.590  105.957    0.184    0.435    3.969
  429.840  100.942    0.178    0.426    3.939
  430.090   97.360    0.186    0.416    3.890
  430.340   96.169    0.192    0.408    3.754
  430.590   99.245    0.220    0.438    3.522
  430.840  103.157    0.231    0.470    3.217
  431.090  106.989    0.246    0.514    2.900
  431.340  110.479    0.263    0.516    2.470
  431.590  112.191    0.273    0.510    2.223
  431.840  113.679    0.266    0.512    1.993
  432.090  112.051    0.269    0.522    1.844
  432.340  107.677    0.263    0.518    1.837
  432.590  106.253    0.263    0.517    2.018
  432.840  104.067    0.244    0.474    2.287
  433.090   97.829    0.229    0.462    2.691
  433.340   94.363    0.226    0.480    3.082
  433.590   94.644    0.215    0.493    3.538
  433.840   95.284    0.194    0.471    3.860
  434.090   95.164    0.178    0.434    4.215
  434.340   97.809    0.148    0.425    4.481
  434.590  101.738    0.161    0.435    4.549
  434.840  103.689    0.201    0.425    4.614
  435.090  104.345    0.195    0.414    4.790
  435.340  103.932    0.173    0.406    5.008
  435.590  100.409    0.211    0.397    5.045
  435.840   99.664    0.230    0.406    4.891
  436.090  105.614    0.196    0.424    4.729
  436.340  109.275    0.199    0.444    4.584
  436.590  102.284    0.221    0.452    4.391
  436.840   99.997    0.214    0.443    4.109
  437.090  101.596    0.194    0.449    3.914
  437.340  104.551    0.173    0.455    3.791
  437.590  107.573    0.180    0.471    3.638
  437.840  109.143    0.214    0.483    3.434
  438.090  110.577    0.230    0.480    3.265
  438.340  112.275    0.220    0.471    3.056
  438.590  111.395    0.209    0.481    2.920
  438.840  112.241    0.209    0.497    2.818
  439.090  113.365    0.223    0.507    2.780
  439.340  114.240    0.211    0.483    2.780
  439.590  115.185    0.197    0.484    2.793
  439.840  113.897    0.196    0.500    2.818
  440.090  114.088    0.196    0.492    2.823
  440.340  115.162    0.221    0.473    2.795
  440.590  116.397    0.223    0.462    2.757
  440.840  117.938    0.228    0.482    2.689
  441.090  118.934    0.230    0.497    2.614
  441.340  117.839    0.220    0.489    2.582
  441.590  117.623    0.217    0.485    2.549
  441.840  118.154    0.219    0.491    2.542
  442.090  118.139    0.212    0.485    2.575
  442.340  114.313    0.201    0.462    2.681
  442.590  113.532    0.190    0.449    2.853
  442.840  114.914    0.189    0.473    3.033
  443.090  117.711    0.199    0.516    3.136
  443.340  120.254    0.186    0.531    2.903
  443.590  119.774    0.189    0.552    2.731
  443.840  117.774    0.226    0.543    2.631
  444.090  114.799    0.237    0.486    2.621
  444.340  110.868    0.249    0.450    2.794
  444.590   98.264    0.235    0.424    3.206
  444.840   92.858    0.217    0.397    3.848
  445.090   91.142    0.183    0.379    4.397
  445.340   91.662    0.151    0.366    4.903
  445.590   91.976    0.133    0.360    5.229
  445.840   94.113    0.149    0.358    5.182
  446.090   96.218    0.171    0.367    5.015
  446.340   94.509    0.176    0.378    4.893
  446.590   85.101    0.182    0.387    5.355
  446.840   77.531    0.198    0.380    6.143
  447.090   74.864    0.214    0.346    7.011
  447.340   72.849    0.232    0.316    7.980
  447.590   71.144    0.263    0.303    9.069
  447.840   68.600    0.249    0.308   10.451
  448.090   66.672    0.244    0.313   12.095
  448.340   65.394    0.256    0.322   13.480
  448.590   63.302    0.262    0.328   14.798
  448.840   61.398    0.249    0.336   16.151
  449.090   59.342    0.197    0.343   17.706
  449.340   55.211    0.148    0.346   18.959
  449.590   50.839    0.120    0.312   20.527
  449.840   49.605    0.083    0.264   22.415
  450.090   53.469    0.058    0.240   24.761
  450.340   57.696    0.085    0.250   26.969
  450.590   60.339    0.103    0.282   28.826
  450.840   55.681    0.096    0.297   28.024
  451.090   52.155    0.042    0.284   26.288
  451.340   50.486    0.009    0.268   24.588
  451.590   54.156    0.005    0.255   22.901
  451.840   59.236    0.110    0.273   21.438
  452.090   62.430    0.119    0.296   19.876
  452.340   61.376    0.130    0.311   18.584
  452.590   60.339    0.135    0.300   17.716
  452.840   59.134    0.121    0.314   16.879
  453.090   59.661    0.103    0.329   16.235
  453.340   59.614    0.096    0.343   15.442
  453.590   58.062    0.076    0.327   14.828
  453.840   55.899    0.053    0.316   14.345
  454.090   53.833    0.031    0.317   14.206
  454.340   52.369    0.010    0.305   14.132
  454.590   51.342    0.018    0.293   14.149
  454.840   50.779    0.028    0.282   14.731
  455.090   54.438    0.035    0.279   15.963
  455.340   61.683    0.038    0.292   16.369
  455.590   66.236    0.076    0.306   15.970
  455.840   71.410    0.095    0.336   15.597
  456.090   69.721    0.089    0.364   14.964
  456.340   64.260    0.083    0.381   14.523
  456.590   57.482    0.099    0.355   14.022
  456.840   51.466    0.088    0.317   13.476
  457.090   55.553    0.052    0.288   13.458
  457.340   67.530    0.016    0.290   14.025
  457.590   71.558    0.054    0.305   13.796
  457.840   68.311    0.091    0.341   13.517
  458.090   62.753    0.061    0.322   13.745
  458.340   58.697    0.036    0.301   14.541
  458.590   55.829    0.068    0.289   15.104
  458.840   55.356    0.100    0.279   15.514
  459.090   56.832    0.064    0.292   15.450
  459.340   61.663    0.078    0.307   14.568
  459.590   65.847    0.095    0.321   13.688
  459.840   68.826    0.081    0.330   12.688
  460.090   70.325    0.068    0.338   12.021
  460.340   72.141    0.091    0.341   11.791
  460.590   73.790    0.072    0.348   11.894
  460.840   73.903    0.094    0.338   11.938
  461.090   77.010    0.074    0.325   11.667
