~VERSION INFORMATION
 VERS.                 2.0:   CWLS LOG ASCII STANDARD -VERSION 2.0
 WRAP.                  NO:   ONE LINE PER DEPTH STEP
~WELL INFORMATION BLOCK
#MNEM.UNIT           DATA                    DESCRIPTION OF MNEMONIC
#---------    -------------------            -------------------------------
# Generated from Intellog Unique Number	CW_82_90/WELL/702
WELL.         10-14-082-19W4                 : Well_name    - WELL
LOC .         00/10-14-082-19W4/0            : Location     - LOCATION
UWI .         00/10-14-082-19W400            : Uwi          - UNIQUE WELL ID
ENTR.         JAYE                           : Entered      - ENTERED BY
SRVC.         COMPUTALOG                     : Scn          - SERVICE COMPANY
DATE.         FEB 13 77                      : Date         - LOG DATE
STRT.M        155.448                        : top_depth    - START DEPTH
STOP.M        344.448                        : bot_depth    - STOP DEPTH
STEP.M        0.25                           : increment    - STEP LENGTH
 NULL. -999.2500:NULL Value
~CURVE INFORMATION BLOCK
#MNEM UNIT       ERCB CURVE CODE    CURVE DESCRIPTION
#-----------   ------------------   ----------------------------------
DEPT.M        00 001 00 00         : DEPTH        - DEPTH
CALI.MM       00 280 01 00         : CAL          - CALIPER
GR  .API      00 310 00 00         : GR           - GAMMA RAY
NPHI.V/V      00 330 00 00         : PHIN         - NEUTRON POROSITY (SANDSTONE)
DPHI.V/V      00 890 00 00         : PHID         - DENSITY POROSITY (SANDSTONE)
COND.MMHO                          : COND         - DEEP CONDUCTIVITY (DIL)
ILD .OHMM     00 120 00 00         : RESD         - DEEP RESISTIVITY (DIL)
~PARAMETER INFORMATION
#MNEM.UNIT           DATA             DESCRIPTION OF MNEMONIC
#---------         -----------     ------------------------------
GL  .M        573.024              : gl           - GROUND LEVEL ELEVATION
EREF.M        576.682              : kb           - ELEVATION OF DEPTH REFERENCE
DATM.M        573.024              : datum        - DATUM ELEVATION
TDD .M        347.472              : tdd          - TOTAL DEPTH DRILLER
RUN .         ONE                  : Run          - RUN NUMBER
ENG .         KING                 : Engineer     - RECORDING ENGINEER
WIT .         CARS                 : Witness      - WITNESSED BY
BASE.         MEDICINE HAT         : Branch       - HOME BASE OF LOGGING UNIT
MUD .         GEL                  : Mud_type     - MUD TYPE
MATR.         SANDSTONE            : Logunit      - NEUTRON MATRIX
TMAX.C        17.7778              : BHT          - MAXIMUM RECORDED TEMPERATURE
BHTD.M        347.472              : BHTDEP       - MAXIMUM RECORDED TEMPERATURE
RMT .C        17.7778              : MDTP         - TEMPERATURE OF MUD
MUDD.KG/M     9100                 : MWT          - MUD DENSITY
NEUT.         0                    : NEUTRON      - NEUTRON TYPE
RESI.         0                    : RESIST       - RESISTIVITY TYPE
RM  .OHMM     9.5                  : RM           - RESISTIVITY OF MUD
RMC .OHMM     0                    : RMC          - RESISTIVITY OF MUD CAKE
RMF .OHMM     0                    : RMF          - RESISTIVITY OF MUD FILTRATE
SUFT.C        4                    : SUFT         - SURFACE TEMPERATURE
~A  DEPTH      CAL       GR     PHIN     PHID     COND     RESD
# ...
  249.198  162.203   98.774    0.431    0.311  548.221   12.064
  249.448  162.022  102.216    0.432    0.310  551.985   11.291
  249.698  161.943  100.515    0.480    0.304  555.051   10.284
  249.948  161.459  105.553    0.452    0.299  557.020    9.472
  250.198  161.278  108.506    0.480    0.289  559.289    8.816
  250.448  161.608  115.625    0.498    0.261  561.355    8.434
  250.698  162.354  126.544    0.490    0.238  562.514    8.283
  250.948  163.104  123.800    0.489    0.236  562.185    8.251
  251.198  163.951  128.285    0.488    0.251  561.748    8.218
  251.448  164.701  128.543    0.505    0.240  561.011    8.224
  251.698  165.035  125.924    0.486    0.237  560.268    8.232
  251.948  164.650  124.345    0.507    0.243  559.929    8.199
  252.198  163.850  122.283    0.443    0.254  559.687    8.206
  252.448  163.154  124.742    0.446    0.256  559.866    8.290
  252.698  162.559  125.858    0.484    0.246  560.128    8.492
  252.948  162.277  123.913    0.508    0.226  561.586    8.538
  253.198  161.582  128.581    0.502    0.240  562.758    8.544
  253.448  161.401  129.147    0.485    0.247  563.724    8.433
  253.698  161.015  126.650    0.490    0.256  564.887    8.284
  253.948  161.144  128.196    0.506    0.256  566.645    8.291
  254.198  161.993  129.129    0.480    0.245  567.421    8.141
  254.448  163.150  140.351    0.468    0.240  568.580    7.913
  254.698  165.440  139.753    0.489    0.233  568.752    7.765
  254.948  167.219  134.070    0.492    0.228  567.914    7.772
  255.198  168.170  120.795    0.521    0.214  567.171    7.817
  255.448  167.889  124.115    0.493    0.215  566.537    7.978
  255.698  167.911  118.864    0.442    0.231  565.097    8.336
  255.948  167.010  107.852    0.432    0.236  563.956    8.421
  256.198  165.904  113.134    0.438    0.241  563.325    8.426
  256.448  165.208  114.620    0.456    0.243  562.786    8.433
  256.698  164.513  116.408    0.468    0.243  561.952    8.401
  256.948  164.023  123.221    0.448    0.242  560.913    8.407
  257.198  163.328  123.480    0.413    0.244  560.478    8.531
  257.448  162.737  119.391    0.454    0.251  560.441    8.576
  257.698  161.935  115.423    0.483    0.247  561.109    8.505
  257.948  160.933  110.293    0.489    0.246  562.470    8.316
  258.198  160.237  107.552    0.481    0.244  564.039    8.051
  258.448  159.543  104.628    0.468    0.239  567.301    7.862
  258.698  159.156  108.256    0.488    0.248  570.667    7.596
  258.948  158.768  111.824    0.519    0.243  575.039    7.407
  259.198  158.586  118.142    0.504    0.239  580.315    6.906
  259.448  158.921  122.446    0.505    0.249  589.487    6.329
  259.698  159.666  122.274    0.513    0.246  596.961    5.751
  259.948  160.311  121.492    0.522    0.258  605.328    5.367
  260.198  160.955  118.750    0.568    0.270  605.496    5.101
  260.448  161.185  109.822    0.557    0.275  601.357    5.068
  260.698  161.624   98.628    0.437    0.269  593.206    5.386
  260.948  161.961   94.172    0.380    0.220  583.863    6.484
  261.198  162.398   91.064    0.279    0.155  568.512    8.790
  261.448  162.424   95.730    0.255    0.138  558.461    9.888
  261.698  162.857  105.117    0.275    0.181  555.119   10.207
  261.948  162.782  112.297    0.545    0.235  559.589    9.941
  262.198  162.396  118.069    0.507    0.290  568.163    9.362
  262.448  161.698  114.590    0.480    0.292  574.338    7.927
  262.698  161.106  112.032    0.485    0.272  579.106    6.685
  262.948  160.720  112.294    0.560    0.275  579.068    6.303
  263.198  160.127  110.163    0.505    0.304  576.322    6.270
  263.448  159.950  108.647    0.500    0.308  573.484    6.510
  263.698  160.178  111.416    0.503    0.292  571.051    6.985
  263.948  160.411  112.717    0.488    0.282  569.215    7.147
  264.198  161.156  111.873    0.483    0.273  568.779    7.271
  264.448  161.697  109.988    0.451    0.275  570.836    7.355
  264.698  162.753  107.737    0.459    0.274  571.508    7.323
  264.948  163.497  111.487    0.501    0.273  572.373    7.134
  265.198  163.731  109.724    0.493    0.295  573.136    7.063
  265.448  163.349  110.106    0.498    0.296  573.199    7.031
  265.698  163.162  108.039    0.482    0.307  573.060    7.037
  265.948  162.885  106.704    0.529    0.296  572.822    6.966
  266.198  162.494  125.032    0.525    0.265  572.180    6.895
  266.448  161.902  122.412    0.517    0.263  572.049    6.901
  266.698  161.309  119.426    0.489    0.260  572.020    6.907
  266.948  160.511  114.968    0.473    0.256  571.878    6.993
  267.198  160.023  118.841    0.477    0.253  571.238    7.037
  267.448  159.637  120.817    0.504    0.247  571.405    7.122
  267.698  159.249  126.710    0.494    0.241  571.876    7.167
  267.948  159.273  126.907    0.476    0.242  573.230    7.212
  268.198  161.975  132.496    0.475    0.247  574.607    7.141
  268.448  167.257  135.817    0.483    0.247  576.666    6.953
  268.698  170.061  127.195    0.499    0.244  577.532    6.725
  268.948  171.425  131.986    0.500    0.252  578.089    6.653
  269.198  169.494  131.021    0.514    0.262  577.858    6.777
  269.448  166.429  120.561    0.514    0.273  576.627    7.018
  269.698  163.880  124.373    0.463    0.270  572.386    7.531
  269.948  161.950  118.691    0.444    0.268  566.343    8.122
  270.198  160.739  116.378    0.426    0.272  560.295    8.635
  270.448  160.868  113.147    0.430    0.263  555.457    9.148
  270.698  161.714  115.674    0.465    0.296  551.219   10.324
  270.948  162.261  108.519    0.457    0.299  548.276   10.955
  271.198  162.177   97.878    0.458    0.290  548.441   10.923
  271.448  161.999  103.035    0.460    0.277  550.099   10.773
  271.698  162.126  108.562    0.461    0.263  551.574   10.507
  271.948  162.153  106.003    0.428    0.240  552.936   10.317
  272.198  162.179  101.791    0.362    0.208  551.898   10.480
  272.448  161.172   96.969    0.322    0.160  549.657   11.110
  272.698  160.378   90.858    0.178    0.090  545.415   12.091
  272.948  160.194   90.566    0.147    0.044  541.075   13.268
  273.198  160.221   96.584    0.152    0.019  536.935   14.091
  273.448  160.145  113.870    0.183    0.229  535.603   14.878
  273.698  160.169  116.516    0.260    0.252  537.762   14.923
  273.948  161.740  119.714    0.427    0.229  541.930   13.760
  274.198  163.310  114.340    0.414    0.223  544.796   12.871
  274.448  163.438  112.395    0.338    0.212  545.868   11.864
  274.698  163.362  111.495    0.327    0.189  545.825   11.013
  274.948  163.490  110.771    0.367    0.228  544.895   12.189
  275.198  163.410  109.927    0.343    0.239  539.950   13.677
  275.448  163.127  109.512    0.290    0.209  538.213   13.254
  275.698  162.740  115.528    0.303    0.193  541.274   12.715
  275.948  161.531  115.542    0.430    0.266  543.744   12.409
  276.198  160.942  120.760    0.475    0.258  545.613   12.144
  276.448  160.447  123.225    0.469    0.233  545.573   12.072
  276.698  160.065  126.975    0.446    0.213  546.744   11.728
  276.948  159.884  130.543    0.426    0.201  548.801   11.032
  277.198  159.907  126.023    0.460    0.239  549.773   10.494
  277.448  160.138  116.301    0.476    0.243  550.825   10.227
  277.698  160.580  115.580    0.467    0.248  551.594   10.038
  277.948  160.806  119.759    0.466    0.243  551.870    9.967
  278.198  161.351  115.669    0.486    0.233  552.032    9.973
  278.448  161.167  120.154    0.495    0.243  551.992   10.020
  278.698  160.779  118.883    0.509    0.255  551.763    9.986
  278.948  159.776  124.043    0.481    0.255  550.926    9.916
  279.198  160.524  124.055    0.475    0.253  550.085    9.921
  279.448  160.959  120.149    0.463    0.251  549.948   10.085
  279.698  161.395  123.777    0.474    0.247  549.708   10.169
  279.948  161.527  119.809    0.465    0.249  549.978   10.214
  280.198  161.041  116.026    0.455    0.249  550.339   10.222
