~VERSION INFORMATION
 VERS.                 2.0:   CWLS LOG ASCII STANDARD -VERSION 2.0
 WRAP.                  NO:   ONE LINE PER DEPTH STEP
~WELL INFORMATION BLOCK
#MNEM.UNIT           DATA                    DESCRIPTION OF MNEMONIC
#---------    -------------------            -------------------------------
# Generated from Intellog Unique Number	CC_84_87/WELL/2357
NULL.         -999.25                        : NULL_VALUE
WELL.         COSEKA BCRIC SALESKI           : Well_name    - WELL
LOC .         16-15-087-17W4                 : Location     - LOCATION          
UWI .         00/16-15-087-17W400            : Uwi          - UNIQUE WELL ID    
ENTR.         JHS                            : Entered      - ENTERED BY        
SRVC.         COMPUTALOG                     : Scn          - SERVICE COMPANY   
DATE.         25 MAR 82                      : Date         - LOG DATE
STRT.M        175                            : top_depth    - START DEPTH       
STOP.M        216.1                          : bot_depth    - STOP DEPTH        
STEP.M        0.3                            : increment    - STEP LENGTH       
~CURVE INFORMATION BLOCK
#MNEM UNIT       ERCB CURVE CODE    CURVE DESCRIPTION
#-----------   ------------------   ----------------------------------
DEPT.M        00 001 00 00         : DEPTH        - DEPTH                       
DPHI.V/V      00 890 00 00         : PHID         - DENSITY POROSITY (LIMESTONE)
NPHI.V/V      00 330 00 00         : PHIN         - NEUTRON POROSITY (LIMESTONE)
GR  .API      00 310 00 00         : GR           - GAMMA RAY                   
ILD .OHMM     00 120 00 00         : RESD         - DEEP RESISTIVITY (DIL)      
~PARAMETER INFORMATION       
#MNEM.UNIT           DATA             DESCRIPTION OF MNEMONIC
#---------         -----------     ------------------------------
GL  .M        507.65               : gl           - GROUND LEVEL ELEVATION      
EREF.M        511.17               : kb           - ELEVATION OF DEPTH REFERENCE
DATM.M        511.17               : datum        - DATUM ELEVATION             
TDD .M        216                  : tdd          - TOTAL DEPTH DRILLER         
RUN .         ONE                  : Run          - RUN NUMBER                  
ENG .         BILL                 : Engineer     - RECORDING ENGINEER          
WIT .         JIM                  : Witness      - WITNESSED BY                
MUD .         GEL                  : Mud_type     - MUD TYPE                    
MATR.         LIMESTONE            : Logunit      - NEUTRON MATRIX              
TMAX.C        25                   : BHT          - MAXIMUM RECORDED TEMPERATURE
BHTD.M        216                  : BHTDEP       - MAXIMUM RECORDED TEMPERATURE
MATR.         1                    : LOGUNIT      - NEUTRON MATRIX              
RMT .C        25                   : MDTP         - TEMPERATURE OF MUD          
NEUT.         1                    : NEUTRON      - NEUTRON TYPE                
RESI.         0                    : RESIST       - RESISTIVITY TYPE            
RMC .OHMM     0.25                 : RMC          - RESISTIVITY OF MUD CAKE     
RMF .OHMM     0.25                 : RMF          - RESISTIVITY OF MUD FILTRATE 
SUFT.C        15                   : SUFT         - SURFACE TEMPERATURE         
~A  DEPTH     PHID     PHIN       GR     RESD
  175.000    0.086    0.280   91.073   19.627
  175.300    0.137    0.333  104.668   20.796
  175.600    0.168    0.349  111.449   19.650
  175.900    0.172    0.368  114.511   17.533
  176.200    0.176    0.351  115.097   14.221
  176.500    0.187    0.369  103.908   13.437
  176.800    0.183    0.367  100.774   13.445
  177.100    0.191    0.378  108.175   14.519
  177.400    0.193    0.360  114.333   15.093
  177.700    0.080    0.267  109.343   15.392
  178.000    0.110    0.274   98.773   15.401
  178.300    0.157    0.313   96.261   14.831
  178.600    0.166    0.304  103.660   13.235
  178.900    0.184    0.323  114.776   10.532
  179.200    0.195    0.408  119.076    8.875
  179.500    0.180    0.431  119.039    8.227
  179.800    0.150    0.420  117.767    7.627
  180.100    0.068    0.272  116.492    7.927
  180.400    0.122    0.277  107.164   10.361
  180.700    0.157    0.329   91.020   12.309
  181.000    0.187    0.389   86.649   13.549
  181.300    0.182    0.393   97.145   13.557
  181.600    0.138    0.328  108.260   10.584
  181.900    0.151    0.348  106.366    8.751
  182.200    0.186    0.383  108.807    7.958
  182.500    0.192    0.403  124.264    7.664
  182.800    0.182    0.449  160.784    7.816
  183.100    0.171    0.378  152.073    8.442
  183.400    0.172    0.349  134.689    8.609
  183.700    0.192    0.385  122.264    8.613
  184.000    0.195    0.402  115.410    8.455
  184.300    0.179    0.408  118.476    8.300
  184.600    0.180    0.350  120.918    8.628
  184.900    0.173    0.378  118.402    9.317
  185.200    0.052    0.383  117.130   11.283
  185.500    0.025    0.173  119.569   13.925
  185.800    0.071    0.189  117.057   18.550
  186.100    0.133    0.206  107.108   19.282
  186.400    0.166    0.239   83.532   19.293
  186.700    0.172    0.318   68.008   17.548
  187.000    0.177    0.301   92.755   15.071
  187.300    0.173    0.299  115.023   13.707
  187.600    0.170    0.333  115.607   13.202
  187.900    0.183    0.376  116.807   13.463
  188.200    0.204    0.408  116.154   13.470
  188.500    0.078    0.196  113.643   15.702
  188.800    0.066    0.190  105.553   18.653
  189.100    0.135    0.225  104.896   20.143
  189.400    0.187    0.333  101.145   20.155
  189.700    0.189    0.345   87.479   19.044
  190.000    0.186    0.358   83.728   17.321
  190.300    0.181    0.360   96.701   16.056
  190.600    0.184    0.345   98.523   15.171
  190.900    0.180    0.336   96.632   14.892
  191.200    0.142    0.290   96.595   15.189
  191.500    0.131    0.283   95.938   16.092
  191.800    0.163    0.308   94.041   16.727
  192.100    0.172    0.330   95.865   16.110
  192.400    0.187    0.317   95.834   14.934
  192.700    0.181    0.299   93.315   13.844
  193.000    0.106    0.284   92.041   13.851
  193.300    0.116    0.306   93.248   14.958
  193.600    0.176    0.332   98.789   14.967
  193.900    0.183    0.360  103.711   13.875
  194.200    0.176    0.381  101.817   11.691
  194.500    0.179    0.420   94.346    9.483
  194.800    0.185    0.454   93.070    7.991
  195.100    0.227    0.379  100.472    7.131
  195.400    0.286    0.323  104.774    8.634
  195.700    0.302    0.318  112.174   11.724
  196.000    0.283    0.339  115.852   16.856
  196.300    0.283    0.350  112.099   23.329
  196.600    0.286    0.303   91.001   31.078
  196.900    0.298    0.298   72.378   43.012
  197.200    0.297    0.317   46.941   58.403
  197.500    0.287    0.332   35.755   65.521
  197.800    0.290    0.327   33.241   69.421
  198.100    0.300    0.343   32.585   68.146
  198.400    0.276    0.356   35.024   64.388
  198.700    0.269    0.375   37.469   58.563
  199.000    0.270    0.381   41.150   53.264
  199.300    0.277    0.328   41.736   50.326
  199.600    0.295    0.329   41.698   52.312
  199.900    0.293    0.335   41.664   56.496
  200.200    0.283    0.346   41.626   61.007
  200.500    0.289    0.351   44.074   63.422
  200.800    0.286    0.350   46.514   62.255
  201.100    0.285    0.364   45.239   57.712
  201.400    0.278    0.388   42.727   52.484
  201.700    0.275    0.388   45.171   41.766
  202.000    0.260    0.380   46.375   35.194
  202.300    0.259    0.346   49.437   32.010
  202.600    0.253    0.315   49.401   29.113
  202.900    0.261    0.322   43.790   25.978
  203.200    0.263    0.342   47.473   24.081
  203.500    0.264    0.353   50.533   21.903
  203.800    0.268    0.371   48.019   21.095
  204.100    0.264    0.401   51.082   21.926
  204.400    0.171    0.367   52.283   23.233
  204.700    0.105    0.267   52.864   22.805
  205.000    0.129    0.282   57.791   20.349
  205.300    0.192    0.288   61.474   13.901
  205.600    0.205    0.262   60.819   10.647
  205.900    0.199    0.289   60.779    6.486
  206.200    0.212    0.432   63.222    5.162
  206.500    0.217    0.483   61.946    4.030
  206.800    0.229    0.463   56.960    3.665
  207.100    0.220    0.344   53.206    3.530
  207.400    0.204    0.357   58.747    3.812
  207.700    0.193    0.392   70.484    4.443
  208.000    0.179    0.412   81.600    5.081
  208.300    0.141    0.326  108.205    5.487
  208.600    0.177    0.338  110.026    5.490
  208.900    0.196    0.357  111.227    5.187
  209.200    0.198    0.388  112.433    4.718
  209.500    0.175    0.388  109.922    4.631
  209.800    0.216    0.264  112.984    5.398
  210.100    0.256    0.213  115.426    7.330
  210.400    0.258    0.217  112.293   12.045
  210.700    0.220    0.226  102.345   21.363
  211.000    0.284    0.201  105.406   23.968
  211.300    0.334    0.253  114.667   29.023
  211.600    0.319    0.308  116.488   40.167
  211.900    0.313    0.323  114.595   55.592
  212.200    0.302    0.338  113.318   56.694
  212.500    0.290    0.357  102.753   44.261
  212.800    0.289    0.368   90.326   24.510
  213.100    0.271    0.333   83.475   17.394
  213.400    0.241    0.263   81.575   13.072
  213.700    0.243    0.276   77.828   12.118
  214.000    0.257    0.279   77.792   11.896
  214.300    0.120    0.285   81.476   11.902
  214.600    0.048    0.300   75.243   12.138
  214.900    0.026    0.287   82.644   12.145
  215.200    0.058    0.268   81.988   12.152
  215.500    0.098    0.271   77.614   12.158
  215.800    0.099    0.282   78.815   12.165
  216.100    0.000    0.279   78.164   12.406
