~VERSION INFORMATION
 VERS.                 2.0:   CWLS LOG ASCII STANDARD -VERSION 2.0
 WRAP.                  NO:   ONE LINE PER DEPTH STEP
~WELL INFORMATION BLOCK
#MNEM.UNIT           DATA                    DESCRIPTION OF MNEMONIC
#---------    -------------------            -------------------------------
# Generated from Intellog Unique Number	CN_91_93/WELL/1168
WELL.         COSEKA RESOURCES LTD.          : Well_name    - WELL
LOC .         00/11-13-091-21W4/0            : Location     - LOCATION
UWI .         00/11-13-091-21W4/0            : Uwi          - UNIQUE WELL ID
ENTR.         JOETTE                         : Entered      - ENTERED BY
SRVC.         SCHLUMBERGER                   : Scn          - SERVICE COMPANY
DATE.         01/31/92                       : Date         - LOG DATE
STRT.F        328.084                        : top_depth    - START DEPTH
STOP.F        721.785                        : bot_depth    - STOP DEPTH
STEP.F        0.82                           : increment    - STEP LENGTH
 NULL. -999.2500:NULL Value
~CURVE INFORMATION BLOCK
#MNEM UNIT       ERCB CURVE CODE    CURVE DESCRIPTION
#-----------   ------------------   ----------------------------------
DEPT.F        00 001 00 00         : DEPTH        - DEPTH
ILD .OHMM     00 120 00 00         : RESD         - DEEP RESISTIVITY (DIL)
DPHI.V/V      00 890 00 00         : PHID         - DENSITY POROSITY (SANDSTONE)
NPHI.V/V      00 330 00 00         : PHIN         - NEUTRON POROSITY (SANDSTONE)
GR  .API      00 310 00 00         : GR           - GAMMA RAY
~PARAMETER INFORMATION
#MNEM.UNIT           DATA             DESCRIPTION OF MNEMONIC
#---------         -----------     ------------------------------
GL  .F        1683.79              : gl           - GROUND LEVEL ELEVATION
EREF.F        1693.64              : kb           - ELEVATION OF DEPTH REFERENCE
DATM.F        1693.64              : datum        - DATUM ELEVATION
TDD .F        739.173              : tdd          - TOTAL DEPTH DRILLER
RUN .         ONE                  : Run          - RUN NUMBER
ENG .         BILL                 : Engineer     - RECORDING ENGINEER
WIT .         JIM                  : Witness      - WITNESSED BY
MUD .         GEL                  : Mud_type     - MUD TYPE
MATR.         SANDSTONE            : Logunit      - NEUTRON MATRIX
TMAX.F        73.4                 : BHT          - MAXIMUM RECORDED TEMPERATURE
BHTD.F        739.173              : BHTDEP       - MAXIMUM RECORDED TEMPERATURE
RMT .F        47                   : MDTP         - TEMPERATURE OF MUD
MUDD.LB/G     8.83333              : MWT          - MUD DENSITY
NEUT.         1                    : NEUTRON      - NEUTRON TYPE
RESI.         0                    : RESIST       - RESISTIVITY TYPE
RM  .OHMM     2.8                  : RM           - RESISTIVITY OF MUD
RMC .OHMM     7.42                 : RMC          - RESISTIVITY OF MUD CAKE
RMF .OHMM     1.8                  : RMF          - RESISTIVITY OF MUD FILTRATE
SUFT.F        39.2                 : SUFT         - SURFACE TEMPERATURE
~A  DEPTH     RESD     PHID     PHIN       GR
# ...
  613.517   31.122    0.191    0.383  110.452
  614.337   28.000    0.178    0.338  101.656
  615.157   26.973    0.175    0.292  100.429
  615.978   26.995    0.161    0.258  102.540
  616.798   29.153    0.100    0.285  104.342
  617.618   30.079    0.123    0.294  102.515
  618.438   31.034    0.135    0.279  102.198
  619.259   34.818    0.134    0.282  104.306
  620.079   34.839    0.134    0.310  118.834
  620.899   25.716    0.143    0.379  119.730
  621.719   20.021    0.197    0.422  118.810
  622.539   18.708    0.202    0.437  113.950
  623.360   15.479    0.202    0.435  106.971
  624.180   13.820    0.198    0.423  101.809
  625.000   15.982    0.202    0.426   98.767
  625.820   17.262    0.201    0.385   99.967
  626.640   19.218    0.204    0.332  104.801
  627.461   22.918    0.193    0.321  109.331
  628.281   25.705    0.161    0.341  112.652
  629.101   30.650    0.156    0.338  115.667
  629.921   33.354    0.184    0.361  114.440
  630.741   32.380    0.192    0.371  113.216
  631.562   30.492    0.189    0.360  112.298
  632.382   28.711    0.185    0.342  111.074
  633.202   27.241    0.178    0.378  113.485
  634.022   26.647    0.157    0.392  111.958
  634.843   26.069    0.138    0.383  108.614
  635.663   27.102    0.168    0.304  101.332
  636.483   31.107    0.163    0.263   97.984
  637.303   34.897    0.109    0.237  108.877
  638.123   37.691    0.109    0.263  109.472
  638.944   40.085    0.124    0.286  105.520
  639.764   40.424    0.146    0.290  103.991
  640.584   39.240    0.191    0.312  104.586
  641.404   38.682    0.202    0.336  104.271
  642.224   39.307    0.203    0.358  105.772
  643.045   39.339    0.200    0.359  109.700
  643.865   38.194    0.202    0.353  110.597
  644.685   37.640    0.203    0.340  108.765
  645.505   39.140    0.198    0.323  104.815
  646.325   40.064    0.193    0.305   98.442
  647.146   42.943    0.184    0.280   95.397
  647.966   46.020    0.159    0.253   96.901
  648.786   50.085    0.127    0.288   97.496
  649.606   50.513    0.126    0.321   91.728
  650.427   49.403    0.141    0.329   87.471
  651.247   52.148    0.165    0.282   84.735
  652.067   59.854    0.169    0.249   79.875
  652.887   71.914    0.158    0.233   76.530
  653.707   91.820    0.149    0.238   75.003
  654.528  104.588    0.135    0.250   75.598
  655.348  111.255    0.130    0.265   81.644
  656.168   98.569    0.140    0.275   86.176
  656.988   86.010    0.152    0.303   91.616
  657.808   64.953    0.174    0.345  102.205
  658.629   55.821    0.181    0.382   95.527
  659.449   49.086    0.179    0.305   90.971
  660.269   42.512    0.116    0.282   93.382
  661.089   40.339    0.087    0.320  101.246
  661.909   40.999    0.065    0.354  102.748
  662.730   39.789    0.106    0.394  101.524
  663.550   34.989    0.118    0.319  102.117
  664.370   30.770    0.135    0.296  104.830
  665.190   31.027    0.157    0.325  109.664
  666.010   33.005    0.140    0.356  111.168
  666.831   32.280    0.110    0.381  108.126
  667.651   30.864    0.135    0.333  104.782
  668.471   29.965    0.154    0.307  106.282
  669.291   29.093    0.129    0.291  104.754
  670.112   28.238    0.107    0.310  109.285
  670.932   29.363    0.104    0.328  108.060
  671.752   29.161    0.132    0.352  105.626
  672.572   27.885    0.143    0.343  103.491
  673.392   27.480    0.141    0.340  103.783
  674.213   27.084    0.116    0.369  107.710
  675.033   25.899    0.115    0.385  107.697
  675.853   26.317    0.125    0.371  104.354
  676.673   26.336    0.142    0.367   99.492
  677.493   25.373    0.147    0.353  110.990
  678.314   24.632    0.123    0.338  114.613
  679.134   24.095    0.121    0.356  114.602
  679.954   24.113    0.136    0.360  110.349
  680.774   24.502    0.162    0.334  113.667
  681.594   24.898    0.163    0.322  117.594
  682.415   24.921    0.116    0.317  121.519
  683.235   26.106    0.051    0.315  122.717
  684.055   27.977    0.049    0.344  122.706
  684.875   30.445    0.058    0.348  126.327
  685.696   32.879    0.071    0.337  130.251
  686.516   31.436    0.126    0.342  127.516
  687.336   30.057    0.170    0.361  118.112
  688.156   28.739    0.180    0.348  115.673
  688.976   27.478    0.146    0.346  117.481
  689.797   25.103    0.121    0.376  124.133
  690.617   23.999    0.104    0.370  128.966
  691.437   22.946    0.117    0.370  128.650
  692.257   23.315    0.128    0.350  127.731
  693.077   24.799    0.142    0.331  127.715
  693.898   25.011    0.153    0.319  127.706
  694.718   24.839    0.165    0.315  127.692
  695.538   25.242    0.174    0.314  128.586
  696.358   25.844    0.171    0.319  130.394
  697.178   26.462    0.171    0.329  132.500
  697.999   26.483    0.178    0.339  135.214
  698.819   26.505    0.179    0.345  136.110
  699.639   25.930    0.176    0.315  136.403
  700.459   25.556    0.170    0.304  137.602
  701.280   24.620    0.163    0.314  138.800
  702.100   23.717    0.167    0.321  139.696
  702.920   24.472    0.174    0.347  139.079
  703.740   24.304    0.183    0.328  132.099
  704.560   23.243    0.190    0.313  131.782
  705.381   22.050    0.191    0.313  135.103
  706.201   21.570    0.188    0.314  139.633
  707.021   22.255    0.184    0.365  141.742
  707.841   24.036    0.174    0.357  142.639
  708.661   24.425    0.175    0.356  143.232
  709.482   24.631    0.185    0.357  142.917
  710.302   24.631    0.185    0.362  134.423
  711.122   24.308    0.183    0.322  128.957
  711.942   23.764    0.166    0.313  125.005
  712.762   23.075    0.143    0.304  123.783
  713.583   22.916    0.131    0.332  125.891
  714.403   23.287    0.116    0.360  129.209
  715.223   24.207    0.110    0.361  132.528
  716.043   25.557    0.126    0.352  148.875
  716.864   26.163    0.151    0.333  150.074
  717.684   27.200    0.164    0.334  147.334
  718.504   31.222    0.163    0.283  143.990
  719.324   38.372    0.156    0.262  143.373
  720.144   47.525    0.143    0.241  142.452
  720.965   92.232    0.127    0.228  141.529
  721.785  121.415    0.213    0.242  140.911
