~VERSION INFORMATION
 VERS.                 2.0:   CWLS LOG ASCII STANDARD -VERSION 2.0
 WRAP.                  NO:   ONE LINE PER DEPTH STEP
~WELL INFORMATION BLOCK
#MNEM.UNIT           DATA                    DESCRIPTION OF MNEMONIC
#---------    -------------------            -------------------------------
# Generated from Intellog Unique Number	CW_70_72/WELL/3021
NULL.         -999.25                        : NULL_VALUE
WELL.         MANNVILLE ET AL HONDO 10-11    : Well_name    - WELL              
LOC .         10-11-070-02W5                 : Location     - LOCATION          
UWI .         00/10-11-070-02W5/0            : Uwi          - UNIQUE WELL ID    
ENTR.         JAYE                           : Entered      - ENTERED BY        
SRVC.         SCHLUMBERGER                   : Scn          - SERVICE COMPANY   
DATE.         26 MAR 80                      : Date         - LOG DATE          
STRT.M        440                            : top_depth    - START DEPTH       
STOP.M        655                            : bot_depth    - STOP DEPTH        
STEP.M        0.25                           : increment    - STEP LENGTH       
~CURVE INFORMATION BLOCK
#MNEM UNIT       ERCB CURVE CODE    CURVE DESCRIPTION
#-----------   ------------------   ----------------------------------
DEPT.M        00 001 00 00         : DEPTH        - DEPTH                       
ILD .OHMM     00 120 00 00         : RESD         - DEEP RESISTIVITY (DIL)      
CALI.MM       00 280 01 00         : CAL          - CALIPER                     
GR  .API      00 310 00 00         : GR           - GAMMA RAY                   
NPHI.V/V      00 330 00 00         : PHIN         - NEUTRON POROSITY (SANDSTONE)
DPHI.V/V      00 890 00 00         : PHID         - DENSITY POROSITY (SANDSTONE)
~PARAMETER INFORMATION       
#MNEM.UNIT           DATA             DESCRIPTION OF MNEMONIC
#---------         -----------     ------------------------------
GL  .M        593.3                : gl           - GROUND LEVEL ELEVATION      
EREF.M        598.2                : kb           - ELEVATION OF DEPTH REFERENCE
DATM.M        593.3                : datum        - DATUM ELEVATION             
TDD .M        669                  : tdd          - TOTAL DEPTH DRILLER         
RUN .         ONE                  : Run          - RUN NUMBER                  
ENG .         DECKER/MCEWEN        : Engineer     - RECORDING ENGINEER          
WIT .         CONLEY               : Witness      - WITNESSED BY                
BASE.         EDM                  : Branch       - HOME BASE OF LOGGING UNIT   
MUD .         GEL CHEM             : Mud_type     - MUD TYPE                    
MATR.         SANDSTONE            : Logunit      - NEUTRON MATRIX              
TMAX.C        23.3                 : BHT          - MAXIMUM RECORDED TEMPERATURE
BHTD.M        666.5                : BHTDEP       - MAXIMUM RECORDED TEMPERATURE
RMT .C        14.4                 : MDTP         - TEMPERATURE OF MUD          
MUDD.KG/M     1095                 : MWT          - MUD DENSITY                 
NEUT.         1                    : NEUTRON      - NEUTRON TYPE                
RESI.         0                    : RESIST       - RESISTIVITY TYPE            
RM  .OHMM     3.21                 : RM           - RESISTIVITY OF MUD          
RMC .OHMM     0.25                 : RMC          - RESISTIVITY OF MUD CAKE     
RMF .OHMM     3.02                 : RMF          - RESISTIVITY OF MUD FILTRATE 
SUFT.C        0                    : SUFT         - SURFACE TEMPERATURE         
~A  DEPTH     RESD      CAL       GR     PHIN     PHID
# ...
  622.500    4.680  163.710   83.961    0.293    0.008
  622.750    4.187  164.826   93.416    0.315    0.104
  623.000    4.272  166.159  100.505    0.349    0.135
  623.250    4.360  168.212  103.731    0.370    0.169
  623.500    4.551  168.195   99.359    0.386    0.152
  623.750    4.933  166.204   91.686    0.368    0.137
  624.000    5.521  164.106   90.614    0.352    0.126
  624.250    6.086  163.461   90.602    0.337    0.114
  624.500    6.596  162.819   89.219    0.342    0.106
  624.750    6.820  161.858   86.091    0.361    0.097
  625.000    6.767  161.114   80.535    0.340    0.075
  625.250    6.588  160.577   80.522    0.302    0.050
  625.500    6.623  160.865   86.927    0.305    0.061
  625.750    6.952  161.054   91.461    0.319    0.089
  626.000    7.230  160.511   90.017    0.320    0.115
  626.250    7.337  160.392   90.129    0.319    0.114
  626.500    7.129  159.953   92.733    0.330    0.077
  626.750    6.889  160.035   92.095    0.327    0.049
  627.000    6.436  160.638   93.642    0.321    0.055
  627.250    6.091  161.865  100.232    0.313    0.090
  627.500    5.897  163.299  105.515    0.321    0.099
  627.750    5.796  163.900  101.702    0.344    0.107
  628.000    5.739  163.672   97.827    0.331    0.113
  628.250    5.662  163.129   97.068    0.318    0.117
  628.500    5.471  162.695   99.485    0.331    0.104
  628.750    5.297  162.467  103.397    0.327    0.102
  629.000    5.108  162.137  105.004    0.330    0.124
  629.250    4.965  162.425  103.933    0.348    0.133
  629.500    4.771  163.131  103.422    0.343    0.131
  629.750    4.601  163.321  104.904    0.356    0.122
  630.000    4.226  163.715  104.518    0.368    0.118
  630.250    4.130  163.587   98.713    0.342    0.115
  630.500    4.191  163.360   94.341    0.337    0.120
  630.750    5.483  162.404   94.452    0.353    0.107
  631.000    6.716  161.762   92.136    0.368    0.074
  631.250    8.241  161.015   84.960    0.381    0.055
  631.500    9.452  160.269   74.855    0.337    0.007
  631.750   11.425  159.000   65.688    0.263   -0.003
  632.000   12.152  158.670   67.418    0.254    0.039
  632.250   12.011  158.442   66.347    0.276    0.065
  632.500   11.390  158.416   60.542    0.281    0.095
  632.750   10.821  158.917   58.723    0.293    0.125
  633.000   10.417  159.932   63.880    0.317    0.144
  633.250   10.066  160.330   67.355    0.332    0.170
  633.500    9.838  160.207   70.333    0.322    0.162
  633.750    9.417  159.875   72.316    0.296    0.139
  634.000    8.964  159.022   68.691    0.275    0.110
  634.250    8.453  158.064   68.926    0.265    0.092
  634.500    8.108  157.217   71.158    0.289    0.148
  634.750    7.659  156.779   74.696    0.309    0.166
  635.000    7.276  157.174   77.549    0.298    0.154
  635.250    7.045  158.194   81.648    0.283    0.122
  635.500    6.885  160.661   83.004    0.275    0.108
  635.750    6.805  161.370   76.887    0.284    0.126
  636.000    6.764  159.792   75.008    0.280    0.124
  636.250    6.826  157.800   76.551    0.279    0.136
  636.500    6.965  157.358   79.156    0.283    0.128
  636.750    7.015  157.755   79.206    0.288    0.110
  637.000    6.947  158.772   74.083    0.287    0.119
  637.250    6.700  158.964   66.597    0.281    0.134
  637.500    6.462  158.736   64.653    0.286    0.148
  637.750    6.105  158.298   67.445    0.295    0.175
  638.000    5.812  159.108   69.738    0.290    0.168
  638.250    5.584  160.541   72.465    0.293    0.161
  638.500    5.529  162.284   72.640    0.300    0.162
  638.750    5.696  162.888   72.814    0.307    0.145
  639.000    5.791  160.167   75.354    0.294    0.157
  639.250    5.944  160.356   77.712    0.284    0.151
  639.500    6.134  163.240   81.873    0.287    0.128
  639.750    6.272  165.295   85.784    0.307    0.125
  640.000    6.461  165.275   90.132    0.325    0.121
  640.250    6.872  163.491   78.596    0.322    0.117
  640.500    7.911  162.536   67.931    0.308    0.115
  640.750   12.009  161.786   59.075    0.279    0.056
  641.000   18.160  161.452   47.476    0.239    0.033
  641.250   22.750  161.537   42.605    0.204    0.006
  641.500   24.613  160.788   50.877    0.185    0.031
  641.750   21.812  160.251   59.274    0.183    0.062
  642.000   15.627  159.609   67.608    0.194    0.078
  642.250   11.049  158.960   71.397    0.218    0.092
  642.500    9.412  158.738   77.236    0.250    0.117
  642.750    8.776  158.402   79.404    0.289    0.143
  643.000    8.000  158.489   80.017    0.305    0.155
  643.250    7.745  158.571   83.743    0.304    0.168
  643.500    7.344  158.241   78.498    0.289    0.181
  643.750    6.965  157.905   79.295    0.299    0.176
  644.000    7.081  157.885   86.133    0.311    0.165
  644.250    7.391  158.489   86.681    0.314    0.175
  644.500    7.729  158.777   87.169    0.301    0.158
  644.750    7.888  158.968   90.146    0.289    0.141
  645.000    7.974  158.116   93.497    0.279    0.138
  645.250    7.927  157.680   98.531    0.288    0.162
  645.500    7.893  158.488  108.859    0.312    0.171
  645.750    7.846  160.232  106.480    0.315    0.160
  646.000    7.784  162.598  101.485    0.315    0.142
  646.250    7.723  163.615  101.783    0.314    0.121
  646.500    7.533  161.623   99.029    0.313    0.099
  646.750    7.320  159.735  103.002    0.308    0.083
  647.000    7.034  161.892  108.848    0.326    0.099
  647.250    6.952  163.225  113.878    0.355    0.114
  647.500    7.095  164.656  114.491    0.370    0.110
  647.750    7.419  165.360  112.796    0.338    0.106
  648.000    7.789  165.132  113.469    0.318    0.088
  648.250    8.238  164.590  119.001    0.296    0.057
  648.500    8.878  163.949  126.402    0.277    0.043
  648.750    9.146  163.618  131.933    0.268    0.055
  649.000    9.369  163.495  127.561    0.282    0.073
  649.250    9.418  162.956  128.107    0.284    0.071
  649.500    9.084  162.206  131.959    0.280    0.064
  649.750    8.390  161.877  143.595    0.286    0.082
  650.000    7.677  160.816  190.488    0.301    0.093
  650.250    6.552  160.170  245.665    0.319    0.108
  650.500    5.895  159.739  267.953    0.350    0.133
  650.750    5.403  159.508  312.168    0.379    0.170
  651.000    5.310  159.281  314.334    0.407    0.194
  651.250    5.259  158.743  313.888    0.411    0.180
  651.500    5.397  158.302  310.947    0.371    0.173
  651.750    8.301  158.075  305.639    0.272    0.097
  652.000   11.277  157.224  233.494    0.231    0.070
  652.250   23.261  156.890   68.597    0.097    0.024
  652.500   27.699  156.456   56.749    0.080    0.003
  652.750   48.055  155.915   36.803    0.073   -0.016
  653.000   54.380  156.002   35.731    0.073   -0.023
  653.250   56.764  156.294   30.424    0.074   -0.024
  653.500   59.257  157.098   23.934    0.073   -0.022
  653.750   65.202  157.806   18.190    0.072   -0.002
  654.000   64.441  157.995   17.055    0.071    0.027
  654.250   62.508  158.181   17.232    0.070   -0.005
  654.500   64.150  158.163   17.655    0.067   -0.008
  654.750   68.751  158.661   19.636    0.064   -0.008
  655.000   73.402  158.848   21.928    0.061   -0.004
