~VERSION INFORMATION
 VERS.                 2.0:   CWLS LOG ASCII STANDARD -VERSION 2.0
 WRAP.                  NO:   ONE LINE PER DEPTH STEP
~WELL INFORMATION BLOCK
#MNEM.UNIT           DATA                    DESCRIPTION OF MNEMONIC
#---------    -------------------            -------------------------------
# Generated from Intellog Unique Number	CS_73_76/WELL/2198
WELL.         BOW VALLEY EXPLORATION         : Well_name    - WELL
LOC .         00/11-07-074-15W4/0            : Location     - LOCATION
UWI .         00/11-07-074-15W4/0            : Uwi          - UNIQUE WELL ID
ENTR.         SP                             : Entered      - ENTERED BY
SRVC.         SCHLUMBERGER                   : Scn          - SERVICE COMPANY
STRT.M        286.512                        : top_depth    - START DEPTH
STOP.M        505.762                        : bot_depth    - STOP DEPTH
STEP.M        0.25                           : increment    - STEP LENGTH
 NULL. -999.2500:NULL Value
~CURVE INFORMATION BLOCK
#MNEM UNIT       ERCB CURVE CODE    CURVE DESCRIPTION
#-----------   ------------------   ----------------------------------
DEPT.M        00 001 00 00         : DEPTH        - DEPTH
GR  .API      00 310 00 00         : GR           - GAMMA RAY
DPHI.V/V      00 890 00 00         : PHID         - DENSITY POROSITY (SANDSTONE)
NPHI.V/V      00 330 00 00         : PHIN         - NEUTRON POROSITY (SANDSTONE)
ILD .OHMM     00 120 00 00         : RESD         - DEEP RESISTIVITY (DIL)
~PARAMETER INFORMATION
#MNEM.UNIT           DATA             DESCRIPTION OF MNEMONIC
#---------         -----------     ------------------------------
GL  .M        639.623              : gl           - GROUND LEVEL ELEVATION
EREF.M        640.69               : kb           - ELEVATION OF DEPTH REFERENCE
DATM.M        639.623              : datum        - DATUM ELEVATION
TDD .M        512.064              : tdd          - TOTAL DEPTH DRILLER
RUN .         ONE                  : Run          - RUN NUMBER
ENG .         BILL                 : Engineer     - RECORDING ENGINEER
WIT .         JIM                  : Witness      - WITNESSED BY
MUD .         GEL                  : Mud_type     - MUD TYPE
MATR.         SANDSTONE            : Logunit      - NEUTRON MATRIX
TMAX.C        16.6667              : BHT          - MAXIMUM RECORDED TEMPERATURE
BHTD.M        512.369              : BHTDEP       - MAXIMUM RECORDED TEMPERATURE
MATR.         1                    : LOGUNIT      - NEUTRON MATRIX
RMT .C        25                   : MDTP         - TEMPERATURE OF MUD
NEUT.         1                    : NEUTRON      - NEUTRON TYPE
RESI.         0                    : RESIST       - RESISTIVITY TYPE
RMC .OHMM     0.25                 : RMC          - RESISTIVITY OF MUD CAKE
RMF .OHMM     0.25                 : RMF          - RESISTIVITY OF MUD FILTRATE
SUFT.C        15                   : SUFT         - SURFACE TEMPERATURE
~A  DEPTH       GR     PHID     PHIN     RESD
# ...
  417.012   70.299    0.270    0.465    6.329
  417.262   70.483    0.287    0.468    6.155
  417.512   73.144    0.300    0.477    6.153
  417.762   74.134    0.270    0.485    6.154
  418.012   73.666    0.248    0.486    6.146
  418.262   72.014    0.257    0.476    6.274
  418.512   71.847    0.239    0.466    6.405
  418.762   73.714    0.213    0.451    6.606
  419.012   77.777    0.188    0.440    6.851
  419.262   82.079    0.178    0.456    7.144
  419.512   81.167    0.228    0.460    7.154
  419.762   80.901    0.229    0.451    6.964
  420.012   80.300    0.238    0.460    6.899
  420.262   76.383    0.257    0.467    6.575
  420.512   71.385    0.272    0.456    6.257
  420.762   68.029    0.284    0.462    6.089
  421.012   63.593    0.310    0.474    5.968
  421.262   61.510    0.341    0.487    5.853
  421.512   61.989    0.354    0.496    5.774
  421.762   64.059    0.352    0.510    5.760
  422.012   64.596    0.354    0.503    5.760
  422.262   62.032    0.345    0.499    5.756
  422.512   59.144    0.331    0.508    5.944
  422.762   57.512    0.327    0.495    6.320
  423.012   54.679    0.333    0.486    7.035
  423.262   56.069    0.341    0.475    8.855
  423.512   55.251    0.346    0.460   11.059
  423.762   51.733    0.229    0.429   13.840
  424.012   46.734    0.058    0.178   19.031
  424.262   42.190    0.028    0.184   21.980
  424.512   42.627    0.032    0.195   20.441
  424.762   47.136    0.057    0.216   17.089
  425.012   52.123    0.075    0.253   12.494
  425.262   56.606    0.128    0.333    9.742
  425.512   60.607    0.315    0.404    7.594
  425.762   59.715    0.335    0.468    6.474
  426.012   59.542    0.329    0.491    5.930
  426.262   60.586    0.305    0.510    5.697
  426.512   59.593    0.335    0.523    5.697
  426.762   59.667    0.327    0.495    5.673
  427.012   59.948    0.325    0.497    5.592
  427.262   60.602    0.325    0.499    5.492
  427.512   64.369    0.327    0.496    5.266
  427.762   70.485    0.315    0.504    5.204
  428.012   73.858    0.301    0.512    5.080
  428.262   75.415    0.292    0.516    4.976
  428.512   73.436    0.306    0.511    4.980
  428.762   71.143    0.292    0.505    4.974
  429.012   73.002    0.297    0.505    4.969
  429.262   70.792    0.286    0.517    5.116
  429.512   68.619    0.273    0.535    5.266
  429.762   69.263    0.294    0.555    5.424
  430.012   70.534    0.307    0.528    5.654
  430.262   72.540    0.313    0.511    5.738
  430.512   71.331    0.313    0.513    5.828
  430.762   70.734    0.307    0.515    5.816
  431.012   74.892    0.306    0.507    5.803
  431.262   76.672    0.302    0.505    5.696
  431.512   70.558    0.300    0.511    5.696
  431.762   65.480    0.297    0.511    5.692
  432.012   69.065    0.298    0.505    5.609
  432.262   72.171    0.276    0.502    5.579
  432.512   73.904    0.264    0.501    5.571
  432.762   73.897    0.282    0.506    5.565
  433.012   73.983    0.290    0.509    5.560
  433.262   74.535    0.292    0.496    5.557
  433.512   73.293    0.295    0.486    5.604
  433.762   75.981    0.295    0.492    5.644
  434.012   75.315    0.290    0.500    5.641
  434.262   73.873    0.278    0.505    5.635
  434.512   73.312    0.268    0.507    5.630
  434.762   76.490    0.287    0.514    5.620
  435.012   78.161    0.294    0.507    5.589
  435.262   76.058    0.286    0.506    5.408
  435.512   73.665    0.290    0.504    5.266
  435.762   75.440    0.284    0.514    4.891
  436.012   77.208    0.275    0.515    4.590
  436.262   79.710    0.267    0.503    4.309
  436.512   84.456    0.254    0.508    4.148
  436.762   87.893    0.252    0.519    4.140
  437.012   88.890    0.240    0.519    4.499
  437.262   85.906    0.234    0.521    5.271
  437.512   76.379    0.238    0.491    6.083
  437.762   61.364    0.166    0.450    7.256
  438.012   55.126    0.109    0.404    7.874
  438.262   54.718    0.093    0.321    7.082
  438.512   56.644    0.108    0.301    6.568
  438.762   61.853    0.155    0.357    5.750
  439.012   65.371    0.260    0.482    5.153
  439.262   68.857    0.316    0.500    4.736
  439.512   69.049    0.333    0.499    4.606
  439.762   71.283    0.318    0.488    4.507
  440.012   73.434    0.325    0.490    4.524
  440.262   73.906    0.298    0.497    4.869
  440.512   72.727    0.247    0.484    5.832
  440.762   66.085    0.142    0.418    7.180
  441.012   58.519    0.081    0.354    8.233
  441.262   53.926    0.063    0.302    9.064
  441.512   48.421    0.055    0.268    8.965
  441.762   58.527    0.119    0.266    7.764
  442.012   65.335    0.174    0.340    7.011
  442.262   69.344    0.205    0.442    6.222
  442.512   73.621    0.222    0.475    5.834
  442.762   76.282    0.262    0.503    5.758
  443.012   77.324    0.251    0.523    5.851
  443.262   75.028    0.245    0.457    5.907
  443.512   73.445    0.235    0.443    5.955
  443.762   75.427    0.201    0.416    5.959
  444.012   79.620    0.196    0.428    5.776
  444.262   80.070    0.228    0.451    5.721
  444.512   76.892    0.245    0.457    5.622
  444.762   76.431    0.235    0.468    5.531
  445.012   74.679    0.243    0.478    5.605
  445.262   74.606    0.236    0.478    5.911
  445.512   77.081    0.225    0.488    6.132
  445.762   75.874    0.240    0.494    6.222
  446.012   77.412    0.237    0.487    6.539
  446.262   80.171    0.229    0.466    6.712
  446.512   80.115    0.219    0.478    6.591
  446.762   78.867    0.213    0.481    6.336
  447.012   76.847    0.221    0.486    6.085
  447.262   77.794    0.230    0.491    5.885
  447.512   79.941    0.238    0.479    5.827
  447.762   82.944    0.215    0.490    5.753
  448.012   83.001    0.212    0.495    5.746
  448.262   87.079    0.231    0.493    5.734
  448.512   88.855    0.218    0.490    5.838
  448.762   89.455    0.220    0.495    6.063
  449.012   90.226    0.218    0.493    6.399
  449.262   90.769    0.206    0.480    6.485
  449.512   88.631    0.205    0.461    6.700
  449.762   88.746    0.219    0.445    6.601
  450.012   89.758    0.216    0.452    6.519
  450.262   91.058    0.209    0.458    6.131
  450.512   92.371    0.225    0.447    5.890
  450.762   92.305    0.219    0.442    5.604
  451.012   91.966    0.230    0.436    5.439
  451.262   89.878    0.222    0.447    5.273
  451.512   85.479    0.214    0.472    5.105
  451.762   81.549    0.217    0.502    5.083
  452.012   80.112    0.246    0.476    4.981
  452.262   81.656    0.207    0.478    4.916
  452.512   84.196    0.184    0.507    4.702
  452.762   87.861    0.202    0.517    4.163
  453.012   86.349    0.213    0.515    3.528
  453.262   84.710    0.209    0.493    2.985
  453.512   82.662    0.215    0.499    2.655
  453.762   81.500    0.222    0.530    2.379
  454.012   81.838    0.247    0.572    2.200
  454.262   83.496    0.274    0.602    2.074
  454.512   83.800    0.281    0.580    1.966
  454.762   86.513    0.270    0.574    1.970
  455.012   88.845    0.253    0.587    1.964
  455.262   90.974    0.248    0.599    2.004
  455.512   91.281    0.246    0.592    2.034
  455.762   92.849    0.243    0.584    2.133
  456.012   94.434    0.239    0.589    2.291
  456.262   90.747    0.250    0.585    2.636
  456.512   86.484    0.239    0.584    3.064
  456.762   83.881    0.236    0.581    3.661
  457.012   81.765    0.224    0.505    4.187
  457.262   81.627    0.213    0.477    4.554
  457.512   83.929    0.227    0.457    5.055
  457.762   85.646    0.219    0.444    5.189
  458.012   85.132    0.214    0.448    5.450
  458.262   82.810    0.220    0.469    5.821
  458.512   78.184    0.213    0.493    5.936
  458.762   72.975    0.160    0.411    6.156
  459.012   72.539    0.104    0.343    6.140
  459.262   78.623    0.089    0.360    6.022
  459.512   83.938    0.160    0.389    5.242
  459.762   87.289    0.199    0.416    4.823
  460.012   90.469    0.216    0.435    4.089
  460.262   89.711    0.209    0.466    3.712
