~VERSION INFORMATION
 VERS.                 2.0:   CWLS LOG ASCII STANDARD -VERSION 2.0
 WRAP.                  NO:   ONE LINE PER DEPTH STEP
~WELL INFORMATION BLOCK
#MNEM.UNIT           DATA                    DESCRIPTION OF MNEMONIC
#---------    -------------------            -------------------------------
# Generated from Intellog Unique Number	CS_73_76/WELL/838
WELL.         MIAMI OIL PRODUCERS            : Well_name    - WELL
LOC .         00/10-32-073-11W4/0            : Location     - LOCATION
UWI .         00/10-32-073-11W4/0            : Uwi          - UNIQUE WELL ID
ENTR.         SP                             : Entered      - ENTERED BY
SRVC.         SCHLUMBERGER                   : Scn          - SERVICE COMPANY
STRT.M        295.656                        : top_depth    - START DEPTH
STOP.M        533.156                        : bot_depth    - STOP DEPTH
STEP.M        0.25                           : increment    - STEP LENGTH
 NULL. -999.2500:NULL Value
~CURVE INFORMATION BLOCK
#MNEM UNIT       ERCB CURVE CODE    CURVE DESCRIPTION
#-----------   ------------------   ----------------------------------
DEPT.M        00 001 00 00         : DEPTH        - DEPTH
GR  .API      00 310 00 00         : GR           - GAMMA RAY
DPHI.V/V      00 890 00 00         : PHID         - DENSITY POROSITY (SANDSTONE)
NPHI.V/V      00 330 00 00         : PHIN         - NEUTRON POROSITY (SANDSTONE)
ILD .OHMM     00 120 00 00         : RESD         - DEEP RESISTIVITY (DIL)
~PARAMETER INFORMATION
#MNEM.UNIT           DATA             DESCRIPTION OF MNEMONIC
#---------         -----------     ------------------------------
GL  .M        644.347              : gl           - GROUND LEVEL ELEVATION
EREF.M        647.395              : kb           - ELEVATION OF DEPTH REFERENCE
DATM.M        644.347              : datum        - DATUM ELEVATION
TDD .M        636.727              : tdd          - TOTAL DEPTH DRILLER
RUN .         ONE                  : Run          - RUN NUMBER
ENG .         BILL                 : Engineer     - RECORDING ENGINEER
WIT .         JIM                  : Witness      - WITNESSED BY
MUD .         GEL                  : Mud_type     - MUD TYPE
MATR.         SANDSTONE            : Logunit      - NEUTRON MATRIX
TMAX.C        25.5556              : BHT          - MAXIMUM RECORDED TEMPERATURE
BHTD.M        636.727              : BHTDEP       - MAXIMUM RECORDED TEMPERATURE
MATR.         1                    : LOGUNIT      - NEUTRON MATRIX
RMT .C        25                   : MDTP         - TEMPERATURE OF MUD
NEUT.         1                    : NEUTRON      - NEUTRON TYPE
RESI.         0                    : RESIST       - RESISTIVITY TYPE
RMC .OHMM     0.25                 : RMC          - RESISTIVITY OF MUD CAKE
RMF .OHMM     0.25                 : RMF          - RESISTIVITY OF MUD FILTRATE
SUFT.C        15                   : SUFT         - SURFACE TEMPERATURE
~A  DEPTH       GR     PHID     PHIN     RESD
  295.656  103.346    0.248    0.540    3.280
  295.906  102.100    0.243    0.544    3.326
  296.156  104.059    0.257    0.538    3.359
  296.406  105.098    0.257    0.536    3.406
  296.656  104.811    0.245    0.551    3.474
  296.906  105.159    0.239    0.539    3.554
  297.156  104.637    0.250    0.515    3.661
  297.406  104.372    0.260    0.492    3.744
  297.656  103.387    0.266    0.495    3.825
  297.906  102.987    0.265    0.493    3.895
  298.156  101.999    0.268    0.501    3.789
  298.406  101.032    0.260    0.508    3.680
  298.656  102.577    0.246    0.521    3.623
  298.906  105.338    0.236    0.516    3.553
  299.156  105.204    0.229    0.529    3.496
  299.406  106.109    0.235    0.541    3.391
  299.656  107.738    0.239    0.536    3.378
  299.906  106.569    0.250    0.528    3.312
  300.156  104.845    0.259    0.511    3.479
  300.406  104.675    0.236    0.494    3.571
  300.656  104.295    0.243    0.487    3.625
  300.906  101.746    0.257    0.481    3.613
  301.156   99.186    0.261    0.482    3.505
  301.406   97.465    0.260    0.497    3.403
  301.656   96.865    0.250    0.513    3.306
  301.906   93.464    0.236    0.512    3.210
  302.156   87.050    0.258    0.483    3.624
  302.406   82.311    0.283    0.390    4.467
  302.656   71.030    0.320    0.327    7.364
  302.906   60.227    0.352    0.202   13.324
  303.156   58.268    0.452    0.185   24.956
  303.406   60.316    0.467    0.193   33.319
  303.656   61.354    0.483    0.192   38.346
  303.906   61.558    0.497    0.196   30.748
  304.156   59.066    0.468    0.220   22.614
  304.406   56.884    0.438    0.260   16.044
  304.656   53.944    0.404    0.295   13.611
  304.906   54.417    0.382    0.339   12.422
  305.156   54.238    0.368    0.366   11.512
  305.406   52.853    0.368    0.353   11.217
  305.656   51.585    0.375    0.347   11.339
  305.906   51.809    0.369    0.353   11.710
  306.156   51.754    0.366    0.361   11.860
  306.406   50.757    0.364    0.370   12.235
  306.656   50.664    0.358    0.369   12.320
  306.906   52.178    0.356    0.371   12.325
  307.156   52.715    0.360    0.376   12.233
  307.406   51.663    0.370    0.389   12.114
  307.656   52.571    0.368    0.403   11.741
  307.906   53.557    0.375    0.409   11.332
  308.156   52.894    0.375    0.413   10.877
  308.406   51.985    0.371    0.428   10.231
  308.656   50.190    0.371    0.437    9.895
  308.906   48.270    0.372    0.435    9.598
  309.156   46.295    0.371    0.427    9.595
  309.406   45.143    0.373    0.419    9.566
  309.656   44.176    0.369    0.423    9.578
  309.906   43.422    0.358    0.427    9.926
  310.156   44.240    0.334    0.430   11.052
  310.406   46.295    0.279    0.417   13.470
  310.656   46.281    0.204    0.394   16.397
  310.906   44.605    0.141    0.341   20.928
  311.156   42.056    0.048    0.251   23.449
  311.406   41.253    0.050    0.243   23.320
  311.656   42.945    0.088    0.258   20.465
  311.906   43.870    0.197    0.300   17.108
  312.156   44.518    0.289    0.332   13.885
  312.406   43.561    0.375    0.388   11.516
  312.656   44.093    0.373    0.420    9.682
  312.906   45.965    0.373    0.429    8.965
  313.156   47.383    0.369    0.424    9.015
  313.406   49.206    0.364    0.429    9.094
  313.656   50.131    0.362    0.440    9.196
  313.906   50.103    0.368    0.446    9.353
  314.156   50.105    0.375    0.451    9.557
  314.406   50.116    0.381    0.450    9.542
  314.656   49.493    0.374    0.454    9.549
  314.906   49.502    0.364    0.441    9.561
  315.156   50.133    0.355    0.436    9.401
  315.406   50.712    0.341    0.433    8.881
  315.656   53.604    0.311    0.428    8.216
  315.906   57.996    0.271    0.430    7.868
  316.156   63.320    0.266    0.464    8.058
  316.406   61.664    0.316    0.491    8.446
  316.656   58.994    0.341    0.513    8.981
  316.906   54.053    0.361    0.468    9.567
  317.156   54.408    0.331    0.422   10.168
  317.406   56.663    0.337    0.437   10.347
  317.656   59.941    0.345    0.451   10.347
  317.906   62.025    0.349    0.463   10.352
  318.156   63.415    0.362    0.469   10.364
  318.406   63.806    0.357    0.462   10.411
  318.656   63.322    0.351    0.456   10.565
  318.906   61.699    0.346    0.452   10.572
  319.156   60.854    0.340    0.447   10.582
  319.406   60.830    0.336    0.446   10.416
  319.656   62.714    0.344    0.448   10.402
  319.906   63.932    0.347    0.452   10.403
  320.156   64.522    0.347    0.458   10.412
  320.406   63.529    0.341    0.465   10.469
  320.656   60.907    0.329    0.469   10.810
  320.906   59.910    0.310    0.477   10.953
  321.156   62.724    0.290    0.501   11.029
  321.406   66.769    0.290    0.497   10.832
  321.656   69.262    0.328    0.472   10.734
  321.906   68.237    0.338    0.463   10.408
  322.156   67.501    0.337    0.466   10.107
  322.406   67.405    0.339    0.472    9.910
  322.656   68.801    0.334    0.474    9.717
  322.906   70.429    0.327    0.497    9.741
  323.156   69.563    0.334    0.512    9.740
  323.406   68.611    0.327    0.502    9.739
  323.656   66.552    0.329    0.492    9.568
  323.906   66.359    0.336    0.487    9.583
  324.156   66.341    0.331    0.484    9.590
  324.406   66.398    0.334    0.484    9.595
  324.656   65.590    0.339    0.473    9.603
  324.906   64.618    0.333    0.461    9.607
  325.156   64.781    0.343    0.453    9.619
  325.406   67.255    0.337    0.467    9.649
  325.656   69.220    0.329    0.485    9.808
  325.906   69.528    0.315    0.505    9.804
  326.156   71.352    0.314    0.519    9.799
  326.406   78.170    0.290    0.528    9.517
  326.656   86.940    0.260    0.551    8.976
  326.906   96.153    0.238    0.579    7.714
  327.156  105.222    0.203    0.599    6.142
  327.406  110.106    0.188    0.615    4.931
  327.656  113.091    0.178    0.633    4.490
  327.906  112.503    0.183    0.532    4.730
  328.156  109.640    0.149    0.465    5.065
  328.406  111.502    0.162    0.453    5.749
  328.656  117.213    0.212    0.458    6.426
  328.906  118.797    0.246    0.465    7.174
  329.156  114.238    0.250    0.472    8.114
  329.406  110.148    0.253    0.471    8.713
  329.656  105.332    0.262    0.481    9.763
  329.906  104.095    0.277    0.498   10.369
  330.156  102.284    0.290    0.515   10.739
  330.406   96.546    0.304    0.519   10.861
  330.656   87.178    0.316    0.521   10.827
  330.906   84.510    0.313    0.523    9.589
  331.156   91.022    0.291    0.526    8.938
  331.406   97.216    0.270    0.546    8.338
  331.656  102.937    0.246    0.593    7.942
  331.906  107.141    0.239    0.618    7.716
  332.156  110.943    0.247    0.590    7.700
  332.406  113.253    0.255    0.523    7.876
  332.656  113.681    0.248    0.503    8.104
  332.906  113.505    0.254    0.516    8.534
  333.156  108.106    0.274    0.539    8.968
  333.406   94.390    0.294    0.556    9.577
  333.656   81.998    0.328    0.563   10.116
  333.906   74.361    0.342    0.560   10.748
  334.156   69.759    0.356    0.528   11.075
  334.406   68.648    0.353    0.508   11.390
  334.656   71.106    0.350    0.495   11.375
  334.906   72.720    0.360    0.479   11.270
  335.156   75.634    0.347    0.465   11.161
  335.406   77.226    0.345    0.444   10.998
  335.656   74.546    0.338    0.429   10.772
  335.906   73.907    0.330    0.441   10.790
  336.156   77.839    0.317    0.448   10.605
  336.406   82.531    0.308    0.446   10.622
  336.656   84.412    0.297    0.440   10.629
  336.906   84.928    0.301    0.435   10.635
  337.156   86.457    0.286    0.444   10.640
  337.406   87.314    0.292    0.451   10.649
  337.656   90.677    0.300    0.445   10.672
  337.906   93.381    0.282    0.456   10.430
  338.156   97.736    0.269    0.454    9.958
  338.406  103.238    0.255    0.442    9.570
  338.656  107.353    0.245    0.426    9.205
  338.906  110.278    0.238    0.425    8.943
