~VERSION INFORMATION
 VERS.                 2.0:   CWLS LOG ASCII STANDARD -VERSION 2.0
 WRAP.                  NO:   ONE LINE PER DEPTH STEP
~WELL INFORMATION BLOCK
#MNEM.UNIT           DATA                    DESCRIPTION OF MNEMONIC
#---------    -------------------            -------------------------------
# Generated from Intellog Unique Number	CS_69_70/WELL/892
NULL.         -999.25                        : NULL_VALUE
WELL.         HB PITLOCHRIE                  : Well_name    - WELL              
LOC .         00/11-21-070-12W4/0            : Location     - LOCATION          
UWI .         00/11-21-070-12W4/0            : Uwi          - UNIQUE WELL ID    
ENTR.         SP                             : Entered      - ENTERED BY        
SRVC.         SCHLUMBERGER                   : Scn          - SERVICE COMPANY   
STRT.M        259.080                        : top_depth    - START DEPTH       
STOP.M        456.830                        : bot_depth    - STOP DEPTH        
STEP.M        0.25                           : increment    - STEP LENGTH       
~CURVE INFORMATION BLOCK
#MNEM UNIT       ERCB CURVE CODE    CURVE DESCRIPTION
#-----------   ------------------   ----------------------------------
DEPT.M        00 001 00 00         : DEPTH        - DEPTH                       
GR  .API      00 310 00 00         : GR           - GAMMA RAY                   
DPHI.V/V      00 890 00 00         : PHID         - DENSITY POROSITY (SANDSTONE)
NPHI.V/V      00 330 00 00         : PHIN         - NEUTRON POROSITY (SANDSTONE)
ILD .OHMM     00 120 00 00         : RESD         - DEEP RESISTIVITY (DIL)      
~PARAMETER INFORMATION       
#MNEM.UNIT           DATA             DESCRIPTION OF MNEMONIC
#---------         -----------     ------------------------------
GL  .M        576.682              : gl           - GROUND LEVEL ELEVATION      
EREF.M        580.339              : kb           - ELEVATION OF DEPTH REFERENCE
DATM.M        576.682              : datum        - DATUM ELEVATION             
TDD .M        460.248              : tdd          - TOTAL DEPTH DRILLER         
RUN .         ONE                  : Run          - RUN NUMBER                  
ENG .         BILL                 : Engineer     - RECORDING ENGINEER          
WIT .         JIM                  : Witness      - WITNESSED BY                
MUD .         GEL                  : Mud_type     - MUD TYPE                    
MATR.         SANDSTONE            : Logunit      - NEUTRON MATRIX              
TMAX.C        12.2222              : BHT          - MAXIMUM RECORDED TEMPERATURE
BHTD.M        460.248              : BHTDEP       - MAXIMUM RECORDED TEMPERATURE
MATR.         1                    : LOGUNIT      - NEUTRON MATRIX              
RMT .C        25                   : MDTP         - TEMPERATURE OF MUD          
NEUT.         1                    : NEUTRON      - NEUTRON TYPE                
RESI.         0                    : RESIST       - RESISTIVITY TYPE            
RMC .OHMM     0.25                 : RMC          - RESISTIVITY OF MUD CAKE     
RMF .OHMM     0.25                 : RMF          - RESISTIVITY OF MUD FILTRATE 
SUFT.C        15                   : SUFT         - SURFACE TEMPERATURE         
~A  DEPTH       GR     PHID     PHIN     RESD
# ...
  302.580   95.087    0.265    0.530    4.387
  302.830   89.830    0.248    0.517    4.562
  303.080   83.399    0.281    0.505    4.724
  303.330   79.522    0.288    0.495    4.893
  303.580   77.288    0.294    0.496    5.023
  303.830   80.993    0.299    0.489    5.132
  304.080   84.705    0.301    0.471    5.228
  304.330   88.451    0.280    0.461    5.283
  304.580   91.682    0.254    0.455    5.353
  304.830   94.566    0.232    0.458    5.439
  305.080   97.204    0.221    0.463    5.532
  305.330   93.451    0.234    0.482    5.615
  305.580   82.283    0.256    0.492    5.673
  305.830   79.460    0.283    0.504    5.719
  306.080   80.513    0.299    0.505    5.769
  306.330   82.271    0.288    0.491    5.795
  306.580   83.898    0.276    0.497    5.750
  306.830   86.533    0.269    0.504    5.702
  307.080   88.346    0.263    0.508    5.672
  307.330   90.021    0.263    0.514    5.651
  307.580   90.407    0.274    0.522    5.659
  307.830   89.385    0.278    0.519    5.644
  308.080   92.299    0.254    0.514    5.640
  308.330   95.369    0.244    0.508    5.641
  308.580   98.035    0.244    0.502    5.619
  308.830  100.489    0.241    0.496    5.579
  309.080  101.903    0.226    0.491    5.475
  309.330  102.558    0.216    0.503    5.336
  309.580  103.078    0.233    0.512    5.265
  309.830  103.087    0.250    0.513    5.210
  310.080  101.982    0.258    0.514    5.282
  310.330   99.499    0.253    0.523    5.414
  310.580   97.059    0.287    0.498    5.594
  310.830   95.244    0.252    0.457    5.723
  311.080   93.894    0.226    0.464    5.808
  311.330   92.638    0.250    0.474    5.826
  311.580   92.691    0.254    0.481    5.696
  311.830   93.438    0.239    0.483    5.530
  312.080   95.909    0.251    0.491    5.460
  312.330   96.765    0.247    0.503    5.472
  312.580   93.749    0.239    0.514    5.553
  312.830   82.865    0.247    0.487    5.658
  313.080   79.131    0.257    0.461    5.756
  313.330   77.662    0.258    0.457    5.870
  313.580   77.592    0.253    0.458    5.917
  313.830   79.077    0.265    0.456    5.952
  314.080   80.932    0.278    0.453    5.977
  314.330   81.420    0.278    0.456    6.001
  314.580   80.353    0.266    0.467    6.011
  314.830   79.869    0.274    0.474    6.035
  315.080   79.791    0.285    0.483    6.054
  315.330   82.400    0.264    0.490    6.089
  315.580   85.606    0.250    0.469    6.126
  315.830   87.865    0.234    0.480    6.197
  316.080   86.389    0.234    0.488    6.255
  316.330   84.225    0.244    0.476    6.349
  316.580   84.418    0.254    0.448    6.438
  316.830   86.782    0.242    0.435    6.541
  317.080   89.447    0.228    0.426    6.650
  317.330   91.703    0.219    0.419    6.758
  317.580   93.766    0.213    0.417    6.830
  317.830   94.270    0.200    0.415    6.909
  318.080   94.601    0.218    0.415    6.989
  318.330   95.414    0.241    0.426    7.056
  318.580   96.267    0.230    0.461    7.105
  318.830   96.291    0.221    0.457    7.138
  319.080   93.404    0.219    0.466    7.145
  319.330   89.624    0.208    0.486    7.060
  319.580   88.279    0.195    0.501    6.744
  319.830   91.687    0.255    0.494    6.361
  320.080   92.419    0.271    0.469    6.076
  320.330   88.987    0.289    0.491    5.907
  320.580   83.470    0.312    0.524    5.848
  320.830   76.271    0.294    0.530    5.902
  321.080   74.198    0.316    0.513    5.992
  321.330   72.310    0.302    0.494    6.136
  321.580   71.662    0.295    0.473    6.183
  321.830   71.443    0.284    0.458    6.114
  322.080   70.391    0.274    0.455    6.051
  322.330   67.092    0.301    0.463    5.979
  322.580   65.417    0.314    0.473    5.880
  322.830   63.976    0.307    0.480    5.801
  323.080   62.524    0.315    0.474    5.641
  323.330   61.808    0.327    0.472    5.507
  323.580   61.359    0.332    0.479    5.425
  323.830   62.161    0.317    0.472    5.371
  324.080   65.564    0.312    0.474    5.367
  324.330   69.621    0.303    0.468    5.455
  324.580   73.676    0.293    0.458    5.618
  324.830   76.594    0.287    0.450    5.809
  325.080   79.231    0.283    0.457    6.043
  325.330   81.928    0.286    0.468    6.232
  325.580   84.179    0.296    0.484    6.335
  325.830   85.667    0.280    0.497    6.349
  326.080   85.348    0.271    0.495    6.362
  326.330   87.162    0.264    0.490    6.542
  326.580   88.225    0.260    0.485    6.681
  326.830   90.467    0.260    0.477    6.824
  327.080   92.467    0.256    0.470    7.003
  327.330   94.618    0.244    0.462    7.130
  327.580   93.213    0.235    0.457    7.217
  327.830   88.091    0.243    0.467    7.165
  328.080   79.949    0.254    0.470    7.001
  328.330   72.939    0.271    0.462    6.650
  328.580   68.377    0.284    0.452    6.367
  328.830   69.518    0.293    0.444    6.036
  329.080   73.126    0.296    0.450    5.927
  329.330   75.728    0.295    0.447    5.862
  329.580   77.020    0.278    0.448    5.909
  329.830   78.133    0.238    0.449    6.043
  330.080   77.212    0.228    0.444    6.223
  330.330   72.906    0.231    0.465    6.301
  330.580   68.161    0.253    0.470    6.252
  330.830   62.998    0.284    0.453    6.017
  331.080   58.323    0.301    0.443    5.896
  331.330   57.985    0.311    0.444    5.755
  331.580   58.764    0.315    0.450    5.710
  331.830   59.097    0.309    0.467    5.725
  332.080   57.981    0.299    0.480    5.761
  332.330   59.581    0.289    0.492    5.585
  332.580   60.741    0.294    0.485    5.600
  332.830   61.313    0.291    0.478    5.568
  333.080   66.264    0.275    0.472    5.466
  333.330   75.086    0.263    0.474    5.247
  333.580   85.483    0.250    0.505    5.044
  333.830   89.419    0.237    0.525    4.893
  334.080   89.898    0.238    0.536    4.908
  334.330   89.498    0.238    0.543    5.075
  334.580   90.368    0.227    0.537    5.262
  334.830   86.422    0.239    0.525    5.522
  335.080   81.111    0.265    0.518    5.841
  335.330   76.489    0.291    0.500    6.093
  335.580   72.969    0.316    0.498    6.312
  335.830   70.377    0.309    0.495    6.511
  336.080   69.665    0.297    0.485    6.708
  336.330   69.982    0.289    0.494    6.773
  336.580   70.724    0.286    0.508    6.781
  336.830   69.226    0.283    0.515    6.741
  337.080   67.520    0.284    0.522    6.705
  337.330   68.882    0.288    0.518    7.012
  337.580   68.784    0.290    0.498    7.139
  337.830   66.910    0.271    0.481    7.364
  338.080   63.364    0.259    0.473    7.677
  338.330   60.047    0.246    0.444    7.961
  338.580   57.580    0.173    0.377    8.280
  338.830   59.482    0.129    0.312    8.231
  339.080   64.127    0.201    0.403    7.871
  339.330   66.395    0.291    0.464    7.355
  339.580   68.494    0.295    0.485    6.960
  339.830   69.264    0.283    0.479    6.762
  340.080   70.874    0.284    0.480    6.650
  340.330   72.930    0.286    0.506    6.610
  340.580   74.426    0.286    0.517    6.621
  340.830   72.129    0.282    0.494    6.630
  341.080   69.627    0.300    0.462    6.595
  341.330   66.845    0.298    0.452    6.572
  341.580   64.878    0.276    0.455    6.510
  341.830   63.379    0.294    0.463    6.514
  342.080   64.012    0.277    0.478    6.521
  342.330   66.809    0.279    0.492    6.611
  342.580   69.063    0.290    0.490    6.702
  342.830   69.808    0.277    0.487    6.811
  343.080   70.428    0.273    0.480    6.935
  343.330   74.030    0.267    0.463    7.019
  343.580   76.616    0.260    0.449    7.143
  343.830   79.534    0.251    0.440    7.183
  344.080   82.216    0.241    0.447    7.217
  344.330   83.491    0.228    0.457    7.192
  344.580   84.176    0.230    0.464    7.144
  344.830   84.367    0.240    0.469    6.964
  345.080   84.205    0.237    0.473    6.719
  345.330   83.998    0.242    0.482    6.466
  345.580   83.769    0.257    0.488    6.261
  345.830   83.055    0.293    0.491    6.131
