~VERSION INFORMATION
 VERS.                 2.0:   CWLS LOG ASCII STANDARD -VERSION 2.0
 WRAP.                  NO:   ONE LINE PER DEPTH STEP
~WELL INFORMATION BLOCK
#MNEM.UNIT           DATA                    DESCRIPTION OF MNEMONIC
#---------    -------------------            -------------------------------
# Generated from Intellog Unique Number	CS_73_76/WELL/2202
WELL.         AMOCO CANADA PETROLEUM         : Well_name    - WELL
LOC .         00/11-22-074-12W4/0            : Location     - LOCATION
UWI .         00/11-22-074-12W4/0            : Uwi          - UNIQUE WELL ID
ENTR.         SP                             : Entered      - ENTERED BY
SRVC.         SCHLUMBERGER                   : Scn          - SERVICE COMPANY
STRT.M        289.56                         : top_depth    - START DEPTH
STOP.M        508.81                         : bot_depth    - STOP DEPTH
STEP.M        0.25                           : increment    - STEP LENGTH
 NULL. -999.2500:NULL Value
~CURVE INFORMATION BLOCK
#MNEM UNIT       ERCB CURVE CODE    CURVE DESCRIPTION
#-----------   ------------------   ----------------------------------
DEPT.M        00 001 00 00         : DEPTH        - DEPTH
GR  .API      00 310 00 00         : GR           - GAMMA RAY
DPHI.V/V      00 890 00 00         : PHID         - DENSITY POROSITY (SANDSTONE)
NPHI.V/V      00 330 00 00         : PHIN         - NEUTRON POROSITY (SANDSTONE)
ILD .OHMM     00 120 00 00         : RESD         - DEEP RESISTIVITY (DIL)
~PARAMETER INFORMATION
#MNEM.UNIT           DATA             DESCRIPTION OF MNEMONIC
#---------         -----------     ------------------------------
GL  .M        10                   : gl           - GROUND LEVEL ELEVATION
EREF.M        656.265              : kb           - ELEVATION OF DEPTH REFERENCE
DATM.M        10                   : datum        - DATUM ELEVATION
TDD .M        511.759              : tdd          - TOTAL DEPTH DRILLER
RUN .         ONE                  : Run          - RUN NUMBER
ENG .         BILL                 : Engineer     - RECORDING ENGINEER
WIT .         JIM                  : Witness      - WITNESSED BY
MUD .         GEL                  : Mud_type     - MUD TYPE
MATR.         SANDSTONE            : Logunit      - NEUTRON MATRIX
TMAX.C        15.5556              : BHT          - MAXIMUM RECORDED TEMPERATURE
BHTD.M        511.759              : BHTDEP       - MAXIMUM RECORDED TEMPERATURE
MATR.         1                    : LOGUNIT      - NEUTRON MATRIX
RMT .C        25                   : MDTP         - TEMPERATURE OF MUD
NEUT.         1                    : NEUTRON      - NEUTRON TYPE
RESI.         0                    : RESIST       - RESISTIVITY TYPE
RMC .OHMM     0.25                 : RMC          - RESISTIVITY OF MUD CAKE
RMF .OHMM     0.25                 : RMF          - RESISTIVITY OF MUD FILTRATE
SUFT.C        15                   : SUFT         - SURFACE TEMPERATURE
~A  DEPTH       GR     PHID     PHIN     RESD
# ...
  333.060  110.961    0.227    0.495    6.703
  333.310  110.993    0.229    0.476    6.706
  333.560  109.117    0.228    0.475    6.932
  333.810  109.953    0.227    0.471    6.987
  334.060  109.911    0.235    0.472    7.221
  334.310  107.828    0.228    0.469    7.294
  334.560  105.443    0.228    0.465    7.502
  334.810  103.533    0.236    0.449    7.626
  335.060  102.276    0.227    0.442    7.864
  335.310  105.458    0.223    0.445    8.110
  335.560  106.468    0.219    0.461    8.346
  335.810  105.836    0.215    0.463    8.786
  336.060  104.473    0.229    0.459    9.030
  336.310  102.074    0.217    0.473    8.639
  336.560  100.157    0.203    0.466    8.194
  336.810   99.872    0.185    0.476    7.809
  337.060  100.794    0.153    0.489    7.398
  337.310  104.914    0.193    0.497    7.107
  337.560  110.538    0.207    0.497    6.895
  337.810  114.123    0.196    0.488    6.761
  338.060  116.782    0.209    0.482    6.789
  338.310  116.608    0.213    0.496    7.010
  338.560  113.899    0.224    0.504    7.230
  338.810  110.388    0.239    0.493    7.466
  339.060  105.785    0.254    0.478    7.836
  339.310  103.671    0.266    0.472    8.198
  339.560  102.719    0.274    0.470    8.629
  339.810   98.573    0.267    0.477    9.073
  340.060   94.544    0.259    0.474    9.410
  340.310   89.861    0.247    0.464    9.626
  340.560   87.093    0.234    0.456    9.825
  340.810   81.518    0.232    0.458    9.816
  341.060   78.077    0.257    0.447    9.820
  341.310   72.462    0.280    0.440    9.810
  341.560   71.190    0.285    0.453   10.051
  341.810   79.015    0.274    0.460   10.354
  342.060   90.521    0.269    0.453   10.582
  342.310   83.281    0.285    0.449   10.795
  342.560   74.278    0.300    0.449   10.948
  342.810   66.856    0.316    0.438   10.991
  343.060   55.058    0.318    0.431   11.002
  343.310   49.061    0.329    0.430   11.154
  343.560   48.102    0.328    0.417   11.209
  343.810   48.133    0.317    0.409   11.230
  344.060   49.083    0.308    0.406   11.006
  344.310   50.972    0.310    0.409   10.988
  344.560   53.453    0.315    0.423   10.847
  344.810   54.522    0.327    0.436   10.628
  345.060   54.816    0.332    0.450   10.652
  345.310   55.858    0.344    0.463   10.673
  345.560   56.842    0.354    0.460   10.383
  345.810   57.834    0.343    0.457   10.084
  346.060   58.838    0.329    0.449    9.930
  346.310   60.004    0.325    0.445    9.666
  346.560   62.617    0.316    0.468    9.578
  346.810   68.406    0.312    0.529    9.395
  347.060   70.061    0.328    0.561    9.403
  347.310   70.379    0.356    0.540    9.587
  347.560   75.370    0.380    0.503    9.678
  347.810   77.934    0.378    0.467    9.972
  348.060   73.399    0.284    0.433    9.967
  348.310   67.842    0.294    0.416    9.990
  348.560   66.191    0.303    0.425    9.785
  348.810   65.643    0.297    0.434    9.809
  349.060   65.676    0.291    0.433    9.879
  349.310   65.689    0.289    0.429    9.992
  349.560   65.649    0.296    0.428    9.980
  349.810   66.504    0.296    0.430   10.209
  350.060   67.505    0.310    0.443   10.195
  350.310   67.900    0.325    0.452   10.219
  350.560   68.239    0.326    0.463   10.003
  350.810   68.755    0.318    0.468   10.026
  351.060   68.860    0.308    0.454   10.032
  351.310   67.402    0.303    0.442   10.036
  351.560   66.495    0.300    0.434   10.042
  351.810   65.518    0.302    0.424   10.043
  352.060   64.548    0.315    0.425   10.039
  352.310   63.527    0.331    0.438    9.866
  352.560   63.424    0.332    0.446    9.879
  352.810   64.049    0.330    0.455    9.885
  353.060   66.702    0.330    0.449    9.916
  353.310   67.637    0.326    0.445    9.745
  353.560   68.226    0.315    0.445    9.904
  353.810   68.849    0.301    0.448    9.909
  354.060   70.958    0.298    0.452    9.913
  354.310   74.564    0.306    0.451    9.917
  354.560   76.618    0.310    0.449    9.923
  354.810   73.944    0.318    0.447    9.928
  355.060   71.490    0.320    0.454    9.933
  355.310   70.198    0.334    0.462    9.935
  355.560   69.555    0.337    0.471    9.936
  355.810   70.142    0.322    0.466    9.758
  356.060   69.957    0.314    0.459    9.769
  356.310   69.546    0.321    0.454    9.782
  356.560   69.510    0.334    0.466    9.613
  356.810   70.364    0.346    0.454    9.428
  357.060   70.758    0.340    0.460    9.293
  357.310   71.727    0.331    0.461    9.020
  357.560   72.742    0.316    0.466    8.753
  357.810   75.257    0.313    0.468    8.642
  358.060   78.333    0.296    0.476    8.474
  358.310   83.696    0.283    0.482    8.313
  358.560   86.237    0.280    0.479    8.176
  358.810   88.113    0.284    0.478    8.136
  359.060   90.033    0.276    0.480    8.047
  359.310   97.931    0.255    0.466    8.051
  359.560   99.612    0.236    0.455    8.066
  359.810   98.418    0.220    0.437    7.914
  360.060   98.266    0.196    0.429    8.078
  360.310  100.670    0.184    0.432    8.069
  360.560  102.109    0.200    0.441    8.070
  360.810   97.211    0.225    0.448    8.071
  361.060   90.668    0.236    0.455    8.063
  361.310   85.310    0.239    0.445    7.942
  361.560   87.821    0.231    0.448    7.733
  361.810   88.335    0.237    0.439    7.512
  362.060   92.231    0.240    0.427    7.308
  362.310   93.671    0.231    0.429    6.938
  362.560   90.133    0.210    0.437    6.755
  362.810   87.879    0.218    0.441    6.144
  363.060   91.599    0.225    0.445    5.822
  363.310   91.827    0.229    0.445    5.347
  363.560   95.530    0.208    0.458    4.843
  363.810  101.291    0.206    0.467    4.466
  364.060  103.133    0.219    0.466    4.023
  364.310  104.273    0.229    0.497    3.712
  364.560  108.439    0.213    0.529    3.517
  364.810  111.903    0.218    0.542    3.920
  365.060  112.147    0.230    0.556    4.397
  365.310  104.997    0.232    0.554    4.806
  365.560   95.232    0.246    0.538    5.163
  365.810   88.986    0.271    0.521    5.467
  366.060   86.170    0.264    0.509    5.559
  366.310   83.159    0.258    0.507    5.500
  366.560   83.163    0.248    0.506    5.454
  366.810   85.181    0.236    0.496    5.288
  367.060   89.613    0.244    0.493    5.185
  367.310   90.941    0.249    0.498    5.084
  367.560   90.379    0.246    0.482    5.095
  367.810   91.477    0.253    0.484    5.099
  368.060   92.801    0.266    0.498    5.105
  368.310   96.259    0.265    0.510    5.193
  368.560   99.184    0.245    0.481    5.306
  368.810  100.517    0.219    0.484    5.298
  369.060   99.944    0.190    0.492    5.307
  369.310   99.340    0.195    0.502    5.165
  369.560   98.704    0.206    0.517    4.777
  369.810  102.571    0.216    0.529    4.323
  370.060  105.511    0.207    0.517    3.920
  370.310  106.973    0.210    0.520    3.697
  370.560  108.123    0.217    0.548    3.645
  370.810  107.703    0.223    0.568    3.774
  371.060  105.543    0.250    0.589    4.254
  371.310   99.893    0.270    0.570    4.943
  371.560   91.387    0.295    0.518    5.863
  371.810   81.626    0.310    0.478    6.724
  372.060   71.280    0.302    0.463    7.521
  372.310   69.019    0.309    0.467    7.968
  372.560   68.028    0.315    0.471    8.138
  372.810   68.060    0.317    0.468    8.143
  373.060   69.474    0.301    0.459    8.004
  373.310   71.695    0.291    0.467    7.985
  373.560   74.812    0.305    0.472    8.159
  373.810   76.662    0.303    0.470    8.150
  374.060   78.226    0.295    0.477    8.156
  374.310   76.737    0.297    0.479    8.160
  374.560   76.330    0.304    0.475    8.165
  374.810   74.745    0.299    0.483    8.169
  375.060   73.861    0.296    0.478    8.174
  375.310   71.844    0.298    0.489    8.178
  375.560   70.673    0.294    0.497    8.183
  375.810   70.869    0.291    0.479    8.186
  376.060   72.778    0.298    0.475    8.193
  376.310   77.058    0.295    0.490    8.198
