~VERSION INFORMATION
 VERS.                 2.0:   CWLS LOG ASCII STANDARD -VERSION 2.0
 WRAP.                  NO:   ONE LINE PER DEPTH STEP
~WELL INFORMATION BLOCK
#MNEM.UNIT           DATA                    DESCRIPTION OF MNEMONIC
#---------    -------------------            -------------------------------
# Generated from Intellog Unique Number	CW_76_78/WELL/2822
WELL.         PELICAN EAST 11-36             : Well_name    - WELL
LOC .         00/11-36-078-21W4/0            : Location     - LOCATION
UWI .         00/11-36-078-21W4/0            : Uwi          - UNIQUE WELL ID
ENTR.         JJ                             : Entered      - ENTERED BY
SRVC.         WESTERN ATLAS                  : Scn          - SERVICE COMPANY
DATE.         15 MAR 77                      : Date         - LOG DATE
STRT.M        198.12                         : top_depth    - START DEPTH
STOP.M        399.37                         : bot_depth    - STOP DEPTH
STEP.M        0.25                           : increment    - STEP LENGTH
 NULL. -999.2500:NULL Value
~CURVE INFORMATION BLOCK
#MNEM UNIT       ERCB CURVE CODE    CURVE DESCRIPTION
#-----------   ------------------   ----------------------------------
DEPT.M        00 001 00 00         : DEPTH        - DEPTH
ILD .OHMM     00 120 00 00         : RESD         - DEEP RESISTIVITY (DIL)
CALI.MM       00 280 01 00         : CAL          - CALIPER
GR  .API      00 310 00 00         : GR           - GAMMA RAY
NPHI.V/V      00 330 00 00         : PHIN         - NEUTRON POROSITY (SANDSTONE)
DPHI.V/V      00 890 00 00         : PHID         - DENSITY POROSITY (SANDSTONE)
~PARAMETER INFORMATION
#MNEM.UNIT           DATA             DESCRIPTION OF MNEMONIC
#---------         -----------     ------------------------------
GL  .M        561.35               : gl           - GROUND LEVEL ELEVATION
EREF.M        565.343              : kb           - ELEVATION OF DEPTH REFERENCE
DATM.M        565.343              : datum        - DATUM ELEVATION
TDD .M        508.406              : tdd          - TOTAL DEPTH DRILLER
RUN .         ONE                  : Run          - RUN NUMBER
ENG .         OFFORD               : Engineer     - RECORDING ENGINEER
BASE.         BROOKS               : Branch       - HOME BASE OF LOGGING UNIT
MATR.         SANDSTONE            : Logunit      - NEUTRON MATRIX
TMAX.C        20                   : BHT          - MAXIMUM RECORDED TEMPERATURE
BHTD.M        505.054              : BHTDEP       - MAXIMUM RECORDED TEMPERATURE
RMT .C        20                   : MDTP         - TEMPERATURE OF MUD
MUDD.KG/M     1044                 : MWT          - MUD DENSITY
NEUT.         1                    : NEUTRON      - NEUTRON TYPE
RESI.         0                    : RESIST       - RESISTIVITY TYPE
RM  .OHMM     9                    : RM           - RESISTIVITY OF MUD
RMC .OHMM     0                    : RMC          - RESISTIVITY OF MUD CAKE
RMF .OHMM     0                    : RMF          - RESISTIVITY OF MUD FILTRATE
SUFT.C        5                    : SUFT         - SURFACE TEMPERATURE
~A  DEPTH     RESD      CAL       GR     PHIN     PHID
# ...
  380.620   10.791  287.276  116.454    0.440    0.287
  380.870   10.263  286.299  110.329    0.433    0.244
  381.120    9.483  285.617  108.883    0.415    0.338
  381.370    8.666  285.145  109.536    0.408    0.451
  381.620    8.050  284.908  110.303    0.406    0.482
  381.870    8.057  284.636  105.102    0.412    0.494
  382.120    8.405  283.755   95.035    0.416    0.480
  382.370    9.209  282.350   87.982    0.407    0.230
  382.620   10.425  279.597   79.701    0.401    0.210
  382.870   12.304  277.248   82.998    0.394    0.207
  383.120   14.030  273.757   88.760    0.395    0.197
  383.370   14.960  270.578   92.493    0.400    0.191
  383.620   14.727  267.299   99.176    0.407    0.194
  383.870   14.085  263.913  100.810    0.417    0.209
  384.120   12.710  260.941  101.952    0.420    0.211
  384.370   11.958  257.463  104.761    0.421    0.199
  384.620   11.190  254.293  106.148    0.418    0.188
  384.870   10.604  252.350  105.074    0.419    0.189
  385.120   10.419  249.383  104.305    0.431    0.194
  385.370   10.239  245.690  104.647    0.438    0.192
  385.620   10.229  242.415  103.267    0.433    0.192
  385.870   10.385  239.851  101.630    0.423    0.199
  386.120   10.795  236.269   97.044    0.413    0.225
  386.370   11.141  233.293   87.660    0.413    0.250
  386.620   11.455  229.593   81.904    0.421    0.281
  386.870   12.283  225.273   77.070    0.431    0.292
  387.120   12.906  221.259   74.883    0.448    0.299
  387.370   14.637  218.391   74.853    0.461    0.306
  387.620   16.066  216.901   73.719    0.483    0.311
  387.870   17.321  216.628   71.654    0.487    0.317
  388.120   17.647  218.992   81.666    0.472    0.327
  388.370   16.665  221.748   89.461    0.451    0.336
  388.620   15.451  230.571   96.702    0.437    0.492
  388.870   13.943  256.489  102.466    0.452    0.478
  389.120   13.143  241.421  104.287    0.457    0.445
  389.370   13.367  246.899  100.868    0.449    0.399
  389.620   14.382  244.874   99.238    0.442    0.318
  389.870   15.992  245.457  100.628    0.434    0.291
  390.120   17.298  249.270  103.738    0.430    0.274
  390.370   17.153  253.390  108.637    0.425    0.282
  390.620   15.623  257.508  113.353    0.422    0.287
  390.870   14.832  267.584  119.057    0.426    0.293
  391.120   14.106  267.640  113.053    0.433    0.327
  391.370   13.563  250.585  107.238    0.420    0.362
  391.620   13.113  250.959  106.283    0.412    0.281
  391.870   12.769  250.182  103.851    0.406    0.297
  392.120   12.894  245.968   97.044    0.408    0.308
  392.370   13.138  241.638   94.984    0.411    0.281
  392.620   13.366  239.189  100.008    0.410    0.270
  392.870   13.495  240.603  105.652    0.407    0.256
  393.120   13.728  233.354  107.591    0.407    0.210
  393.370   13.936  232.787  110.519    0.413    0.326
  393.620   14.280  232.738  112.152    0.416    0.366
  393.870   14.655  219.027  106.211    0.410    0.373
  394.120   15.071  213.980  110.253    0.407    0.344
  394.370   16.187  207.876  110.220    0.412    0.339
  394.620   17.770  198.861  101.567    0.419    0.357
  394.870   18.840  190.157   88.297    0.422    0.364
  395.120   22.116  183.434   66.587    0.421    0.338
  395.370   27.072  179.207   51.096    0.416    0.162
  395.620   29.230  175.722   36.161    0.403    0.138
  395.870   32.797  172.755   41.559    0.389    0.178
  396.120   35.928  170.319   46.275    0.391    0.202
  396.370   37.756  168.796   47.842    0.401    0.223
  396.620   36.106  168.019   47.572    0.400    0.226
  396.870   33.602  167.551   47.174    0.400    0.224
  397.120   31.789  168.235   46.098    0.406    0.210
  397.370   30.453  169.750   42.929    0.412    0.164
  397.620   30.756  165.323   36.370    0.398    0.114
  397.870   31.451  164.248   31.784    0.387    0.082
  398.120   31.991  164.400   29.599    0.380    0.067
  398.370   32.364  164.242   32.218    0.374    0.133
  398.620   32.558  165.032   34.653    0.373    0.167
  398.870   32.640  165.617   34.007    0.380    0.181
  399.120   31.442  165.773   31.825    0.379    0.180
  399.370   29.687  165.615   30.379    0.376    0.142
