~VERSION INFORMATION
VERS.                2.00:   CWLS LOG ASCII STANDARD -VERSION 2.0
WRAP.                  NO:
~WELL INFORMATION BLOCK
#MNEM.UNIT           DATA                    DESCRIPTION OF MNEMONIC
#---------    -------------------            -------------------------------
# Generated from Intellog Unique Number	CN_91_93/WELL/2737
LOC .         11-07-093-18W4                 : Location     - LOCATION          
UWI .         00/11-07-093-18W400            : Uwi          - UNIQUE WELL ID    
ENTR.         JOETTE                         : Entered      - ENTERED BY        
STRT.M            70.0000:
STOP.M           250.0000:
STEP.M             0.2500:
NULL.           -999.2500:
COMP.     :COMPANY
WELL.  PETRO-CANADA INC. :WELL
FLD.      :FIELD
LOC.      :LOCATION
CTRY.     :COUNTRY
PROV.     :PROVINCE
SRVC.  SCHLUMBERGER  :SERVICE COMPANY
DATE.  03/23/92  :LOG DATE
UWI.      :UNIQUE WELL ID
~Curve Information Block
#MNEM UNIT       ERCB CURVE CODE    CURVE DESCRIPTION
#MNEM.UNIT        API CODE    Curve Description
#---------    ------------    -------------------------------------------
DEPT.M                    :   DEPTH
CALI.MM       00 280 01 00:   CAL          - CALIPER
DPHI.V/V      00 890 00 00:   PHID         - DENSITY POROSITY (SANDSTONE)
GR  .API      00 310 00 00:   GR           - GAMMA RAY
ILD .OHMM     00 120 00 00:   RESD         - DEEP RESISTIVITY (DIL)
NPHI.V/V      00 330 00 00:   PHIN         - NEUTRON POROSITY (SANDSTONE)
~PARAMETER INFORMATION       
#MNEM.UNIT           DATA             DESCRIPTION OF MNEMONIC
#---------         -----------     ------------------------------
GL  .M        512.3                : gl           - GROUND LEVEL ELEVATION      
EREF.M        515.6                : kb           - ELEVATION OF DEPTH REFERENCE
DATM.M        515.6                : datum        - DATUM ELEVATION             
TDD .M        250.8                : tdd          - TOTAL DEPTH DRILLER         
RUN .         ONE                  : Run          - RUN NUMBER                  
ENG .         BILL                 : Engineer     - RECORDING ENGINEER          
WIT .         JIM                  : Witness      - WITNESSED BY                
MUD .         GEL                  : Mud_type     - MUD TYPE                    
MATR.         SANDSTONE            : Logunit      - NEUTRON MATRIX              
TMAX.C        18                   : BHT          - MAXIMUM RECORDED TEMPERATURE
BHTD.M        250.8                : BHTDEP       - MAXIMUM RECORDED TEMPERATURE
RMT .C        15                   : MDTP         - TEMPERATURE OF MUD          
MUDD.KG/M     1150                 : MWT          - MUD DENSITY                 
NEUT.         1                    : NEUTRON      - NEUTRON TYPE                
RESI.         0                    : RESIST       - RESISTIVITY TYPE            
RM  .OHMM     2.66                 : RM           - RESISTIVITY OF MUD          
RMC .OHMM     2.66                 : RMC          - RESISTIVITY OF MUD CAKE     
RMF .OHMM     2.66                 : RMF          - RESISTIVITY OF MUD FILTRATE 
SUFT.C        4                    : SUFT         - SURFACE TEMPERATURE         
~A  Depth           CALI        DPHI          GR         ILD        NPHI
# ...
207.5000        161.1890      0.2220     50.0680     14.7414      0.3100
207.7500        158.1170      0.2630     31.3230     22.5180      0.2050
208.0000        155.0260      0.4010     14.3870     37.7304      0.0790
208.2500        150.9110      0.3860     14.9320     80.7076      0.0830
208.5000        149.8290      0.3910     17.3080    124.9797      0.0920
208.7500        152.7650      0.3890     18.4440    125.3334      0.1340
209.0000        153.6730      0.3760     17.2150     91.2521      0.1790
209.2500        152.6100      0.3750     15.3610     66.9948      0.2320
209.5000        151.5280      0.3620     14.1090     53.1545      0.2480
209.7500        149.4220      0.3170     12.2420     43.7197      0.2850
210.0000        148.3600      0.3080     12.2070     39.3146      0.3370
210.2500        147.2580      0.3030     10.9550     38.5543      0.3520
210.5000        146.1760      0.2990     10.2830     42.8481      0.3520
210.7500        145.0750      0.2910     10.2600     70.8238      0.3520
211.0000        144.0310      0.2900      9.5990    100.5667      0.3390
211.2500        144.9590      0.2960      8.9610    141.2281      0.3290
211.5000        144.8810      0.3070      8.3000    151.9787      0.3190
211.7500        145.7500      0.3150      7.6400    133.9160      0.3290
212.0000        146.6970      0.3200      8.1960    116.9318      0.3400
212.2500        148.6680      0.3220     11.1630    104.0908      0.3580
212.5000        151.5650      0.3220     14.1310     96.1565      0.3510
212.7500        149.4790      0.3190     12.8900     92.2730      0.3380
213.0000        152.4150      0.3140     14.0500     91.9057      0.3300
213.2500        156.3760      0.3110     19.4280     91.8520      0.3210
213.5000        163.3310      0.3090     23.0100     94.3912      0.3520
213.7500        167.2910      0.3090     25.3750    101.3792      0.3810
214.0000        170.2280      0.3130     26.5340    113.6526      0.3880
214.2500        168.1020      0.3240     27.6810    130.7103      0.3870
214.5000        168.0060      0.3240     29.4320    150.7311      0.3880
214.7500        168.9710      0.3240     29.3970    173.8249      0.3980
215.0000        172.8930      0.3240     30.5560    202.2169      0.4000
215.2500        173.8400      0.3260     31.1120    229.3875      0.3970
215.5000        176.7380      0.3280     29.2580    251.6765      0.3800
215.7500        177.6840      0.3250     27.4030    256.6965      0.3790
216.0000        175.5980      0.3060     26.1510    259.0457      0.3650
216.2500        173.5300      0.2990     27.9010    242.8703      0.3610
216.5000        169.4150      0.3000     29.0720    223.1616      0.3640
216.7500        169.3570      0.2940     29.6280    208.9199      0.3690
217.0000        170.2450      0.2940     30.7760    193.7666      0.3720
217.2500        171.1920      0.2980     30.7290    181.2355      0.3760
217.5000        172.1380      0.3060     30.6940    171.1190      0.3860
217.7500        175.0360      0.3080     30.6480    162.6594      0.3930
218.0000        175.9830      0.3110     32.4100    151.6797      0.3910
218.2500        174.8810      0.3100     34.1480    139.5517      0.3870
218.5000        174.8430      0.3060     34.1250    132.6831      0.3800
218.7500        167.7140      0.3040     25.0250    124.4280      0.3680
219.0000        167.6360      0.3010     24.3760    116.5228      0.3550
219.2500        173.5870      0.2990     26.7410    109.1045      0.3630
219.5000        180.5420      0.2960     31.5170     91.8768      0.3750
219.7500        186.5110      0.2940     35.0990     74.4214      0.3800
220.0000        196.4800      0.2890     40.4770     61.2930      0.3710
220.2500        207.4540      0.2730     47.0610     47.6264      0.3660
220.5000        168.1760      0.2350     54.2480     30.9404      0.3670
220.7500        167.0940      0.2340     62.6410     22.4546      0.3790
221.0000        166.0120      0.2230     71.6360     16.0378      0.3910
221.2500        167.9250      0.2100     84.2600     12.4415      0.3980
221.5000        168.8710      0.1960     94.4490     10.4095      0.4130
221.7500        169.7790      0.2050     90.7970      9.1794      0.4240
222.0000        169.7210      0.2040     85.3260      9.0720      0.4440
222.2500        169.6440      0.2000     79.2400      8.9060      0.4530
222.5000        167.5380      0.1950     74.3710      8.8992      0.4310
222.7500        166.4750      0.1910     77.3390      9.8589      0.4020
223.0000        168.3490      0.1750     86.9370     12.6817      0.3840
223.2500        168.2910      0.1720     95.9440     15.5482      0.3550
223.5000        168.2330      0.1790     98.9000     18.0441      0.3310
223.7500        167.1310      0.1820     99.4670     19.2642      0.3450
224.0000        167.0540      0.1850     96.4070     17.8293      0.3620
224.2500        167.9620      0.1920     89.1160     16.0829      0.3770
224.5000        166.9180      0.2050     83.0410     16.0280      0.3870
224.7500        165.8170      0.2200     77.5700     19.6033      0.3930
225.0000        165.7200      0.2470     68.4700     17.6035      0.3950
225.2500        165.6810      0.2630     60.5870     20.9239      0.3490
225.5000        165.6040      0.2880     53.2960     27.7232      0.3060
225.7500        165.5070      0.3110     50.8500     33.3123      0.2720
226.0000        164.4250      0.3400     47.7900     37.5148      0.2610
226.2500        164.3480      0.3700     45.9120     42.8456      0.2450
226.5000        164.2900      0.3820     45.8770     47.6578      0.2180
226.7500        166.2020      0.3780     45.2160     50.4142      0.2190
227.0000        167.1100      0.3620     43.9640     45.8477      0.2250
227.2500        166.0670      0.3590     40.9150     41.3267      0.2430
227.5000        164.9270      0.3350     38.4580     36.5429      0.2820
227.7500        165.8730      0.3110     44.4390     32.9119      0.3030
228.0000        165.8150      0.2900     51.6260     30.5147      0.3900
228.2500        165.6990      0.2780     55.1850     31.5074      0.4110
228.5000        165.6410      0.2720     55.1500     36.3728      0.4170
228.7500        166.5680      0.2720     52.6920     39.9516      0.4150
229.0000        166.4910      0.2730     50.8260     41.8921      0.4120
229.2500        166.4130      0.2770     48.9590     44.2387      0.4000
229.5000        167.3410      0.2760     47.7310     47.5364      0.3890
229.7500        167.2630      0.2520     43.4530     54.5964      0.3670
230.0000        167.2050      0.1550     39.7900     61.2900      0.2610
230.2500        168.1320      0.1170     35.5120     62.0050      0.1760
230.5000        168.0550      0.1050     37.2740     59.8405      0.1640
230.7500        167.9780      0.1380     39.6510     54.0736      0.2080
231.0000        166.8960      0.1700     43.8120     47.8133      0.2770
231.2500        166.7790      0.2360     46.7790     41.3919      0.3050
231.5000        165.7170      0.2760     50.3610     36.4941      0.3760
231.7500        164.6540      0.2750     48.5070     31.6697      0.3910
232.0000        164.5380      0.2650     42.4320     28.1987      0.3920
232.2500        164.4800      0.2720     36.3580     25.6193      0.3810
232.5000        165.3880      0.2800     31.4890     23.9488      0.3620
232.7500        165.3300      0.2900     24.1860     22.8291      0.3630
233.0000        164.2480      0.2980     22.3310     22.1749      0.3610
233.2500        163.1660      0.3040     24.7080     21.5609      0.3620
233.5000        163.0690      0.3010     24.6500     20.5994      0.3840
233.7500        161.9870      0.2990     23.3980     21.0715      0.3560
234.0000        160.9050      0.2970     22.1460     23.1231      0.3380
234.2500        160.8270      0.2960     20.2790     26.2755      0.3380
234.5000        160.7500      0.2980     19.0500     30.2834      0.3450
234.7500        160.6920      0.3030     16.5810     39.4265      0.3530
