~VERSION INFORMATION
 VERS.                 2.0:   CWLS LOG ASCII STANDARD -VERSION 2.0
 WRAP.                  NO:   ONE LINE PER DEPTH STEP
~WELL INFORMATION BLOCK
#MNEM.UNIT           DATA                    DESCRIPTION OF MNEMONIC
#---------    -------------------            -------------------------------
# Generated from Intellog Unique Number	CS_69_70/WELL/868
WELL.         MANGRAN EXPLORATION CO.        : Well_name    - WELL
LOC .         00/10-16-069-16W4/0            : Location     - LOCATION
UWI .         00/10-16-069-16W4/0            : Uwi          - UNIQUE WELL ID
ENTR.         SP                             : Entered      - ENTERED BY
SRVC.         SCHLUMBERGER                   : Scn          - SERVICE COMPANY
STRT.M        280.416                        : top_depth    - START DEPTH
STOP.M        481.166                        : bot_depth    - STOP DEPTH
STEP.M        0.25                           : increment    - STEP LENGTH
 NULL. -999.2500:NULL Value
~CURVE INFORMATION BLOCK
#MNEM UNIT       ERCB CURVE CODE    CURVE DESCRIPTION
#-----------   ------------------   ----------------------------------
DEPT.M        00 001 00 00         : DEPTH        - DEPTH
GR  .API      00 310 00 00         : GR           - GAMMA RAY
DPHI.V/V      00 890 00 00         : PHID         - DENSITY POROSITY (SANDSTONE)
NPHI.V/V      00 330 00 00         : PHIN         - NEUTRON POROSITY (SANDSTONE)
ILD .OHMM     00 120 00 00         : RESD         - DEEP RESISTIVITY (DIL)
~PARAMETER INFORMATION
#MNEM.UNIT           DATA             DESCRIPTION OF MNEMONIC
#---------         -----------     ------------------------------
GL  .M        558.394              : gl           - GROUND LEVEL ELEVATION
EREF.M        562.051              : kb           - ELEVATION OF DEPTH REFERENCE
DATM.M        558.394              : datum        - DATUM ELEVATION
TDD .M        489.814              : tdd          - TOTAL DEPTH DRILLER
RUN .         ONE                  : Run          - RUN NUMBER
ENG .         BILL                 : Engineer     - RECORDING ENGINEER
WIT .         JIM                  : Witness      - WITNESSED BY
MUD .         GEL                  : Mud_type     - MUD TYPE
MATR.         SANDSTONE            : Logunit      - NEUTRON MATRIX
TMAX.C        28.3333              : BHT          - MAXIMUM RECORDED TEMPERATURE
BHTD.M        489.814              : BHTDEP       - MAXIMUM RECORDED TEMPERATURE
MATR.         1                    : LOGUNIT      - NEUTRON MATRIX
RMT .C        25                   : MDTP         - TEMPERATURE OF MUD
NEUT.         1                    : NEUTRON      - NEUTRON TYPE
RESI.         0                    : RESIST       - RESISTIVITY TYPE
RMC .OHMM     0.25                 : RMC          - RESISTIVITY OF MUD CAKE
RMF .OHMM     0.25                 : RMF          - RESISTIVITY OF MUD FILTRATE
SUFT.C        15                   : SUFT         - SURFACE TEMPERATURE
~A  DEPTH       GR     PHID     PHIN     RESD
# ...
  367.416   69.871    0.292    0.549    4.701
  367.666   73.299    0.292    0.562    3.658
  367.916   75.066    0.280    0.574    3.287
  368.166   75.431    0.282    0.587    3.055
  368.416   73.606    0.291    0.588    2.976
  368.666   71.376    0.300    0.550    2.942
  368.916   70.006    0.304    0.523    2.914
  369.166   70.992    0.290    0.516    2.939
  369.416   73.820    0.283    0.524    3.045
  369.666   75.751    0.274    0.538    3.126
  369.916   73.133    0.280    0.548    3.266
  370.166   71.432    0.286    0.557    3.367
  370.416   75.324    0.279    0.573    3.477
  370.666   78.087    0.270    0.574    3.567
  370.916   80.435    0.264    0.563    3.686
  371.166   82.797    0.260    0.555    3.812
  371.416   84.758    0.266    0.555    3.930
  371.666   87.509    0.265    0.544    4.050
  371.916   88.920    0.250    0.520    4.146
  372.166   89.111    0.239    0.508    4.243
  372.416   85.449    0.222    0.503    4.310
  372.666   84.568    0.215    0.505    4.391
  372.916   86.281    0.216    0.495    4.441
  373.166   84.800    0.218    0.484    4.469
  373.416   84.165    0.216    0.495    4.461
  373.666   83.874    0.215    0.509    4.428
  373.916   84.484    0.225    0.515    4.406
  374.166   85.097    0.241    0.530    4.459
  374.416   85.552    0.254    0.534    4.585
  374.666   85.788    0.257    0.521    4.680
  374.916   85.710    0.232    0.515    4.720
  375.166   85.475    0.215    0.514    4.620
  375.416   83.436    0.220    0.516    4.480
  375.666   82.583    0.231    0.515    4.433
  375.916   83.891    0.236    0.531    4.403
  376.166   85.626    0.217    0.548    4.394
  376.416   87.300    0.216    0.563    4.406
  376.666   88.647    0.230    0.570    4.451
  376.916   89.597    0.225    0.560    4.463
  377.166   90.228    0.223    0.552    4.429
  377.416   90.536    0.229    0.534    4.363
  377.666   89.214    0.230    0.517    4.346
  377.916   88.125    0.228    0.500    4.411
  378.166   87.045    0.225    0.500    4.487
  378.416   86.048    0.227    0.513    4.552
  378.666   87.423    0.218    0.525    4.610
  378.916   88.956    0.214    0.538    4.651
  379.166   91.259    0.213    0.550    4.678
  379.416   92.939    0.211    0.541    4.654
  379.666   93.682    0.209    0.535    4.607
  379.916   90.366    0.202    0.549    4.524
  380.166   88.284    0.193    0.562    4.461
  380.416   90.327    0.197    0.571    4.430
  380.666   91.011    0.203    0.559    4.454
  380.916   89.654    0.207    0.549    4.519
  381.166   88.019    0.213    0.557    4.585
  381.416   83.792    0.217    0.548    4.668
  381.666   80.782    0.220    0.534    4.693
  381.916   78.169    0.233    0.513    4.646
  382.166   76.735    0.243    0.498    4.442
  382.416   77.000    0.256    0.503    4.265
  382.666   77.665    0.262    0.510    4.070
  382.916   78.948    0.263    0.517    3.916
  383.166   80.252    0.265    0.534    3.767
  383.416   79.831    0.267    0.538    3.634
  383.666   79.056    0.278    0.538    3.531
  383.916   79.984    0.292    0.584    3.408
  384.166   81.200    0.315    0.601    3.147
  384.416   84.234    0.341    0.612    2.829
  384.666   86.103    0.347    0.614    2.564
  384.916   87.415    0.356    0.612    2.386
  385.166   87.918    0.363    0.610    2.280
  385.416   89.370    0.379    0.596    2.232
  385.666   92.280    0.350    0.589    2.256
  385.916   94.631    0.325    0.586    2.344
  386.166   95.997    0.307    0.584    2.474
  386.416   96.595    0.288    0.592    2.725
  386.666   95.340    0.256    0.591    3.008
  386.916   93.039    0.220    0.586    3.228
  387.166   89.467    0.237    0.578    3.089
  387.416   86.498    0.267    0.559    2.999
  387.666   83.237    0.275    0.550    2.909
  387.916   82.825    0.263    0.546    2.925
  388.166   84.622    0.246    0.554    3.005
  388.416   86.608    0.236    0.559    3.100
  388.666   85.758    0.230    0.577    3.252
  388.916   81.123    0.233    0.585    3.382
  389.166   79.187    0.235    0.573    3.468
  389.416   77.983    0.230    0.564    3.402
  389.666   77.402    0.233    0.557    3.138
  389.916   76.965    0.254    0.548    2.887
  390.166   76.838    0.292    0.543    2.669
  390.416   74.894    0.291    0.538    2.482
  390.666   70.362    0.301    0.546    2.345
  390.916   66.251    0.313    0.554    2.260
  391.166   65.207    0.321    0.559    2.233
  391.416   67.376    0.323    0.563    2.294
  391.666   68.141    0.306    0.567    2.488
  391.916   67.313    0.287    0.516    2.755
  392.166   64.619    0.263    0.463    3.014
  392.416   61.964    0.240    0.439    3.405
  392.666   60.383    0.200    0.455    3.478
  392.916   61.927    0.214    0.576    2.903
  393.166   63.225    0.315    0.596    2.479
  393.416   58.862    0.329    0.560    2.260
  393.666   57.541    0.325    0.529    2.229
  393.916   57.527    0.315    0.474    2.302
  394.166   56.033    0.307    0.399    2.836
  394.416   52.340    0.216    0.269    3.989
  394.666   49.471    0.077    0.230    5.524
  394.916   46.654    0.062    0.212    7.063
  395.166   45.915    0.103    0.252    8.250
  395.416   46.092    0.103    0.207    9.432
  395.666   46.622    0.056    0.170   10.441
  395.916   46.975    0.048    0.153   11.194
  396.166   47.195    0.094    0.216   13.107
  396.416   47.264    0.196    0.366    7.178
  396.666   48.238    0.240    0.421    5.023
  396.916   49.818    0.273    0.459    3.466
  397.166   51.810    0.305    0.497    2.748
  397.416   53.414    0.331    0.477    2.470
  397.666   55.967    0.321    0.469    2.361
  397.916   57.574    0.320    0.466    2.282
  398.166   55.381    0.327    0.481    2.282
  398.416   54.357    0.329    0.518    2.281
  398.666   54.749    0.330    0.527    2.289
  398.916   56.061    0.334    0.527    2.298
  399.166   57.535    0.337    0.506    2.304
  399.416   58.142    0.338    0.484    2.297
  399.666   58.593    0.328    0.471    2.283
  399.916   57.902    0.319    0.469    2.288
  400.166   57.141    0.311    0.489    2.266
  400.416   57.758    0.306    0.509    2.265
  400.666   59.432    0.317    0.523    2.256
  400.916   60.237    0.327    0.532    2.256
  401.166   61.019    0.322    0.542    2.264
  401.416   61.928    0.323    0.553    2.279
  401.666   62.337    0.330    0.540    2.291
  401.916   61.992    0.331    0.535    2.260
  402.166   60.984    0.319    0.539    2.256
  402.416   60.793    0.307    0.539    2.252
  402.666   61.196    0.296    0.542    2.238
  402.916   62.379    0.297    0.561    2.231
  403.166   64.534    0.312    0.569    2.227
  403.416   67.253    0.320    0.551    2.232
  403.666   68.306    0.319    0.551    2.248
  403.916   68.617    0.315    0.546    2.296
  404.166   69.737    0.289    0.533    2.349
  404.416   71.570    0.273    0.522    2.492
  404.666   73.408    0.257    0.513    2.741
  404.916   75.288    0.259    0.508    2.897
  405.166   77.047    0.267    0.517    3.104
  405.416   78.339    0.273    0.557    3.332
  405.666   78.946    0.260    0.540    3.532
  405.916   79.831    0.262    0.525    3.752
  406.166   80.747    0.275    0.524    3.951
  406.416   82.001    0.272    0.512    4.164
  406.666   83.185    0.240    0.497    4.311
  406.916   85.362    0.213    0.480    4.402
  407.166   88.672    0.194    0.486    4.430
  407.416   90.013    0.201    0.513    4.449
  407.666   89.793    0.205    0.532    4.426
  407.916   90.522    0.208    0.525    4.407
  408.166   91.702    0.212    0.533    4.419
  408.416   92.138    0.220    0.550    4.424
  408.666   91.742    0.231    0.544    4.420
  408.916   89.193    0.248    0.533    4.242
  409.166   88.041    0.254    0.526    3.889
  409.416   89.936    0.252    0.585    3.511
  409.666   92.330    0.263    0.607    3.121
  409.916   94.675    0.277    0.614    2.753
  410.166   96.859    0.265    0.615    2.675
  410.416   98.269    0.259    0.613    2.858
  410.666   98.407    0.253    0.611    2.973
