~VERSION INFORMATION
 VERS.                 2.0:   CWLS LOG ASCII STANDARD -VERSION 2.0
 WRAP.                  NO:   ONE LINE PER DEPTH STEP
~WELL INFORMATION BLOCK
#MNEM.UNIT           DATA                    DESCRIPTION OF MNEMONIC
#---------    -------------------            -------------------------------
# Generated from Intellog Unique Number	CW_73_75/WELL/1035
WELL.         ANADARKO ER AL FRANCIS 11-08   : Well_name    - WELL
LOC .         00/11-08-074-21W4/0            : Location     - LOCATION
UWI .         00/11-08-074-21W4/0            : Uwi          - UNIQUE WELL ID
ENTR.         JAYE                           : Entered      - ENTERED BY
SRVC.         SCHLUMBERGER                   : Scn          - SERVICE COMPANY
DATE.         9 FEB 79                       : Date         - LOG DATE
STRT.M        380                            : top_depth    - START DEPTH
STOP.M        595                            : bot_depth    - STOP DEPTH
STEP.M        0.25                           : increment    - STEP LENGTH
 NULL. -999.2500:NULL Value
~CURVE INFORMATION BLOCK
#MNEM UNIT       ERCB CURVE CODE    CURVE DESCRIPTION
#-----------   ------------------   ----------------------------------
DEPT.M        00 001 00 00         : DEPTH        - DEPTH
DPHI.V/V      00 890 00 00         : PHID         - DENSITY POROSITY (SANDSTONE)
NPHI.V/V      00 330 00 00         : PHIN         - NEUTRON POROSITY (SANDSTONE)
GR  .API      00 310 00 00         : GR           - GAMMA RAY
CALI.MM       00 280 01 00         : CAL          - CALIPER
ILD .OHMM     00 120 00 00         : RESD         - DEEP RESISTIVITY (DIL)
~PARAMETER INFORMATION
#MNEM.UNIT           DATA             DESCRIPTION OF MNEMONIC
#---------         -----------     ------------------------------
GL  .M        689                  : gl           - GROUND LEVEL ELEVATION
EREF.M        692.8                : kb           - ELEVATION OF DEPTH REFERENCE
DATM.M        689                  : datum        - DATUM ELEVATION
TDD .M        633                  : tdd          - TOTAL DEPTH DRILLER
RUN .         ONE                  : Run          - RUN NUMBER
ENG .         GRSY                 : Engineer     - RECORDING ENGINEER
WIT .         ROGERS               : Witness      - WITNESSED BY
BASE.         EDMONTON             : Branch       - HOME BASE OF LOGGING UNIT
MUD .         GEL CHEM             : Mud_type     - MUD TYPE
MATR.         SANDSTONE            : Logunit      - NEUTRON MATRIX
TMAX.C        32                   : BHT          - MAXIMUM RECORDED TEMPERATURE
BHTD.M        632                  : BHTDEP       - MAXIMUM RECORDED TEMPERATURE
RMT .C        16.11                : MDTP         - TEMPERATURE OF MUD
MUDD.KG/M     1090                 : MWT          - MUD DENSITY
NEUT.         1                    : NEUTRON      - NEUTRON TYPE
RESI.         0                    : RESIST       - RESISTIVITY TYPE
RM  .OHMM     4.11                 : RM           - RESISTIVITY OF MUD
RMC .OHMM     0                    : RMC          - RESISTIVITY OF MUD CAKE
RMF .OHMM     3.86                 : RMF          - RESISTIVITY OF MUD FILTRATE
SUFT.C        0                    : SUFT         - SURFACE TEMPERATURE
~A  DEPTH     PHID     PHIN       GR      CAL     RESD
# ...
  489.500    0.297    0.462   63.299  157.365    4.553
  489.750    0.286    0.459   63.664  157.147    4.613
  490.000    0.266    0.482   64.832  157.138    4.673
  490.250    0.272    0.484   66.618  157.231    4.735
  490.500    0.292    0.473   69.701  157.426    4.718
  490.750    0.280    0.464   70.931  157.415    4.666
  491.000    0.276    0.455   71.605  157.817    4.572
  491.250    0.249    0.471   73.700  158.938    4.521
  491.500    0.202    0.493   75.980  159.444    4.538
  491.750    0.217    0.508   77.890  160.050    4.590
  492.000    0.306    0.489   79.243  160.453    4.641
  492.250    0.251    0.479   81.153  160.958    4.624
  492.500    0.232    0.474   83.186  161.771    4.590
  492.750    0.213    0.477   85.590  162.996    4.350
  493.000    0.228    0.493   86.820  167.313    3.899
  493.250    0.192    0.509   83.909  175.336    3.329
  493.500    0.244    0.594   84.520  192.321    2.801
  493.750    0.268    0.587   87.295  191.383    2.635
  494.000    0.259    0.553   87.907  190.034    2.694
  494.250    0.227    0.537   90.496  187.140    2.930
  494.500    0.208    0.535   92.653  180.846    3.294
  494.750    0.216    0.524   90.669  171.874    3.662
  495.000    0.219    0.490   86.584  163.520    4.102
  495.250    0.219    0.469   84.352  160.110    4.476
  495.500    0.211    0.446   83.295  159.894    4.822
  495.750    0.202    0.454   83.722  160.501    4.986
  496.000    0.194    0.478   83.654  160.594    4.996
  496.250    0.182    0.466   83.338  161.098    4.787
  496.500    0.158    0.447   85.804  161.190    4.520
  496.750    0.185    0.432   88.208  161.900    4.127
  497.000    0.210    0.423   89.500  162.714    4.104
  497.250    0.181    0.434   90.420  163.837    4.470
  497.500    0.191    0.462   90.784  165.372    4.789
  497.750    0.194    0.482   90.840  166.494    5.188
  498.000    0.178    0.478   90.587  166.688    5.344
  498.250    0.160    0.468   90.148  166.575    5.227
  498.500    0.190    0.458   90.389  166.668    5.037
  498.750    0.180    0.451   90.135  166.245    5.084
  499.000    0.173    0.454   89.944  165.824    5.528
  499.250    0.180    0.454   89.381  164.885    5.922
  499.500    0.190    0.453   86.470  163.742    6.078
  499.750    0.197    0.458   79.974  161.260    6.181
  500.000    0.208    0.446   80.400  158.777    6.239
  500.250    0.210    0.429   82.805  158.147    6.309
  500.500    0.169    0.409   83.293  158.137    6.322
  500.750    0.149    0.412   82.607  158.023    6.322
  501.000    0.190    0.444   83.218  158.734    6.322
  501.250    0.206    0.451   84.201  159.753    6.300
  501.500    0.185    0.445   84.380  160.361    6.161
  501.750    0.170    0.441   84.558  160.454    6.059
  502.000    0.196    0.436   84.737  160.341    5.982
  502.250    0.193    0.439   85.225  160.021    5.927
  502.500    0.174    0.461   85.838  159.804    5.905
  502.750    0.182    0.480   87.994  159.175    5.905
  503.000    0.203    0.474   88.730  158.030    5.917
  503.250    0.199    0.460   87.549  157.198    5.928
  503.500    0.203    0.461   85.998  155.642    5.984
  503.750    0.162    0.452   85.127  154.395    6.119
  504.000    0.164    0.444   82.215  153.765    6.459
  504.250    0.168    0.443   78.501  153.961    7.035
  504.500    0.154    0.416   74.477  154.258    7.467
  504.750    0.099    0.366   72.740  154.558    7.537
  505.000    0.135    0.388   78.976  155.167    7.249
  505.250    0.208    0.424   84.594  156.805    6.985
  505.500    0.204    0.442   87.430  157.618    6.731
  505.750    0.192    0.451   87.424  157.916    6.583
  506.000    0.187    0.445   85.069  157.494    6.510
  506.250    0.188    0.454   83.517  155.733    6.451
  506.500    0.193    0.471   83.326  155.309    6.380
  506.750    0.188    0.455   85.545  156.227    6.298
  507.000    0.175    0.448   86.219  157.864    6.240
  507.250    0.199    0.443   85.532  160.119    6.137
  507.500    0.174    0.434   83.301  161.448    6.024
  507.750    0.168    0.428   84.037  163.394    5.925
  508.000    0.164    0.427   86.811  165.033    5.860
  508.250    0.161    0.433   89.092  166.257    5.827
  508.500    0.186    0.446   89.023  166.865    5.806
  508.750    0.188    0.468   86.421  166.854    5.850
  509.000    0.159    0.468   83.325  164.166    6.337
  509.250    0.067    0.445   77.262  160.859    7.463
  509.500    0.093    0.376   64.648  158.995   10.663
  509.750    0.126    0.253   49.005  157.851   15.206
  510.000    0.105    0.221   44.302  157.119   22.010
  510.250   -0.007    0.188   44.605  157.417   25.397
  510.500   -0.013    0.220   46.762  157.716   25.024
  510.750    0.058    0.253   50.092  157.912   22.721
  511.000    0.117    0.280   53.423  158.003   20.326
  511.250    0.159    0.328   54.344  157.684   16.694
  511.500    0.276    0.422   55.636  157.571   13.088
  511.750    0.290    0.474   61.562  157.149   10.376
  512.000    0.265    0.476   63.967  156.312    9.129
  512.250    0.275    0.474   63.219  155.889    8.618
  512.500    0.268    0.501   61.729  155.880    8.699
  512.750    0.264    0.457   62.217  156.282    9.250
  513.000    0.259    0.405   60.357  156.786   10.170
  513.250    0.181    0.379   58.743  157.086   11.099
  513.500    0.162    0.363   59.417  157.281   11.606
  513.750    0.141    0.352   61.697  157.681   11.585
  514.000    0.157    0.371   63.174  158.186   10.796
  514.250    0.191    0.405   64.836  158.999    9.551
  514.500    0.279    0.437   66.438  159.505    8.309
  514.750    0.251    0.464   70.139  159.907    7.365
  515.000    0.233    0.447   77.487  160.101    5.948
  515.250    0.222    0.426   80.695  160.812    4.986
  515.500    0.201    0.414   83.902  161.420    4.180
  515.750    0.190    0.451   87.728  162.337    3.823
  516.000    0.207    0.474   89.761  163.356    3.781
  516.250    0.224    0.487   87.468  165.200    3.903
  516.500    0.207    0.484   86.967  167.249    4.119
  516.750    0.192    0.488   88.939  169.710    4.437
  517.000    0.187    0.507   87.820  171.039    4.825
  517.250    0.171    0.502   85.650  170.308    5.130
  517.500    0.191    0.467   84.531  166.279    5.567
  517.750    0.179    0.449   83.783  162.253    5.986
  518.000    0.234    0.418   82.171  159.975    6.330
  518.250    0.237    0.423   74.562  158.934    6.755
  518.500    0.213    0.449   73.876  158.409    7.117
  518.750    0.207    0.450   73.561  158.502    7.456
  519.000    0.200    0.426   71.082  158.286    7.782
  519.250    0.177    0.410   70.891  157.243    8.017
  519.500    0.164    0.397   71.626  155.997    7.797
  519.750    0.163    0.391   72.670  155.267    7.499
  520.000    0.196    0.420   77.793  154.741    7.253
  520.250    0.225    0.442   78.282  154.008    7.041
  520.500    0.222    0.449   76.606  153.483    6.798
  520.750    0.203    0.448   77.218  152.958    6.587
  521.000    0.212    0.445   78.325  153.256    6.359
  521.250    0.228    0.446   78.566  153.864    6.219
  521.500    0.209    0.442   78.497  155.295    6.173
  521.750    0.185    0.454   79.480  156.830    6.151
  522.000    0.191    0.447   81.266  158.159    6.163
  522.250    0.214    0.446   82.558  158.766    6.198
  522.500    0.202    0.449   82.613  159.475    6.279
  522.750    0.199    0.453   82.977  159.982    6.409
  523.000    0.176    0.465   82.415  161.310    6.494
  523.250    0.146    0.463   86.982  162.329    6.530
  523.500    0.167    0.457   88.397  162.936    6.567
  523.750    0.178    0.455   89.503  162.927    6.580
  524.000    0.188    0.458   90.177  162.606    6.581
  524.250    0.156    0.449   89.428  162.287    6.581
  524.500    0.150    0.449   86.394  161.968    6.509
  524.750    0.168    0.447   88.056  161.236    6.437
  525.000    0.176    0.430   91.450  160.093    6.413
  525.250    0.179    0.431   90.763  159.052    6.450
  525.500    0.177    0.441   88.840  158.320    6.547
  525.750    0.162    0.442   88.155  157.588    6.621
