~VERSION INFORMATION
 VERS.                 2.0:   CWLS LOG ASCII STANDARD -VERSION 2.0
 WRAP.                  NO:   ONE LINE PER DEPTH STEP
~WELL INFORMATION BLOCK
#MNEM.UNIT           DATA                    DESCRIPTION OF MNEMONIC
#---------    -------------------            -------------------------------
# Generated from Intellog Unique Number	CW_82_90/WELL/3439
WELL.         COSEKA LIEGE                   : Well_name    - WELL
LOC .         00/10-15-090-20W4/0            : Location     - LOCATION
UWI .         00/10-15-090-20W4/0            : Uwi          - UNIQUE WELL ID
ENTR.         MAX                            : Entered      - ENTERED BY
SRVC.         SCHLUMBERGER                   : Scn          - SERVICE COMPANY
STRT.M        160                            : top_depth    - START DEPTH
STOP.M        246                            : bot_depth    - STOP DEPTH
STEP.M        0.25                           : increment    - STEP LENGTH
 NULL. -999.2500:NULL Value
~CURVE INFORMATION BLOCK
#MNEM UNIT       ERCB CURVE CODE    CURVE DESCRIPTION
#-----------   ------------------   ----------------------------------
DEPT.M        00 001 00 00         : DEPTH        - DEPTH
ILD .OHMM     00 120 00 00         : RESD         - DEEP RESISTIVITY (DIL)
NPHI.V/V      00 330 00 00         : PHIN         - NEUTRON POROSITY (SANDSTONE)
DPHI.V/V      00 890 00 00         : PHID         - DENSITY POROSITY (SANDSTONE)
CALI.MM       00 280 01 00         : CAL          - CALIPER
GR  .API      00 310 00 00         : GR           - GAMMA RAY
~PARAMETER INFORMATION
#MNEM.UNIT           DATA             DESCRIPTION OF MNEMONIC
#---------         -----------     ------------------------------
GL  .M        520.3                : gl           - GROUND LEVEL ELEVATION
EREF.M        523.5                : kb           - ELEVATION OF DEPTH REFERENCE
DATM.M        520.3                : datum        - DATUM ELEVATION
TDD .M        246                  : tdd          - TOTAL DEPTH DRILLER
RUN .         ONE                  : Run          - RUN NUMBER
ENG .         BILL                 : Engineer     - RECORDING ENGINEER
WIT .         JIM                  : Witness      - WITNESSED BY
MUD .         GEL                  : Mud_type     - MUD TYPE
MATR.         SANDSTONE            : Logunit      - NEUTRON MATRIX
TMAX.C        17.2                 : BHT          - MAXIMUM RECORDED TEMPERATURE
BHTD.M        246                  : BHTDEP       - MAXIMUM RECORDED TEMPERATURE
MATR.         1                    : LOGUNIT      - NEUTRON MATRIX
RMT .C        17.2                 : MDTP         - TEMPERATURE OF MUD
NEUT.         1                    : NEUTRON      - NEUTRON TYPE
RESI.         0                    : RESIST       - RESISTIVITY TYPE
RMC .OHMM     5.828                : RMC          - RESISTIVITY OF MUD CAKE
RMF .OHMM     5.1                  : RMF          - RESISTIVITY OF MUD FILTRATE
SUFT.C        1                    : SUFT         - SURFACE TEMPERATURE
~A  DEPTH     RESD     PHIN     PHID      CAL       GR
  160.000   18.649    0.507    0.315  173.683   56.929
  160.250   22.630    0.473    0.368  174.618   52.117
  160.500  870.867    0.417    0.387  175.056   54.471
  160.750  152.499    0.447    0.270  176.978   68.749
  161.000   89.333    0.572    0.194  192.324   83.615
  161.250   54.297    0.566    0.270  207.663   83.580
  161.500    6.222    0.463    0.256  208.101   79.667
  161.750    4.506    0.412    0.156  210.519   78.142
  162.000   24.340    0.387    0.199  213.434   78.409
  162.250  808.229    0.396    0.227  214.866   81.052
  162.500  212.319    0.392    0.218  215.815   84.895
  162.750   23.450    0.418    0.214  216.750   89.927
  163.000   17.457    0.436    0.214  218.168   88.099
  163.250   21.379    0.428    0.207  218.621   83.896
  163.500   20.986    0.413    0.189  219.556   74.320
  163.750   18.785    0.396    0.167  220.483   65.038
  164.000   17.610    0.322    0.088  221.411   75.741
  164.250   17.285    0.280    0.069  221.864   88.823
  164.500   15.332    0.280    0.172  222.303  100.708
  164.750   12.287    0.340    0.211  222.734   99.481
  165.000    9.404    0.416    0.215  223.676   82.753
  165.250    9.062    0.449    0.221  224.604   67.511
  165.500    9.845    0.426    0.224  224.553   66.582
  165.750   11.303    0.412    0.236  224.984   67.743
  166.000   12.977    0.394    0.226  224.926   74.562
  166.250   17.916    0.390    0.200  224.867   79.892
  166.500   17.425    0.390    0.175  224.312   83.735
  166.750   15.889    0.393    0.169  224.254   93.535
  167.000   13.335    0.404    0.189  224.188   96.182
  167.250   11.294    0.410    0.205  224.137   94.359
  167.500    9.925    0.414    0.201  222.582   89.854
  167.750    9.565    0.432    0.180  221.537   84.450
  168.000    9.564    0.414    0.152  221.465   86.501
  168.250    9.216    0.389    0.173  221.910   94.219
  168.500    8.800    0.407    0.204  222.349  103.422
  168.750    8.480    0.455    0.218  222.283  101.897
  169.000    8.798    0.474    0.198  222.225   93.216
  169.250    9.735    0.470    0.177  222.670   81.856
  169.500   17.886    0.437    0.181  222.605   74.958
  169.750   26.583    0.397    0.189  222.554   72.245
  170.000   32.857    0.369    0.164  221.992   71.908
  170.250   35.042    0.355    0.139  220.947   70.685
  170.500   39.864    0.334    0.108  220.392   64.686
  170.750   44.113    0.315    0.086  219.341   60.181
  171.000   45.343    0.297    0.047  217.288   59.545
  171.250   46.181    0.280    0.062  216.244   60.111
  171.500   48.802    0.294    0.081  216.178   63.652
  171.750   49.703    0.284    0.087  216.113   71.361
  172.000   44.085    0.316    0.120  216.047   70.730
  172.250   38.387    0.332    0.149  215.492   68.613
  172.500   33.424    0.335    0.186  214.952   65.594
  172.750   33.420    0.332    0.148  214.893   65.563
  173.000   33.109    0.274    0.097  215.332   70.296
  173.250   29.097    0.239    0.034  215.273   80.985
  173.500   24.645    0.272    0.088  215.215   87.813
  173.750   20.683    0.394    0.178  215.646   93.739
  174.000   16.576    0.392    0.222  216.092   99.958
  174.250   13.042    0.408    0.200  216.530   99.927
  174.500   10.845    0.440    0.177  216.465   99.296
  174.750   10.450    0.436    0.189  215.910   98.954
  175.000   10.449    0.427    0.195  215.355   98.928
  175.250   10.352    0.420    0.201  214.289  100.979
  175.500   10.351    0.418    0.207  213.748  104.222
  175.750   10.938    0.421    0.203  212.689   94.647
  176.000   12.104    0.440    0.175  211.638   86.267
  176.250   13.769    0.445    0.109  210.593   74.899
  176.500   15.096    0.425    0.065  209.045   78.440
  176.750   15.806    0.392    0.094  208.482   81.390
  177.000   15.804    0.389    0.189  207.431   79.562
  177.250   15.803    0.402    0.217  206.379   86.684
  177.500   15.947    0.392    0.222  204.327   92.009
  177.750   16.092    0.387    0.207  202.771   94.362
  178.000   16.541    0.389    0.200  202.223   96.716
  178.250   16.693    0.388    0.207  200.171   98.767
  178.500   17.001    0.402    0.210  199.631   97.531
  178.750   16.843    0.421    0.209  197.578   92.136
  179.000   17.963    0.434    0.205  195.541   81.666
  179.250   19.878    0.366    0.149  193.481   66.433
  179.500   24.120    0.295    0.039  191.443   58.645
  179.750   34.551    0.218    0.158  190.392   62.484
  180.000   34.229    0.151    0.005  189.837   75.268
  180.250   32.683    0.158    0.006  191.261   86.856
  180.500   30.077    0.204    0.063  194.680   98.746
  180.750   24.780    0.321    0.162  197.601  103.777
  181.000   19.677    0.399    0.133  200.523   98.378
  181.250   13.607    0.373    0.093  202.459   90.884
  181.500   15.058    0.351    0.136  203.891   94.131
  181.750   21.970    0.382    0.159  205.315   99.461
  182.000   19.849    0.404    0.184  206.250  105.092
  182.250   16.505    0.406    0.205  208.675  106.245
  182.500   14.240    0.407    0.203  210.611  105.916
  182.750   13.723    0.418    0.208  212.540  104.979
  183.000   14.236    0.451    0.175  214.950   98.988
  183.250   14.499    0.421    0.094  216.397   86.432
  183.500   15.181    0.389    0.042  218.325   89.675
  183.750   15.749    0.362    0.162  220.743  101.267
  184.000   15.893    0.417    0.217  221.678  108.086
  184.250   15.745    0.432    0.220  222.116  109.239
  184.500   15.599    0.433    0.221  223.052  107.416
  184.750   15.887    0.413    0.223  223.001  101.723
  185.000   16.634    0.393    0.219  222.928   98.406
  185.250   17.416    0.389    0.204  222.380   96.880
  185.500   18.236    0.383    0.182  221.825   95.649
  185.750   18.918    0.375    0.152  221.752   93.830
  186.000   20.177    0.341    0.119  221.212   94.089
  186.250   20.361    0.335    0.176  222.139   96.443
  186.500   19.986    0.382    0.218  220.591  105.642
  186.750   18.563    0.370    0.227  220.043  101.439
  187.000   17.889    0.388    0.222  218.992   95.439
  187.250   17.239    0.395    0.179  217.933   97.495
  187.500   18.050    0.382    0.147  217.378  101.632
  187.750   18.047    0.359    0.182  215.325  107.255
  188.000   17.553    0.363    0.191  213.280  106.628
  188.250   17.230    0.398    0.200  211.732  103.613
  188.500   16.451    0.407    0.212  209.694  100.296
  188.750   16.449    0.411    0.220  205.655   96.382
  189.000   17.065    0.419    0.224  203.113   93.069
  189.250   17.867    0.419    0.223  201.061   91.548
  189.500   18.031    0.393    0.168  197.526   93.301
  189.750   16.902    0.361    0.157  196.474   96.838
  190.000   16.288    0.366    0.213  195.919  100.682
  190.250   15.842    0.436    0.213  195.854  104.819
  190.500   15.694    0.462    0.192  195.803   99.718
  190.750   15.838    0.455    0.168  192.275   90.738
  191.000   16.131    0.409    0.036  186.746   91.001
  191.250   16.889    0.381    0.082  181.713   99.609
  191.500   16.275    0.294    0.161  180.172  106.432
  191.750   15.976    0.406    0.200  175.140  104.907
  192.000   16.271    0.447    0.178  173.102   91.159
  192.250   16.881    0.417    0.101  171.554   66.683
  192.500   16.118    0.359    0.007  170.480   69.032
  192.750   13.778    0.252    0.026  170.429   98.803
  193.000    8.851    0.407    0.177  169.881  112.476
  193.250    6.964    0.476    0.222  169.816  118.998
  193.500    6.234    0.512    0.228  170.254  115.689
  193.750    6.290    0.477    0.211  170.700  110.285
  194.000    7.090    0.454    0.201  171.628  106.078
  194.250    9.789    0.438    0.192  172.073  100.376
  194.500   12.438    0.419    0.168  173.498   95.871
  194.750   14.413    0.402    0.165  173.929   92.554
  195.000   14.411    0.403    0.165  173.885   91.625
  195.250   13.888    0.402    0.149  174.324   94.574
  195.500   13.383    0.406    0.113  175.748  105.864
  195.750   12.897    0.424    0.159  176.186  103.743
  196.000   12.544    0.409    0.185  176.135  103.401
  196.250   12.313    0.410    0.177  177.567  105.456
