~VERSION INFORMATION
 VERS.                 2.0:   CWLS LOG ASCII STANDARD -VERSION 2.0
 WRAP.                  NO:   ONE LINE PER DEPTH STEP
~WELL INFORMATION BLOCK
#MNEM.UNIT           DATA                    DESCRIPTION OF MNEMONIC
#---------    -------------------            -------------------------------
# Generated from Intellog Unique Number	CS_67_68/WELL/818
WELL.         AMOCO CANADA PETROLEUM         : Well_name    - WELL
LOC .         00/11-03-068-18W4/0            : Location     - LOCATION
UWI .         00/11-03-068-18W4/0            : Uwi          - UNIQUE WELL ID
ENTR.         SP                             : Entered      - ENTERED BY
SRVC.         SCHLUMBERGER                   : Scn          - SERVICE COMPANY
STRT.M        289.560                        : top_depth    - START DEPTH
STOP.M        502.560                        : bot_depth    - STOP DEPTH
STEP.M        0.25                           : increment    - STEP LENGTH
 NULL. -999.2500:NULL Value
~CURVE INFORMATION BLOCK
#MNEM UNIT       ERCB CURVE CODE    CURVE DESCRIPTION
#-----------   ------------------   ----------------------------------
DEPT.M        00 001 00 00         : DEPTH        - DEPTH
GR  .API      00 310 00 00         : GR           - GAMMA RAY
DPHI.V/V      00 890 00 00         : PHID         - DENSITY POROSITY (SANDSTONE)
NPHI.V/V      00 330 00 00         : PHIN         - NEUTRON POROSITY (SANDSTONE)
ILD .OHMM     00 120 00 00         : RESD         - DEEP RESISTIVITY (DIL)
~PARAMETER INFORMATION
#MNEM.UNIT           DATA             DESCRIPTION OF MNEMONIC
#---------         -----------     ------------------------------
GL  .M        556.992              : gl           - GROUND LEVEL ELEVATION
EREF.M        561.137              : kb           - ELEVATION OF DEPTH REFERENCE
DATM.M        556.992              : datum        - DATUM ELEVATION
TDD .M        519.989              : tdd          - TOTAL DEPTH DRILLER
RUN .         ONE                  : Run          - RUN NUMBER
ENG .         BILL                 : Engineer     - RECORDING ENGINEER
WIT .         JIM                  : Witness      - WITNESSED BY
MUD .         GEL                  : Mud_type     - MUD TYPE
MATR.         SANDSTONE            : Logunit      - NEUTRON MATRIX
TMAX.C        31.6667              : BHT          - MAXIMUM RECORDED TEMPERATURE
BHTD.M        519.989              : BHTDEP       - MAXIMUM RECORDED TEMPERATURE
MATR.         1                    : LOGUNIT      - NEUTRON MATRIX
RMT .C        25                   : MDTP         - TEMPERATURE OF MUD
NEUT.         1                    : NEUTRON      - NEUTRON TYPE
RESI.         0                    : RESIST       - RESISTIVITY TYPE
RMC .OHMM     0.25                 : RMC          - RESISTIVITY OF MUD CAKE
RMF .OHMM     0.25                 : RMF          - RESISTIVITY OF MUD FILTRATE
SUFT.C        15                   : SUFT         - SURFACE TEMPERATURE
~A  DEPTH       GR     PHID     PHIN     RESD
# ...
  376.560   93.117    0.195    0.406    3.484
  376.810   94.431    0.197    0.425    3.399
  377.060   94.155    0.212    0.436    3.270
  377.310   92.657    0.220    0.436    3.204
  377.560   91.682    0.213    0.432    3.106
  377.810   91.876    0.209    0.435    3.068
  378.060   93.672    0.220    0.460    3.054
  378.310   96.025    0.229    0.491    3.161
  378.560   97.677    0.238    0.501    3.297
  378.810   96.672    0.246    0.474    3.441
  379.060   95.239    0.258    0.461    3.622
  379.310   95.164    0.244    0.452    3.871
  379.560   95.121    0.226    0.451    4.004
  379.810   94.897    0.220    0.469    4.121
  380.060   93.227    0.211    0.471    4.038
  380.310   88.831    0.202    0.470    3.835
  380.560   84.703    0.216    0.470    3.719
  380.810   77.534    0.219    0.451    3.447
  381.060   76.230    0.235    0.430    3.175
  381.310   78.141    0.256    0.414    2.912
  381.560   77.243    0.282    0.406    2.715
  381.810   75.765    0.302    0.415    2.540
  382.060   79.065    0.303    0.418    2.460
  382.310   81.634    0.307    0.420    2.600
  382.560   82.437    0.314    0.421    2.676
  382.810   75.030    0.321    0.430    2.775
  383.060   67.633    0.312    0.445    2.635
  383.310   62.266    0.338    0.409    2.456
  383.560   62.221    0.329    0.379    2.267
  383.810   63.142    0.325    0.395    2.113
  384.060   63.967    0.330    0.412    1.942
  384.310   64.525    0.332    0.416    1.851
  384.560   64.717    0.331    0.412    1.815
  384.810   63.237    0.327    0.410    1.800
  385.060   59.980    0.332    0.401    1.792
  385.310   57.975    0.325    0.395    1.801
  385.560   58.438    0.318    0.388    1.849
  385.810   59.899    0.309    0.389    1.926
  386.060   61.260    0.296    0.404    1.995
  386.310   62.960    0.282    0.406    1.990
  386.560   64.312    0.271    0.400    1.936
  386.810   63.746    0.305    0.408    1.872
  387.060   61.111    0.328    0.411    1.792
  387.310   61.840    0.337    0.412    1.733
  387.560   63.280    0.339    0.410    1.636
  387.810   64.386    0.345    0.406    1.612
  388.060   63.519    0.333    0.403    1.622
  388.310   62.301    0.338    0.404    1.640
  388.560   62.466    0.345    0.406    1.681
  388.810   63.002    0.332    0.411    1.711
  389.060   62.846    0.325    0.416    1.716
  389.310   62.158    0.320    0.420    1.686
  389.560   60.154    0.330    0.409    1.637
  389.810   58.173    0.346    0.401    1.588
  390.060   56.337    0.351    0.388    1.549
  390.310   55.484    0.344    0.384    1.528
  390.560   55.260    0.345    0.398    1.552
  390.810   55.480    0.348    0.399    1.565
  391.060   56.075    0.330    0.389    1.588
  391.310   56.986    0.317    0.399    1.626
  391.560   57.989    0.324    0.410    1.658
  391.810   57.972    0.340    0.416    1.684
  392.060   56.229    0.353    0.417    1.698
  392.310   54.685    0.344    0.420    1.688
  392.560   53.673    0.337    0.426    1.689
  392.810   53.581    0.331    0.437    1.694
  393.060   54.694    0.340    0.424    1.691
  393.310   56.888    0.349    0.413    1.684
  393.560   59.163    0.348    0.410    1.676
  393.810   59.956    0.344    0.415    1.677
  394.060   59.938    0.345    0.411    1.683
  394.310   59.673    0.347    0.407    1.697
  394.560   60.088    0.344    0.415    1.705
  394.810   60.968    0.337    0.421    1.724
  395.060   62.583    0.330    0.424    1.758
  395.310   63.422    0.325    0.430    1.826
  395.560   66.018    0.328    0.432    1.932
  395.810   68.278    0.339    0.433    2.066
  396.060   71.631    0.328    0.430    2.282
  396.310   75.526    0.305    0.423    2.508
  396.560   80.454    0.283    0.416    2.773
  396.810   82.450    0.258    0.420    3.002
  397.060   80.901    0.236    0.445    3.107
  397.310   76.492    0.234    0.460    3.026
  397.560   71.430    0.252    0.441    2.982
  397.810   66.826    0.272    0.414    3.072
  398.060   63.775    0.287    0.392    3.872
  398.310   61.526    0.302    0.341    5.197
  398.560   59.386    0.318    0.319    6.560
  398.810   58.176    0.338    0.340    7.778
  399.060   57.234    0.329    0.364    9.608
  399.310   56.461    0.058    0.385   11.896
  399.560   55.854    0.052    0.354   12.682
  399.810   56.108    0.038    0.281   10.276
  400.060   60.427    0.039    0.169    7.639
  400.310   70.146    0.084    0.253    5.468
  400.560   78.147    0.146    0.291    4.115
  400.810   80.492    0.247    0.365    3.128
  401.060   81.698    0.254    0.383    2.738
  401.310   77.805    0.232    0.402    2.573
  401.560   75.125    0.242    0.417    2.484
  401.810   71.914    0.262    0.409    2.387
  402.060   69.383    0.280    0.409    2.343
  402.310   69.865    0.294    0.411    2.280
  402.560   73.324    0.306    0.398    2.209
  402.810   79.474    0.300    0.404    2.136
  403.060   83.385    0.306    0.419    2.114
  403.310   82.168    0.313    0.425    2.071
  403.560   79.013    0.320    0.420    2.043
  403.810   76.548    0.310    0.419    2.029
  404.060   74.503    0.307    0.431    2.100
  404.310   73.439    0.306    0.429    2.243
  404.560   73.328    0.291    0.425    2.357
  404.810   74.436    0.282    0.408    2.463
  405.060   76.187    0.280    0.396    2.614
  405.310   77.774    0.272    0.405    2.671
  405.560   79.396    0.268    0.420    2.680
  405.810   77.584    0.270    0.424    2.648
  406.060   75.648    0.280    0.426    2.617
  406.310   74.914    0.275    0.428    2.600
  406.560   76.561    0.276    0.415    2.601
  406.810   78.930    0.272    0.413    2.684
  407.060   82.534    0.261    0.420    2.738
  407.310   84.390    0.249    0.420    2.810
  407.560   87.259    0.233    0.409    2.860
  407.810   89.695    0.216    0.428    2.897
  408.060   88.134    0.212    0.458    2.934
  408.310   85.882    0.229    0.454    2.936
  408.560   83.317    0.240    0.434    2.951
  408.810   82.537    0.256    0.439    2.999
  409.060   82.314    0.270    0.425    3.075
  409.310   81.134    0.255    0.416    3.173
  409.560   79.170    0.245    0.414    3.274
  409.810   78.933    0.240    0.443    3.367
  410.060   79.661    0.226    0.447    3.378
  410.310   80.227    0.217    0.436    3.368
  410.560   80.177    0.232    0.442    3.377
  410.810   79.280    0.243    0.435    3.834
  411.060   75.609    0.250    0.426    4.434
  411.310   66.717    0.254    0.422    5.551
  411.560   58.292    0.272    0.395    7.426
  411.810   50.613    0.178    0.329   10.544
  412.060   46.230    0.132    0.264   14.154
  412.310   47.237    0.020    0.211   20.221
  412.560   49.881    0.002    0.115   28.875
  412.810   54.665   -0.009    0.114   21.067
  413.060   62.527   -0.002    0.116   13.845
  413.310   69.180    0.005    0.128    8.614
  413.560   74.181    0.020    0.181    5.485
  413.810   78.374    0.045    0.226    4.146
  414.060   80.453    0.082    0.315    3.618
  414.310   81.655    0.234    0.362    3.248
  414.560   82.495    0.247    0.401    3.208
  414.810   83.176    0.231    0.433    3.260
  415.060   84.259    0.234    0.429    3.315
  415.310   84.640    0.228    0.433    3.387
  415.560   84.263    0.228    0.443    3.378
  415.810   81.414    0.236    0.439    3.430
  416.060   81.354    0.245    0.429    3.467
  416.310   82.419    0.239    0.437    3.514
  416.560   83.338    0.239    0.454    3.501
  416.810   83.596    0.250    0.450    3.433
  417.060   82.896    0.247    0.434    3.302
  417.310   81.832    0.237    0.421    3.202
  417.560   80.021    0.251    0.416    3.095
  417.810   78.373    0.271    0.428    2.933
  418.060   76.658    0.284    0.437    2.818
  418.310   76.394    0.274    0.437    2.767
  418.560   77.507    0.264    0.433    2.891
  418.810   80.153    0.275    0.420    3.167
  419.060   82.824    0.269    0.421    3.427
  419.310   84.977    0.230    0.421    3.631
  419.560   86.559    0.198    0.422    3.810
  419.810   88.168    0.183    0.442    3.956
