~VERSION INFORMATION
 VERS.                 2.0:   CWLS LOG ASCII STANDARD -VERSION 2.0
 WRAP.                  NO:   ONE LINE PER DEPTH STEP
~WELL INFORMATION BLOCK
#MNEM.UNIT           DATA                    DESCRIPTION OF MNEMONIC
#---------    -------------------            -------------------------------
# Generated from Intellog Unique Number	CW_73_75/WELL/1032
WELL.         AMOCO MARTEN HILLS 11-02       : Well_name    - WELL
LOC .         00/11-02-075-02W5/0            : Location     - LOCATION
UWI .         00/11-02-075-02W5/0            : Uwi          - UNIQUE WELL ID
ENTR.         JAYE                           : Entered      - ENTERED BY
SRVC.         SCHLUMBERGER                   : Scn          - SERVICE COMPANY
DATE.         30 MAR 80                      : Date         - LOG DATE
STRT.M        500                            : top_depth    - START DEPTH
STOP.M        690                            : bot_depth    - STOP DEPTH
STEP.M        0.25                           : increment    - STEP LENGTH
 NULL. -999.2500:NULL Value
~CURVE INFORMATION BLOCK
#MNEM UNIT       ERCB CURVE CODE    CURVE DESCRIPTION
#-----------   ------------------   ----------------------------------
DEPT.M        00 001 00 00         : DEPTH        - DEPTH
ILD .OHMM     00 120 00 00         : RESD         - DEEP RESISTIVITY (DIL)
NPHI.V/V      00 330 00 00         : PHIN         - NEUTRON POROSITY (SANDSTONE)
DPHI.V/V      00 890 00 00         : PHID         - DENSITY POROSITY (SANDSTONE)
GR  .API      00 310 00 00         : GR           - GAMMA RAY
CALI.MM       00 280 01 00         : CAL          - CALIPER
~PARAMETER INFORMATION
#MNEM.UNIT           DATA             DESCRIPTION OF MNEMONIC
#---------         -----------     ------------------------------
GL  .M        773.04               : gl           - GROUND LEVEL ELEVATION
EREF.M        778.83               : kb           - ELEVATION OF DEPTH REFERENCE
DATM.M        773.04               : datum        - DATUM ELEVATION
TDD .M        691.8                : tdd          - TOTAL DEPTH DRILLER
RUN .         ONE                  : Run          - RUN NUMBER
ENG .         VERWAIK              : Engineer     - RECORDING ENGINEER
WIT .         MACMAHON             : Witness      - WITNESSED BY
BASE.         EDM                  : Branch       - HOME BASE OF LOGGING UNIT
MUD .         GEL                  : Mud_type     - MUD TYPE
MATR.         SANDSTONE            : Logunit      - NEUTRON MATRIX
TMAX.C        29                   : BHT          - MAXIMUM RECORDED TEMPERATURE
BHTD.M        691.7                : BHTDEP       - MAXIMUM RECORDED TEMPERATURE
RMT .C        29                   : MDTP         - TEMPERATURE OF MUD
MUDD.KG/M     1110                 : MWT          - MUD DENSITY
NEUT.         1                    : NEUTRON      - NEUTRON TYPE
RESI.         0                    : RESIST       - RESISTIVITY TYPE
RM  .OHMM     4.4                  : RM           - RESISTIVITY OF MUD
RMC .OHMM     0                    : RMC          - RESISTIVITY OF MUD CAKE
RMF .OHMM     4.96                 : RMF          - RESISTIVITY OF MUD FILTRATE
SUFT.C        0                    : SUFT         - SURFACE TEMPERATURE
~A  DEPTH     RESD     PHIN     PHID       GR      CAL
# ...
  573.000    5.162    0.452    0.251   71.668  215.940
  573.250    4.618    0.436    0.246   71.099  216.528
  573.500    4.240    0.432    0.241   72.372  217.217
  573.750    3.931    0.440    0.235   74.134  217.500
  574.000    3.762    0.445    0.226   78.411  218.190
  574.250    3.641    0.451    0.216   81.645  218.882
  574.500    3.590    0.399    0.213   80.649  219.571
  574.750    3.533    0.405    0.222   78.487  220.258
  575.000    3.577    0.424    0.232   78.043  220.951
  575.250    3.703    0.442    0.223   78.885  221.846
  575.500    3.799    0.454    0.214   80.037  223.146
  575.750    3.846    0.449    0.227   81.186  224.144
  576.000    3.901    0.454    0.237   82.333  225.242
  576.250    3.919    0.465    0.241   83.853  225.830
  576.500    3.901    0.478    0.252   86.596  226.414
  576.750    3.826    0.482    0.229   88.297  226.293
  577.000    3.780    0.467    0.215   86.260  227.187
  577.250    3.770    0.457    0.230   81.464  229.512
  577.500    3.737    0.449    0.249   78.260  224.990
  577.750    3.693    0.452    0.261   77.079  222.920
  578.000    3.628    0.460    0.251   76.881  222.591
  578.250    3.571    0.458    0.226   77.786  222.564
  578.500    3.542    0.443    0.207   79.487  222.643
  578.750    3.564    0.427    0.206   80.577  222.715
  579.000    3.629    0.417    0.256   79.519  223.096
  579.250    3.778    0.420    0.257   77.359  223.683
  579.500    3.942    0.434    0.233   77.036  223.354
  579.750    4.066    0.447    0.212   78.248  223.429
  580.000    4.186    0.456    0.235   80.620  223.205
  580.250    4.253    0.455    0.235   81.956  222.670
  580.500    4.273    0.438    0.221   82.064  222.539
  580.750    4.269    0.434    0.182   80.578  222.417
  581.000    4.250    0.440    0.215   78.663  222.391
  581.250    4.222    0.423    0.236   80.549  222.056
  581.500    4.172    0.439    0.233   83.658  221.626
  581.750    4.114    0.448    0.236   83.215  221.191
  582.000    4.041    0.455    0.254   79.460  220.042
  582.250    3.934    0.464    0.278   75.093  217.875
  582.500    3.894    0.478    0.295   69.807  215.295
  582.750    3.868    0.490    0.304   64.152  214.240
  583.000    3.844    0.474    0.292   58.375  213.910
  583.250    3.819    0.457    0.275   54.499  213.989
  583.500    3.801    0.429    0.257   53.810  214.274
  583.750    3.862    0.387    0.236   54.346  214.862
  584.000    4.168    0.404    0.258   56.355  215.140
  584.250    4.624    0.424    0.288   58.729  215.422
  584.500    5.388    0.439    0.299   60.491  215.295
  584.750    6.946    0.447    0.292   62.194  215.266
  585.000    8.610    0.455    0.288   64.447  215.038
  585.250    9.645    0.467    0.301   65.657  215.016
  585.500    9.528    0.469    0.307   62.578  214.786
  585.750    8.816    0.462    0.309   61.091  214.452
  586.000    7.827    0.458    0.308   62.975  213.919
  586.250    6.976    0.462    0.300   64.555  213.281
  586.500    6.322    0.456    0.291   65.337  212.850
  586.750    5.677    0.447    0.292   62.992  212.207
  587.000    5.252    0.437    0.293   59.912  211.873
  587.250    4.797    0.429    0.283   58.059  211.443
  587.500    4.564    0.424    0.261   57.860  211.722
  587.750    4.367    0.365    0.224   59.193  212.009
  588.000    4.141    0.345    0.221   60.465  212.800
  588.250    4.038    0.396    0.252   58.979  213.795
  588.500    4.004    0.427    0.290   59.271  215.607
  588.750    4.016    0.435    0.294   61.769  217.422
  589.000    4.050    0.412    0.263   72.907  219.236
  589.250    4.193    0.431    0.224   76.633  220.951
  589.500    4.366    0.458    0.203   78.886  222.761
  589.750    4.403    0.472    0.214   79.667  223.962
  590.000    4.334    0.471    0.222   80.816  225.265
  590.250    4.226    0.466    0.228   82.027  226.265
  590.500    4.106    0.468    0.232   83.606  226.853
  590.750    3.988    0.469    0.231   84.879  227.437
  591.000    3.896    0.473    0.237   81.309  227.719
  591.250    3.799    0.484    0.263   77.491  228.003
  591.500    3.739    0.498    0.284   75.640  228.381
  591.750    3.674    0.436    0.265   75.868  228.663
  592.000    3.643    0.425    0.230   79.716  229.150
  592.250    3.593    0.438    0.234   83.808  229.639
  592.500    3.596    0.448    0.242   88.023  230.636
  592.750    3.620    0.437    0.240   90.827  231.322
  593.000    3.665    0.427    0.227   84.252  231.401
  593.250    3.744    0.431    0.217   81.480  231.275
  593.500    3.834    0.428    0.227   82.873  231.247
  593.750    3.874    0.438    0.236   85.434  232.042
  594.000    3.870    0.461    0.242   82.170  234.775
  594.250    3.817    0.480    0.226   80.497  237.608
  594.500    3.764    0.466    0.213   80.361  238.505
  594.750    3.691    0.447    0.237   81.633  237.968
  595.000    3.626    0.464    0.256   81.187  237.433
  595.250    3.549    0.463    0.271   78.233  235.366
  595.500    3.447    0.445    0.263   78.034  232.172
  595.750    3.299    0.427    0.256   77.097  229.286
  596.000    3.122    0.415    0.285   74.510  227.321
  596.250    3.038    0.411    0.284   71.982  225.355
  596.500    2.940    0.418    0.256   69.391  224.101
  596.750    2.814    0.412    0.222   67.232  223.259
  597.000    2.952    0.380    0.200   63.723  222.727
  597.250    3.234    0.319    0.127   58.866  222.698
  597.500    3.568    0.305    0.149   58.973  222.367
  597.750    3.952    0.386    0.227   61.655  222.341
  598.000    4.295    0.443    0.271   64.151  222.311
  598.250    4.440    0.437    0.255   66.957  222.288
  598.500    4.436    0.406    0.256   70.130  222.471
  598.750    4.456    0.422    0.252   74.344  222.242
  599.000    4.754    0.394    0.220   69.916  220.686
  599.250    5.582    0.397    0.261   68.246  218.925
  599.500    7.062    0.420    0.279   68.903  217.774
  599.750    8.016    0.441    0.268   71.097  217.235
  600.000    7.994    0.460    0.257   74.941  217.110
  600.250    7.536    0.451    0.274   77.010  217.188
  600.500    6.703    0.444    0.257   77.670  217.670
  600.750    5.689    0.457    0.236   78.451  217.750
  601.000    5.466    0.457    0.251   79.602  218.337
  601.250    5.564    0.441    0.241   80.629  219.030
  601.500    5.761    0.435    0.242   78.897  220.128
  601.750    5.810    0.447    0.255   78.085  220.819
  602.000    5.655    0.453    0.245   78.745  221.402
  602.250    5.391    0.435    0.224   79.464  222.602
  602.500    4.877    0.429    0.213   80.001  223.706
  602.750    4.290    0.438    0.200   80.171  224.090
  603.000    3.925    0.444    0.199   81.015  223.654
  603.250    3.721    0.446    0.219   82.961  222.809
  603.500    3.704    0.432    0.233   85.396  222.072
  603.750    3.814    0.408    0.236   86.485  221.332
  604.000    3.919    0.411    0.239   85.490  220.997
  604.250    4.019    0.448    0.249   85.966  221.179
  604.500    4.092    0.467    0.256   86.563  221.359
  604.750    4.119    0.436    0.261   85.874  221.437
  605.000    4.092    0.427    0.275   79.913  220.590
  605.250    4.043    0.419    0.283   73.340  219.956
  605.500    3.994    0.407    0.246   74.244  219.621
  605.750    3.968    0.421    0.208   74.902  219.287
  606.000    3.899    0.441    0.187   75.806  219.368
  606.250    3.852    0.448    0.191   77.141  219.853
  606.500    3.841    0.444    0.206   77.983  220.337
  606.750    3.904    0.420    0.225   77.233  220.929
  607.000    3.989    0.418    0.237   74.092  221.923
  607.250    4.184    0.429    0.236   75.119  222.207
  607.500    4.481    0.443    0.239   77.677  222.794
  607.750    4.665    0.455    0.243   80.115  222.155
  608.000    4.490    0.437    0.253   82.982  220.804
  608.250    4.162    0.427    0.262   78.491  216.485
  608.500    3.895    0.420    0.271   73.266  213.496
  608.750    3.762    0.421    0.277   65.833  211.737
  609.000    3.614    0.426    0.272   62.510  212.528
  609.250    3.537    0.438    0.267   63.291  214.957
