~VERSION INFORMATION
 VERS.                 2.0:   CWLS LOG ASCII STANDARD -VERSION 2.0
 WRAP.                  NO:   ONE LINE PER DEPTH STEP
~WELL INFORMATION BLOCK
#MNEM.UNIT           DATA                    DESCRIPTION OF MNEMONIC
#---------    -------------------            -------------------------------
# Generated from Intellog Unique Number	CW_73_75/WELL/928
WELL.         GULF POC DROWNED 10-22         : Well_name    - WELL
LOC .         00/10-22-075-21W4/0            : Location     - LOCATION
UWI .         00/10-22-075-21W4/0            : Uwi          - UNIQUE WELL ID
ENTR.         JAYE                           : Entered      - ENTERED BY
SRVC.         SCHLUMBERGER                   : Scn          - SERVICE COMPANY
DATE.         19 FEB 77                      : Date         - LOG DATE
STRT.M        368.808                        : top_depth    - START DEPTH
STOP.M        562.058                        : bot_depth    - STOP DEPTH
STEP.M        0.25                           : increment    - STEP LENGTH
 NULL. -999.2500:NULL Value
~CURVE INFORMATION BLOCK
#MNEM UNIT       ERCB CURVE CODE    CURVE DESCRIPTION
#-----------   ------------------   ----------------------------------
DEPT.M        00 001 00 00         : DEPTH        - DEPTH
ILD .OHMM     00 120 00 00         : RESD         - DEEP RESISTIVITY (DIL)
NPHI.V/V      00 330 00 00         : PHIN         - NEUTRON POROSITY (SANDSTONE)
DPHI.V/V      00 890 00 00         : PHID         - DENSITY POROSITY (SANDSTONE)
GR  .API      00 310 00 00         : GR           - GAMMA RAY
CALI.MM       00 280 01 00         : CAL          - CALIPER
~PARAMETER INFORMATION
#MNEM.UNIT           DATA             DESCRIPTION OF MNEMONIC
#---------         -----------     ------------------------------
GL  .M        677.875              : gl           - GROUND LEVEL ELEVATION
EREF.M        681.228              : kb           - ELEVATION OF DEPTH REFERENCE
DATM.M        677.875              : datum        - DATUM ELEVATION
TDD .M        571.5                : tdd          - TOTAL DEPTH DRILLER
RUN .         ONE                  : Run          - RUN NUMBER
ENG .         CROCKFORD            : Engineer     - RECORDING ENGINEER
WIT .         FULTON               : Witness      - WITNESSED BY
BASE.         EDM                  : Branch       - HOME BASE OF LOGGING UNIT
MUD .         GEL BENDEX           : Mud_type     - MUD TYPE
MATR.         SANDSTONE            : Logunit      - NEUTRON MATRIX
TMAX.C        15.5556              : BHT          - MAXIMUM RECORDED TEMPERATURE
BHTD.M        570.586              : BHTDEP       - MAXIMUM RECORDED TEMPERATURE
RMT .C        13.3333              : MDTP         - TEMPERATURE OF MUD
MUDD.KG/M     1140                 : MWT          - MUD DENSITY
NEUT.         1                    : NEUTRON      - NEUTRON TYPE
RESI.         0                    : RESIST       - RESISTIVITY TYPE
RM  .OHMM     2.88                 : RM           - RESISTIVITY OF MUD
RMC .OHMM     0                    : RMC          - RESISTIVITY OF MUD CAKE
RMF .OHMM     2.84                 : RMF          - RESISTIVITY OF MUD FILTRATE
SUFT.C        -17.7778             : SUFT         - SURFACE TEMPERATURE
~A  DEPTH     RESD     PHIN     PHID       GR      CAL
  368.808    2.727    0.520    0.207  120.907  177.007
  369.058    2.723    0.555    0.207  119.140  178.413
  369.308    2.609    0.579    0.193  116.943  178.662
  369.558    2.542    0.566    0.217  112.705  177.450
  369.808    2.510    0.542    0.207  109.762  175.714
  370.058    2.520    0.505    0.204  109.914  173.876
  370.308    2.568    0.492    0.214  110.740  172.248
  370.558    2.691    0.474    0.236  107.614  171.559
  370.808    2.999    0.481    0.224  105.229  170.656
  371.058    3.528    0.475    0.210   98.459  168.917
  371.308    4.088    0.479    0.210   88.538  165.087
  371.558    5.067    0.476    0.200   79.728  160.845
  371.808    6.096    0.446    0.206   71.906  159.629
  372.058    7.307    0.417    0.249   74.033  158.627
  372.308    8.281    0.399    0.284   75.416  157.520
  372.558    8.991    0.393    0.276   74.701  156.619
  372.808    9.510    0.410    0.287   71.883  155.831
  373.058    9.782    0.393    0.308   70.490  155.879
  373.308    9.747    0.424    0.319   70.080  155.810
  373.558    9.804    0.458    0.296   70.724  155.954
  373.808    9.697    0.467    0.295   71.983  156.412
  374.058    9.519    0.441    0.282   74.232  157.191
  374.308    9.122    0.449    0.286   76.732  157.650
  374.558    8.691    0.457    0.277   79.101  158.115
  374.808    8.144    0.466    0.285   85.059  158.153
  375.058    7.518    0.460    0.256   94.598  157.983
  375.308    6.736    0.451    0.249   96.352  157.713
  375.558    6.230    0.435    0.228   95.761  157.547
  375.808    5.848    0.411    0.233   95.049  158.114
  376.058    5.572    0.402    0.245   93.401  160.039
  376.308    5.270    0.459    0.214   90.894  163.743
  376.558    5.078    0.467    0.233   87.891  168.597
  376.808    4.857    0.453    0.269   82.912  164.980
  377.058    4.654    0.434    0.241   81.453  161.880
  377.308    4.443    0.441    0.214   83.828  159.520
  377.558    4.329    0.451    0.244   93.242  161.132
  377.808    4.274    0.441    0.230  107.044  163.694
  378.058    4.275    0.449    0.204  116.398  164.982
  378.308    4.348    0.434    0.188  111.480  165.337
  378.558    4.642    0.434    0.214   95.751  163.390
  378.808    5.300    0.446    0.271   84.163  160.817
  379.058    5.819    0.452    0.254   68.988  158.879
  379.308    6.213    0.429    0.210   59.870  157.869
  379.558    6.355    0.434    0.229   59.772  157.073
  379.808    6.356    0.414    0.271   65.235  157.014
  380.058    6.091    0.397    0.271   83.425  156.854
  380.308    5.539    0.388    0.240   92.777  156.887
  380.558    5.171    0.407    0.209  102.440  157.035
  380.808    4.782    0.436    0.193  107.037  157.293
  381.058    4.548    0.457    0.178  108.420  157.120
  381.308    4.432    0.476    0.189  105.419  156.747
  381.558    4.408    0.491    0.232   93.829  156.165
  381.808    4.768    0.497    0.248   81.189  155.264
  382.058    5.475    0.468    0.246   78.309  154.363
  382.308    6.251    0.440    0.240   79.881  153.576
  382.558    6.687    0.393    0.223   81.387  152.676
  382.808    6.613    0.379    0.223   82.710  152.190
  383.058    6.505    0.390    0.242   80.202  152.443
  383.308    6.362    0.404    0.248   75.593  153.222
  383.558    6.165    0.414    0.232   76.671  154.201
  383.808    6.041    0.421    0.203   83.739  155.714
  384.058    5.875    0.416    0.218   93.154  156.585
  384.308    5.704    0.433    0.198  101.271  157.364
  384.558    5.610    0.444    0.216   98.764  158.036
  384.808    5.674    0.436    0.226   92.673  158.803
  385.058    5.847    0.451    0.240   88.374  159.685
  385.308    5.981    0.453    0.250   87.719  160.468
  385.558    6.083    0.437    0.242   89.225  160.820
  385.808    6.269    0.425    0.241   93.825  160.857
  386.058    6.448    0.438    0.222   98.052  160.903
  386.308    6.546    0.434    0.225  101.906  160.418
  386.558    6.621    0.407    0.247  105.266  159.832
  386.808    6.709    0.370    0.231  103.808  159.564
  387.058    6.862    0.381    0.215  102.227  160.026
  387.308    7.032    0.386    0.204  102.439  163.628
  387.558    7.246    0.384    0.200  104.378  168.379
  387.808    7.495    0.390    0.191  104.651  168.312
  388.058    7.884    0.397    0.218  106.837  164.589
  388.308    8.293    0.398    0.200  101.736  160.237
  388.558    8.772    0.394    0.189   95.396  158.291
  388.808    9.506    0.380    0.188   85.351  157.079
  389.058   10.263    0.371    0.204   74.689  156.182
  389.308   10.917    0.370    0.214   65.940  154.759
  389.558   11.334    0.385    0.246   56.697  154.073
  389.808   11.789    0.390    0.285   50.178  153.690
  390.058   12.014    0.387    0.289   46.368  153.418
  390.308   11.728    0.379    0.279   43.804  153.464
  390.558   11.238    0.377    0.273   43.146  153.728
  390.808   10.550    0.383    0.272   43.541  154.080
  391.058   10.184    0.383    0.285   45.238  154.639
  391.308    9.869    0.377    0.297   47.176  155.517
  391.558    9.670    0.387    0.292   48.620  156.185
  391.808    9.546    0.393    0.294   49.325  156.126
  392.058    9.285    0.401    0.320   49.600  155.855
  392.308    8.765    0.408    0.314   55.739  156.006
  392.558    8.121    0.402    0.296   63.117  156.252
  392.808    7.427    0.393    0.278   68.825  158.072
  393.058    6.934    0.389    0.270   74.348  161.049
  393.308    6.545    0.401    0.237   83.332  163.179
  393.558    6.191    0.414    0.193   96.022  166.258
  393.808    5.999    0.433    0.159  105.684  167.865
  394.058    5.922    0.417    0.180  109.787  167.178
  394.308    6.001    0.413    0.193  112.719  163.452
  394.558    6.013    0.433    0.194  113.730  159.836
  394.808    5.892    0.422    0.191  109.864  159.665
  395.058    5.490    0.432    0.186  115.448  162.429
  395.308    4.748    0.446    0.182  115.289  167.599
  395.558    4.152    0.464    0.208  118.217  169.627
  395.808    3.672    0.479    0.225  127.385  165.276
  396.058    3.302    0.502    0.200  134.332  161.867
  396.308    2.998    0.530    0.166  136.702  164.838
  396.558    2.804    0.558    0.160  135.186  167.913
  396.808    2.707    0.578    0.168  132.122  171.728
  397.058    2.637    0.589    0.143  130.909  175.114
  397.308    2.584    0.562    0.202  131.986  179.236
  397.558    2.604    0.536    0.162  132.688  183.357
  397.808    2.689    0.524    0.193  130.863  188.110
  398.058    2.930    0.536    0.149  131.813  190.664
  398.308    3.290    0.546    0.193  135.605  190.603
  398.558    3.950    0.518    0.209  134.704  191.168
  398.808    4.570    0.479    0.222  130.528  185.976
  399.058    4.834    0.413    0.196  124.870  173.884
  399.308    4.871    0.446    0.181  120.755  175.186
  399.558    5.010    0.462    0.196  120.656  177.005
  399.808    5.192    0.478    0.208  120.188  177.778
  400.058    5.492    0.485    0.201  118.176  177.087
  400.308    5.669    0.487    0.202  110.353  175.356
  400.558    5.952    0.460    0.221   95.921  170.895
  400.808    6.343    0.435    0.242   90.570  166.649
  401.058    6.464    0.419    0.234   93.129  163.761
  401.308    6.429    0.405    0.224   98.161  161.928
  401.558    6.347    0.405    0.209  102.448  161.760
  401.808    6.301    0.422    0.228  106.858  161.796
  402.058    6.232    0.442    0.234  105.956  161.947
  402.308    6.141    0.459    0.245   99.248  161.781
  402.558    6.085    0.456    0.257   93.592  161.715
  402.808    6.041    0.438    0.270   89.227  161.653
  403.058    6.043    0.428    0.269   92.898  161.493
  403.308    6.010    0.425    0.252   95.456  161.535
  403.558    5.944    0.417    0.230   97.521  162.727
  403.808    5.879    0.413    0.237   98.842  165.592
  404.058    5.750    0.435    0.215   99.176  168.565
  404.308    5.624    0.450    0.254   98.089  170.384
  404.558    5.667    0.441    0.285   94.718  169.064
  404.808    5.647    0.444    0.290   90.787  163.875
  405.058    5.565    0.451    0.300   85.685  161.937
