~VERSION INFORMATION
 VERS.                 2.0:   CWLS LOG ASCII STANDARD -VERSION 2.0
 WRAP.                  NO:   ONE LINE PER DEPTH STEP
~WELL INFORMATION BLOCK
#MNEM.UNIT           DATA                    DESCRIPTION OF MNEMONIC
#---------    -------------------            -------------------------------
# Generated from Intellog Unique Number	CW_79_81/WELL/2484
WELL.         11-12-081-25W4                 : Well_name    - WELL
LOC .         00/11-12-081-25W4/0            : Location     - LOCATION
UWI .         00/11-12-081-25W4/0            : Uwi          - UNIQUE WELL ID
ENTR.         MAX                            : Entered      - ENTERED BY
SRVC.         SCHLUMBERGER                   : Scn          - SERVICE COMPANY
STRT.M        250                            : top_depth    - START DEPTH
STOP.M        464.75                         : bot_depth    - STOP DEPTH
STEP.M        0.25                           : increment    - STEP LENGTH
 NULL. -999.2500:NULL Value
~CURVE INFORMATION BLOCK
#MNEM UNIT       ERCB CURVE CODE    CURVE DESCRIPTION
#-----------   ------------------   ----------------------------------
DEPT.M        00 001 00 00         : DEPTH        - DEPTH
ILD .OHMM     00 120 00 00         : RESD         - DEEP RESISTIVITY (DIL)
NPHI.V/V      00 330 00 00         : PHIN         - NEUTRON POROSITY (SANDSTONE)
DPHI.V/V      00 890 00 00         : PHID         - DENSITY POROSITY (SANDSTONE)
GR  .API      00 310 00 00         : GR           - GAMMA RAY
CALI.MM       00 280 01 00         : CAL          - CALIPER
~PARAMETER INFORMATION
#MNEM.UNIT           DATA             DESCRIPTION OF MNEMONIC
#---------         -----------     ------------------------------
GL  .M        605.55               : gl           - GROUND LEVEL ELEVATION
EREF.M        609.55               : kb           - ELEVATION OF DEPTH REFERENCE
DATM.M        605.55               : datum        - DATUM ELEVATION
TDD .M        511                  : tdd          - TOTAL DEPTH DRILLER
RUN .         ONE                  : Run          - RUN NUMBER
ENG .         BILL                 : Engineer     - RECORDING ENGINEER
WIT .         JIM                  : Witness      - WITNESSED BY
MUD .         GEL                  : Mud_type     - MUD TYPE
MATR.         SANDSTONE            : Logunit      - NEUTRON MATRIX
TMAX.C        34.2                 : BHT          - MAXIMUM RECORDED TEMPERATURE
BHTD.M        511                  : BHTDEP       - MAXIMUM RECORDED TEMPERATURE
MATR.         1                    : LOGUNIT      - NEUTRON MATRIX
RMT .C        13.3                 : MDTP         - TEMPERATURE OF MUD
NEUT.         1                    : NEUTRON      - NEUTRON TYPE
RESI.         0                    : RESIST       - RESISTIVITY TYPE
RMC .OHMM     7                    : RMC          - RESISTIVITY OF MUD CAKE
RMF .OHMM     6.8                  : RMF          - RESISTIVITY OF MUD FILTRATE
SUFT.C        -20                  : SUFT         - SURFACE TEMPERATURE
~A  DEPTH     RESD     PHIN     PHID       GR      CAL
# ...
  396.000    8.267    0.413    0.182   70.529  219.162
  396.250    8.221    0.416    0.183   70.794  219.213
  396.500    8.173    0.423    0.185   70.940  219.262
  396.750    7.907    0.420    0.190   71.497  219.335
  397.000    7.686    0.418    0.193   71.782  219.389
  397.250    7.585    0.419    0.194   70.186  218.675
  397.500    7.569    0.426    0.192   69.810  218.543
  397.750    7.773    0.432    0.188   70.073  218.406
  398.000    8.195    0.432    0.185   70.570  218.069
  398.250    8.694    0.428    0.183   71.074  217.662
  398.500    8.977    0.430    0.182   71.113  217.310
  398.750    8.993    0.432    0.182   70.212  216.979
  399.000    8.911    0.435    0.184   69.838  216.648
  399.250    8.763    0.438    0.192   70.454  216.316
  399.500    8.554    0.440    0.205   72.234  216.083
  399.750    8.228    0.434    0.216   75.701  216.236
  400.000    8.056    0.427    0.222   78.893  216.688
  400.250    8.073    0.425    0.218   77.756  217.920
  400.500    8.306    0.431    0.216   75.928  218.266
  400.750    8.596    0.434    0.209   74.218  218.320
  401.000    8.833    0.430    0.197   73.553  218.668
  401.250    8.993    0.432    0.191   74.749  219.820
  401.500    9.079    0.443    0.191   73.571  219.475
  401.750    9.427    0.430    0.188   71.736  217.974
  402.000    9.898    0.418    0.182   70.432  215.025
  402.250   10.174    0.416    0.174   70.584  212.947
  402.500   10.151    0.426    0.175   72.072  212.416
  402.750   10.010    0.441    0.208   73.934  212.237
  403.000    9.952    0.440    0.228   74.940  211.083
  403.250    9.966    0.437    0.225   74.508  210.364
  403.500    9.928    0.424    0.215   74.600  210.226
  403.750    9.982    0.418    0.205   74.403  210.668
  404.000   10.110    0.420    0.200   73.681  211.691
  404.250   10.116    0.413    0.196   73.222  213.717
  404.500   10.052    0.413    0.199   75.448  215.804
  404.750    9.923    0.436    0.219   76.646  217.019
  405.000    9.794    0.439    0.227   76.617  217.656
  405.250    9.669    0.435    0.228   75.952  218.301
  405.500    9.599    0.433    0.226   75.235  218.947
  405.750    9.687    0.445    0.221   75.139  219.009
  406.000    9.703    0.453    0.215   75.656  219.062
  406.250    9.720    0.462    0.216   75.920  219.124
  406.500    9.736    0.468    0.220   76.363  219.178
  406.750    9.716    0.467    0.219   77.796  219.235
  407.000    9.661    0.460    0.213   79.635  219.196
  407.250    9.564    0.459    0.208   79.811  218.866
  407.500    9.367    0.458    0.210   79.358  218.931
  407.750    9.246    0.452    0.213   79.156  218.982
  408.000    9.279    0.446    0.216   78.961  218.489
  408.250    9.429    0.438    0.217   78.762  217.579
  408.500    9.633    0.433    0.214   78.559  216.730
  408.750    9.809    0.435    0.201   78.563  216.788
  409.000    9.901    0.444    0.191   79.562  216.853
  409.250    9.774    0.452    0.192   80.996  216.904
  409.500    9.702    0.465    0.204   81.383  216.959
  409.750    9.648    0.469    0.213   80.717  217.213
  410.000    9.628    0.457    0.214   79.350  217.662
  410.250    9.803    0.430    0.207   77.705  217.796
  410.500   10.277    0.421    0.201   76.282  216.244
  410.750   10.524    0.417    0.183   74.683  215.125
  411.000   10.657    0.406    0.171   74.832  214.601
  411.250   10.711    0.402    0.160   76.265  214.658
  411.500   10.687    0.411    0.156   78.281  215.100
  411.750   10.441    0.438    0.181   80.052  215.723
  412.000    9.923    0.462    0.216   80.570  216.585
  412.250    9.442    0.467    0.209   80.603  218.188
  412.500    9.188    0.458    0.200   80.812  218.636
  412.750    9.038    0.443    0.196   81.545  218.692
  413.000    8.887    0.429    0.194   82.744  219.036
  413.250    8.473    0.428    0.192   83.854  220.430
  413.500    7.701    0.448    0.191   83.398  221.298
  413.750    7.490    0.454    0.192   81.798  222.907
  414.000    7.448    0.442    0.195   79.154  223.639
  414.250    7.781    0.426    0.191   76.626  222.725
  414.500    8.578    0.415    0.183   75.089  220.262
  414.750    9.969    0.404    0.179   75.425  216.574
  415.000   11.290    0.393    0.186   76.916  213.398
  415.250   13.599    0.368    0.227   75.546  211.521
  415.500   16.829    0.364    0.230   73.136  210.798
  415.750   19.673    0.376    0.212   70.610  210.461
  416.000   20.327    0.403    0.196   68.664  210.224
  416.250   18.336    0.445    0.219   67.867  210.216
  416.500   15.820    0.439    0.273   68.388  209.865
  416.750   14.515    0.417    0.281   67.487  209.140
  417.000   14.313    0.411    0.285   65.366  209.010
  417.250   14.490    0.408    0.290   63.071  208.678
  417.500   14.673    0.404    0.298   61.243  207.855
  417.750   14.726    0.400    0.308   60.022  206.925
  418.000   14.862    0.396    0.308   59.569  207.787
  418.250   14.884    0.390    0.301   59.606  209.019
  418.500   15.071    0.392    0.296   59.643  209.357
  418.750   15.153    0.402    0.293   59.794  209.602
  419.000   14.930    0.419    0.290   60.115  210.051
  419.250   14.212    0.439    0.283   60.329  210.668
  419.500   13.707    0.435    0.276   58.912  211.530
  419.750   13.435    0.435    0.261   58.012  211.587
  420.000   13.309    0.434    0.251   57.462  212.525
  420.250   13.281    0.432    0.243   57.031  213.358
  420.500   13.351    0.431    0.235   56.598  213.700
  420.750   13.595    0.430    0.227   56.025  213.616
  421.000   13.725    0.424    0.226   55.333  212.855
  421.250   13.846    0.415    0.217   54.668  211.747
  421.500   14.352    0.408    0.204   54.004  210.349
  421.750   15.227    0.398    0.191   53.454  209.441
  422.000   16.461    0.385    0.179   53.019  209.309
  422.250   18.500    0.371    0.157   52.546  209.997
  422.500   21.444    0.361    0.133   52.339  211.269
  422.750   25.652    0.357    0.121   52.839  213.266
  423.000   27.312    0.350    0.120   53.516  214.681
  423.250   26.954    0.353    0.120   54.598  215.705
  423.500   25.543    0.369    0.121   56.026  216.534
  423.750   22.676    0.407    0.148   57.703  217.461
  424.000   19.421    0.436    0.194   58.951  217.930
  424.250   17.293    0.439    0.230   59.454  218.363
  424.500   16.210    0.436    0.237   60.127  219.096
  424.750   15.718    0.430    0.230   60.976  219.541
  425.000   15.742    0.418    0.217   61.945  219.601
  425.250   16.582    0.386    0.193   63.308  219.680
  425.500   17.127    0.373    0.176   65.281  219.733
  425.750   16.538    0.397    0.179   67.873  219.784
  426.000   15.440    0.409    0.195   69.247  219.835
  426.250   14.492    0.409    0.202   69.516  219.889
  426.500   13.823    0.404    0.197   69.260  219.947
  426.750   13.163    0.399    0.188   69.681  220.021
  427.000   12.698    0.397    0.180   70.437  220.080
  427.250   12.440    0.395    0.179   71.399  220.131
  427.500   11.991    0.394    0.180   73.414  220.773
  427.750   11.456    0.397    0.183   75.894  221.797
  428.000   10.906    0.403    0.188   78.371  222.718
  428.250   10.322    0.406    0.194   80.317  222.788
  428.500   10.034    0.415    0.189   79.382  222.853
  428.750    9.902    0.411    0.186   78.016  222.910
  429.000    9.884    0.406    0.186   77.877  222.967
  429.250    9.900    0.402    0.190   77.914  223.020
  429.500    9.934    0.400    0.194   77.659  223.076
  429.750   10.028    0.402    0.194   77.278  223.071
  430.000   10.046    0.406    0.192   77.549  222.708
  430.250   10.057    0.420    0.192   78.282  222.771
  430.500   10.018    0.427    0.189   78.665  222.825
  430.750    9.962    0.427    0.181   78.351  222.684
  431.000    9.888    0.424    0.171   77.748  221.676
  431.250    9.767    0.423    0.156   78.022  218.564
  431.500    9.782    0.426    0.146   78.057  218.219
  431.750    9.798    0.436    0.170   76.927  218.275
  432.000    9.761    0.439    0.173   76.141  218.037
  432.250    9.670    0.441    0.160   76.637  217.894
