~VERSION INFORMATION
 VERS.                 2.0:   CWLS LOG ASCII STANDARD -VERSION 2.0
 WRAP.                  NO:   ONE LINE PER DEPTH STEP
~WELL INFORMATION BLOCK
#MNEM.UNIT           DATA                    DESCRIPTION OF MNEMONIC
#---------    -------------------            -------------------------------
# Generated from Intellog Unique Number	CS_77_79/WELL/976
WELL.         HOME OIL COMPANY               : Well_name    - WELL
LOC .         00/10-29-077-07W4/0            : Location     - LOCATION
UWI .         00/10-29-077-07W4/0            : Uwi          - UNIQUE WELL ID
ENTR.         SP                             : Entered      - ENTERED BY
SRVC.         SCHLUMBERGER                   : Scn          - SERVICE COMPANY
STRT.M        124.968                        : top_depth    - START DEPTH
STOP.M        350.218                        : bot_depth    - STOP DEPTH
STEP.M        0.25                           : increment    - STEP LENGTH
 NULL. -999.2500:NULL Value
~CURVE INFORMATION BLOCK
#MNEM UNIT       ERCB CURVE CODE    CURVE DESCRIPTION
#-----------   ------------------   ----------------------------------
DEPT.M        00 001 00 00         : DEPTH        - DEPTH
GR  .API      00 310 00 00         : GR           - GAMMA RAY
DPHI.V/V      00 890 00 00         : PHID         - DENSITY POROSITY (SANDSTONE)
NPHI.V/V      00 330 00 00         : PHIN         - NEUTRON POROSITY (SANDSTONE)
ILD .OHMM     00 120 00 00         : RESD         - DEEP RESISTIVITY (DIL)
~PARAMETER INFORMATION
#MNEM.UNIT           DATA             DESCRIPTION OF MNEMONIC
#---------         -----------     ------------------------------
GL  .M        552.054              : gl           - GROUND LEVEL ELEVATION
EREF.M        555.315              : kb           - ELEVATION OF DEPTH REFERENCE
DATM.M        552.054              : datum        - DATUM ELEVATION
TDD .M        377.038              : tdd          - TOTAL DEPTH DRILLER
RUN .         ONE                  : Run          - RUN NUMBER
ENG .         BILL                 : Engineer     - RECORDING ENGINEER
WIT .         JIM                  : Witness      - WITNESSED BY
MUD .         GEL                  : Mud_type     - MUD TYPE
MATR.         SANDSTONE            : Logunit      - NEUTRON MATRIX
TMAX.C        12.2222              : BHT          - MAXIMUM RECORDED TEMPERATURE
BHTD.M        377.038              : BHTDEP       - MAXIMUM RECORDED TEMPERATURE
MATR.         1                    : LOGUNIT      - NEUTRON MATRIX
RMT .C        25                   : MDTP         - TEMPERATURE OF MUD
NEUT.         1                    : NEUTRON      - NEUTRON TYPE
RESI.         0                    : RESIST       - RESISTIVITY TYPE
RMC .OHMM     0.25                 : RMC          - RESISTIVITY OF MUD CAKE
RMF .OHMM     0.25                 : RMF          - RESISTIVITY OF MUD FILTRATE
SUFT.C        15                   : SUFT         - SURFACE TEMPERATURE
~A  DEPTH       GR     PHID     PHIN     RESD
# ...
  211.968  102.077    0.241    0.524    3.380
  212.218  102.543    0.249    0.511    3.488
  212.468  105.305    0.267    0.515    3.701
  212.718  107.698    0.279    0.506    4.284
  212.968  101.975    0.259    0.508    4.705
  213.218   98.943    0.266    0.517    4.841
  213.468   96.746    0.294    0.531    4.650
  213.718   95.818    0.280    0.533    4.297
  213.968   95.320    0.259    0.535    4.101
  214.218  103.950    0.250    0.531    3.933
  214.468  107.235    0.261    0.542    3.790
  214.718  105.851    0.257    0.566    3.669
  214.968  104.973    0.252    0.556    3.632
  215.218  105.799    0.254    0.532    3.601
  215.468  106.798    0.259    0.510    3.607
  215.718  106.567    0.258    0.492    3.534
  215.968  104.771    0.264    0.481    3.464
  216.218  102.127    0.267    0.490    3.361
  216.468  101.183    0.269    0.503    3.255
  216.718  102.492    0.272    0.522    3.223
  216.968  106.790    0.278    0.532    3.092
  217.218  108.738    0.288    0.533    3.182
  217.468  109.038    0.305    0.529    3.656
  217.718  109.113    0.304    0.549    4.231
  217.968  107.099    0.301    0.564    4.992
  218.218  104.690    0.313    0.555    5.840
  218.468  100.077    0.320    0.509    6.327
  218.718   93.144    0.317    0.474    7.003
  218.968   86.669    0.303    0.438    6.839
  219.218   85.159    0.262    0.434    5.996
  219.468   90.332    0.243    0.439    5.557
  219.718   91.801    0.243    0.444    5.386
  219.968   92.813    0.250    0.460    5.536
  220.218   93.161    0.241    0.474    5.893
  220.468   93.233    0.241    0.488    6.274
  220.718   91.404    0.248    0.474    6.469
  220.968   89.568    0.257    0.473    6.155
  221.218   88.124    0.258    0.475    5.575
  221.468   89.072    0.256    0.487    4.944
  221.718   90.471    0.260    0.503    4.284
  221.968   92.868    0.283    0.520    4.047
  222.218   93.733    0.296    0.515    3.835
  222.468   93.824    0.316    0.510    4.219
  222.718   92.618    0.325    0.518    5.276
  222.968   89.901    0.344    0.538    6.766
  223.218   85.098    0.358    0.554    8.181
  223.468   76.605    0.355    0.510    9.891
  223.718   66.620    0.348    0.445   10.783
  223.968   60.487    0.349    0.422   10.584
  224.218   58.223    0.354    0.425   10.358
  224.468   58.353    0.359    0.429    9.863
  224.718   58.390    0.363    0.423    9.747
  224.968   58.380    0.361    0.433    9.639
  225.218   58.806    0.357    0.438    9.468
  225.468   60.904    0.349    0.439    9.409
  225.718   63.903    0.344    0.447    9.312
  225.968   65.420    0.352    0.454    9.311
  226.218   66.220    0.353    0.444    9.311
  226.468   66.166    0.352    0.439    9.321
  226.718   65.142    0.355    0.435    9.358
  226.968   64.121    0.354    0.431    9.443
  227.218   63.688    0.358    0.435    9.483
  227.468   63.897    0.362    0.442    9.680
  227.718   65.589    0.362    0.447    9.891
  227.968   64.938    0.357    0.479    9.876
  228.218   65.142    0.358    0.463    9.884
  228.468   65.424    0.363    0.449    9.897
  228.718   65.416    0.363    0.452   10.198
  228.968   65.409    0.364    0.463   10.744
  229.218   65.386    0.356    0.468   11.291
  229.468   64.340    0.352    0.459   11.596
  229.718   60.764    0.347    0.445   12.589
  229.968   60.462    0.332    0.436   13.095
  230.218   63.656    0.210    0.440   13.667
  230.468   62.454    0.107    0.413   13.216
  230.718   59.422    0.106    0.269   12.256
  230.968   60.706    0.145    0.267   11.027
  231.218   64.396    0.205    0.311   10.656
  231.468   67.155    0.306    0.371   10.490
  231.718   65.700    0.335    0.417   10.515
  231.968   65.808    0.328    0.470   10.297
  232.218   65.807    0.317    0.491   10.428
  232.468   65.914    0.331    0.477    9.090
  232.718   67.582    0.352    0.478    9.398
  232.968   69.175    0.360    0.477    9.703
  233.218   68.723    0.357    0.469    9.703
  233.468   67.452    0.356    0.462    9.753
  233.718   68.779    0.355    0.453    9.757
  233.968   69.951    0.353    0.444    9.741
  234.218   69.871    0.350    0.448    9.588
  234.468   70.945    0.346    0.453    9.594
  234.718   69.703    0.340    0.457    9.595
  234.968   67.691    0.339    0.441    9.022
  235.218   66.681    0.343    0.437    8.348
  235.468   68.046    0.350    0.436    7.668
  235.718   65.890    0.355    0.445    7.547
  235.968   68.056    0.357    0.455    7.417
  236.218   70.918    0.359    0.453    7.679
  236.468   74.656    0.346    0.454    7.901
  236.718   80.647    0.311    0.461    8.310
  236.968   84.010    0.289    0.475    8.408
  237.218   86.078    0.290    0.493    8.130
  237.468   88.185    0.289    0.487    7.697
  237.718   86.123    0.289    0.480    7.549
  237.968   82.700    0.288    0.480    7.559
  238.218   81.763    0.293    0.476    7.564
  238.468   84.544    0.288    0.481    7.440
  238.718   87.945    0.277    0.489    7.548
  238.968   88.347    0.275    0.463    7.291
  239.218   88.640    0.275    0.465    7.291
  239.468   90.261    0.277    0.461    7.261
  239.718   89.598    0.280    0.457    7.161
  239.968   88.514    0.274    0.475    7.164
  240.218   89.717    0.273    0.494    7.165
  240.468   91.145    0.276    0.494    7.188
  240.718   92.213    0.277    0.476    6.842
  240.968   88.616    0.267    0.456    6.511
  241.218   89.104    0.261    0.459    6.239
  241.468   92.881    0.255    0.457    5.864
  241.718   97.253    0.245    0.462    5.515
  241.968   96.892    0.239    0.471    5.191
  242.218   98.627    0.253    0.473    4.907
  242.468   99.655    0.266    0.472    4.192
  242.718   94.889    0.267    0.483    3.625
  242.968   92.651    0.267    0.485    3.261
  243.218   93.903    0.273    0.489    2.991
  243.468   96.894    0.280    0.521    2.725
  243.718   99.885    0.297    0.540    2.679
  243.968  101.612    0.313    0.553    2.755
  244.218   97.293    0.309    0.564    2.993
  244.468   95.213    0.305    0.580    3.179
  244.718   95.246    0.305    0.597    3.447
  244.968   94.988    0.308    0.593    3.708
  245.218   94.601    0.301    0.589    4.120
  245.468   92.978    0.296    0.554    4.645
  245.718   91.123    0.286    0.551    5.323
  245.968   89.794    0.273    0.546    5.949
  246.218   89.123    0.270    0.541    7.450
  246.468   89.674    0.271    0.521    8.243
  246.718   89.197    0.288    0.469    9.816
  246.968   86.993    0.276    0.445   11.300
  247.218   83.081    0.309    0.415   12.141
  247.468   78.901    0.346    0.381   13.547
  247.718   76.916    0.361    0.359   15.716
  247.968   76.312    0.347    0.334   17.161
  248.218   78.205    0.322    0.346   18.566
  248.468   79.500    0.297    0.342   19.385
  248.718   79.878    0.291    0.316   20.668
  248.968   79.518    0.295    0.314   21.774
  249.218   78.420    0.295    0.327   21.728
  249.468   78.564    0.291    0.351   20.414
  249.718   78.401    0.304    0.328   18.953
  249.968   74.826    0.316    0.301   18.414
  250.218   69.195    0.252    0.285   17.079
  250.468   69.176    0.211    0.282   14.663
  250.718   73.315    0.237    0.325   13.181
  250.968   75.854    0.270    0.358   12.186
  251.218   75.224    0.335    0.389   12.629
  251.468   73.053    0.290    0.363   14.029
  251.718   73.033    0.321    0.354   14.427
  251.968   72.978    0.357    0.368   12.960
  252.218   69.598    0.355    0.333   10.812
  252.468   62.060    0.235    0.263   10.000
  252.718   60.450    0.116    0.237    8.646
  252.968   69.019    0.230    0.295    8.024
  253.218   77.061    0.273    0.364    7.878
  253.468   80.007    0.306    0.399    7.569
  253.718   77.761    0.316    0.418    7.573
  253.968   77.687    0.314    0.434    7.508
  254.218   82.149    0.298    0.426    7.591
  254.468   85.701    0.301    0.428    7.477
  254.718   85.343    0.311    0.432    7.451
  254.968   75.843    0.321    0.430    7.449
  255.218   82.140    0.322    0.441    7.351
