~VERSION INFORMATION
 VERS.                 2.0:   CWLS LOG ASCII STANDARD -VERSION 2.0
 WRAP.                  NO:   ONE LINE PER DEPTH STEP
~WELL INFORMATION BLOCK
#MNEM.UNIT           DATA                    DESCRIPTION OF MNEMONIC
#---------    -------------------            -------------------------------
# Generated from Intellog Unique Number	CS_71_72/WELL/907
WELL.         KISSINGER PETROLEUM LIMITE     : Well_name    - WELL
LOC .         00/11-29-071-11W4/0            : Location     - LOCATION
UWI .         00/11-29-071-11W4/0            : Uwi          - UNIQUE WELL ID
ENTR.         SP                             : Entered      - ENTERED BY
SRVC.         SCHLUMBERGER                   : Scn          - SERVICE COMPANY
STRT.M        250                            : top_depth    - START DEPTH
STOP.M        470                            : bot_depth    - STOP DEPTH
STEP.M        0.25                           : increment    - STEP LENGTH
 NULL. -999.2500:NULL Value
~CURVE INFORMATION BLOCK
#MNEM UNIT       ERCB CURVE CODE    CURVE DESCRIPTION
#-----------   ------------------   ----------------------------------
DEPT.M        00 001 00 00         : DEPTH        - DEPTH
ILD .OHMM     00 120 00 00         : RESD         - DEEP RESISTIVITY (DIL)
DPHI.V/V      00 890 00 00         : PHID         - DENSITY POROSITY (LIMESTONE)
NPHI.V/V      00 330 00 00         : PHIN         - NEUTRON POROSITY (LIMESTONE)
GR  .API      00 310 00 00         : GR           - GAMMA RAY
~PARAMETER INFORMATION
#MNEM.UNIT           DATA             DESCRIPTION OF MNEMONIC
#---------         -----------     ------------------------------
GL  .M        590.76               : gl           - GROUND LEVEL ELEVATION
EREF.M        594.59               : kb           - ELEVATION OF DEPTH REFERENCE
DATM.M        590.76               : datum        - DATUM ELEVATION
TDD .M        479                  : tdd          - TOTAL DEPTH DRILLER
RUN .         ONE                  : Run          - RUN NUMBER
ENG .         BILL                 : Engineer     - RECORDING ENGINEER
WIT .         JIM                  : Witness      - WITNESSED BY
MUD .         GEL                  : Mud_type     - MUD TYPE
MATR.         LIMESTONE            : Logunit      - NEUTRON MATRIX
TMAX.C        28                   : BHT          - MAXIMUM RECORDED TEMPERATURE
BHTD.M        479                  : BHTDEP       - MAXIMUM RECORDED TEMPERATURE
MATR.         1                    : LOGUNIT      - NEUTRON MATRIX
RMT .C        25                   : MDTP         - TEMPERATURE OF MUD
NEUT.         1                    : NEUTRON      - NEUTRON TYPE
RESI.         0                    : RESIST       - RESISTIVITY TYPE
RMC .OHMM     0.25                 : RMC          - RESISTIVITY OF MUD CAKE
RMF .OHMM     0.25                 : RMF          - RESISTIVITY OF MUD FILTRATE
SUFT.C        15                   : SUFT         - SURFACE TEMPERATURE
~A  DEPTH     RESD     PHID     PHIN       GR
# ...
  337.000   12.107    0.310    0.383   56.310
  337.250   12.071    0.316    0.376   55.372
  337.500   12.044    0.318    0.379   54.252
  337.750   11.976    0.317    0.400   54.043
  338.000   11.948    0.311    0.418   54.198
  338.250   11.895    0.313    0.425   54.490
  338.500   11.852    0.315    0.409   55.747
  338.750   11.791    0.316    0.417   58.894
  339.000   11.739    0.316    0.451   60.773
  339.250   11.621    0.314    0.476   64.046
  339.500   11.496    0.312    0.460   66.099
  339.750   11.256    0.313    0.397   65.592
  340.000   10.999    0.314    0.393   64.775
  340.250   10.833    0.311    0.389   65.485
  340.500   10.633    0.308    0.383   66.132
  340.750   10.516    0.295    0.376   65.807
  341.000   10.415    0.290    0.372   64.745
  341.250   10.354    0.289    0.368   63.254
  341.500   10.261    0.288    0.378   61.648
  341.750   10.135    0.288    0.387   60.100
  342.000    9.919    0.294    0.383   61.785
  342.250    9.434    0.300    0.378   65.056
  342.500    8.769    0.303    0.380   66.932
  342.750    8.455    0.294    0.411   70.448
  343.000    8.206    0.282    0.431   74.450
  343.250    8.130    0.274    0.417   76.509
  343.500    8.257    0.269    0.402   78.626
  343.750    8.737    0.269    0.412   80.187
  344.000    9.216    0.281    0.420   80.903
  344.250    9.573    0.292    0.410   81.359
  344.500   10.224    0.303    0.403   80.677
  344.750   10.712    0.302    0.408   77.476
  345.000   10.970    0.292    0.399   75.624
  345.250   11.188    0.290    0.387   73.278
  345.500   11.298    0.289    0.401   72.342
  345.750   11.321    0.287    0.410   72.442
  346.000   11.367    0.284    0.407   72.050
  346.250   11.348    0.289    0.381   71.228
  346.500   11.402    0.296    0.361   70.414
  346.750   11.546    0.298    0.351   69.233
  347.000   11.657    0.305    0.356   67.866
  347.250   11.654    0.315    0.365   66.679
  347.500   11.496    0.323    0.365   66.544
  347.750   10.806    0.327    0.360   67.132
  348.000    9.830    0.307    0.365   69.736
  348.250    8.993    0.291    0.388   73.130
  348.500    8.204    0.281    0.411   75.066
  348.750    7.719    0.272    0.416   76.690
  349.000    7.315    0.270    0.402   76.548
  349.250    6.993    0.271    0.391   78.905
  349.500    6.809    0.268    0.385   81.633
  349.750    6.749    0.267    0.409   85.086
  350.000    6.737    0.273    0.422   86.347
  350.250    6.743    0.280    0.413   86.447
  350.500    6.740    0.269    0.409   85.693
  350.750    6.721    0.262    0.412   84.083
  351.000    6.685    0.261    0.403   82.778
  351.250    6.558    0.264    0.409   81.774
  351.500    6.507    0.271    0.417   80.781
  351.750    6.406    0.265    0.412   79.170
  352.000    6.254    0.258    0.411   80.674
  352.250    6.220    0.256    0.416   82.544
  352.500    6.225    0.258    0.422   83.192
  352.750    6.418    0.260    0.424   83.231
  353.000    6.652    0.246    0.433   84.430
  353.250    6.797    0.234    0.441   86.785
  353.500    7.086    0.227    0.430   88.905
  353.750    7.134    0.230    0.412   91.508
  354.000    7.162    0.247    0.406   92.648
  354.250    7.136    0.266    0.390   91.649
  354.500    6.977    0.273    0.371   87.473
  354.750    6.794    0.270    0.362   87.694
  355.000    6.562    0.264    0.368   90.054
  355.250    6.396    0.261    0.381   92.836
  355.500    6.221    0.263    0.394   93.796
  355.750    6.136    0.262    0.403   94.566
  356.000    6.133    0.256    0.399   94.543
  356.250    6.283    0.248    0.384   92.812
  356.500    6.427    0.240    0.373   91.687
  356.750    6.523    0.233    0.367   91.058
  357.000    6.775    0.241    0.375   91.645
  357.250    6.788    0.244    0.388   91.866
  357.500    6.801    0.237    0.393   90.682
  357.750    6.782    0.232    0.401   89.808
  358.000    6.754    0.237    0.430   90.945
  358.250    6.677    0.237    0.449   92.877
  358.500    6.576    0.227    0.469   95.233
  358.750    6.451    0.214    0.452   95.397
  359.000    6.251    0.207    0.420   93.418
  359.250    6.134    0.204    0.406   92.177
  359.500    6.008    0.199    0.394   94.963
  359.750    5.905    0.194    0.421  100.193
  360.000    5.902    0.200    0.411  105.296
  360.250    5.915    0.212    0.402  104.422
  360.500    6.002    0.222    0.396   99.881
  360.750    6.090    0.227    0.402   95.339
  361.000    6.194    0.220    0.408   91.837
  361.250    6.322    0.211    0.404   91.265
  361.500    6.417    0.206    0.410   95.089
  361.750    6.536    0.203    0.432   97.876
  362.000    6.582    0.215    0.442   96.199
  362.250    6.601    0.224    0.422   94.900
  362.500    6.592    0.219    0.399   91.213
  362.750    6.533    0.214    0.381   92.779
  363.000    6.464    0.210    0.372   94.772
  363.250    6.436    0.208    0.365   94.688
  363.500    6.466    0.210    0.366   91.485
  363.750    6.553    0.212    0.371   89.510
  364.000    6.566    0.214    0.383   89.308
  364.250    6.293    0.217    0.393   94.107
  364.500    5.800    0.223    0.377   97.690
  364.750    5.020    0.234    0.380   96.141
  365.000    3.912    0.246    0.402   96.359
  365.250    2.805    0.258    0.430  100.246
  365.500    1.894    0.266    0.487  102.850
  365.750    1.499    0.274    0.520  104.354
  366.000    1.406    0.272    0.506  104.209
  366.250    1.444    0.261    0.483  104.922
  366.500    1.637    0.255    0.503  106.485
  366.750    2.108    0.248    0.514  105.610
  367.000    2.677    0.240    0.485  104.060
  367.250    3.329    0.230    0.440  101.655
  367.500    4.135    0.225    0.413  100.291
  367.750    4.852    0.231    0.403   99.597
  368.000    5.282    0.237    0.411   98.170
  368.250    5.369    0.243    0.425   95.460
  368.500    4.965    0.247    0.436   92.384
  368.750    4.324    0.249    0.433   91.873
  369.000    3.896    0.250    0.408   93.375
  369.250    3.975    0.253    0.401   93.170
  369.500    4.528    0.255    0.415   90.341
  369.750    5.318    0.248    0.400   82.988
  370.000    6.386    0.213    0.364   76.373
  370.250    7.103    0.164    0.331   65.908
  370.500    7.583    0.124    0.309   54.953
  370.750    7.743    0.140    0.319   63.360
  371.000    7.249    0.222    0.359   80.249
  371.250    6.191    0.257    0.384   94.702
  371.500    5.812    0.278    0.386  110.618
  371.750    5.661    0.277    0.380  118.839
  372.000    5.675    0.278    0.387  120.284
  372.250    5.761    0.279    0.400  105.117
  372.500    5.799    0.280    0.410   94.834
  372.750    5.820    0.283    0.406   86.996
  373.000    5.809    0.288    0.392   78.363
  373.250    5.765    0.292    0.377   73.391
  373.500    5.672    0.293    0.395   70.984
  373.750    5.629    0.294    0.405   69.258
  374.000    5.641    0.286    0.387   66.547
  374.250    5.770    0.270    0.361   69.701
  374.500    5.906    0.246    0.349   73.404
  374.750    5.976    0.233    0.347   77.713
  375.000    5.973    0.225    0.350   80.441
  375.250    5.855    0.226    0.356   83.350
  375.500    5.704    0.235    0.367   87.420
  375.750    5.579    0.244    0.399   92.161
  376.000    5.397    0.234    0.419   95.864
  376.250    4.984    0.226    0.437   87.962
  376.500    4.752    0.246    0.414   81.894
  376.750    4.619    0.271    0.407   77.477
  377.000    4.632    0.281    0.398   83.377
  377.250    4.776    0.250    0.362   88.302
  377.500    4.969    0.195    0.319   85.592
  377.750    5.065    0.147    0.315   78.363
  378.000    5.143    0.186    0.362   76.815
  378.250    5.066    0.212    0.390   81.798
  378.500    4.809    0.226    0.407   87.328
  378.750    4.692    0.224    0.397   89.938
  379.000    4.542    0.222    0.383   92.481
  379.250    4.522    0.225    0.378   93.679
  379.500    4.601    0.230    0.385   93.714
  379.750    4.680    0.226    0.400   92.533
  380.000    4.799    0.220    0.421   92.391
  380.250    4.862    0.215    0.446   94.748
