~VERSION INFORMATION
 VERS.                 2.0:   CWLS LOG ASCII STANDARD -VERSION 2.0
 WRAP.                  NO:   ONE LINE PER DEPTH STEP
~WELL INFORMATION BLOCK
#MNEM.UNIT           DATA                    DESCRIPTION OF MNEMONIC
#---------    -------------------            -------------------------------
# Generated from Intellog Unique Number	CC_80_83/WELL/2410
NULL.         -999.25                        : NULL_VALUE
WELL.         NOVALTA NEWBY                  : Well_name    - WELL
LOC .         11-27-081-04W4                 : Location     - LOCATION          
UWI .         00/11-27-081-04W400            : Uwi          - UNIQUE WELL ID    
ENTR.         DW                             : Entered      - ENTERED BY        
SRVC.         SCHLUMBERGER                   : Scn          - SERVICE COMPANY   
DATE.         25 JAN 83                      : Date         - LOG DATE
STRT.M        95                             : top_depth    - START DEPTH       
STOP.M        265.101                        : bot_depth    - STOP DEPTH        
STEP.M        0.3                            : increment    - STEP LENGTH       
~CURVE INFORMATION BLOCK
#MNEM UNIT       ERCB CURVE CODE    CURVE DESCRIPTION
#-----------   ------------------   ----------------------------------
DEPT.M        00 001 00 00         : DEPTH        - DEPTH                       
DPHI.V/V      00 890 00 00         : PHID         - DENSITY POROSITY (LIMESTONE)
NPHI.V/V      00 330 00 00         : PHIN         - NEUTRON POROSITY (LIMESTONE)
GR  .API      00 310 00 00         : GR           - GAMMA RAY                   
ILD .OHMM     00 120 00 00         : RESD         - DEEP RESISTIVITY (DIL)      
~PARAMETER INFORMATION       
#MNEM.UNIT           DATA             DESCRIPTION OF MNEMONIC
#---------         -----------     ------------------------------
GL  .M        464.62               : gl           - GROUND LEVEL ELEVATION      
EREF.M        468.27               : kb           - ELEVATION OF DEPTH REFERENCE
DATM.M        468.27               : datum        - DATUM ELEVATION             
TDD .M        285                  : tdd          - TOTAL DEPTH DRILLER         
RUN .         ONE                  : Run          - RUN NUMBER                  
ENG .         BILL                 : Engineer     - RECORDING ENGINEER          
WIT .         JIM                  : Witness      - WITNESSED BY                
MUD .         GEL                  : Mud_type     - MUD TYPE                    
MATR.         LIMESTONE            : Logunit      - NEUTRON MATRIX              
TMAX.C        23                   : BHT          - MAXIMUM RECORDED TEMPERATURE
BHTD.M        285                  : BHTDEP       - MAXIMUM RECORDED TEMPERATURE
MATR.         1                    : LOGUNIT      - NEUTRON MATRIX              
RMT .C        25                   : MDTP         - TEMPERATURE OF MUD          
NEUT.         1                    : NEUTRON      - NEUTRON TYPE                
RESI.         0                    : RESIST       - RESISTIVITY TYPE            
RMC .OHMM     0.25                 : RMC          - RESISTIVITY OF MUD CAKE     
RMF .OHMM     0.25                 : RMF          - RESISTIVITY OF MUD FILTRATE 
SUFT.C        15                   : SUFT         - SURFACE TEMPERATURE         
~A  DEPTH     PHID     PHIN       GR     RESD
   95.000    0.277    0.425   63.126    8.806
   95.300    0.264    0.436   62.488    8.802
   95.600    0.270    0.481   61.857    8.800
   95.900    0.282    0.489   60.619    8.472
   96.200    0.268    0.487   56.945    8.157
   96.500    0.208    0.457   55.096    7.854
   96.800    0.214    0.398   54.464    7.422
   97.100    0.284    0.424   55.037    7.145
   97.400    0.315    0.404   56.836    6.880
   97.700    0.312    0.398   56.814    6.623
   98.000    0.311    0.407   54.957    6.498
   98.300    0.322    0.420   51.290    6.375
   98.600    0.319    0.430   50.654    6.493
   98.900    0.312    0.434   53.056    6.613
   99.200    0.306    0.434   54.241    6.610
   99.500    0.294    0.418   54.821    6.608
   99.800    0.288    0.407   56.011    6.730
  100.100    0.292    0.407   59.019    6.728
  100.400    0.309    0.409   58.988    6.726
  100.700    0.317    0.414   55.311    6.723
  101.000    0.292    0.428   54.680    6.596
  101.300    0.289    0.419   56.480    6.593
  101.600    0.319    0.423   58.881    6.590
  101.900    0.321    0.430   58.848    6.713
  102.200    0.304    0.430   61.255    6.709
  102.500    0.285    0.415   67.902    6.707
  102.800    0.268    0.410   67.269    6.705
  103.100    0.275    0.429   64.198    6.701
  103.400    0.286    0.438   70.855    6.699
  103.700    0.264    0.426   75.077    6.698
  104.000    0.263    0.442   70.194    6.695
  104.300    0.266    0.453   67.738    6.692
  104.600    0.264    0.426   68.318    6.690
  104.900    0.272    0.388   77.389    6.813
  105.200    0.273    0.388   76.757    6.810
  105.500    0.284    0.418   71.265    6.936
  105.800    0.279    0.432   69.414    6.935
  106.100    0.268    0.439   69.994    6.932
  106.400    0.282    0.431   72.394    6.800
  106.700    0.290    0.414   72.980    6.798
  107.000    0.286    0.433   75.371    6.795
  107.300    0.261    0.447   75.955    6.922
  107.600    0.286    0.425   74.715    6.918
  107.900    0.299    0.417   68.620    6.916
  108.200    0.290    0.424   70.413    6.913
  108.500    0.269    0.424   72.815    7.040
  108.800    0.278    0.426   74.001    7.038
  109.100    0.275    0.425   73.366    7.036
  109.400    0.263    0.418   73.323    7.033
  109.700    0.264    0.432   73.908    7.031
  110.000    0.269    0.440   75.097    7.160
  110.300    0.260    0.409   76.289    7.294
  110.600    0.251    0.397   77.463    7.429
  110.900    0.261    0.416   77.437    7.567
  111.200    0.260    0.434   74.985    7.563
  111.500    0.248    0.413   74.966    7.561
  111.800    0.240    0.441   76.142    7.558
  112.100    0.244    0.432   77.336    7.697
  112.400    0.258    0.412   79.120    7.840
  112.700    0.265    0.412   75.463    7.985
  113.000    0.267    0.410   69.362    7.834
  113.300    0.252    0.410   70.546    7.686
  113.600    0.235    0.425   80.841    7.540
  113.900    0.235    0.427   85.062    7.679
  114.200    0.238    0.411   85.032    7.822
  114.500    0.247    0.405   80.152    7.820
  114.800    0.271    0.414   73.445    7.963
  115.100    0.331    0.424   59.453    7.961
  115.400    0.340    0.408   46.681    7.957
  115.700    0.328    0.382   36.329    7.955
  116.000    0.335    0.381   33.262    7.804
  116.300    0.342    0.374   33.849    7.802
  116.600    0.342    0.385   32.598    7.653
  116.900    0.340    0.385   31.962    7.507
  117.200    0.336    0.330   30.721    7.647
  117.500    0.352    0.317   29.484    7.645
  117.800    0.395    0.322   27.029    7.642
  118.100    0.407    0.365   25.179    7.639
  118.400    0.374    0.351   23.938    7.780
  118.700    0.356    0.339   23.909    8.075
  119.000    0.349    0.365   28.738    8.072
  119.300    0.323    0.405   32.966    8.069
  119.600    0.281    0.390   35.366    7.768
  119.900    0.305    0.415   34.724    7.480
  120.200    0.318    0.451   34.690    7.201
  120.500    0.338    0.413   35.280    6.934
  120.800    0.369    0.382   35.854    6.552
  121.100    0.376    0.405   41.297    5.963
  121.400    0.315    0.453   65.553    5.227
  121.700    0.259    0.503   83.129    4.414
  122.000    0.250    0.531   89.777    3.798
  122.300    0.252    0.520   93.993    3.392
  122.600    0.268    0.507   96.394    3.328
  122.900    0.277    0.521   96.372    3.264
  123.200    0.280    0.506   90.268    3.263
  123.500    0.300    0.478   89.034    3.262
  123.800    0.307    0.495   90.219    3.261
  124.100    0.310    0.488   91.406    3.140
  124.400    0.313    0.489   86.518    3.138
  124.700    0.298    0.508   88.908    3.197
  125.000    0.275    0.518   90.106    3.380
  125.300    0.283    0.524   88.859    3.574
  125.600    0.299    0.533   86.412    3.709
  125.900    0.289    0.546   83.946    3.779
  126.200    0.285    0.556   82.105    3.995
  126.500    0.285    0.536   76.009    4.305
  126.800    0.310    0.417   62.621    5.000
  127.100    0.321    0.391   53.489    5.808
  127.400    0.337    0.413   48.601    6.496
  127.700    0.351    0.469   49.184    6.869
  128.000    0.343    0.447   50.373    7.129
  128.300    0.343    0.403   46.095    7.399
  128.600    0.341    0.400   44.843    7.679
  128.900    0.339    0.402   44.822    7.969
  129.200    0.331    0.406   46.608    7.966
  129.500    0.336    0.417   48.414    7.963
  129.800    0.352    0.421   52.619    8.111
  130.100    0.344    0.393   52.609    8.107
  130.400    0.332    0.383   51.360    8.105
  130.700    0.338    0.391   50.117    8.101
  131.000    0.377    0.423   48.264    8.097
  131.300    0.370    0.407   47.637    8.096
  131.600    0.347    0.378   48.825    8.092
  131.900    0.349    0.382   50.011    7.938
  132.200    0.360    0.432   49.367    7.935
  132.500    0.360    0.460   46.922    7.933
  132.800    0.347    0.436   47.499    7.928
  133.100    0.340    0.424   49.901    7.927
  133.400    0.331    0.431   47.439    7.923
  133.700    0.331    0.412   46.808    7.920
  134.000    0.337    0.406   49.209    7.918
  134.300    0.346    0.408   51.615    7.766
  134.600    0.350    0.423   50.362    7.620
  134.900    0.350    0.429   48.513    7.476
  135.200    0.348    0.402   47.888    7.333
  135.500    0.344    0.397   46.647    7.195
  135.800    0.340    0.399   46.003    7.057
  136.100    0.336    0.412   47.800    7.055
  136.400    0.335    0.423   48.380    7.053
  136.700    0.344    0.435   47.142    6.920
  137.000    0.351    0.445   44.071    6.916
  137.300    0.346    0.427   45.870    6.914
  137.600    0.351    0.412   48.273    6.783
  137.900    0.355    0.404   50.067    6.780
  138.200    0.352    0.388   50.041    6.651
  138.500    0.342    0.395   49.394    6.648
  138.800    0.339    0.404   48.156    6.773
  139.100    0.357    0.410   46.917    6.898
  139.400    0.370    0.414   46.287    7.432
  139.700    0.303    0.414   48.078    8.796
  140.000    0.006    0.146   47.444   16.327
  140.300    0.000    0.142   42.562   19.687
  140.600    0.006    0.161   38.283   19.679
  140.900    0.039    0.207   33.398   16.932
  141.200    0.158    0.253   30.945   11.851
  141.500    0.297    0.338   35.773    9.284
  141.800    0.345    0.408   43.637    7.410
  142.100    0.330    0.412   49.680    6.375
  142.400    0.338    0.418   52.076    5.912
  142.700    0.346    0.438   50.232    5.909
  143.000    0.340    0.444   47.769    6.133
  143.300    0.316    0.430   45.926    7.258
  143.600    0.070    0.290   42.253   10.361
  143.900    0.074    0.171   36.154   11.165
  144.201    0.110    0.242   37.342   10.161
  144.501    0.216    0.280   45.198    8.580
  144.801    0.289    0.356   49.419    7.381
  145.101    0.342    0.425   51.215    6.471
  145.401    0.337    0.421   49.980    5.890
  145.701    0.343    0.425   48.741    5.565
  146.001    0.346    0.409   50.525    5.563
  146.301    0.347    0.413   49.289    5.560
  146.601    0.343    0.429   48.041    5.662
  146.901    0.331    0.423   47.407    5.661
