~VERSION INFORMATION
 VERS.                 2.0:   CWLS LOG ASCII STANDARD -VERSION 2.0
 WRAP.                  NO:   ONE LINE PER DEPTH STEP
~WELL INFORMATION BLOCK
#MNEM.UNIT           DATA                    DESCRIPTION OF MNEMONIC
#---------    -------------------            -------------------------------
# Generated from Intellog Unique Number	CW_76_78/WELL/995
WELL.         GULF POC DROWNED 11-17         : Well_name    - WELL
LOC .         00/11-17-076-20W4/0            : Location     - LOCATION
UWI .         00/11-17-076-20W4/0            : Uwi          - UNIQUE WELL ID
ENTR.         JAYE                           : Entered      - ENTERED BY
SRVC.         SCHLUMBERGER                   : Scn          - SERVICE COMPANY
DATE.         19 MAR 78                      : Date         - LOG DATE
STRT.M        277.368                        : top_depth    - START DEPTH
STOP.M        455.118                        : bot_depth    - STOP DEPTH
STEP.M        0.25                           : increment    - STEP LENGTH
 NULL. -999.2500:NULL Value
~CURVE INFORMATION BLOCK
#MNEM UNIT       ERCB CURVE CODE    CURVE DESCRIPTION
#-----------   ------------------   ----------------------------------
DEPT.M        00 001 00 00         : DEPTH        - DEPTH
ILD .OHMM     00 120 00 00         : RESD         - DEEP RESISTIVITY (DIL)
NPHI.V/V      00 330 00 00         : PHIN         - NEUTRON POROSITY (SANDSTONE)
DPHI.V/V      00 890 00 00         : PHID         - DENSITY POROSITY (SANDSTONE)
GR  .API      00 310 00 00         : GR           - GAMMA RAY
CALI.MM       00 280 01 00         : CAL          - CALIPER
~PARAMETER INFORMATION
#MNEM.UNIT           DATA             DESCRIPTION OF MNEMONIC
#---------         -----------     ------------------------------
GL  .M        604.114              : gl           - GROUND LEVEL ELEVATION
EREF.M        608.228              : kb           - ELEVATION OF DEPTH REFERENCE
DATM.M        604.114              : datum        - DATUM ELEVATION
TDD .M        461.772              : tdd          - TOTAL DEPTH DRILLER
RUN .         ONE                  : Run          - RUN NUMBER
ENG .         DEROCHIE             : Engineer     - RECORDING ENGINEER
WIT .         ROY/ROZENHART        : Witness      - WITNESSED BY
BASE.         EDM                  : Branch       - HOME BASE OF LOGGING UNIT
MUD .         GEL CHEM             : Mud_type     - MUD TYPE
MATR.         SANDSTONE            : Logunit      - NEUTRON MATRIX
TMAX.C        18.3333              : BHT          - MAXIMUM RECORDED TEMPERATURE
BHTD.M        461.162              : BHTDEP       - MAXIMUM RECORDED TEMPERATURE
RMT .C        16.6667              : MDTP         - TEMPERATURE OF MUD
MUDD.KG/M     1116                 : MWT          - MUD DENSITY
NEUT.         1                    : NEUTRON      - NEUTRON TYPE
RESI.         0                    : RESIST       - RESISTIVITY TYPE
RM  .OHMM     5.43                 : RM           - RESISTIVITY OF MUD
RMC .OHMM     0                    : RMC          - RESISTIVITY OF MUD CAKE
RMF .OHMM     5.39                 : RMF          - RESISTIVITY OF MUD FILTRATE
SUFT.C        -17.7778             : SUFT         - SURFACE TEMPERATURE
~A  DEPTH     RESD     PHIN     PHID       GR      CAL
  277.368    2.395    0.488    0.207  121.390  158.977
  277.618    2.374    0.480    0.210  121.769  158.443
  277.868    2.345    0.487    0.196  122.717  155.770
  278.118    2.334    0.504    0.197  121.391  154.488
  278.368    2.336    0.518    0.218  119.876  154.489
  278.618    2.356    0.536    0.212  119.560  156.842
  278.868    2.375    0.551    0.206  119.877  159.837
  279.118    2.427    0.525    0.202  120.382  162.298
  279.368    2.498    0.520    0.199  120.635  163.689
  279.618    2.571    0.530    0.197  120.952  164.118
  279.868    2.621    0.533    0.198  121.457  164.011
  280.118    2.692    0.524    0.206  122.089  163.264
  280.368    2.781    0.500    0.199  121.774  162.516
  280.618    2.884    0.483    0.185  119.690  161.768
  280.868    2.985    0.475    0.174  118.048  161.127
  281.118    3.072    0.475    0.187  114.765  160.165
  281.368    3.192    0.486    0.203  110.407  159.524
  281.618    3.310    0.492    0.199  105.229  158.562
  281.868    3.445    0.490    0.193  100.303  157.494
  282.118    3.653    0.473    0.183   94.051  156.425
  282.368    3.947    0.463    0.153   88.872  155.463
  282.618    4.352    0.450    0.181   83.630  154.929
  282.868    5.010    0.494    0.229   80.347  154.288
  283.118    5.953    0.503    0.272   76.937  152.792
  283.368    7.736    0.448    0.281   72.769  149.370
  283.618    9.435    0.421    0.274   68.980  149.050
  283.868   10.642    0.430    0.282   63.296  150.869
  284.118   11.242    0.451    0.296   59.822  151.832
  284.368   11.722    0.450    0.314   55.781  152.688
  284.618   11.887    0.429    0.325   54.581  153.010
  284.868   11.654    0.433    0.328   56.855  153.439
  285.118   11.258    0.449    0.312   59.824  153.546
  285.368   10.835    0.446    0.294   63.551  153.868
  285.618   10.465    0.436    0.274   65.951  152.799
  285.868    9.739    0.417    0.258   66.899  147.239
  286.118    9.132    0.426    0.242   70.816  142.854
  286.368    8.788    0.438    0.264   78.142  138.363
  286.618    8.473    0.430    0.284   77.385  135.691
  286.868    8.140    0.409    0.292   76.627  135.584
  287.118    7.789    0.399    0.270   82.880  137.510
  287.368    7.440    0.405    0.241   90.207  141.254
  287.618    7.028    0.414    0.238   97.155  144.998
  287.868    6.552    0.419    0.235   99.934  149.276
  288.118    6.189    0.419    0.242   96.398  154.304
  288.368    6.080    0.426    0.243   91.030  157.299
  288.618    6.340    0.441    0.236   85.031  156.551
  288.868    6.648    0.452    0.247   80.105  154.734
  289.118    6.766    0.439    0.246   74.989  152.168
  289.368    6.597    0.416    0.255   70.316  148.532
  289.618    6.185    0.400    0.269   68.295  143.934
  289.868    5.897    0.394    0.260   71.580  139.871
  290.118    5.686    0.395    0.252   80.359  138.802
  290.368    5.544    0.399    0.227   90.339  139.980
  290.618    5.508    0.413    0.200   98.171  142.012
  290.868    5.481    0.430    0.207  103.287  144.794
  291.118    5.475    0.433    0.217  100.635  146.078
  291.368    5.531    0.424    0.232   93.183  141.480
  291.618    5.725    0.407    0.250   87.878  140.411
  291.868    6.026    0.420    0.261   86.173  140.412
  292.118    6.633    0.440    0.239   88.447  140.733
  292.368    7.749    0.457    0.236   81.248  141.804
  292.618    8.954    0.442    0.229   71.143  142.660
  292.868    9.637    0.427    0.243   66.659  144.158
  293.118    9.993    0.409    0.278   64.323  145.549
  293.368   10.209    0.413    0.277   61.544  146.512
  293.618   10.333    0.424    0.286   59.839  147.903
  293.868   10.380    0.419    0.295   59.840  148.439
  294.118   10.389    0.413    0.288   60.724  148.440
  294.368   10.302    0.410    0.287   62.367  147.906
  294.618   10.157    0.402    0.270   64.073  146.837
  294.868    9.960    0.403    0.248   66.031  145.020
  295.118    9.855    0.406    0.208   68.558  144.485
  295.368    9.664    0.391    0.244   71.779  145.770
  295.618    9.476    0.381    0.257   72.285  147.054
  295.868    9.325    0.382    0.259   71.148  148.338
  296.118    9.213    0.388    0.248   74.433  149.408
  296.368    9.100    0.404    0.250   79.613  149.944
  296.618    9.005    0.422    0.271   81.382  149.837
  296.868    8.797    0.419    0.289   79.866  149.624
  297.118    8.418    0.411    0.270   80.751  149.625
  297.368    7.997    0.399    0.268   83.656  149.947
  297.618    7.415    0.382    0.257   88.204  151.124
  297.868    6.912    0.384    0.243   93.194  152.194
  298.118    6.702    0.398    0.227  101.531  152.729
  298.368    6.646    0.416    0.228  104.690  153.158
  298.618    6.664    0.434    0.219   99.827  152.838
  298.868    6.744    0.441    0.226   93.764  148.454
  299.118    6.826    0.437    0.232   89.786  143.963
  299.368    6.922    0.432    0.240   90.039  141.504
  299.618    7.071    0.425    0.247   93.134  142.788
  299.868    7.332    0.414    0.235   97.114  147.066
  300.118    7.673    0.403    0.223  103.303  151.345
  300.368    8.213    0.407    0.237  104.883  154.233
  300.618    8.661    0.397    0.239  101.536  156.052
  300.868    8.833    0.387    0.230  102.421  156.267
  301.118    8.839    0.378    0.226  106.526  155.626
  301.368    8.895    0.379    0.204  110.695  154.557
  301.618    9.087    0.385    0.221  109.306  153.595
  301.868    9.389    0.387    0.223  105.391  152.206
  302.118    9.590    0.392    0.212  102.360  151.458
  302.368    9.742    0.399    0.219   97.686  151.138
  302.618    9.358    0.391    0.223   94.024  151.887
  302.868    8.939    0.387    0.220   90.235  153.278
  303.118    8.588    0.387    0.226   87.645  154.135
  303.368    8.452    0.383    0.206   89.856  154.777
  303.618    8.538    0.380    0.188   95.225  155.313
  303.868    8.723    0.380    0.193   96.868  156.062
  304.118    8.860    0.380    0.214   96.047  156.063
  304.368    8.968    0.390    0.231   94.343  155.101
  304.618    8.858    0.394    0.250   90.617  152.856
  304.868    8.605    0.388    0.243   87.522  150.718
  305.118    8.313    0.382    0.247   87.081  149.007
  305.368    8.120    0.379    0.248   90.681  149.008
  305.618    8.036    0.380    0.235   93.271  150.078
  305.868    7.968    0.389    0.242   93.650  151.148
  306.118    7.856    0.390    0.247   92.388  152.219
  306.368    7.733    0.385    0.245   93.462  153.182
  306.618    7.553    0.382    0.237   97.694  153.824
  306.868    7.364    0.384    0.222  101.484  154.360
  307.118    7.181    0.386    0.222  103.758  155.002
  307.368    6.975    0.387    0.233  106.853  154.468
  307.618    6.890    0.390    0.216  107.927  153.186
  307.868    6.211    0.399    0.217  103.254  152.224
  308.118    5.455    0.398    0.229   97.254  152.011
  308.368    4.694    0.411    0.228  102.055  151.904
  308.618    4.185    0.423    0.140  115.129  152.654
  308.868    3.801    0.464    0.105  130.793  153.617
  309.118    3.459    0.486    0.156  141.404  154.687
  309.368    3.213    0.502    0.152  142.983  155.971
  309.618    2.996    0.503    0.153  137.299  156.614
  309.868    2.830    0.496    0.170  133.321  157.256
  310.118    2.708    0.485    0.164  135.595  157.578
  310.368    2.582    0.494    0.170  137.427  157.686
  310.618    2.508    0.496    0.164  135.532  157.900
  310.868    2.610    0.490    0.173  135.659  158.008
  311.118    2.966    0.490    0.195  137.681  157.902
  311.368    3.505    0.492    0.218  140.271  157.796
  311.618    4.027    0.479    0.208  138.692  157.369
  311.868    4.584    0.458    0.201  134.398  157.583
  312.118    5.008    0.439    0.196  130.546  157.691
  312.368    5.222    0.419    0.179  130.420  157.585
  312.618    5.139    0.428    0.162  132.568  157.692
  312.868    5.020    0.430    0.180  134.715  158.014
  313.118    5.025    0.428    0.195  133.137  158.549
  313.368    5.152    0.424    0.174  125.306  158.550
  313.618    5.362    0.421    0.195  118.927  158.444
