~VERSION INFORMATION
 VERS.                 2.0:   CWLS LOG ASCII STANDARD -VERSION 2.0
 WRAP.                  NO:   ONE LINE PER DEPTH STEP
~WELL INFORMATION BLOCK
#MNEM.UNIT           DATA                    DESCRIPTION OF MNEMONIC
#---------    -------------------            -------------------------------
# Generated from Intellog Unique Number	CS_67_68/WELL/2205
WELL.         GOEG et al HYLO                : Well_name    - WELL
LOC .         00/11-10-067-14W4/0            : Location     - LOCATION
UWI .         00/11-10-067-14W4/0            : Uwi          - UNIQUE WELL ID
ENTR.         SP                             : Entered      - ENTERED BY
SRVC.         SCHLUMBERGER                   : Scn          - SERVICE COMPANY
STRT.M        310                            : top_depth    - START DEPTH
STOP.M        505                            : bot_depth    - STOP DEPTH
STEP.M        0.25                           : increment    - STEP LENGTH
 NULL. -999.2500:NULL Value
~CURVE INFORMATION BLOCK
#MNEM UNIT       ERCB CURVE CODE    CURVE DESCRIPTION
#-----------   ------------------   ----------------------------------
DEPT.M        00 001 00 00         : DEPTH        - DEPTH
ILD .OHMM     00 120 00 00         : RESD         - DEEP RESISTIVITY (DIL)
DPHI.V/V      00 890 00 00         : PHID         - DENSITY POROSITY (LIMESTONE)
NPHI.V/V      00 330 00 00         : PHIN         - NEUTRON POROSITY (LIMESTONE)
GR  .API      00 310 00 00         : GR           - GAMMA RAY
CALI.MM       00 280 01 00         : CAL          - CALIPER
~PARAMETER INFORMATION
#MNEM.UNIT           DATA             DESCRIPTION OF MNEMONIC
#---------         -----------     ------------------------------
GL  .M        575.5                : gl           - GROUND LEVEL ELEVATION
EREF.M        578.5                : kb           - ELEVATION OF DEPTH REFERENCE
DATM.M        578.5                : datum        - DATUM ELEVATION
TDD .M        506                  : tdd          - TOTAL DEPTH DRILLER
RUN .         ONE                  : Run          - RUN NUMBER
ENG .         BILL                 : Engineer     - RECORDING ENGINEER
WIT .         JIM                  : Witness      - WITNESSED BY
MUD .         GEL                  : Mud_type     - MUD TYPE
MATR.         LIMESTONE            : Logunit      - NEUTRON MATRIX
TMAX.C        22                   : BHT          - MAXIMUM RECORDED TEMPERATURE
BHTD.M        506                  : BHTDEP       - MAXIMUM RECORDED TEMPERATURE
MATR.         1                    : LOGUNIT      - NEUTRON MATRIX
RMT .C        25                   : MDTP         - TEMPERATURE OF MUD
NEUT.         1                    : NEUTRON      - NEUTRON TYPE
RESI.         0                    : RESIST       - RESISTIVITY TYPE
RMC .OHMM     0.25                 : RMC          - RESISTIVITY OF MUD CAKE
RMF .OHMM     0.25                 : RMF          - RESISTIVITY OF MUD FILTRATE
SUFT.C        15                   : SUFT         - SURFACE TEMPERATURE
~A  DEPTH     RESD     PHID     PHIN       GR      CAL
# ...
  383.000    2.835    0.220    0.436  103.928  161.954
  383.250    2.969    0.254    0.417   98.748  160.218
  383.500    3.047    0.286    0.404   94.663  158.179
  383.750    3.110    0.289    0.392   92.222  156.546
  384.000    3.008    0.295    0.385   90.025  155.420
  384.250    2.830    0.308    0.378   88.923  154.294
  384.500    2.653    0.311    0.390   88.672  153.878
  384.750    2.543    0.315    0.412   87.510  153.462
  385.000    2.406    0.299    0.433   85.618  152.133
  385.250    2.349    0.288    0.442   90.664  150.196
  385.500    2.332    0.275    0.432   98.207  148.055
  385.750    2.380    0.259    0.407  105.750  150.173
  386.000    2.420    0.244    0.418  112.744  152.600
  386.250    2.563    0.239    0.433  116.756  156.748
  386.500    2.775    0.252    0.444  110.540  159.683
  386.750    3.152    0.275    0.425  101.585  162.108
  387.000    3.648    0.314    0.368   97.562  161.488
  387.250    4.091    0.333    0.331   94.817  159.653
  387.500    4.699    0.341    0.346   93.106  157.715
  387.750    5.107    0.300    0.362   90.117  156.893
  388.000    5.866    0.160    0.377   84.085  157.391
  388.250    6.190    0.087    0.366   77.017  160.017
  388.500    6.352    0.074    0.246   79.385  161.733
  388.750    6.066    0.069    0.233   83.093  162.231
  389.000    5.330    0.176    0.360   86.313  160.597
  389.250    4.797    0.243    0.412   88.742  157.239
  389.500    4.123    0.272    0.435   92.511  153.575
  389.750    3.583    0.266    0.452   96.826  151.639
  390.000    3.291    0.258    0.454   95.968  151.019
  390.250    3.012    0.251    0.442   92.553  151.315
  390.500    2.834    0.219    0.428   95.894  152.116
  390.750    2.803    0.192    0.419   98.202  154.034
  391.000    3.018    0.193    0.418  100.571  156.561
  391.250    3.190    0.227    0.439  101.235  159.392
  391.500    3.214    0.236    0.444   98.976  158.266
  391.750    3.115    0.228    0.425   95.683  156.733
  392.000    3.052    0.227    0.424   93.607  156.723
  392.250    3.081    0.243    0.423   93.114  159.757
  392.500    3.179    0.282    0.416   94.082  160.661
  392.750    3.360    0.313    0.398   94.624  156.490
  393.000    3.559    0.338    0.384   93.826  152.320
  393.250    3.700    0.336    0.395   88.950  150.789
  393.500    3.727    0.323    0.410   84.865  150.475
  393.750    3.443    0.312    0.423   82.912  153.508
  394.000    3.157    0.301    0.433   81.383  155.020
  394.250    2.894    0.308    0.445   80.830  155.314
  394.500    2.764    0.307    0.455   79.789  155.710
  394.750    2.847    0.063    0.204   77.348  156.106
  395.000    4.395    0.031    0.181   64.315  157.111
  395.250    4.911    0.020    0.173   58.830  158.520
  395.500    8.347    0.025    0.168   55.476  159.525
  395.750   10.973    0.047    0.176   53.400  160.429
  396.000   15.821    0.044    0.197   55.768  161.434
  396.250   18.309    0.086    0.243   63.189  161.626
  396.500   12.059    0.151    0.309   70.427  161.109
  396.750    8.181    0.224    0.370   75.108  159.982
  397.000    4.122    0.265    0.405   79.912  159.060
  397.250    3.662    0.293    0.429   82.036  156.513
  397.500    2.611    0.292    0.441   84.404  153.051
  397.750    2.211    0.293    0.439   87.868  150.913
  398.000    2.175    0.285    0.424   92.976  147.757
  398.250    2.278    0.268    0.415   99.666  145.618
  398.500    2.257    0.260    0.408  105.626  143.781
  398.750    2.368    0.234    0.413  108.360  143.568
  399.000    2.480    0.230    0.412  104.640  146.702
  399.250    2.761    0.249    0.412  102.198  150.447
  399.500    2.865    0.254    0.419  100.670  153.278
  399.750    3.023    0.236    0.425  100.300  154.080
  400.000    3.213    0.228    0.419  102.668  154.374
  400.250    3.460    0.212    0.411  103.271  156.899
  400.500    3.428    0.207    0.421  103.447  158.412
  400.750    3.366    0.220    0.430  105.572  159.822
  401.000    3.429    0.232    0.439  108.001  160.422
  401.250    3.551    0.196    0.451  109.030  160.817
  401.500    3.665    0.201    0.454  104.763  161.315
  401.750    3.910    0.205    0.442  102.930  162.218
  402.000    3.954    0.199    0.430  102.375  162.614
  402.250    4.088    0.203    0.421  102.431  163.619
  402.500    4.149    0.194    0.430  102.729  163.710
  402.750    4.195    0.198    0.429  103.271  163.699
  403.000    4.142    0.200    0.425  103.631  163.588
  403.250    4.306    0.198    0.423  103.990  163.375
  403.500    4.274    0.203    0.420  104.289  162.958
  403.750    4.173    0.210    0.411  102.091  162.949
  404.000    4.120    0.198    0.403  101.477  163.040
  404.250    4.143    0.193    0.399  100.922  162.926
  404.500    4.236    0.200    0.410  100.490  162.918
  404.750    4.347    0.206    0.416  101.580  162.504
  405.000    4.268    0.205    0.423  103.644  162.088
  405.250    4.151    0.203    0.423  102.542  162.078
  405.500    3.971    0.192    0.415  102.292  162.068
  405.750    3.737    0.183    0.418  104.113  160.840
  406.000    3.709    0.176    0.422  108.063  160.019
  406.250    3.682    0.191    0.434  110.676  160.008
  406.500    3.716    0.215    0.429  112.618  159.795
  406.750    3.682    0.214    0.428  111.820  159.988
  407.000    3.484    0.200    0.426  111.814  160.385
  407.250    3.260    0.195    0.418  112.354  161.085
  407.500    3.050    0.201    0.425  113.384  161.582
  407.750    3.272    0.205    0.446  115.448  161.674
  408.000    3.297    0.209    0.453  117.695  161.461
  408.250    3.485    0.210    0.452  120.246  160.739
  408.500    3.630    0.214    0.446  122.248  160.426
  408.750    3.583    0.206    0.454  120.112  160.212
  409.000    3.453    0.197    0.448  117.671  159.796
  409.250    3.378    0.206    0.440  117.482  160.294
  409.500    3.353    0.210    0.434  118.085  161.604
  409.750    3.329    0.188    0.433  117.652  162.912
  410.000    3.262    0.230    0.445  118.256  163.309
  410.250    3.126    0.204    0.452  120.076  163.197
  410.500    3.002    0.208    0.459  121.349  163.085
  410.750    2.893    0.218    0.447  120.307  162.870
  411.000    2.783    0.229    0.435  118.170  162.761
  411.250    2.712    0.240    0.426  117.799  162.345
  411.500    2.778    0.240    0.454  118.950  162.132
  411.750    2.958    0.228    0.465  119.066  161.818
  412.000    3.145    0.219    0.453  116.504  161.504
  412.250    3.300    0.212    0.454  110.653  161.290
  412.500    3.269    0.206    0.443  101.333  161.179
  412.750    2.970    0.213    0.429  102.544  161.169
  413.000    2.831    0.206    0.421  103.270  161.261
  413.250    2.932    0.212    0.426  103.142  161.251
  413.500    3.031    0.222    0.444  100.701  160.732
  413.750    3.210    0.234    0.457   98.503  159.607
  414.000    3.400    0.246    0.434   97.766  157.465
  414.250    3.362    0.239    0.406   96.543  155.732
  414.500    2.922    0.211    0.384   89.110  155.621
  414.750    2.544    0.280    0.385   84.356  157.031
  415.000    2.235    0.351    0.354   80.149  157.630
  415.250    2.034    0.396    0.291   75.334  157.518
  415.500    1.914    0.368    0.320   71.067  156.695
  415.750    1.713    0.332    0.375   66.739  155.571
  416.000    1.618    0.326    0.406   66.489  154.851
  416.250    1.545    0.309    0.427   65.447  155.348
  416.500    1.495    0.332    0.430   64.650  156.048
  416.750    1.446    0.337    0.429   62.149  156.342
  417.000    1.422    0.331    0.427   66.951  156.330
  417.250    1.386    0.330    0.422   69.381  156.525
  417.500    1.383    0.343    0.416   65.174  156.616
  417.750    1.381    0.341    0.411   62.734  156.809
  418.000    1.391    0.333    0.406   59.867  157.205
  418.250    1.457    0.327    0.411   58.156  158.007
  418.500    1.566    0.332    0.422   58.272  158.706
  418.750    1.842    0.337    0.419   57.779  158.799
  419.000    2.404    0.325    0.416   57.895  158.687
  419.250    2.985    0.326    0.410   58.862  159.083
