~VERSION INFORMATION
 VERS.                 2.0:   CWLS LOG ASCII STANDARD -VERSION 2.0
 WRAP.                  NO:   ONE LINE PER DEPTH STEP
~WELL INFORMATION BLOCK
#MNEM.UNIT           DATA                    DESCRIPTION OF MNEMONIC
#---------    -------------------            -------------------------------
# Generated from Intellog Unique Number	CN_91_93/WELL/3217
WELL.         UNIVERSAL GAS CO.LTD.          : Well_name    - WELL
LOC .         00/11-30-092-19W4/0            : Location     - LOCATION
UWI .         00/11-30-092-19W4/0            : Uwi          - UNIQUE WELL ID
ENTR.         JOETTE                         : Entered      - ENTERED BY
SRVC.         SCHLUMBERGER                   : Scn          - SERVICE COMPANY
DATE.         04/14/92                       : Date         - LOG DATE
STRT.M        100                            : top_depth    - START DEPTH
STOP.M        255                            : bot_depth    - STOP DEPTH
STEP.M        0.25                           : increment    - STEP LENGTH
 NULL. -999.2500:NULL Value
~CURVE INFORMATION BLOCK
#MNEM UNIT       ERCB CURVE CODE    CURVE DESCRIPTION
#-----------   ------------------   ----------------------------------
DEPT.M        00 001 00 00         : DEPTH        - DEPTH
CALI.MM       00 280 01 00         : CAL          - CALIPER
GR  .API      00 310 00 00         : GR           - GAMMA RAY
NPHI.V/V      00 330 00 00         : PHIN         - NEUTRON POROSITY (SANDSTONE)
DPHI.V/V      00 890 00 00         : PHID         - DENSITY POROSITY (SANDSTONE)
ILD .OHMM     00 120 00 00         : RESD         - DEEP RESISTIVITY (DIL)
~PARAMETER INFORMATION
#MNEM.UNIT           DATA             DESCRIPTION OF MNEMONIC
#---------         -----------     ------------------------------
GL  .M        529                  : gl           - GROUND LEVEL ELEVATION
EREF.M        532                  : kb           - ELEVATION OF DEPTH REFERENCE
DATM.M        532                  : datum        - DATUM ELEVATION
TDD .M        306                  : tdd          - TOTAL DEPTH DRILLER
RUN .         ONE                  : Run          - RUN NUMBER
ENG .         BILL                 : Engineer     - RECORDING ENGINEER
WIT .         JIM                  : Witness      - WITNESSED BY
MUD .         GEL                  : Mud_type     - MUD TYPE
MATR.         SANDSTONE            : Logunit      - NEUTRON MATRIX
TMAX.C        20.5                 : BHT          - MAXIMUM RECORDED TEMPERATURE
BHTD.M        306                  : BHTDEP       - MAXIMUM RECORDED TEMPERATURE
RMT .C        23.8                 : MDTP         - TEMPERATURE OF MUD
MUDD.KG/M     1140                 : MWT          - MUD DENSITY
NEUT.         1                    : NEUTRON      - NEUTRON TYPE
RESI.         0                    : RESIST       - RESISTIVITY TYPE
RM  .OHMM     2.94                 : RM           - RESISTIVITY OF MUD
RMC .OHMM     2.94                 : RMC          - RESISTIVITY OF MUD CAKE
RMF .OHMM     2.7                  : RMF          - RESISTIVITY OF MUD FILTRATE
SUFT.C        4                    : SUFT         - SURFACE TEMPERATURE
~A  DEPTH      CAL       GR     PHIN     PHID     RESD
  100.000  227.703   84.035    0.504    0.332    9.106
  100.250  227.693   78.422    0.501    0.344    7.969
  100.500  227.683   77.170    0.525    0.363    6.587
  100.750  227.669   79.029    0.551    0.417    5.875
  101.000  227.653   82.136    0.572    0.435    6.712
  101.250  228.674   84.618    0.561    0.433    8.434
  101.500  229.698   87.100    0.557    0.425   10.010
  101.750  230.722   87.710    0.568    0.432   11.220
  102.000  231.750   87.082    0.580    0.442   12.340
  102.250  231.737   86.447    0.594    0.443   14.098
  102.500  231.720   87.064    0.606    0.437   15.213
  102.750  231.704   89.546    0.606    0.435   16.105
  103.000  231.694   89.538    0.583    0.430   16.104
  103.250  231.684   87.040    0.558    0.427   15.208
  103.500  230.630   83.297    0.555    0.429   14.092
  103.750  230.617   81.422    0.560    0.436   12.569
  104.000  229.566   79.549    0.550    0.436   10.792
  104.250  228.515   76.428    0.525    0.429   10.998
  104.500  227.465   73.930    0.502    0.424   12.565
  104.750  227.452   76.412    0.510    0.416   13.303
  105.000  226.401   77.023    0.516    0.418   12.804
  105.250  225.347   79.505    0.530    0.423   11.205
  105.500  224.296   82.609    0.540    0.427    9.439
  105.750  224.283   80.114    0.548    0.423    7.654
  106.000  224.270   76.991    0.529    0.418    7.654
  106.250  224.260   77.608    0.526    0.418    8.579
  106.500  225.281   78.220    0.532    0.423    8.911
  106.750  225.268   78.214    0.524    0.427    8.257
  107.000  226.295   78.829    0.539    0.434    6.956
  107.250  226.282   79.444    0.566    0.439    6.087
  107.500  228.344   81.925    0.571    0.432    5.534
  107.750  230.399   83.785    0.546    0.419    5.031
  108.000  230.392   84.400    0.511    0.410    4.935
  108.250  232.451   81.902    0.516    0.415    4.750
  108.500  235.540   76.291    0.527    0.418    4.750
  108.750  235.533   76.904    0.534    0.423    4.841
  109.000  236.561   79.386    0.543    0.432    5.028
  109.250  236.544   82.491    0.569    0.444    5.323
  109.500  236.534   84.350    0.588    0.450    5.854
  109.750  235.477   83.720    0.589    0.457    6.688
  110.000  235.471   81.222    0.600    0.445    7.788
  110.250  234.417   83.704    0.604    0.425    8.898
  110.500  234.407   87.431    0.599    0.426    9.974
  110.750  234.390   89.913    0.597    0.428   10.969
  111.000  235.411   88.037    0.589    0.419   10.968
  111.250  235.404   85.540    0.564    0.398    9.783
  111.500  235.388   78.062    0.558    0.366    8.893
  111.750  235.378   73.072    0.532    0.347    8.560
  112.000  234.324   71.819    0.521    0.333    7.931
  112.250  231.195   73.056    0.549    0.357    7.781
  112.500  230.148   75.538    0.521    0.380    7.780
  112.750  228.056   79.888    0.512    0.401    7.633
  113.000  228.046   83.615    0.550    0.420    7.488
  113.250  228.027   84.229    0.552    0.415    7.487
  113.500  229.054   86.087    0.539    0.404    7.487
  113.750  231.113   87.326    0.521    0.406    7.486
  114.000  232.140   90.428    0.523    0.407    7.344
  114.250  233.161   92.290    0.554    0.402    7.205
  114.500  233.155   94.149    0.557    0.395    6.935
  114.750  233.138   97.252    0.557    0.387    6.803
  115.000  233.125   96.621    0.561    0.387    6.425
  115.250  233.115   96.613    0.569    0.381    6.424
  115.500  232.064   97.848    0.571    0.373    6.303
  115.750  232.044   98.467    0.550    0.362    6.302
  116.000  232.031   99.082    0.553    0.360    6.301
  116.250  232.015  100.319    0.560    0.369    6.300
  116.500  232.008  102.799    0.554    0.384    6.421
  116.750  233.032   99.056    0.555    0.394    6.420
  117.000  233.016   95.935    0.553    0.394    6.420
  117.250  233.006   98.417    0.535    0.387    6.419
  117.500  231.955  104.012    0.553    0.376    6.418
  117.750  230.905  104.004    0.563    0.373    6.418
  118.000  229.854  100.259    0.559    0.375    6.795
  118.250  231.916   96.518    0.576    0.383    7.194
  118.500  233.977   92.775    0.582    0.388    8.218
  118.750  233.964   87.165    0.531    0.399   10.728
  119.000  232.910   84.045    0.514    0.416   12.492
  119.250  230.819   85.904    0.521    0.428   13.225
  119.500  228.731   87.764    0.538    0.421   13.224
  119.750  228.714   84.642    0.549    0.422   14.000
  120.000  227.667   79.029    0.542    0.442   15.693
  120.250  227.653   76.534    0.521    0.449   14.820
  120.500  227.644   70.921    0.527    0.444   13.996
  120.750  226.590   68.425    0.520    0.445   12.724
  121.000  225.539   64.060    0.500    0.454   11.349
  121.250  225.529   60.317    0.491    0.455   10.317
  121.500  225.512   53.462    0.482    0.442    9.559
  121.750  225.503   49.719    0.493    0.429    8.690
  122.000  225.489   52.201    0.509    0.438    8.365
  122.250  225.476   54.683    0.523    0.447    7.750
  122.500  226.500   59.031    0.527    0.455    7.046
  122.750  226.487   61.515    0.540    0.464    6.654
  123.000  227.505   67.728    0.529    0.448    6.165
  123.250  227.488   72.702    0.530    0.432    5.934
  123.500  227.482   77.674    0.543    0.448    5.712
  123.750  227.465   80.774    0.547    0.461    5.603
  124.000  227.452   80.768    0.554    0.456    5.821
  124.250  227.442   80.140    0.553    0.436    6.280
  124.500  227.426   88.846    0.547    0.434    6.524
  124.750  227.412   92.571    0.566    0.441    6.906
  125.000  229.477   93.186    0.578    0.449    7.174
  125.250  230.502   91.311    0.567    0.449    7.595
  125.500  228.413   88.192    0.577    0.439    7.740
  125.750  228.400   84.449    0.589    0.422    7.740
  126.000  230.462   83.197    0.586    0.411    7.739
  126.250  232.524   83.187    0.577    0.410    7.738
  126.500  234.582   85.048    0.557    0.415    7.886
  126.750  234.562   87.528    0.586    0.423    8.037
  127.000  234.556   86.275    0.594    0.436    8.036
  127.250  233.502   76.930    0.602    0.453    8.035
  127.500  232.448   69.453    0.591    0.470    7.883
  127.750  231.400   70.689    0.542    0.446    7.882
  128.000  230.353   75.039    0.506    0.393    7.732
  128.250  230.340   81.256    0.534    0.395    7.732
  128.500  232.402   86.226    0.541    0.426    7.731
  128.750  234.460   87.461    0.551    0.417    7.730
  129.000  234.447   87.457    0.540    0.416    7.729
  129.250  233.396   87.447    0.535    0.419    7.728
  129.500  231.305   87.441    0.552    0.417    7.728
  129.750  230.261   84.943    0.571    0.410    7.727
  130.000  229.203   86.180    0.553    0.395    7.726
  130.250  229.193   88.662    0.542    0.359    7.437
  130.500  228.136   85.542    0.525    0.326    7.296
  130.750  228.129   81.797    0.523    0.346    7.295
  131.000  228.110   83.656    0.543    0.403    7.434
  131.250  228.103   87.383    0.568    0.416    7.577
  131.500  229.127   87.998    0.578    0.416    7.722
  131.750  231.189   89.858    0.556    0.411    7.721
  132.000  235.326   91.095    0.551    0.403    7.720
  132.250  235.309   89.219    0.571    0.392    7.431
  132.500  233.218   85.474    0.572    0.415    7.290
  132.750  231.133   83.599    0.555    0.424    7.572
  133.000  230.086   83.591    0.529    0.427    7.865
  133.250  227.994   85.451    0.523    0.427    8.327
  133.500  226.947   87.935    0.588    0.423    8.326
  133.750  225.893   86.682    0.590    0.414    8.014
  134.000  225.876   84.806    0.584    0.425    7.568
  134.250  225.866   82.927    0.559    0.446    7.013
  134.500  226.891   84.166    0.554    0.423    6.498
  134.750  228.952   86.024    0.556    0.413    6.021
  135.000  229.977   87.261    0.555    0.412    5.473
  135.250  233.076   84.765    0.548    0.336    4.882
  135.500  234.100   78.532    0.539    0.251    4.438
  135.750  234.083   81.636    0.530    0.267    4.437
  136.000  233.033   90.343    0.572    0.325    4.522
  136.250  230.941   97.805    0.588    0.374    4.788
