~VERSION INFORMATION
 VERS.                 2.0:   CWLS LOG ASCII STANDARD -VERSION 2.0
 WRAP.                  NO:   ONE LINE PER DEPTH STEP
~WELL INFORMATION BLOCK
#MNEM.UNIT           DATA                    DESCRIPTION OF MNEMONIC
#---------    -------------------            -------------------------------
# Generated from Intellog Unique Number	CW_73_75/WELL/1041
WELL.         11-18-075-23W4                 : Well_name    - WELL
LOC .         00/11-18-075-23W4/0            : Location     - LOCATION
UWI .         00/11-18-075-23W4/0            : Uwi          - UNIQUE WELL ID
ENTR.         JAYE                           : Entered      - ENTERED BY
SRVC.         SCHLUMBERGER                   : Scn          - SERVICE COMPANY
DATE.         23 FEB 77                      : Date         - LOG DATE
STRT.M        408.432                        : top_depth    - START DEPTH
STOP.M        606.432                        : bot_depth    - STOP DEPTH
STEP.M        0.25                           : increment    - STEP LENGTH
 NULL. -999.2500:NULL Value
~CURVE INFORMATION BLOCK
#MNEM UNIT       ERCB CURVE CODE    CURVE DESCRIPTION
#-----------   ------------------   ----------------------------------
DEPT.M        00 001 00 00         : DEPTH        - DEPTH
ILD .OHMM     00 120 00 00         : RESD         - DEEP RESISTIVITY (DIL)
GR  .API      00 310 00 00         : GR           - GAMMA RAY
CALI.MM       00 280 01 00         : CAL          - CALIPER
NPHI.V/V      00 330 00 00         : PHIN         - NEUTRON POROSITY (SANDSTONE)
DPHI.V/V      00 890 00 00         : PHID         - DENSITY POROSITY (SANDSTONE)
~PARAMETER INFORMATION
#MNEM.UNIT           DATA             DESCRIPTION OF MNEMONIC
#---------         -----------     ------------------------------
GL  .M        694.213              : gl           - GROUND LEVEL ELEVATION
EREF.M        698.906              : kb           - ELEVATION OF DEPTH REFERENCE
DATM.M        694.213              : datum        - DATUM ELEVATION
TDD .M        605.942              : tdd          - TOTAL DEPTH DRILLER
RUN .         ONE                  : Run          - RUN NUMBER
ENG .         SEDGWICK             : Engineer     - RECORDING ENGINEER
WIT .         BRAUN                : Witness      - WITNESSED BY
BASE.         EDM                  : Branch       - HOME BASE OF LOGGING UNIT
MUD .         GEL                  : Mud_type     - MUD TYPE
MATR.         SANDSTONE            : Logunit      - NEUTRON MATRIX
TMAX.C        28.8889              : BHT          - MAXIMUM RECORDED TEMPERATURE
BHTD.M        605.942              : BHTDEP       - MAXIMUM RECORDED TEMPERATURE
RMT .C        15.5556              : MDTP         - TEMPERATURE OF MUD
MUDD.KG/M     1104                 : MWT          - MUD DENSITY
NEUT.         1                    : NEUTRON      - NEUTRON TYPE
RESI.         0                    : RESIST       - RESISTIVITY TYPE
RM  .OHMM     5.18                 : RM           - RESISTIVITY OF MUD
RMC .OHMM     3.16                 : RMC          - RESISTIVITY OF MUD CAKE
RMF .OHMM     5.47                 : RMF          - RESISTIVITY OF MUD FILTRATE
SUFT.C        -17.7778             : SUFT         - SURFACE TEMPERATURE
~A  DEPTH     RESD       GR      CAL     PHIN     PHID
# ...
  444.932    5.861  101.758  235.874    0.425    0.178
  445.182    5.847  102.902  235.508    0.438    0.129
  445.432    5.941  107.159  235.241    0.444    0.140
  445.682    6.276  103.834  239.083    0.441    0.156
  445.932    6.652   93.369  236.717    0.427    0.156
  446.182    7.131   85.760  232.455    0.375    0.129
  446.432    7.518   78.953  229.561    0.362    0.165
  446.682    7.680   66.809  228.040    0.361    0.233
  446.932    7.439   61.311  226.300    0.385    0.215
  447.182    7.113   55.690  224.563    0.400    0.230
  447.432    6.838   50.998  223.351    0.409    0.250
  447.682    6.550   50.531  223.090    0.413    0.271
  447.932    6.366   52.924  222.302    0.415    0.270
  448.182    6.144   54.382  223.084    0.418    0.261
  448.432    6.061   58.452  226.188    0.420    0.277
  448.682    5.979   65.191  225.192    0.421    0.259
  448.932    5.921   69.946  222.821    0.417    0.236
  449.182    5.949   72.582  221.931    0.412    0.205
  449.432    5.979   74.169  222.294    0.419    0.207
  449.682    5.986   71.524  223.507    0.415    0.232
  449.932    5.949   67.020  224.609    0.392    0.245
  450.182    5.913   67.675  224.765    0.358    0.233
  450.432    5.887   70.567  224.818    0.362    0.211
  450.682    5.841   73.140  224.349    0.381    0.176
  450.932    5.814   58.510  223.971    0.395    0.205
  451.182    5.789   44.875  224.028    0.403    0.237
  451.432    5.535   38.567  224.286    0.410    0.256
  451.682    5.410   34.685  224.344    0.387    0.290
  451.932    5.337   35.337  224.493    0.378    0.291
  452.182    5.236   37.665  224.545    0.381    0.305
  452.432    5.100   37.514  224.609    0.393    0.296
  452.682    5.088   34.313  224.447    0.410    0.299
  452.932    5.121   32.169  224.280    0.422    0.308
  453.182    5.176   31.827  224.021    0.428    0.314
  453.432    5.230   33.098  223.973    0.425    0.313
  453.682    5.333   35.613  224.020    0.423    0.306
  453.932    5.500   39.122  223.966    0.427    0.295
  454.182    5.640   43.564  223.910    0.429    0.288
  454.432    5.805   47.696  224.073    0.434    0.295
  454.682    5.997   44.433  224.752    0.445    0.304
  454.932    6.093   46.328  228.694    0.443    0.309
  455.182    6.191   49.776  242.420    0.405    0.297
  455.432    6.303   51.607  230.487    0.393    0.268
  455.682    6.416   53.439  224.538    0.390    0.238
  455.932    6.519   57.881  223.859    0.393    0.251
  456.182    6.588   62.570  226.011    0.396    0.251
  456.432    6.644   68.689  228.901    0.399    0.240
  456.682    6.676   77.042  230.013    0.420    0.232
  456.932    6.684   83.532  230.060    0.450    0.222
  457.182    6.668   81.948  229.477    0.476    0.240
  457.432    6.663   80.923  225.952    0.480    0.265
  457.682    6.586   81.887  223.480    0.464    0.285
  457.932    6.461   82.477  223.639    0.448    0.301
  458.182    6.269   84.432  224.427    0.444    0.265
  458.432    6.061   88.873  226.057    0.458    0.253
  458.682    5.774   87.167  227.475    0.452    0.249
  458.932    5.530   84.896  229.634    0.452    0.247
  459.182    5.307   85.179  230.522    0.454    0.238
  459.432    5.149   88.564  228.264    0.430    0.246
  459.682    4.987   95.302  226.003    0.431    0.260
  459.932    4.901   96.387  225.312    0.449    0.243
  460.182    4.800   93.500  225.580    0.450    0.239
  460.432    4.700   96.144  226.052    0.442    0.237
  460.682    4.604   99.275  227.478    0.438    0.233
  460.932    4.566  102.907  229.833    0.427    0.225
  461.182    4.598  106.730  234.307    0.435    0.209
  461.432    4.776  108.932  239.194    0.457    0.190
  461.682    5.205  103.127  241.349    0.483    0.219
  461.932    5.886   98.060  238.777    0.491    0.246
  462.182    6.461   93.743  233.039    0.477    0.303
  462.432    6.410   96.259  229.095    0.436    0.266
  462.682    6.162  102.316  229.779    0.422    0.231
  462.932    5.796  106.884  230.986    0.439    0.195
  463.182    5.541  108.216  232.618    0.455    0.162
  463.432    5.317  109.055  233.827    0.463    0.165
  463.682    5.112  110.078  234.085    0.444    0.190
  463.932    4.979  110.357  233.091    0.435    0.209
  464.182    4.957  109.458  229.563    0.458    0.190
  464.432    5.102  107.561  236.454    0.472    0.188
  464.682    5.459  103.619  233.667    0.474    0.217
  464.932    5.949   95.385  226.667    0.461    0.284
  465.182    6.531   86.222  225.252    0.437    0.305
  465.432    6.735   78.117  225.302    0.425    0.308
  465.682    6.381   74.728  225.682    0.415    0.287
  465.932    6.033   78.922  226.051    0.424    0.266
  466.182    5.684   83.798  226.530    0.421    0.271
  466.432    5.395   87.182  226.783    0.409    0.288
  466.682    5.234   86.842  227.030    0.426    0.292
  466.932    5.163   85.074  227.196    0.435    0.285
  467.182    5.171   84.666  227.247    0.441    0.259
  467.432    5.129   87.494  226.662    0.450    0.267
  467.682    4.966   87.712  226.503    0.462    0.281
  467.932    4.628   85.567  227.082    0.475    0.279
  468.182    4.102   84.229  229.239    0.484    0.268
  468.432    3.663   86.249  232.022    0.494    0.248
  468.682    3.376   90.752  238.177    0.505    0.255
  468.932    3.449   89.167  237.074    0.513    0.272
  469.182    3.704   84.354  227.027    0.468    0.291
  469.432    4.127   82.396  222.761    0.440    0.299
  469.682    4.718   86.277  220.396    0.413    0.304
  469.932    5.465   88.232  221.924    0.418    0.311
  470.182    5.848   86.029  224.397    0.427    0.293
  470.432    6.064   84.504  226.024    0.434    0.263
  470.682    6.275   84.475  227.229    0.439    0.227
  470.932    6.652   83.697  229.071    0.437    0.183
  471.182    7.104   81.801  231.018    0.336    0.154
  471.432    7.367   78.915  232.222    0.317    0.131
  471.682    7.445   78.135  232.699    0.345    0.159
  471.932    7.494   74.315  229.908    0.369    0.183
  472.182    7.657   72.238  230.491    0.393    0.185
  472.432    8.027   71.150  231.799    0.326    0.026
  472.682    9.488   69.128  232.903    0.256    0.028
  472.932   11.851   67.045  233.165    0.230    0.023
  473.182   13.012   67.759  233.014    0.209    0.017
  473.432   12.649   70.213  232.758    0.245    0.044
  473.682   11.634   75.833  232.803    0.290    0.084
  473.932   10.372   83.133  232.533    0.312    0.098
  474.182    9.229   88.443  232.172    0.337    0.101
  474.432    8.210   94.748  232.015    0.333    0.104
  474.682    7.278  103.103  232.056    0.353    0.126
  474.932    6.369  108.475  232.117    0.373    0.178
  475.182    5.625  114.471  232.380    0.392    0.195
  475.432    5.449  117.733  232.424    0.416    0.194
  475.682    5.494  120.185  232.491    0.437    0.174
  475.932    5.553  122.020  233.057    0.431    0.167
  476.182    5.508  121.923  233.420    0.412    0.155
  476.432    5.355  123.133  233.795    0.416    0.163
  476.682    5.243  126.829  234.162    0.430    0.179
  476.932    5.135  130.339  234.312    0.419    0.187
  477.182    5.011  132.605  236.151    0.408    0.160
  477.432    4.916  134.129  237.476    0.403    0.160
  477.682    4.850  133.664  237.729    0.407    0.160
  477.932    4.768  133.319  237.891    0.403    0.153
  478.182    4.703  137.822  237.840    0.395    0.149
  478.432    4.682  147.604  238.725    0.355    0.147
  478.682    4.670  159.189  239.311    0.353    0.146
  478.932    4.641  171.396  239.576    0.382    0.150
  479.182    4.638  180.497  239.940    0.379    0.172
  479.432    4.586  156.301  240.407    0.364    0.192
  479.682    4.574  120.984  240.880    0.340    0.163
  479.932    4.612  117.039  241.982    0.317    0.158
  480.182    4.712  124.027  242.777    0.311    0.166
  480.432    4.797  136.792  242.202    0.335    0.170
  480.682    4.829  145.955  242.035    0.355    0.169
  480.932    4.827  150.584  242.517    0.343    0.169
  481.182    4.806  140.243  243.189    0.316    0.171
