~VERSION INFORMATION
 VERS.                 2.0:   CWLS LOG ASCII STANDARD -VERSION 2.0
 WRAP.                  NO:   ONE LINE PER DEPTH STEP
~WELL INFORMATION BLOCK
#MNEM.UNIT           DATA                    DESCRIPTION OF MNEMONIC
#---------    -------------------            -------------------------------
# Generated from Intellog Unique Number	CS_77_79/WELL/997
WELL.         HOME OIL COMPANY LIMITED       : Well_name    - WELL
LOC .         00/11-21-077-07W4/0            : Location     - LOCATION
UWI .         00/11-21-077-07W4/0            : Uwi          - UNIQUE WELL ID
ENTR.         SP                             : Entered      - ENTERED BY
SRVC.         SCHLUMBERGER                   : Scn          - SERVICE COMPANY
STRT.M        124.968                        : top_depth    - START DEPTH
STOP.M        354.218                        : bot_depth    - STOP DEPTH
STEP.M        0.25                           : increment    - STEP LENGTH
 NULL. -999.2500:NULL Value
~CURVE INFORMATION BLOCK
#MNEM UNIT       ERCB CURVE CODE    CURVE DESCRIPTION
#-----------   ------------------   ----------------------------------
DEPT.M        00 001 00 00         : DEPTH        - DEPTH
RHOB.KG/M3    00 350 00 00         : DENS         - BULK DENSITY
GR  .API      00 310 00 00         : GR           - GAMMA RAY
DPHI.V/V      00 890 00 00         : PHID         - DENSITY POROSITY (SANDSTONE)
NPHI.V/V      00 330 00 00         : PHIN         - NEUTRON POROSITY (SANDSTONE)
ILD .OHMM     00 120 00 00         : RESD         - DEEP RESISTIVITY (DIL)
~PARAMETER INFORMATION
#MNEM.UNIT           DATA             DESCRIPTION OF MNEMONIC
#---------         -----------     ------------------------------
GL  .M        556.4                : gl           - GROUND LEVEL ELEVATION
EREF.M        560.4                : kb           - ELEVATION OF DEPTH REFERENCE
DATM.M        571.652              : datum        - DATUM ELEVATION
TDD .M        389.534              : tdd          - TOTAL DEPTH DRILLER
RUN .         ONE                  : Run          - RUN NUMBER
ENG .         BILL                 : Engineer     - RECORDING ENGINEER
WIT .         JIM                  : Witness      - WITNESSED BY
MUD .         GEL                  : Mud_type     - MUD TYPE
MATR.         SANDSTONE            : Logunit      - NEUTRON MATRIX
TMAX.C        23.3333              : BHT          - MAXIMUM RECORDED TEMPERATURE
BHTD.M        389.534              : BHTDEP       - MAXIMUM RECORDED TEMPERATURE
MATR.         1                    : LOGUNIT      - NEUTRON MATRIX
RMT .C        25                   : MDTP         - TEMPERATURE OF MUD
NEUT.         1                    : NEUTRON      - NEUTRON TYPE
RESI.         0                    : RESIST       - RESISTIVITY TYPE
RMC .OHMM     0.25                 : RMC          - RESISTIVITY OF MUD CAKE
RMF .OHMM     0.25                 : RMF          - RESISTIVITY OF MUD FILTRATE
SUFT.C        15                   : SUFT         - SURFACE TEMPERATURE
~A  DEPTH     DENS       GR     PHID     PHIN     RESD
# ...
  161.468    0.000   71.642    0.259    0.431   14.732
  161.718    0.000   70.980    0.267    0.431   14.925
  161.968    0.000   70.042    0.237    0.442   14.040
  162.218    0.000   68.888    0.243    0.438   13.178
  162.468    0.000   72.334    0.244    0.434   12.127
  162.718    0.000   78.197    0.234    0.434   10.946
  162.968    0.000   85.493    0.239    0.445   10.022
  163.218    0.000   89.085    0.219    0.459    8.529
  163.468    0.000  103.665    0.136    0.480    7.550
  163.718    0.000  113.589    0.071    0.494    6.714
  163.968    0.000  113.411    0.095    0.490    6.340
  164.218    0.000  115.420    0.124    0.481    5.871
  164.468    0.000  120.262    0.134    0.490    5.831
  164.718    0.000  120.061    0.140    0.498    5.829
  164.968    0.000  120.274    0.117    0.510    5.861
  165.218    0.000  121.280    0.104    0.514    6.319
  165.468    0.000  119.323    0.133    0.516    6.489
  165.718    0.000  117.450    0.154    0.527    7.204
  165.968    0.000  118.844    0.179    0.538    8.499
  166.218    0.000  118.310    0.201    0.521   10.511
  166.468    0.000  112.348    0.237    0.505   11.811
  166.718    0.000  103.125    0.237    0.478   12.292
  166.968    0.000  100.390    0.233    0.442   12.168
  167.218    0.000   99.297    0.225    0.453   11.751
  167.468    0.000   99.763    0.226    0.457   11.211
  167.718    0.000  102.170    0.226    0.455   11.471
  167.968    0.000  103.027    0.221    0.461   12.309
  168.218    0.000  102.018    0.207    0.473   12.864
  168.468    0.000   99.575    0.219    0.490   13.696
  168.718    0.000   87.864    0.231    0.444   14.246
  168.968    0.000   77.528    0.234    0.422   14.926
  169.218    0.000   68.103    0.237    0.392   15.127
  169.468    0.000   63.408    0.219    0.390   15.319
  169.718    0.000   69.894    0.221    0.396   15.573
  169.968    0.000   72.230    0.224    0.405   16.328
  170.218    0.000   67.518    0.240    0.410   16.477
  170.468    0.000   63.538    0.269    0.413   16.840
  170.718    0.000   63.591    0.264    0.412   16.361
  170.968    0.000   67.288    0.259    0.413   14.409
  171.218    0.000   69.344    0.263    0.410   12.694
  171.468    0.000   72.107    0.241    0.417   11.464
  171.718    0.000   76.548    0.195    0.417   10.774
  171.968    0.000   83.023    0.199    0.407    9.957
  172.218    0.000   87.081    0.201    0.414    9.195
  172.468    0.000   92.026    0.195    0.419    8.524
  172.718    0.000   99.912    0.180    0.428    7.721
  172.968    0.000  107.453    0.167    0.447    7.106
  173.218    0.000  111.653    0.127    0.468    6.900
  173.468    0.000  107.629    0.102    0.489    6.529
  173.718    0.000  111.188    0.136    0.485    6.441
  173.968    0.000  114.732    0.169    0.480    6.634
  174.218    0.000  114.233    0.169    0.486    6.845
  174.468    0.000  113.280    0.169    0.482    7.280
  174.718    0.000  109.246    0.175    0.469    7.664
  174.968    0.000  107.176    0.180    0.456    8.231
  175.218    0.000  112.043    0.186    0.462    8.767
  175.468    0.000  110.375    0.196    0.448    8.845
  175.718    0.000  105.143    0.200    0.446    8.505
  175.968    0.000  103.994    0.190    0.442    8.272
  176.218    0.000  104.829    0.179    0.435    7.601
  176.468    0.000  110.337    0.175    0.435    7.191
  176.718    0.000  115.751    0.160    0.443    7.095
  176.968    0.000  116.843    0.163    0.455    7.552
  177.218    0.000  111.626    0.178    0.464    8.374
  177.468    0.000  103.364    0.135    0.471    9.807
  177.718    0.000   95.652    0.060    0.478   10.445
  177.968    0.000   89.110    0.057    0.436   10.598
  178.218    0.000   83.468    0.093    0.405   10.462
  178.468    0.000   91.311    0.193    0.426   10.007
  178.718    0.000   98.471    0.221    0.458    9.818
  178.968    0.000  102.056    0.208    0.461    9.865
  179.218    0.000  107.890    0.202    0.458   10.185
  179.468    0.000  107.489    0.197    0.441   10.498
  179.718    0.000  104.826    0.204    0.430   10.827
  179.968    0.000  100.325    0.215    0.433   10.973
  180.218    0.000   96.804    0.223    0.437   10.983
  180.468    0.000   96.388    0.208    0.462   10.716
  180.718    0.000   98.451    0.198    0.477   10.552
  180.968    0.000   98.272    0.191    0.462   10.612
  181.218    0.000   97.660    0.193    0.453   10.943
  181.468    0.000   97.296    0.196    0.451   11.536
  181.718    0.000   94.168    0.236    0.450   12.795
  181.968    0.000   81.153    0.281    0.420   14.757
  182.218    0.000   67.624    0.306    0.378   18.181
  182.468    0.000   58.748    0.304    0.361   19.677
  182.718    0.000   54.425    0.291    0.379   19.864
  182.968    0.000   58.500    0.277    0.391   19.480
  183.218    0.000   63.428    0.276    0.406   19.071
  183.468    0.000   65.194    0.270    0.410   19.100
  183.718    0.000   65.843    0.263    0.412   18.979
  183.968    0.000   67.951    0.264    0.430   14.775
  184.218    0.000   71.414    0.249    0.450    9.341
  184.468    0.000   77.288    0.234    0.464    7.234
  184.718    0.000   90.027    0.189    0.487    5.657
  184.968    0.000   94.584    0.184    0.498    6.373
  185.218    0.000   87.058    0.197    0.507    7.045
  185.468    0.000   80.037    0.208    0.466    8.650
  185.718    0.000   74.562    0.203    0.434   11.584
  185.968    0.000   69.646    0.207    0.421   14.584
  186.218    0.000   67.303    0.219    0.412   17.508
  186.468    0.000   65.195    0.229    0.424   19.242
  186.718    0.000   63.905    0.242    0.433   20.595
  186.968    0.000   61.759    0.247    0.441   21.923
  187.218    0.000   61.636    0.241    0.447   22.641
  187.468    0.000   61.608    0.247    0.440   23.341
  187.718    0.000   61.182    0.251    0.420   24.056
  187.968    0.000   60.310    0.259    0.408   24.785
  188.218    0.000   60.356    0.268    0.405   25.551
  188.468    0.000   61.153    0.272    0.416   25.805
  188.718    0.000   61.333    0.267    0.413   26.534
  188.968    0.000   61.495    0.258    0.413   26.497
  189.218    0.000   62.482    0.249    0.428   26.770
  189.468    0.000   63.449    0.255    0.449   26.934
  189.718    0.000   64.671    0.265    0.460   27.422
  189.968    0.000   61.713    0.266    0.454   27.715
  190.218    0.000   59.443    0.269    0.449   28.008
  190.468    0.000   57.970    0.272    0.442   28.518
  190.718    0.000   56.894    0.277    0.427   28.686
  190.968    0.000   57.273    0.285    0.414   28.987
  191.218    0.000   58.229    0.299    0.414   28.926
  191.468    0.000   59.082    0.301    0.409   29.577
  191.718    0.000   59.021    0.300    0.399   29.500
  191.968    0.000   58.982    0.297    0.390   29.145
  192.218    0.000   59.931    0.298    0.389   28.981
  192.468    0.000   61.343    0.299    0.390   28.419
  192.718    0.000   62.938    0.301    0.392   28.105
  192.968   -0.000   64.514    0.292    0.398   27.875
  193.218    0.000   64.968    0.288    0.404   27.375
  193.468    0.000   65.510    0.286    0.410   27.111
  193.718    0.000   66.865    0.287    0.395   26.197
  193.968   -0.000   66.776    0.288    0.384   25.307
  194.218   -0.000   67.505    0.293    0.377   24.646
  194.468   -0.000   67.432    0.284    0.384   23.909
  194.718    0.000   67.063    0.285    0.399   23.442
  194.968    0.000   66.140    0.296    0.415   23.457
  195.218   -0.000   66.730    0.307    0.421   23.448
  195.468   -0.000   69.429    0.305    0.423   23.391
  195.718   -0.000   69.433    0.304    0.437   23.891
  195.968    0.000   67.644    0.307    0.440   24.262
  196.218    0.000   62.004    0.301    0.441   24.289
  196.468    0.000   62.461    0.299    0.443   24.291
  196.718   -0.000   62.628    0.303    0.443   24.314
  196.968   -0.000   65.764    0.285    0.438   23.595
  197.218   -0.000   64.834    0.276    0.440   23.384
  197.468    0.000   65.973    0.275    0.442   23.088
  197.718    0.000   68.574    0.282    0.438   22.459
