~VERSION INFORMATION
 VERS.                 2.0:   CWLS LOG ASCII STANDARD -VERSION 2.0
 WRAP.                  NO:   ONE LINE PER DEPTH STEP
~WELL INFORMATION BLOCK
#MNEM.UNIT           DATA                    DESCRIPTION OF MNEMONIC
#---------    -------------------            -------------------------------
# Generated from Intellog Unique Number	CW_76_78/WELL/2587
WELL.         SCURRY ET AL MISTAHAE          : Well_name    - WELL
LOC .         00/13-06-078-01W5/0            : Location     - LOCATION
UWI .         00/13-06-078-01W5/0            : Uwi          - UNIQUE WELL ID
ENTR.         MAX                            : Entered      - ENTERED BY
SRVC.         WESTERN ATLAS                  : Scn          - SERVICE COMPANY
STRT.M        330                            : top_depth    - START DEPTH
STOP.M        585                            : bot_depth    - STOP DEPTH
STEP.M        0.25                           : increment    - STEP LENGTH
 NULL. -999.2500:NULL Value
~CURVE INFORMATION BLOCK
#MNEM UNIT       ERCB CURVE CODE    CURVE DESCRIPTION
#-----------   ------------------   ----------------------------------
DEPT.M        00 001 00 00         : DEPTH        - DEPTH
ILD .OHMM     00 120 00 00         : RESD         - DEEP RESISTIVITY (DIL)
NPHI.V/V      00 330 00 00         : PHIN         - NEUTRON POROSITY (SANDSTONE)
DPHI.V/V      00 890 00 00         : PHID         - DENSITY POROSITY (SANDSTONE)
CALI.MM       00 280 01 00         : CAL          - CALIPER
GR  .API      00 310 00 00         : GR           - GAMMA RAY
~PARAMETER INFORMATION
#MNEM.UNIT           DATA             DESCRIPTION OF MNEMONIC
#---------         -----------     ------------------------------
GL  .M        633.3                : gl           - GROUND LEVEL ELEVATION
EREF.M        637.67               : kb           - ELEVATION OF DEPTH REFERENCE
DATM.M        633.3                : datum        - DATUM ELEVATION
TDD .M        611                  : tdd          - TOTAL DEPTH DRILLER
RUN .         ONE                  : Run          - RUN NUMBER
ENG .         BILL                 : Engineer     - RECORDING ENGINEER
WIT .         JIM                  : Witness      - WITNESSED BY
MUD .         GEL                  : Mud_type     - MUD TYPE
MATR.         SANDSTONE            : Logunit      - NEUTRON MATRIX
TMAX.C        29                   : BHT          - MAXIMUM RECORDED TEMPERATURE
BHTD.M        611                  : BHTDEP       - MAXIMUM RECORDED TEMPERATURE
RMT .C        17                   : MDTP         - TEMPERATURE OF MUD
MUDD.KG/M     1220                 : MWT          - MUD DENSITY
NEUT.         1                    : NEUTRON      - NEUTRON TYPE
RESI.         0                    : RESIST       - RESISTIVITY TYPE
RM  .OHMM     3.7                  : RM           - RESISTIVITY OF MUD
RMC .OHMM     2                    : RMC          - RESISTIVITY OF MUD CAKE
RMF .OHMM     4                    : RMF          - RESISTIVITY OF MUD FILTRATE
SUFT.C        -10                  : SUFT         - SURFACE TEMPERATURE
~A  DEPTH     RESD     PHIN     PHID      CAL       GR
# ...
  366.500    9.307    0.374    0.244  197.692   55.434
  366.750   13.649    0.342    0.252  197.637   56.579
  367.000   15.643    0.342    0.274  198.578   56.252
  367.250   17.766    0.348    0.285  200.480   50.912
  367.500   18.415    0.354    0.285  202.873   49.701
  367.750   18.574    0.355    0.283  205.771   51.730
  368.000   18.229    0.354    0.282  204.720   49.332
  368.250   18.386    0.353    0.282  204.188   48.718
  368.500   18.715    0.356    0.286  204.617   51.034
  368.750   19.401    0.357    0.290  205.537   52.469
  369.000   20.109    0.359    0.295  205.482   50.677
  369.250   20.658    0.362    0.304  204.943   46.815
  369.500   21.220    0.366    0.313  204.384   46.189
  369.750   21.795    0.369    0.311  203.347   47.624
  370.000   22.388    0.371    0.309  199.848   49.363
  370.250   22.790    0.372    0.304  197.843   49.625
  370.500   23.411    0.373    0.296  197.291   49.882
  370.750   23.615    0.373    0.298  199.683   48.965
  371.000   24.254    0.376    0.304  200.604   48.045
  371.250   24.690    0.379    0.311  200.065   50.667
  371.500   24.903    0.386    0.314  198.032   53.874
  371.750   25.349    0.387    0.318  196.518   52.659
  372.000   25.800    0.384    0.326  195.467   50.850
  372.250   26.023    0.378    0.331  194.921   50.531
  372.500   25.304    0.378    0.332  194.921   52.855
  372.750   23.723    0.386    0.331  194.314   54.581
  373.000   22.657    0.385    0.331  193.768   55.137
  373.250   20.667    0.382    0.334  194.702   56.282
  373.500   19.379    0.370    0.336  197.108   58.610
  373.750   17.841    0.365    0.337  199.501   60.635
  374.000   16.274    0.364    0.343  199.930   60.598
  374.250   15.258    0.369    0.348  198.894   60.859
  374.500   14.840    0.375    0.352  196.875   60.536
  374.750   14.299    0.380    0.350  197.311   57.557
  375.000   14.032    0.381    0.348  202.159   53.396
  375.250   14.154    0.380    0.347  204.074   50.712
  375.500   14.406    0.380    0.347  204.006   51.563
  375.750   14.268    0.382    0.347  204.006   52.111
  376.000   14.268    0.382    0.348  203.889   52.082
  376.250   14.252    0.381    0.347  203.848   52.933
  376.500   13.986    0.381    0.346  203.786   54.368
  376.750   13.727    0.382    0.348  202.749   51.386
  377.000   13.349    0.384    0.351  197.778   49.880
  377.250   13.221    0.387    0.346  196.741   54.270
  377.500   13.214    0.395    0.341  198.166   53.353
  377.750   13.207    0.395    0.339  201.540   55.676
  378.000   13.320    0.391    0.341  202.958   58.585
  378.250   13.433    0.382    0.346  202.412   59.436
  378.500   13.422    0.381    0.350  201.369   58.225
  378.750   13.542    0.379    0.351  199.841   56.420
  379.000   13.661    0.373    0.355  197.324   57.271
  379.250   13.653    0.370    0.360  195.312   55.761
  379.500   13.769    0.370    0.360  194.767   52.492
  379.750   13.889    0.373    0.359  196.178   51.281
  380.000   13.882    0.376    0.357  200.043   50.949
  380.250   14.003    0.379    0.359  201.945   54.451
  380.500   14.253    0.377    0.359  199.927   56.770
  380.750   14.374    0.377    0.358  199.388   59.098
  381.000   14.236    0.379    0.354  201.787   62.600
  381.250   13.972    0.383    0.354  202.714   62.559
  381.500   13.710    0.388    0.358  202.659   63.115
  381.750   13.456    0.390    0.363  203.573   64.260
  382.000   12.848    0.390    0.363  204.002   64.227
  382.250   12.495    0.387    0.360  204.445   62.725
  382.500   12.261    0.387    0.355  204.383   60.037
  382.750   12.142    0.388    0.352  204.778   59.411
  383.000   12.249    0.391    0.350  204.764   59.088
  383.250   12.581    0.395    0.346  204.709   59.934
  383.500   12.806    0.395    0.345  204.654   59.304
  383.750   12.800    0.396    0.347  204.108   58.101
  384.000   12.800    0.397    0.350  203.562   54.828
  384.250   12.784    0.396    0.355  202.519   53.019
  384.500   12.548    0.392    0.354  200.998   52.990
  384.750   12.541    0.383    0.351  199.470   50.302
  385.000   12.535    0.384    0.351  198.426   47.908
  385.250   12.643    0.390    0.355  198.371   48.174
  385.500   12.635    0.392    0.358  198.793   51.083
  385.750   12.514    0.390    0.359  198.254   54.294
  386.000   12.507    0.384    0.358  197.218   52.489
  386.250   12.501    0.383    0.359  196.665   51.565
  386.500   12.269    0.387    0.359  197.599   53.602
  386.750   11.930    0.394    0.360  197.544   60.639
  387.000   11.816    0.395    0.357  195.995   62.369
  387.250   12.025    0.385    0.352  194.958   58.511
  387.500   12.468    0.382    0.345  196.376   51.993
  387.750   13.652    0.381    0.342  199.281   50.193
  388.000   14.152    0.375    0.341  202.656   52.218
  388.250   14.406    0.368    0.338  203.583   56.014
  388.500   14.662    0.374    0.337  203.037   54.799
  388.750   14.654    0.378    0.338  201.509   55.060
  389.000   14.646    0.379    0.340  197.990   54.733
  389.250   14.374    0.379    0.338  196.967   51.161
  389.500   13.978    0.370    0.331  196.919   48.178
  389.750   13.716    0.367    0.330  196.373   48.448
  390.000   13.585    0.375    0.333  195.813   49.875
  390.250   13.210    0.380    0.337  194.776   52.203
  390.500   13.085    0.376    0.341  194.224   60.128
  390.750   12.841    0.379    0.344  193.678   64.804
  391.000   12.486    0.383    0.347  193.623   64.476
  391.250   12.142    0.389    0.351  194.550   63.564
  391.500   11.809    0.393    0.355  196.458   63.825
  391.750   11.483    0.397    0.364  197.876   62.610
  392.000   11.065    0.401    0.371  196.833   59.337
  392.250   10.566    0.404    0.374  195.312   54.586
  392.500   10.182    0.405    0.371  195.257   56.321
  392.750   10.084    0.402    0.361  195.686   56.877
  393.000   10.079    0.402    0.361  195.624   54.782
  393.250   10.073    0.405    0.365  195.569   53.272
  393.500   10.347    0.405    0.367  193.053   56.181
  393.750   10.726    0.402    0.363  188.102   56.148
  394.000   11.018    0.401    0.358  181.160   58.770
  394.250   10.911    0.405    0.358  182.080   59.326
  394.500   10.807    0.407    0.358  184.984   59.882
  394.750   10.510    0.407    0.361  187.875   61.899
  395.000    9.853    0.406    0.365  186.334   63.932
  395.250    9.495    0.406    0.366  183.340   68.023
  395.500    9.150    0.405    0.365  183.285   68.878
  395.750    9.061    0.402    0.361  184.205   65.899
  396.000    9.057    0.402    0.356  184.143   62.323
  396.250    8.970    0.408    0.350  184.081   67.008
  396.500    8.487    0.422    0.351  183.045   72.567
  396.750    7.534    0.435    0.354  183.474   75.484
  397.000    5.178    0.421    0.339  184.898   74.265
  397.250    4.554    0.311    0.294  190.251   67.457
  397.500    5.565    0.249    0.240  196.571   60.653
  397.750    6.676    0.238    0.168  199.953   52.069
  398.000    8.306    0.242    0.134  199.407   50.273
  398.250   10.242    0.258    0.128  195.909   48.758
  398.500   11.738    0.264    0.130  192.424   56.090
  398.750   11.006    0.278    0.125  193.351   64.019
  399.000    9.859    0.320    0.164  186.409   73.412
  399.250    7.914    0.351    0.275  182.420   78.681
  399.500    7.090    0.380    0.273  182.378   81.594
  399.750    6.769    0.390    0.261  187.724   85.980
  400.000    7.018    0.394    0.246  186.189   87.121
  400.250    6.949    0.399    0.241  185.643   85.909
  400.500    6.397    0.405    0.239  189.509   84.989
  400.750    6.109    0.413    0.238  189.461   84.960
  401.000    6.162    0.415    0.234  187.919   86.985
  401.250    6.272    0.416    0.236  188.362   90.483
  401.500    6.384    0.421    0.237  188.792   90.748
  401.750    6.498    0.423    0.238  188.246   90.715
  402.000    6.495    0.428    0.238  187.700   90.678
  402.250    6.491    0.428    0.237  188.627   88.583
  402.500    6.491    0.421    0.247  190.045   81.182
  402.750    6.423    0.412    0.253  192.438   79.377
