~VERSION INFORMATION
 VERS.                 2.0:   CWLS LOG ASCII STANDARD -VERSION 2.0
 WRAP.                  NO:   ONE LINE PER DEPTH STEP
~WELL INFORMATION BLOCK
#MNEM.UNIT           DATA                    DESCRIPTION OF MNEMONIC
#---------    -------------------            -------------------------------
# Generated from Intellog Unique Number	CN_94_101/WELL/3442
WELL.         PACIFIC PETROLEUMS LTD.        : Well_name    - WELL
LOC .         00/10-08-095-21W4/0            : Location     - LOCATION
UWI .         00/10-08-095-21W4/0            : Uwi          - UNIQUE WELL ID
ENTR.         J                              : Entered      - ENTERED BY
SRVC.         SCHLUMBERGER                   : Scn          - SERVICE COMPANY
DATE.         07/28/92                       : Date         - LOG DATE
STRT.F        1250                           : top_depth    - START DEPTH
STOP.F        1710.14                        : bot_depth    - STOP DEPTH
STEP.F        0.82                           : increment    - STEP LENGTH
 NULL. -999.2500:NULL Value
~CURVE INFORMATION BLOCK
#MNEM UNIT       ERCB CURVE CODE    CURVE DESCRIPTION
#-----------   ------------------   ----------------------------------
DEPT.F        00 001 00 00         : DEPTH        - DEPTH
ILD .OHMM     00 120 00 00         : RESD         - DEEP RESISTIVITY (DIL)
GR  .API      00 310 00 00         : GR           - GAMMA RAY
NPHI.V/V      00 330 00 00         : PHIN         - NEUTRON POROSITY (SANDSTONE)
DPHI.V/V      00 890 00 00         : PHID         - DENSITY POROSITY (SANDSTONE)
~PARAMETER INFORMATION
#MNEM.UNIT           DATA             DESCRIPTION OF MNEMONIC
#---------         -----------     ------------------------------
GL  .F        2678                 : gl           - GROUND LEVEL ELEVATION
EREF.F        7690                 : kb           - ELEVATION OF DEPTH REFERENCE
DATM.F        7690                 : datum        - DATUM ELEVATION
TDD .F        1720                 : tdd          - TOTAL DEPTH DRILLER
RUN .         ONE                  : Run          - RUN NUMBER
ENG .         BILL                 : Engineer     - RECORDING ENGINEER
WIT .         JIM                  : Witness      - WITNESSED BY
MUD .         GEL                  : Mud_type     - MUD TYPE
MATR.         SANDSTONE            : Logunit      - NEUTRON MATRIX
TMAX.F        48                   : BHT          - MAXIMUM RECORDED TEMPERATURE
BHTD.F        1720                 : BHTDEP       - MAXIMUM RECORDED TEMPERATURE
RMT .F        48                   : MDTP         - TEMPERATURE OF MUD
MUDD.LB/G     9.4                  : MWT          - MUD DENSITY
NEUT.         1                    : NEUTRON      - NEUTRON TYPE
RESI.         0                    : RESIST       - RESISTIVITY TYPE
RM  .OHMM     2.65                 : RM           - RESISTIVITY OF MUD
RMC .OHMM     2.65                 : RMC          - RESISTIVITY OF MUD CAKE
RMF .OHMM     2.65                 : RMF          - RESISTIVITY OF MUD FILTRATE
SUFT.F        39.2                 : SUFT         - SURFACE TEMPERATURE
~A  DEPTH     RESD       GR     PHIN     PHID
 1250.000    4.510  109.754    0.564    0.108
 1250.820    4.500  110.892    0.581    0.115
 1251.640    4.490  110.800    0.590    0.124
 1252.460    4.399  110.105    0.597    0.115
 1253.280    4.307  108.134    0.597    0.104
 1254.100    4.295  111.174    0.593    0.117
 1254.920    4.370  114.840    0.586    0.160
 1255.740    4.698  111.594    0.576    0.166
 1256.560    5.351  108.973    0.559    0.138
 1257.380    6.087  108.301    0.522    0.138
 1258.200    6.430  108.209    0.516    0.167
 1259.020    6.061  110.623    0.506    0.177
 1259.840    5.398  111.761    0.494    0.188
 1260.660    5.096  107.888    0.458    0.191
 1261.480    5.277  102.808    0.448    0.191
 1262.300    7.827  102.044    0.437    0.177
 1263.120   10.754  103.251    0.443    0.171
 1263.940   11.136  106.895    0.450    0.181
 1264.760   10.501  108.682    0.462    0.184
 1265.580   10.677  108.590    0.467    0.173
 1266.400   10.653  107.246    0.462    0.169
 1267.220   11.247  106.551    0.455    0.172
 1268.040   11.874  103.930    0.448    0.175
 1268.860   11.627  101.959    0.444    0.179
 1269.690   10.759   98.736    0.442    0.153
 1270.510   10.736   93.633    0.444    0.146
 1271.330   11.775   89.157    0.445    0.151
 1272.150   12.425   89.691    0.451    0.181
 1272.970   11.717   93.335    0.456    0.189
 1273.790   12.845   95.748    0.451    0.175
 1274.610   13.568   96.306    0.446    0.170
 1275.430   14.324   95.588    0.446    0.160
 1276.250   14.564   99.231    0.449    0.169
 1277.070   13.987  100.415    0.455    0.185
 1277.890   13.441   98.421    0.452    0.186
 1278.710   13.168   95.198    0.447    0.184
 1279.530   12.894   93.876    0.451    0.187
 1280.350   12.390   95.037    0.459    0.197
 1281.170   10.436   98.681    0.462    0.188
 1281.990   11.227  101.094    0.464    0.168
 1282.810   12.079  102.905    0.473    0.169
 1283.630   10.564  104.066    0.482    0.179
 1284.450    7.230  105.204    0.491    0.166
 1285.270    6.206  103.882    0.506    0.173
 1286.090    7.064  107.526    0.516    0.182
 1286.910    6.415  106.808    0.530    0.185
 1287.730    5.006  103.607    0.549    0.184
 1288.550    4.905   99.130    0.562    0.184
 1289.370    4.713   94.631    0.555    0.185
 1290.190    4.703   92.034    0.521    0.198
 1291.010    4.872   89.436    0.513    0.221
 1291.830    5.242   85.587    0.496    0.240
 1292.650    7.343   79.857    0.483    0.251
 1293.470   11.735   74.105    0.469    0.254
 1294.290   17.385   73.968    0.457    0.243
 1295.110   17.023   76.404    0.452    0.231
 1295.930   16.053   78.795    0.466    0.240
 1296.750   15.418   78.749    0.482    0.245
 1297.570   14.276   79.284    0.486    0.237
 1298.390   17.194   81.071    0.483    0.223
 1299.210   16.214   83.485    0.484    0.221
 1300.030   14.725   85.921    0.485    0.204
 1300.850   12.632   86.456    0.478    0.190
 1301.670   11.478   85.738    0.474    0.192
 1302.490   10.610   86.899    0.478    0.196
 1303.310   12.091   88.663    0.481    0.202
 1304.130   13.763   91.077    0.484    0.207
 1304.950   10.156   92.238    0.488    0.206
 1305.770    9.945   94.002    0.496    0.193
 1306.590   11.320   95.209    0.501    0.182
 1307.410    9.183   96.347    0.513    0.182
 1308.230    7.040   95.026    0.507    0.185
 1309.060    5.098   93.032    0.490    0.188
 1309.880    5.692   94.842    0.480    0.189
 1310.700    5.577   95.377    0.488    0.193
 1311.520    5.256   92.779    0.495    0.192
 1312.340    5.146   89.533    0.492    0.193
 1313.160    5.332   85.034    0.483    0.203
 1313.980    6.188   84.919    0.476    0.198
 1314.800    7.457   86.126    0.479    0.205
 1315.620   10.246   91.022    0.488    0.215
 1316.440   10.412   93.459    0.509    0.228
 1317.260    9.819   94.620    0.523    0.225
 1318.080    9.435   92.022    0.534    0.212
 1318.900    9.244   86.897    0.528    0.201
 1319.720    8.085   86.178    0.520    0.204
 1320.540    6.432   85.483    0.511    0.201
 1321.360    5.733   82.863    0.496    0.191
 1322.180    7.036   80.266    0.484    0.196
 1323.000    7.154   81.427    0.472    0.176
 1323.820    7.548   84.490    0.477    0.148
 1324.640    8.602   87.530    0.473    0.135
 1325.460    9.972   89.944    0.463    0.148
 1326.280    9.409   91.105    0.461    0.187
 1327.100   13.423   89.111    0.465    0.200
 1327.920   16.484   87.140    0.461    0.216
 1328.740   11.071   85.169    0.456    0.221
 1329.560    8.649   85.704    0.467    0.229
 1330.380    8.794   85.612    0.484    0.231
 1331.200   10.388   84.871    0.500    0.216
 1332.020    8.592   86.055    0.514    0.213
 1332.840    8.098   89.721    0.532    0.217
 1333.660   11.344   91.531    0.571    0.195
 1334.480    5.430   87.635    0.572    0.193
 1335.300    3.258   85.061    0.549    0.197
 1336.120    3.312   82.464    0.495    0.183
 1336.940    4.380   79.867    0.460    0.159
 1337.760    4.807   76.620    0.439    0.113
 1338.580    5.787   74.000    0.459    0.096
 1339.400    8.582   76.459    0.525    0.135
 1340.220   16.556   81.982    0.547    0.182
 1341.040   16.519   85.671    0.572    0.215
 1341.860    7.469   89.315    0.572    0.194
 1342.680    6.059   92.355    0.562    0.169
 1343.500    4.645   94.142    0.549    0.161
 1344.320    5.092   93.424    0.551    0.178
 1345.140    4.712   94.585    0.558    0.170
 1345.960    3.965   97.648    0.567    0.163
 1346.780    4.689   99.436    0.568    0.164
 1347.600    5.979   99.344    0.558    0.180
 1348.430    5.854   99.229    0.543    0.202
 1349.250    4.571  100.390    0.526    0.233
 1350.070    4.920  100.971    0.507    0.227
 1350.890    5.490  101.505    0.495    0.209
 1351.710    6.136   95.730    0.490    0.190
 1352.530    6.858   91.277    0.491    0.184
 1353.350    7.955   88.053    0.503    0.188
 1354.170    7.086   82.278    0.516    0.192
 1354.990    6.561   79.054    0.519    0.170
 1355.810    7.054   75.227    0.505    0.130
 1356.630    7.039   80.146    0.496    0.065
 1357.450    8.324   87.571    0.504    0.102
 1358.270   11.230   91.261    0.514    0.181
 1359.090   11.418   97.433    0.538    0.162
 1359.910    7.244  101.099    0.559    0.161
 1360.730    7.798  104.093    0.573    0.173
 1361.550    7.780  104.047    0.586    0.180
 1362.370    7.196  103.329    0.581    0.166
 1363.190    6.663  102.611    0.567    0.153
 1364.010    5.932  103.123    0.543    0.134
 1364.830    5.815  105.513    0.533    0.138
 1365.650    4.988  106.094    0.532    0.152
 1366.470    5.072  107.881    0.545    0.180
 1367.290    5.883  109.019    0.558    0.190
 1368.110    5.441  109.554    0.571    0.154
 1368.930    5.860  108.836    0.569    0.140
 1369.750    5.622  106.842    0.564    0.145
 1370.570    5.511  105.543    0.550    0.152
 1371.390    5.499  104.176    0.541    0.145
 1372.210    5.483  104.084    0.538    0.146
 1373.030    5.789  104.642    0.543    0.153
 1373.850    6.119  106.406    0.556    0.169
 1374.670    5.985  108.193    0.547    0.180
 1375.490    5.538  109.354    0.550    0.183
 1376.310    5.325  109.912    0.566    0.163
 1377.130    5.414  109.194    0.570    0.149
 1377.950    5.824  106.574    0.561    0.127
 1378.770    6.034  105.229    0.553    0.131
 1379.590    5.905  104.511    0.550    0.135
 1380.410    5.569  104.419    0.537    0.129
 1381.230    5.351  104.350    0.541    0.121
 1382.050    5.139  104.235    0.540    0.165
 1382.870    5.134  103.494    0.534    0.188
 1383.690    5.122  102.150    0.521    0.190
 1384.510    5.208   99.576    0.512    0.197
 1385.330    5.498   96.955    0.500    0.179
 1386.150    5.590   95.611    0.493    0.163
 1386.980    5.902   95.519    0.500    0.162
 1387.800    7.112   97.933    0.512    0.171
 1388.620    8.402   98.467    0.540    0.184
 1389.440    7.635   97.123    0.563    0.188
 1390.260    5.225   94.525    0.551    0.193
 1391.080    4.401   90.653    0.533    0.198
 1391.900    5.007   88.055    0.514    0.180
