~Version Information
VERS.                2.00:
WRAP.                  NO:
~Well Information Block
#MNEM.UNIT       Data Type    Information
#---------    -------------   -------------------
FLD.   :FIELD
FLD.   :FIELD
FLD.   :FIELD
FLD.   :FIELD
STRT.M          1950.0000:
STOP.M          4060.0000:
STEP.M             0.8202:
NULL.           -999.2500:
COMP.  MUTUAL EXPLORATION FUNDS:COMPANY
WELL.  MUTES IOE SEAFORTH:WELL
FLD.   :FIELD
LOC.   15-20-095-20W4:LOCATION
CTRY.  CANADA:COUNTRY
PROV.  ALBERTA:PROVINCE
SRVC.  SCHLUMBERGER:SERVICE COMPANY
DATE.  01 MAR 69:LOG DATE
UWI.   00/15-20-095-20W4/0:UNIQUE WELL ID
~Curve Information Block
#MNEM.UNIT        API CODE    Curve Description
#---------    ------------    -----
DEPT.M                    :   DEPTH
CALI.in                   :   CALI
GR  .API                  :   GR
SNP .V/V                  :   SNP
~A  Depth           CALI          GR         SNP
1950.0000      -999.2500   -999.2500   -999.2500
1950.8202         9.5169     57.6925      0.2525
1951.6404         9.5179     57.4400      0.2203
1952.4606         9.4856     56.7679      0.2159
1953.2808         9.5927     54.6383      0.2380
1954.1010         9.6959     50.8183      0.2589
1954.9212         9.7687     50.2340      0.2292
1955.7414         9.7783     51.3961      0.1557
1956.5616         9.8199     53.4833      0.1448
1957.3818         9.8643     55.8691      0.1588
1958.2020         9.8705     58.0477      0.1783
1959.0222         9.8741     59.8294      0.1852
1959.8424         9.8776     61.5439      0.1799
1960.6626         9.8811     62.8788      0.1711
1961.4828         9.8846     63.4226      0.1626
1962.3030         9.8493     62.0671      0.1729
1963.1232         9.8122     56.8680      0.1695
1963.9434         9.7829     54.2735      0.1661
1964.7636         9.7383     54.6147      0.1627
1965.5838         9.7008     56.7898      0.1553
1966.4040         9.6636     58.2009      0.1492
1967.2242         9.6653     55.9960      0.1539
1968.0444         9.6687     53.0232      0.1541
1968.8646         9.6330     53.1981      0.1508
1969.6848         9.6351     53.5983      0.1460
1970.5050         9.5991     54.0366      0.1425
1971.3252         9.6014     52.4375      0.1390
1972.1454         9.6049     52.5400      0.1461
1972.9656         9.6084     53.7347      0.1492
1973.7858         9.6119     54.5368      0.1503
1974.6060         9.6154     54.3221      0.1483
1975.4262         9.6189     52.9339      0.1507
1976.2464         9.6223     51.0579      0.1489
1977.0666         9.5932     47.8246      0.1515
1977.8868         9.5902     43.5438      0.1482
1978.7070         9.5654     39.3217      0.1403
1979.5272         9.5577     37.2139      0.1327
1980.3474         9.5590     41.3869      0.1258
1981.1676         9.5621     45.1949      0.1184
1981.9878         9.5656     40.9180      0.1142
1982.8080         9.5690     38.1441      0.1226
1983.6282         9.5910     39.9761      0.1324
1984.4484         9.6129     43.0307      0.1302
1985.2686         9.6190     45.6888      0.1282
1986.0888         9.6233     46.8469      0.1308
1986.9090         9.6270     48.8251      0.1308
1987.7292         9.6305     49.1149      0.1274
1988.5494         9.6341     48.8272      0.1234
1989.3696         9.6376     48.8211      0.1226
1990.1898         9.6411     49.2106      0.1297
1991.0100         9.6692     49.2865      0.1384
1991.8302         9.6866     47.9003      0.1377
1992.6504         9.6920     48.1183      0.1400
1993.4706         9.6956     48.5373      0.1447
1994.2908         9.6636     49.3496      0.1447
1995.1110         9.6342     49.0908      0.1478
1995.9312         9.6285     48.0049      0.1491
1996.7514         9.6288     48.6609      0.1486
1997.5716         9.6617     49.0460      0.1508
1998.3918         9.6749     49.5671      0.1508
1999.2120         9.7162     50.4019      0.1501
2000.0322         9.7233     51.2607      0.1507
2000.8524         9.6902     50.0897      0.1498
2001.6726         9.6903     49.3876      0.1497
2002.4928         9.6936     50.1507      0.1490
2003.3130         9.7346     51.8075      0.1475
2004.1332         9.7409     54.5228      0.1472
2004.9534         9.7828     57.1150      0.1484
2005.7736         9.7882     60.7839      0.1776
2006.5938         9.8309     65.4302      0.2115
2007.4140         9.8360     63.2470      0.2178
2008.2342         9.8010     63.7957      0.2179
2009.0544         9.8028     64.2504      0.2146
2009.8746         9.8457     64.6967      0.2132
2010.6948         9.8504     60.4539      0.2408
2011.5150         9.8539     57.8924      0.2584
2012.3352         9.8574     58.2793      0.2614
2013.1554         9.8609     58.7174      0.2570
2013.9756         9.7449     55.6807      0.2483
2014.7958         9.6512     53.5667      0.2406
2015.6160         9.5500     52.5762      0.2297
2016.4362         9.5189     53.1256      0.2207
2017.2564         9.4736     53.9370      0.2243
2018.0766         9.4757     55.8723      0.2176
2018.8968         9.4394     54.7259      0.1963
2019.7170         9.4417     45.7375      0.1826
2020.5372         9.4056     34.8501      0.1701
2021.3574         9.3448     29.1126      0.1478
2022.1776         9.2914     26.7931      0.1172
2022.9978         9.2537     25.4015      0.0784
2023.8180         9.2560     23.2439      0.0573
2024.6382         9.2994     18.9226      0.0486
2025.4584         9.3036     16.0405      0.0567
2026.2786         9.2669     14.4061      0.0592
2027.0988         9.2699     13.7057      0.0573
2027.9190         9.2734     13.4966      0.0565
2028.7392         9.3097     14.6174      0.0576
2029.5594         9.3195     15.5010      0.0598
2030.3796         9.3240     17.1406      0.0621
2031.1998         9.3279     19.6526      0.0699
2032.0200         9.3315     22.0444      0.0808
2032.8402         9.3350     24.9270      0.0919
2033.6604         9.3385     25.4167      0.0970
2034.4806         9.3141     25.2264      0.0984
2035.3008         9.3070     25.1787      0.0960
2036.1210         9.3087     25.2010      0.0907
2036.9412         9.3119     26.2907      0.0870
2037.7614         9.2872     25.4178      0.0895
2038.5816         9.2802     25.6757      0.0852
2039.4018         9.3107     26.0960      0.0817
2040.2220         9.3223     26.9002      0.0811
2041.0422         9.3283     28.8752      0.0804
2041.8624         9.3326     30.9916      0.0787
2042.6826         9.3362     34.3444      0.0798
2043.5028         9.3398     32.1259      0.0919
2044.3230         9.3433     31.6692      0.1063
2045.1432         9.3468     31.6813      0.1197
2045.9634         9.3503     32.1086      0.1193
2046.7836         9.3538     33.3600      0.1130
2047.6038         9.3868     35.3410      0.1117
2048.4240         9.3984     37.5001      0.1102
2049.2442         9.4041     38.9264      0.1102
2050.0644         9.4083     40.0039      0.1223
2050.8846         9.4119     41.1213      0.1359
2051.7048         9.4154     41.6506      0.1358
2052.5250         9.4561     43.2145      0.1343
2053.3452         9.4627     44.5217      0.1341
2054.1654         9.4665     45.8033      0.1419
2054.9856         9.4700     47.8805      0.1517
2055.8058         9.5044     50.0094      0.1678
2056.6260         9.5153     52.2833      0.1810
2057.4462         9.5210     54.2058      0.1932
2058.2664         9.5560     55.9442      0.2080
2059.0866         9.5684     56.2186      0.2154
2059.9068         9.6117     57.3587      0.2138
2060.7270         9.6164     58.6999      0.2092
2061.5472         9.6199     61.0489      0.2034
2062.3674         9.6234     63.9976      0.2050
2063.1876         9.7081     66.5767      0.2155
2064.0078         9.6710     66.9512      0.2374
2064.8280         9.6745     62.4290      0.2531
2065.6482         9.6453     57.1609      0.2758
2066.4684         9.5774     50.2905      0.2889
2067.2886         9.4823     45.2279      0.2791
2068.1088         9.4048     42.1211      0.2619
2068.9290         9.3672     39.0155      0.2283
2069.7492         9.4109     39.2216      0.1701
2070.5694         9.5136     43.7342      0.1444
2071.3896         9.7056     49.7362      0.2580
2072.2098         9.8795     50.9496      0.2781
2073.0300         9.9084     52.2203      0.2848
2073.8502         9.7782     53.8729      0.2575
2074.6704         9.6590     50.5152      0.2046
2075.4906         9.5748     47.7091      0.1499
2076.3108         9.5637     49.0696      0.1310
2077.1310         9.5652     54.1882      0.1436
2077.9512         9.5680     54.2168      0.1657
2078.7714         9.5714     53.1296      0.1968
2079.5916         9.5748     53.4493      0.2211
2080.4118         9.6071     54.1208      0.1976
2081.2320         9.6190     54.7303      0.1707
2082.0522         9.6250     55.7404      0.1897
2082.8724         9.6292     57.2505      0.2088
2083.6926         9.6329     58.9514      0.2278
