~VERSION INFORMATION
 VERS.                 2.0:   CWLS LOG ASCII STANDARD -VERSION 2.0
 WRAP.                  NO:   ONE LINE PER DEPTH STEP
~WELL INFORMATION BLOCK
#MNEM.UNIT           DATA                    DESCRIPTION OF MNEMONIC
#---------    -------------------            -------------------------------
# Generated from Intellog Unique Number	CW_70_72/WELL/3021
NULL.         -999.25                        : NULL_VALUE
WELL.         MANNVILLE ET AL HONDO 10-11    : Well_name    - WELL              
LOC .         10-11-070-02W5                 : Location     - LOCATION          
UWI .         00/10-11-070-02W5/0            : Uwi          - UNIQUE WELL ID    
ENTR.         JAYE                           : Entered      - ENTERED BY        
SRVC.         SCHLUMBERGER                   : Scn          - SERVICE COMPANY   
DATE.         26 MAR 80                      : Date         - LOG DATE          
STRT.M        440                            : top_depth    - START DEPTH       
STOP.M        655                            : bot_depth    - STOP DEPTH        
STEP.M        0.25                           : increment    - STEP LENGTH       
~CURVE INFORMATION BLOCK
#MNEM UNIT       ERCB CURVE CODE    CURVE DESCRIPTION
#-----------   ------------------   ----------------------------------
DEPT.M        00 001 00 00         : DEPTH        - DEPTH                       
ILD .OHMM     00 120 00 00         : RESD         - DEEP RESISTIVITY (DIL)      
CALI.MM       00 280 01 00         : CAL          - CALIPER                     
GR  .API      00 310 00 00         : GR           - GAMMA RAY                   
NPHI.V/V      00 330 00 00         : PHIN         - NEUTRON POROSITY (SANDSTONE)
DPHI.V/V      00 890 00 00         : PHID         - DENSITY POROSITY (SANDSTONE)
~PARAMETER INFORMATION       
#MNEM.UNIT           DATA             DESCRIPTION OF MNEMONIC
#---------         -----------     ------------------------------
GL  .M        593.3                : gl           - GROUND LEVEL ELEVATION      
EREF.M        598.2                : kb           - ELEVATION OF DEPTH REFERENCE
DATM.M        593.3                : datum        - DATUM ELEVATION             
TDD .M        669                  : tdd          - TOTAL DEPTH DRILLER         
RUN .         ONE                  : Run          - RUN NUMBER                  
ENG .         DECKER/MCEWEN        : Engineer     - RECORDING ENGINEER          
WIT .         CONLEY               : Witness      - WITNESSED BY                
BASE.         EDM                  : Branch       - HOME BASE OF LOGGING UNIT   
MUD .         GEL CHEM             : Mud_type     - MUD TYPE                    
MATR.         SANDSTONE            : Logunit      - NEUTRON MATRIX              
TMAX.C        23.3                 : BHT          - MAXIMUM RECORDED TEMPERATURE
BHTD.M        666.5                : BHTDEP       - MAXIMUM RECORDED TEMPERATURE
RMT .C        14.4                 : MDTP         - TEMPERATURE OF MUD          
MUDD.KG/M     1095                 : MWT          - MUD DENSITY                 
NEUT.         1                    : NEUTRON      - NEUTRON TYPE                
RESI.         0                    : RESIST       - RESISTIVITY TYPE            
RM  .OHMM     3.21                 : RM           - RESISTIVITY OF MUD          
RMC .OHMM     0.25                 : RMC          - RESISTIVITY OF MUD CAKE     
RMF .OHMM     3.02                 : RMF          - RESISTIVITY OF MUD FILTRATE 
SUFT.C        0                    : SUFT         - SURFACE TEMPERATURE         
~A  DEPTH     RESD      CAL       GR     PHIN     PHID
# ...
  549.500    2.667  162.573   86.705    0.403    0.178
  549.750    2.496  163.487   81.709    0.426    0.204
  550.000    2.476  156.719   78.333    0.422    0.235
  550.250    2.609  155.245   77.508    0.413    0.249
  550.500    2.849  155.535   80.114    0.408    0.231
  550.750    3.031  153.430   83.715    0.400    0.214
  551.000    3.122  152.785   83.701    0.406    0.206
  551.250    3.139  152.567   83.441    0.401    0.211
  551.500    3.143  152.650   85.046    0.392    0.209
  551.750    3.136  152.836   84.972    0.399    0.192
  552.000    3.153  153.640   84.773    0.405    0.188
  552.250    3.122  154.041   86.320    0.397    0.190
  552.500    3.045  154.640   87.989    0.401    0.194
  552.750    3.021  155.346   87.352    0.413    0.215
  553.000    3.014  155.948   85.968    0.424    0.191
  553.250    2.974  156.761   84.775    0.426    0.192
  553.500    2.967  157.260   82.457    0.409    0.213
  553.750    3.097  157.547   79.390    0.400    0.218
  554.000    3.331  156.804   77.325    0.407    0.205
  554.250    3.517  154.497   75.068    0.396    0.219
  554.500    3.678  155.515   74.435    0.372    0.225
  554.750    3.810  159.126   77.350    0.355    0.211
  555.000    3.918  161.912   79.954    0.377    0.183
  555.250    3.968  160.751   80.315    0.397    0.204
  555.500    3.989  158.031   79.120    0.399    0.218
  555.750    4.018  158.214   76.551    0.386    0.212
  556.000    3.993  160.995   79.032    0.378    0.185
  556.250    3.903  162.326   80.950    0.363    0.190
  556.500    3.785  163.134   79.942    0.382    0.209
  556.750    3.693  163.424   78.931    0.388    0.213
  557.000    3.535  162.474   78.111    0.382    0.187
  557.250    3.314  160.065   77.974    0.394    0.185
  557.500    3.161  158.901   76.154    0.407    0.197
  557.750    3.113  158.569   74.336    0.421    0.218
  558.000    3.147  158.235   77.810    0.412    0.222
  558.250    3.272  158.111   81.410    0.401    0.216
  558.500    3.403  158.196   84.575    0.383    0.205
  558.750    3.518  158.482   89.112    0.395    0.188
  559.000    3.577  158.673   91.591    0.408    0.182
  559.250    3.637  159.378   92.264    0.414    0.189
  559.500    3.711  160.812   92.501    0.415    0.180
  559.750    3.780  161.935   92.862    0.400    0.175
  560.000    3.808  163.263   91.043    0.399    0.195
  560.250    3.806  164.384   90.032    0.411    0.207
  560.500    3.783  164.571   92.575    0.427    0.212
  560.750    3.725  164.033   94.058    0.424    0.203
  561.000    3.648  163.181   90.246    0.416    0.195
  561.250    3.722  161.190   90.670    0.416    0.192
  561.500    3.863  161.063   90.532    0.420    0.184
  561.750    3.958  163.219   93.448    0.418    0.170
  562.000    3.986  165.274   97.671    0.424    0.173
  562.250    3.794  166.089   98.968    0.431    0.165
  562.500    3.498  166.689   99.639    0.437    0.158
  562.750    3.298  166.568  104.548    0.430    0.166
  563.000    2.995  164.676   97.373    0.420    0.181
  563.250    2.933  162.266   89.948    0.424    0.192
  563.500    2.883  160.584   82.648    0.418    0.204
  563.750    3.014  159.737   84.004    0.403    0.195
  564.000    3.147  160.649   87.542    0.389    0.175
  564.250    3.241  162.392   90.645    0.384    0.168
  564.500    3.358  163.618   89.824    0.396    0.173
  564.750    3.612  162.974   94.481    0.402    0.180
  565.000    3.945  162.125   98.395    0.398    0.171
  565.250    4.473  160.961  104.924    0.404    0.155
  565.500    5.428  160.006  111.638    0.426    0.118
  565.750    6.391  159.468  102.219    0.380    0.080
  566.000    9.610  159.444   85.139    0.292    0.091
  566.250   13.735  159.736   76.281    0.266    0.072
  566.500   16.728  160.548   72.221    0.258    0.043
  566.750   16.410  161.773   66.416    0.251    0.032
  567.000   13.412  162.267   61.046    0.227    0.047
  567.250   11.233  161.627   64.459    0.234    0.070
  567.500    9.426  160.876   65.942    0.253    0.115
  567.750    8.259  160.023   65.992    0.291    0.137
  568.000    7.571  159.590   65.917    0.325    0.157
  568.250    6.511  158.838   66.464    0.343    0.176
  568.500    5.609  158.512   67.262    0.333    0.188
  568.750    4.860  158.286   71.049    0.310    0.141
  569.000    4.380  157.952   78.450    0.329    0.143
  569.250    4.123  157.931   83.484    0.361    0.155
  569.500    4.021  158.325   86.399    0.376    0.167
  569.750    3.960  159.135   88.379    0.369    0.180
  570.000    3.966  161.708   90.360    0.365    0.163
  570.250    4.002  163.245   87.855    0.357    0.165
  570.500    4.030  163.433   86.287    0.363    0.175
  570.750    4.029  163.617   85.403    0.372    0.178
  571.000    4.020  163.912   85.827    0.378    0.171
  571.250    4.003  164.203   87.058    0.375    0.156
  571.500    3.993  164.804   88.356    0.370    0.156
  571.750    3.992  164.988   90.086    0.364    0.174
  572.000    3.967  165.283   91.194    0.369    0.170
  572.250    3.967  165.052   91.681    0.387    0.154
  572.500    3.920  164.932   92.667    0.385    0.168
  572.750    3.890  165.014   95.209    0.392    0.169
  573.000    3.801  164.992   96.504    0.405    0.159
  573.250    3.708  164.974   93.750    0.404    0.160
  573.500    3.644  164.951   90.188    0.398    0.156
  573.750    3.535  164.829   93.165    0.401    0.159
  574.000    3.247  164.808   94.086    0.400    0.166
  574.250    2.959  163.956   91.396    0.394    0.177
  574.500    2.633  161.648   87.396    0.400    0.188
  574.750    2.506  159.763   82.339    0.392    0.208
  575.000    2.505  156.628   72.547    0.398    0.242
  575.250    2.532  156.087   66.491    0.407    0.266
  575.500    2.575  155.025   61.434    0.408    0.267
  575.750    2.598  154.901   60.300    0.396    0.251
  576.000    2.597  155.300   60.662    0.386    0.244
  576.250    2.557  155.589   61.335    0.380    0.255
  576.500    2.452  155.771   62.194    0.377    0.258
  576.750    2.383  155.751   65.048    0.380    0.249
  577.000    2.290  155.316   68.212    0.392    0.256
  577.250    2.221  154.571   62.780    0.400    0.262
  577.500    2.199  154.137   61.397    0.411    0.274
  577.750    2.236  153.696   62.629    0.418    0.281
  578.000    2.282  153.469   61.685    0.408    0.291
  578.250    2.377  152.934   61.049    0.403    0.284
  578.500    2.454  152.593   61.223    0.412    0.270
  578.750    2.537  152.784   64.139    0.422    0.264
  579.000    2.589  152.867   61.822    0.455    0.269
  579.250    2.647  152.539   58.196    0.443    0.281
  579.500    2.697  151.993   56.938    0.400    0.288
  579.750    2.874  151.770   57.985    0.391    0.272
  580.000    3.074  151.435   55.979    0.388    0.259
  580.250    3.167  151.520   55.157    0.383    0.245
  580.500    3.183  152.021   57.262    0.381    0.233
  580.750    3.158  152.623   58.558    0.377    0.236
  581.000    3.069  152.810   57.860    0.372    0.245
  581.250    3.010  152.267   60.153    0.364    0.244
  581.500    2.976  152.040   63.443    0.361    0.242
  581.750    2.925  152.226   66.481    0.366    0.239
  582.000    2.912  152.932   66.408    0.382    0.233
  582.250    2.900  153.430   64.153    0.392    0.246
  582.500    2.856  154.036   64.637    0.378    0.261
  582.750    2.844  154.637   66.369    0.390    0.276
  583.000    2.854  154.925   67.417    0.382    0.276
  583.250    2.853  154.804   68.525    0.380    0.266
  583.500    2.878  154.781   70.631    0.389    0.264
  583.750    2.888  155.071   70.992    0.409    0.272
  584.000    2.898  155.050   68.798    0.429    0.267
  584.250    2.935  155.027   66.669    0.415    0.255
  584.500    2.990  154.490   62.919    0.391    0.256
  584.750    3.168  154.262   59.606    0.383    0.259
  585.000    3.301  153.829   59.468    0.375    0.261
  585.250    3.362  153.080   59.891    0.391    0.257
  585.500    3.279  152.744   60.191    0.376    0.249
  585.750    3.116  153.040   60.304    0.368    0.241
