~VERSION INFORMATION
 VERS.                 2.0:   CWLS LOG ASCII STANDARD -VERSION 2.0
 WRAP.                  NO:   ONE LINE PER DEPTH STEP
~WELL INFORMATION BLOCK
#MNEM.UNIT           DATA                    DESCRIPTION OF MNEMONIC
#---------    -------------------            -------------------------------
# Generated from Intellog Unique Number	CS_67_68/WELL/862
WELL.         AEC FISH CREEK                 : Well_name    - WELL
LOC .         00/16-21-068-08W4/0            : Location     - LOCATION
UWI .         00/16-21-068-08W4/0            : Uwi          - UNIQUE WELL ID
ENTR.         SP                             : Entered      - ENTERED BY
SRVC.         SCHLUMBERGER                   : Scn          - SERVICE COMPANY
STRT.M        320                            : top_depth    - START DEPTH
STOP.M        555                            : bot_depth    - STOP DEPTH
STEP.M        0.25                           : increment    - STEP LENGTH
 NULL. -999.2500:NULL Value
~CURVE INFORMATION BLOCK
#MNEM UNIT       ERCB CURVE CODE    CURVE DESCRIPTION
#-----------   ------------------   ----------------------------------
DEPT.M        00 001 00 00         : DEPTH        - DEPTH
ILD .OHMM     00 120 00 00         : RESD         - DEEP RESISTIVITY (DIL)
DPHI.V/V      00 890 00 00         : PHID         - DENSITY POROSITY (LIMESTONE)
NPHI.V/V      00 330 00 00         : PHIN         - NEUTRON POROSITY (LIMESTONE)
GR  .API      00 310 00 00         : GR           - GAMMA RAY
~PARAMETER INFORMATION
#MNEM.UNIT           DATA             DESCRIPTION OF MNEMONIC
#---------         -----------     ------------------------------
GL  .M        646.55               : gl           - GROUND LEVEL ELEVATION
EREF.M        649.8                : kb           - ELEVATION OF DEPTH REFERENCE
DATM.M        646.55               : datum        - DATUM ELEVATION
TDD .M        561                  : tdd          - TOTAL DEPTH DRILLER
RUN .         ONE                  : Run          - RUN NUMBER
ENG .         BILL                 : Engineer     - RECORDING ENGINEER
WIT .         JIM                  : Witness      - WITNESSED BY
MUD .         GEL                  : Mud_type     - MUD TYPE
MATR.         LIMESTONE            : Logunit      - NEUTRON MATRIX
TMAX.C        25                   : BHT          - MAXIMUM RECORDED TEMPERATURE
BHTD.M        561                  : BHTDEP       - MAXIMUM RECORDED TEMPERATURE
MATR.         1                    : LOGUNIT      - NEUTRON MATRIX
RMT .C        25                   : MDTP         - TEMPERATURE OF MUD
NEUT.         1                    : NEUTRON      - NEUTRON TYPE
RESI.         0                    : RESIST       - RESISTIVITY TYPE
RMC .OHMM     0.25                 : RMC          - RESISTIVITY OF MUD CAKE
RMF .OHMM     0.25                 : RMF          - RESISTIVITY OF MUD FILTRATE
SUFT.C        15                   : SUFT         - SURFACE TEMPERATURE
~A  DEPTH     RESD     PHID     PHIN       GR
# ...
  407.000    5.349    0.031    0.142   67.316
  407.250    6.172    0.019    0.135   62.774
  407.500    7.083    0.012    0.131   61.014
  407.750    8.235    0.005    0.133   66.243
  408.000    9.943    0.022    0.235   66.594
  408.250   12.774    0.120    0.302   66.691
  408.500   14.881    0.219    0.342   71.367
  408.750   14.066    0.303    0.377   76.538
  409.000   11.676    0.334    0.392   81.024
  409.250    8.955    0.356    0.392   83.295
  409.500    7.704    0.348    0.397   86.234
  409.750    6.640    0.341    0.409   87.636
  410.000    5.788    0.337    0.418   84.826
  410.250    5.190    0.335    0.424   76.012
  410.500    4.707    0.343    0.422   74.376
  410.750    4.482    0.346    0.410   75.217
  411.000    4.277    0.338    0.399   74.203
  411.250    4.127    0.325    0.392   80.239
  411.500    4.043    0.312    0.425   87.080
  411.750    4.014    0.301    0.446   93.059
  412.000    4.029    0.299    0.465  100.768
  412.250    4.091    0.320    0.446   90.532
  412.500    4.115    0.331    0.436   86.670
  412.750    4.147    0.342    0.438   88.684
  413.000    4.187    0.351    0.432   89.835
  413.250    4.187    0.343    0.419   87.272
  413.500    4.172    0.330    0.410   85.576
  413.750    4.149    0.325    0.395   82.021
  414.000    4.150    0.323    0.389   75.128
  414.250    4.150    0.319    0.412   80.110
  414.500    4.159    0.329    0.410   83.675
  414.750    4.175    0.341    0.400   85.012
  415.000    4.168    0.335    0.402   86.100
  415.250    4.161    0.330    0.420   87.065
  415.500    4.153    0.337    0.435   85.801
  415.750    4.162    0.346    0.429   86.641
  416.000    4.163    0.325    0.417   90.573
  416.250    4.179    0.307    0.409   92.468
  416.500    4.211    0.300    0.402   85.756
  416.750    4.260    0.306    0.415   86.476
  417.000    4.358    0.302    0.423   93.687
  417.250    4.466    0.296    0.434   99.047
  417.500    4.569    0.292    0.412   94.069
  417.750    4.630    0.289    0.395   90.455
  418.000    4.675    0.283    0.411   90.739
  418.250    4.720    0.271    0.408   89.970
  418.500    4.729    0.261    0.415   91.922
  418.750    4.730    0.262    0.426   95.612
  419.000    4.731    0.280    0.436   99.483
  419.250    4.740    0.291    0.428   93.823
  419.500    4.741    0.279    0.412   90.766
  419.750    4.733    0.267    0.400   95.071
  420.000    4.716    0.262    0.392  100.121
  420.250    4.699    0.261    0.397  104.303
  420.500    4.664    0.262    0.404  106.691
  420.750    4.638    0.262    0.407  107.592
  421.000    4.604    0.258    0.410   97.109
  421.250    4.579    0.252    0.417   93.928
  421.500    4.528    0.248    0.408   95.012
  421.750    4.453    0.246    0.398   94.740
  422.000    4.371    0.248    0.404   93.104
  422.250    4.338    0.247    0.401   95.494
  422.500    4.323    0.246    0.390  100.604
  422.750    4.323    0.247    0.418  103.982
  423.000    4.332    0.250    0.427  105.812
  423.250    4.399    0.254    0.420  103.125
  423.500    4.433    0.254    0.406  105.514
  423.750    4.425    0.245    0.396  105.302
  424.000    4.401    0.235    0.399  105.274
  424.250    4.335    0.228    0.425  108.528
  424.500    4.271    0.223    0.439  110.608
  424.750    4.153    0.224    0.433  108.414
  425.000    4.076    0.238    0.427  106.347
  425.250    4.008    0.250    0.426  109.413
  425.500    3.941    0.249    0.430  111.493
  425.750    3.876    0.248    0.432  110.351
  426.000    3.826    0.253    0.424  109.830
  426.250    3.762    0.263    0.415  108.259
  426.500    3.644    0.273    0.415  105.263
  426.750    3.530    0.263    0.437  104.742
  427.000    3.406    0.252    0.460  104.777
  427.250    3.232    0.246    0.444   99.555
  427.500    3.089    0.249    0.434  107.076
  427.750    2.964    0.253    0.426  114.408
  428.000    2.845    0.254    0.428  117.482
  428.250    2.761    0.261    0.439  115.043
  428.500    2.720    0.278    0.440  115.884
  428.750    2.690    0.289    0.437  115.796
  429.000    2.675    0.285    0.440  106.488
  429.250    2.675    0.288    0.446   98.852
  429.500    2.721    0.302    0.435   92.203
  429.750    2.810    0.308    0.426   95.637
  430.000    3.019    0.294    0.418   98.275
  430.250    3.287    0.280    0.413  101.344
  430.500    3.458    0.274    0.419  103.114
  430.750    3.446    0.279    0.429  104.883
  431.000    3.421    0.293    0.433  102.877
  431.250    3.600    0.317    0.454   91.713
  431.500    3.689    0.334    0.462   85.252
  431.750    3.614    0.342    0.437   82.068
  432.000    3.547    0.343    0.428   79.568
  432.250    3.475    0.346    0.435   77.377
  432.500    3.430    0.345    0.437   76.916
  432.750    3.431    0.348    0.424   76.643
  433.000    3.451    0.345    0.414   75.691
  433.250    3.477    0.335    0.407   74.922
  433.500    3.484    0.330    0.414   76.441
  433.750    3.485    0.327    0.427   79.388
  434.000    3.479    0.321    0.418   82.889
  434.250    3.453    0.306    0.423   87.132
  434.500    3.434    0.289    0.436   90.566
  434.750    3.428    0.279    0.428   92.835
  435.000    3.416    0.309    0.440   93.923
  435.250    3.397    0.324    0.451   85.972
  435.500    3.411    0.310    0.451   81.371
  435.750    3.398    0.298    0.424   78.870
  436.000    3.386    0.289    0.410   81.937
  436.250    3.386    0.286    0.418   84.324
  436.500    3.387    0.296    0.413   85.041
  436.750    3.375    0.301    0.419   88.044
  437.000    3.337    0.305    0.429   90.621
  437.250    3.270    0.304    0.439   93.255
  437.500    3.209    0.266    0.419   92.177
  437.750    3.010    0.248    0.402   96.544
  438.000    2.735    0.237    0.414   99.303
  438.250    2.523    0.239    0.420   94.079
  438.500    2.174    0.250    0.417   95.661
  438.750    1.815    0.244    0.420   96.441
  439.000    1.527    0.236    0.425   90.228
  439.250    1.282    0.242    0.424   90.882
  439.500    1.111    0.245    0.420   96.733
  439.750    1.086    0.248    0.417  100.976
  440.000    1.182    0.251    0.418   96.867
  440.250    1.324    0.253    0.413   94.490
  440.500    1.455    0.253    0.394   95.326
  440.750    1.635    0.251    0.380   95.366
  441.000    1.818    0.253    0.395   93.978
  441.250    1.923    0.254    0.409   92.960
  441.500    2.122    0.249    0.418   96.340
  441.750    2.310    0.246    0.425   99.160
  442.000    2.509    0.246    0.434  101.177
  442.250    2.768    0.246    0.433  100.220
  442.500    3.008    0.242    0.416  100.627
  442.750    3.311    0.237    0.430  102.770
  443.000    3.577    0.234    0.430  106.705
  443.250    3.701    0.233    0.411  105.439
  443.500    3.647    0.234    0.402   99.224
  443.750    3.586    0.239    0.409   97.468
  444.000    3.447    0.246    0.405   97.874
  444.250    3.371    0.241    0.399   98.339
  444.500    3.321    0.236    0.393   98.381
  444.750    3.315    0.242    0.389   97.797
  445.000    3.347    0.257    0.387  101.112
  445.250    3.354    0.264    0.413  105.603
  445.500    3.194    0.267    0.430  109.415
  445.750    2.957    0.258    0.432  108.521
  446.000    2.642    0.254    0.437  102.556
  446.250    2.325    0.257    0.431  104.635
  446.500    2.042    0.274    0.449  111.413
  446.750    1.862    0.289    0.462  115.718
  447.000    1.682    0.296    0.453  116.623
  447.250    1.614    0.291    0.437  116.285
  447.500    1.561    0.291    0.436  115.703
  447.750    1.543    0.293    0.451  114.810
  448.000    1.521    0.286    0.464  109.834
  448.250    1.521    0.279    0.457  104.488
  448.500    1.527    0.277    0.445  100.499
  448.750    1.541    0.297    0.463  101.341
  449.000    1.565    0.313    0.474  104.654
  449.250    1.598    0.325    0.456  107.844
  449.500    1.647    0.317    0.465  108.997
  449.750    1.730    0.311    0.483  105.075
  450.000    1.783    0.302    0.457  102.636
  450.250    1.828    0.291    0.429  101.186
