~VERSION INFORMATION
 VERS.                 2.0:   CWLS LOG ASCII STANDARD -VERSION 2.0
 WRAP.                  NO:   ONE LINE PER DEPTH STEP
~WELL INFORMATION BLOCK
#MNEM.UNIT           DATA                    DESCRIPTION OF MNEMONIC
#---------    -------------------            -------------------------------
# Generated from Intellog Unique Number	CS_71_72/WELL/851
WELL.         PEX PHILLIPS AEC KIRBY         : Well_name    - WELL
LOC .         00/10-08-072-07W4/0            : Location     - LOCATION
UWI .         00/10-08-072-07W4/0            : Uwi          - UNIQUE WELL ID
ENTR.         SP                             : Entered      - ENTERED BY
SRVC.         SCHLUMBERGER                   : Scn          - SERVICE COMPANY
STRT.M        310                            : top_depth    - START DEPTH
STOP.M        525                            : bot_depth    - STOP DEPTH
STEP.M        0.25                           : increment    - STEP LENGTH
 NULL. -999.2500:NULL Value
~CURVE INFORMATION BLOCK
#MNEM UNIT       ERCB CURVE CODE    CURVE DESCRIPTION
#-----------   ------------------   ----------------------------------
DEPT.M        00 001 00 00         : DEPTH        - DEPTH
ILD .OHMM     00 120 00 00         : RESD         - DEEP RESISTIVITY (DIL)
DPHI.V/V      00 890 00 00         : PHID         - DENSITY POROSITY (LIMESTONE)
NPHI.V/V      00 330 00 00         : PHIN         - NEUTRON POROSITY (LIMESTONE)
GR  .API      00 310 00 00         : GR           - GAMMA RAY
~PARAMETER INFORMATION
#MNEM.UNIT           DATA             DESCRIPTION OF MNEMONIC
#---------         -----------     ------------------------------
GL  .M        672.83               : gl           - GROUND LEVEL ELEVATION
EREF.M        675.83               : kb           - ELEVATION OF DEPTH REFERENCE
DATM.M        672.83               : datum        - DATUM ELEVATION
TDD .M        540                  : tdd          - TOTAL DEPTH DRILLER
RUN .         ONE                  : Run          - RUN NUMBER
ENG .         BILL                 : Engineer     - RECORDING ENGINEER
WIT .         JIM                  : Witness      - WITNESSED BY
MUD .         GEL                  : Mud_type     - MUD TYPE
MATR.         LIMESTONE            : Logunit      - NEUTRON MATRIX
TMAX.C        20                   : BHT          - MAXIMUM RECORDED TEMPERATURE
BHTD.M        540                  : BHTDEP       - MAXIMUM RECORDED TEMPERATURE
MATR.         1                    : LOGUNIT      - NEUTRON MATRIX
RMT .C        25                   : MDTP         - TEMPERATURE OF MUD
NEUT.         1                    : NEUTRON      - NEUTRON TYPE
RESI.         0                    : RESIST       - RESISTIVITY TYPE
RMC .OHMM     0.25                 : RMC          - RESISTIVITY OF MUD CAKE
RMF .OHMM     0.25                 : RMF          - RESISTIVITY OF MUD FILTRATE
SUFT.C        15                   : SUFT         - SURFACE TEMPERATURE
~A  DEPTH     RESD     PHID     PHIN       GR
# ...
  397.000    7.471    0.222    0.343   93.074
  397.250    7.469    0.235    0.345   94.915
  397.500    7.193    0.229    0.354   92.469
  397.750    6.927    0.215    0.356   90.024
  398.000    6.189    0.207    0.372   96.762
  398.250    5.427    0.200    0.371  100.439
  398.500    4.849    0.191    0.365  103.504
  398.750    4.498    0.189    0.359  102.895
  399.000    3.944    0.183    0.355  105.959
  399.250    3.659    0.185    0.359  102.290
  399.500    3.331    0.211    0.389  110.865
  399.750    3.269    0.227    0.415  118.216
  400.000    3.089    0.219    0.436  117.607
  400.250    2.975    0.208    0.431  117.610
  400.500    3.146    0.224    0.419  125.573
  400.750    3.519    0.234    0.414  130.475
  401.000    4.086    0.232    0.426  126.806
  401.250    4.834    0.244    0.438  123.135
  401.500    6.050    0.230    0.426  121.301
  401.750    6.896    0.209    0.403  117.019
  402.000    7.713    0.196    0.389  109.064
  402.250    8.005    0.203    0.366   99.884
  402.500    8.306    0.211    0.343   93.153
  402.750    8.304    0.222    0.350   91.319
  403.000    8.302    0.229    0.370   91.936
  403.250    8.300    0.224    0.376   93.164
  403.500    8.145    0.230    0.378   94.391
  403.750    7.991    0.222    0.377   96.231
  404.000    7.840    0.205    0.373   98.072
  404.250    7.838    0.194    0.372  101.750
  404.500    7.691    0.196    0.379   95.018
  404.750    7.833    0.196    0.371   98.695
  405.000    7.980    0.186    0.363  104.209
  405.250    8.438    0.214    0.355  108.497
  405.500    8.758    0.212    0.344  110.338
  405.750    9.981    0.217    0.336  106.668
  406.000   11.165    0.190    0.329  110.347
  406.250   12.725    0.173    0.318  111.573
  406.500   13.710    0.154    0.300  107.291
  406.750   14.229    0.126    0.266   98.112
  407.000   13.199    0.066    0.198   90.767
  407.250   11.360    0.008    0.182   77.914
  407.500    9.776   -0.006    0.202   74.245
  407.750    8.900    0.063    0.226   85.269
  408.000    8.256    0.158    0.334   95.068
  408.250    7.804    0.169    0.357  103.030
  408.500    7.514    0.160    0.366  104.871
  408.750    7.372    0.153    0.369  100.588
  409.000    7.233    0.152    0.374  106.103
  409.250    7.231    0.149    0.378  108.554
  409.500    7.366    0.166    0.367  111.008
  409.750    7.364    0.182    0.358  110.399
  410.000    7.363    0.176    0.353  110.402
  410.250    7.361    0.190    0.368  111.018
  410.500    7.222    0.198    0.369  111.023
  410.750    6.825    0.175    0.356  110.413
  411.000    6.573    0.173    0.350  107.967
  411.250    5.764    0.185    0.358  110.420
  411.500    5.150    0.175    0.378  113.485
  411.750    4.433    0.187    0.385  115.937
  412.000    3.675    0.164    0.394  115.328
  412.250    3.473    0.150    0.416  110.435
  412.500    3.162    0.176    0.432  114.112
  412.750    3.102    0.193    0.432  115.339
  413.000    3.160    0.199    0.440  117.792
  413.250    3.341    0.192    0.433  119.633
  413.500    3.404    0.187    0.414  121.472
  413.750    3.467    0.207    0.400  122.700
  414.000    3.532    0.201    0.401  122.091
  414.250    3.666    0.194    0.394  115.973
  414.500    3.876    0.202    0.386  116.589
  414.750    4.099    0.215    0.392  120.878
  415.000    4.671    0.220    0.381  118.432
  415.250    4.940    0.215    0.370  115.374
  415.500    5.322    0.204    0.365  111.094
  415.750    5.735    0.210    0.373  108.647
  416.000    5.952    0.236    0.396  108.038
  416.250    5.840    0.235    0.390  115.389
  416.500    5.730    0.197    0.373  108.046
  416.750    5.415    0.187    0.373  101.315
  417.000    5.413    0.210    0.383   97.644
  417.250    5.412    0.222    0.370   91.526
  417.500    5.513    0.225    0.362   95.204
  417.750    5.721    0.226    0.374   95.206
  418.000    5.938    0.238    0.370   95.210
  418.250    6.163    0.255    0.364   95.213
  418.500    6.397    0.249    0.357   93.381
  418.750    6.516    0.232    0.354   96.445
  419.000    6.514    0.217    0.347   96.448
  419.250    6.273    0.225    0.342   92.779
  419.500    6.040    0.230    0.336   90.945
  419.750    5.926    0.250    0.320   89.724
  420.000    5.815    0.266    0.309   85.443
  420.250    5.814    0.279    0.341   85.445
  420.500    5.922    0.271    0.366   87.901
  420.750    6.032    0.264    0.370   88.516
  421.000    6.378    0.263    0.369   89.130
  421.250    6.620    0.267    0.369   88.521
  421.500    6.743    0.269    0.376   86.688
  421.750    6.998    0.274    0.369   86.079
  422.000    7.128    0.264    0.358   87.308
  422.250    7.262    0.259    0.354   92.209
  422.500    7.396    0.254    0.353   95.886
  422.750    7.394    0.247    0.362   93.442
  423.000    7.392    0.239    0.366   90.995
  423.250    7.530    0.219    0.377   95.286
  423.500    7.814    0.212    0.368   97.737
  423.750    7.813    0.204    0.354  102.639
  424.000    7.958    0.201    0.343  102.030
  424.250    7.955    0.199    0.353   99.584
  424.500    7.954    0.221    0.361   95.916
  424.750    7.804    0.232    0.363   94.693
  425.000    7.656    0.238    0.364   91.636
  425.250    7.513    0.240    0.361   92.251
  425.500    7.510    0.248    0.358   91.644
  425.750    7.368    0.258    0.343   90.422
  426.000    7.230    0.255    0.327   87.977
  426.250    7.094    0.245    0.322   88.593
  426.500    6.832    0.233    0.328   91.658
  426.750    6.456    0.226    0.335   93.497
  427.000    6.335    0.221    0.338   94.726
  427.250    5.988    0.214    0.343   97.178
  427.500    5.554    0.209    0.349  103.305
  427.750    5.348    0.209    0.366  105.145
  428.000    5.248    0.205    0.369  105.760
  428.250    5.053    0.211    0.364  105.764
  428.500    4.958    0.226    0.360  106.380
  428.750    4.865    0.232    0.369  105.771
  429.000    4.773    0.220    0.377  103.937
  429.250    4.684    0.211    0.363   99.656
  429.500    4.953    0.201    0.353   98.434
  429.750    5.645    0.234    0.371  100.275
  430.000    6.196    0.264    0.396  102.116
  430.250    6.553    0.248    0.393  100.894
  430.500    7.194    0.221    0.380   96.000
  430.750    7.328    0.201    0.365   95.391
  431.000    6.925    0.212    0.359   98.457
  431.250    6.073    0.217    0.350  100.909
  431.500    5.035    0.215    0.342   98.463
  431.750    4.334    0.213    0.333   99.079
  432.000    3.593    0.213    0.354  100.919
  432.250    3.210    0.210    0.369  105.822
  432.500    2.868    0.204    0.360  108.885
  432.750    2.611    0.211    0.355  114.399
  433.000    2.468    0.235    0.370  117.464
  433.250    2.376    0.232    0.388  118.692
  433.500    2.561    0.235    0.405  119.307
  433.750    2.973    0.246    0.412  118.699
  434.000    3.389    0.249    0.410  117.479
  434.250    4.009    0.238    0.393  113.809
  434.500    4.320    0.233    0.386  108.914
  434.750    5.208    0.229    0.378  104.019
  435.000    5.936    0.224    0.362  106.472
  435.250    6.765    0.214    0.355  113.210
  435.500    7.289    0.190    0.323  110.765
  435.750    7.853    0.180    0.293  104.646
  436.000    7.851    0.159    0.276   94.241
  436.250    7.560    0.123    0.262   92.409
  436.500    7.280    0.092    0.271   97.923
  436.750    7.010    0.164    0.318  102.212
  437.000    7.141    0.190    0.337  102.215
  437.250    7.138    0.188    0.335   97.933
  437.500    7.137    0.164    0.333  102.834
  437.750    7.270    0.144    0.324  104.675
  438.000    7.268    0.134    0.312   97.331
  438.250    7.266    0.135    0.349   89.987
  438.500    7.263    0.258    0.355   96.114
  438.750    7.261    0.216    0.349  101.016
  439.000    7.259    0.191    0.349  103.467
  439.250    7.257    0.167    0.351  101.022
  439.500    7.121    0.150    0.344  104.088
  439.750    7.119    0.196    0.341  107.154
  440.000    6.985    0.195    0.334  108.993
  440.250    6.853    0.185    0.330  109.608
