~VERSION INFORMATION
 VERS.                 2.0:   CWLS LOG ASCII STANDARD -VERSION 2.0
 WRAP.                  NO:   ONE LINE PER DEPTH STEP
~WELL INFORMATION BLOCK
#MNEM.UNIT           DATA                    DESCRIPTION OF MNEMONIC
#---------    -------------------            -------------------------------
# Generated from Intellog Unique Number	CS_67_68/WELL/2198
WELL.         10-29-067-08W4                 : Well_name    - WELL
LOC .         00/10-29-067-08W4/0            : Location     - LOCATION
UWI .         00/10-29-067-08W4/0            : Uwi          - UNIQUE WELL ID
ENTR.         SP                             : Entered      - ENTERED BY
SRVC.         SCHLUMBERGER                   : Scn          - SERVICE COMPANY
STRT.M        330                            : top_depth    - START DEPTH
STOP.M        555                            : bot_depth    - STOP DEPTH
STEP.M        0.25                           : increment    - STEP LENGTH
 NULL. -999.2500:NULL Value
~CURVE INFORMATION BLOCK
#MNEM UNIT       ERCB CURVE CODE    CURVE DESCRIPTION
#-----------   ------------------   ----------------------------------
DEPT.M        00 001 00 00         : DEPTH        - DEPTH
ILD .OHMM     00 120 00 00         : RESD         - DEEP RESISTIVITY (DIL)
DPHI.V/V      00 890 00 00         : PHID         - DENSITY POROSITY (LIMESTONE)
NPHI.V/V      00 330 00 00         : PHIN         - NEUTRON POROSITY (LIMESTONE)
GR  .API      00 310 00 00         : GR           - GAMMA RAY
CALI.MM       00 280 01 00         : CAL          - CALIPER
~PARAMETER INFORMATION
#MNEM.UNIT           DATA             DESCRIPTION OF MNEMONIC
#---------         -----------     ------------------------------
GL  .M        639.4                : gl           - GROUND LEVEL ELEVATION
EREF.M        643.6                : kb           - ELEVATION OF DEPTH REFERENCE
DATM.M        643.6                : datum        - DATUM ELEVATION
TDD .M        560                  : tdd          - TOTAL DEPTH DRILLER
RUN .         ONE                  : Run          - RUN NUMBER
ENG .         BILL                 : Engineer     - RECORDING ENGINEER
WIT .         JIM                  : Witness      - WITNESSED BY
MUD .         GEL                  : Mud_type     - MUD TYPE
MATR.         LIMESTONE            : Logunit      - NEUTRON MATRIX
TMAX.C        23                   : BHT          - MAXIMUM RECORDED TEMPERATURE
BHTD.M        560.2                : BHTDEP       - MAXIMUM RECORDED TEMPERATURE
MATR.         1                    : LOGUNIT      - NEUTRON MATRIX
RMT .C        25                   : MDTP         - TEMPERATURE OF MUD
NEUT.         1                    : NEUTRON      - NEUTRON TYPE
RESI.         0                    : RESIST       - RESISTIVITY TYPE
RMC .OHMM     0.25                 : RMC          - RESISTIVITY OF MUD CAKE
RMF .OHMM     0.25                 : RMF          - RESISTIVITY OF MUD FILTRATE
SUFT.C        15                   : SUFT         - SURFACE TEMPERATURE
~A  DEPTH     RESD     PHID     PHIN       GR      CAL
# ...
  366.500    3.348    0.261    0.404   94.696  168.967
  366.750    3.291    0.253    0.375   99.403  169.853
  367.000    3.211    0.246    0.347  104.601  173.500
  367.250    3.285    0.262    0.328  107.896  177.051
  367.500    3.380    0.257    0.321  108.550  180.089
  367.750    3.413    0.246    0.339  106.814  182.101
  368.000    3.419    0.238    0.344  106.181  180.224
  368.250    3.393    0.261    0.326  107.756  174.263
  368.500    3.342    0.267    0.317  106.264  167.680
  368.750    3.255    0.265    0.366  101.885  164.992
  369.000    3.164    0.270    0.394   98.184  164.039
  369.250    3.081    0.283    0.410   98.349  163.697
  369.500    3.001    0.297    0.415   90.472  163.359
  369.750    2.900    0.318    0.450   83.207  162.816
  370.000    2.819    0.334    0.470   78.343  162.168
  370.250    2.735    0.349    0.407   72.001  161.828
  370.500    2.684    0.352    0.362   70.752  161.491
  370.750    2.648    0.353    0.389   68.032  161.458
  371.000    2.604    0.351    0.409   63.103  161.728
  371.250    2.550    0.349    0.461   59.891  161.800
  371.500    2.550    0.344    0.452   58.585  161.872
  371.750    2.584    0.333    0.362   57.395  162.350
  372.000    2.609    0.343    0.404   56.764  162.522
  372.250    2.644    0.349    0.450   56.930  162.485
  372.500    2.654    0.354    0.439   58.260  162.460
  372.750    2.664    0.357    0.419   55.968  162.319
  373.000    2.674    0.358    0.421   60.247  162.292
  373.250    2.690    0.359    0.395   67.224  162.056
  373.500    2.690    0.359    0.387   67.878  161.918
  373.750    2.705    0.359    0.406   64.916  161.582
  374.000    2.747    0.356    0.406   68.270  161.345
  374.250    2.783    0.351    0.384   68.743  161.001
  374.500    2.875    0.351    0.364   65.778  160.667
  374.750    2.941    0.350    0.358   60.539  160.319
  375.000    2.980    0.349    0.389   60.092  160.192
  375.250    2.997    0.353    0.413   67.561  159.954
  375.500    2.980    0.357    0.415   63.306  159.923
  375.750    2.952    0.344    0.394   62.735  159.890
  376.000    2.925    0.339    0.380   61.856  160.063
  376.250    2.881    0.341    0.378   63.555  160.234
  376.500    2.843    0.342    0.392   65.990  160.407
  376.750    2.827    0.340    0.408   69.159  160.371
  377.000    2.908    0.336    0.410   70.677  160.241
  377.250    3.108    0.331    0.390   70.843  160.106
  377.500    3.114    0.325    0.376   68.307  160.071
  377.750    2.998    0.314    0.365   65.770  159.930
  378.000    2.925    0.304    0.357   72.072  159.904
  378.250    2.860    0.308    0.399   75.921  159.873
  378.500    2.882    0.328    0.391   75.037  160.247
  378.750    2.838    0.340    0.367   74.162  160.524
  379.000    2.769    0.335    0.347   72.549  160.696
  379.250    2.748    0.329    0.333   74.125  160.867
  379.500    2.780    0.327    0.355   76.494  161.143
  379.750    2.817    0.327    0.357   76.418  161.104
  380.000    2.692    0.327    0.361   74.066  161.383
  380.250    2.534    0.326    0.379   69.505  161.453
  380.500    2.417    0.325    0.372   66.107  161.628
  380.750    2.322    0.325    0.385   61.486  161.901
  381.000    2.275    0.336    0.405   57.109  161.868
  381.250    2.262    0.348    0.428   52.668  162.041
  381.500    2.367    0.351    0.434   49.460  162.009
  381.750    2.491    0.343    0.402   50.054  161.978
  382.000    2.588    0.339    0.388   53.777  162.251
  382.250    2.678    0.341    0.371   52.775  162.213
  382.500    2.719    0.337    0.385   55.395  162.291
  382.750    2.755    0.321    0.385   59.792  162.251
  383.000    2.797    0.301    0.352   62.660  162.529
  383.250    2.808    0.290    0.323   64.176  162.703
  383.500    2.760    0.297    0.390   67.349  162.875
  383.750    2.688    0.319    0.411   67.698  163.152
  384.000    2.618    0.328    0.366   64.793  163.116
  384.250    2.584    0.334    0.384   58.268  162.780
  384.500    2.569    0.337    0.413   56.960  162.744
  384.750    2.599    0.340    0.378   56.143  162.508
  385.000    2.613    0.343    0.358   57.595  162.474
  385.250    2.623    0.337    0.383   58.313  162.237
  385.500    2.614    0.338    0.393   54.178  162.204
  385.750    2.644    0.343    0.404   52.319  162.380
  386.000    2.664    0.345    0.416   53.344  162.246
  386.250    2.699    0.341    0.403   55.903  162.003
  386.500    2.751    0.333    0.390   57.415  161.769
  386.750    2.772    0.333    0.373   56.846  161.739
  387.000    2.793    0.331    0.363   54.249  161.707
  387.250    2.825    0.325    0.369   54.107  161.670
  387.500    2.946    0.319    0.357   54.946  161.845
  387.750    3.054    0.328    0.347   52.285  161.813
  388.000    3.214    0.325    0.359   52.084  161.874
  388.250    3.332    0.317    0.368   58.996  161.851
  388.500    3.442    0.310    0.375   62.418  161.820
  388.750    3.554    0.305    0.358   63.318  161.786
  389.000    3.713    0.304    0.341   60.661  161.751
  389.250    3.827    0.312    0.328   68.620  161.817
  389.500    3.945    0.294    0.334   82.044  162.508
  389.750    4.160    0.284    0.341   89.083  164.316
  390.000    4.421    0.283    0.361   90.964  167.146
  390.250    4.600    0.274    0.367   91.254  169.369
  390.500    4.760    0.259    0.343   95.654  172.405
  390.750    4.824    0.245    0.321  106.007  175.850
  391.000    4.842    0.233    0.313  112.618  177.250
  391.250    4.797    0.223    0.300  117.264  175.377
  391.500    4.698    0.234    0.312  118.041  173.401
  391.750    4.654    0.244    0.332  110.164  171.117
  392.000    4.541    0.250    0.334  101.184  168.726
  392.250    4.380    0.254    0.304   94.107  167.470
  392.500    4.266    0.257    0.320   96.113  166.416
  392.750    4.162    0.260    0.374   93.512  165.771
  393.000    4.131    0.263    0.402   89.691  165.224
  393.250    4.147    0.262    0.419   87.522  165.089
  393.500    4.186    0.259    0.433   88.300  165.053
  393.750    4.139    0.257    0.402   88.281  165.126
  394.000    4.108    0.253    0.374   92.435  165.197
  394.250    4.008    0.246    0.354   96.588  165.156
  394.500    3.874    0.254    0.357   98.044  165.030
  394.750    3.772    0.270    0.346   90.352  164.693
  395.000    3.660    0.278    0.320   83.396  164.554
  395.250    3.632    0.274    0.340   76.808  164.526
  395.500    3.633    0.271    0.345   73.352  164.388
  395.750    3.660    0.266    0.322   70.326  164.563
  396.000    3.660    0.261    0.308   68.465  164.528
  396.250    3.661    0.252    0.313   72.373  164.498
  396.500    3.654    0.251    0.325   73.704  164.467
  396.750    3.668    0.260    0.332   74.297  164.016
  397.000    3.824    0.264    0.322   72.806  163.788
  397.250    3.912    0.258    0.319   72.664  163.648
  397.500    3.824    0.254    0.318   78.414  164.230
  397.750    3.689    0.252    0.312   84.350  165.218
  398.000    3.453    0.272    0.372   85.005  165.805
  398.250    3.305    0.289    0.393   79.890  165.670
  398.500    3.164    0.307    0.408   73.549  165.125
  398.750    3.070    0.319    0.393   68.988  164.683
  399.000    3.082    0.316    0.378   71.054  164.957
  399.250    3.123    0.314    0.367   69.868  165.431
  399.500    3.219    0.312    0.382   71.322  165.814
  399.750    3.357    0.300    0.425   74.741  165.986
  400.000    3.513    0.287    0.435   77.607  166.057
  400.250    3.614    0.273    0.408   78.815  165.811
  400.500    3.705    0.262    0.384   77.936  165.789
  400.750    3.719    0.254    0.365   81.230  165.449
  401.000    3.698    0.278    0.351   83.112  165.517
  401.250    3.615    0.304    0.335   80.148  165.893
  401.500    3.500    0.323    0.385   77.980  165.960
  401.750    3.345    0.337    0.414   77.655  165.826
  402.000    3.263    0.338    0.405   73.031  165.901
  402.250    3.208    0.327    0.381   65.953  165.868
  402.500    3.215    0.319    0.389   63.724  166.039
  402.750    3.221    0.313    0.440   73.096  166.215
