~VERSION INFORMATION
 VERS.                 2.0:   CWLS LOG ASCII STANDARD -VERSION 2.0
 WRAP.                  NO:   ONE LINE PER DEPTH STEP
~WELL INFORMATION BLOCK
#MNEM.UNIT           DATA                    DESCRIPTION OF MNEMONIC
#---------    -------------------            -------------------------------
# Generated from Intellog Unique Number	CW_70_72/WELL/1043
NULL.         -999.25                        : NULL_VALUE
WELL.         NORCEN WESTBURNE SPUR 10-26    : Well_name    - WELL              
LOC .         10-26-072-02W5                 : Location     - LOCATION          
UWI .         00/10-26-072-02W5/0            : Uwi          - UNIQUE WELL ID    
ENTR.         JAYE                           : Entered      - ENTERED BY        
SRVC.         COMPUTALOG                     : Scn          - SERVICE COMPANY   
DATE.         25 JAN 85                      : Date         - LOG DATE          
STRT.M        385                            : top_depth    - START DEPTH       
STOP.M        618                            : bot_depth    - STOP DEPTH        
STEP.M        0.25                           : increment    - STEP LENGTH       
~CURVE INFORMATION BLOCK
#MNEM UNIT       ERCB CURVE CODE    CURVE DESCRIPTION
#-----------   ------------------   ----------------------------------
DEPT.M        00 001 00 00         : DEPTH        - DEPTH                       
DPHI.V/V      00 890 00 00         : PHID         - DENSITY POROSITY (SANDSTONE)
NPHI.V/V      00 330 00 00         : PHIN         - NEUTRON POROSITY (SANDSTONE)
GR  .API      00 310 00 00         : GR           - GAMMA RAY                   
CALI.MM       00 280 01 00         : CAL          - CALIPER                     
ILD .OHMM     00 120 00 00         : RESD         - DEEP RESISTIVITY (DIL)      
~PARAMETER INFORMATION       
#MNEM.UNIT           DATA             DESCRIPTION OF MNEMONIC
#---------         -----------     ------------------------------
GL  .M        594.25               : gl           - GROUND LEVEL ELEVATION      
EREF.M        598.3                : kb           - ELEVATION OF DEPTH REFERENCE
DATM.M        594.25               : datum        - DATUM ELEVATION             
TDD .M        627                  : tdd          - TOTAL DEPTH DRILLER         
RUN .         ONE                  : Run          - RUN NUMBER                  
ENG .         HUDSON               : Engineer     - RECORDING ENGINEER          
WIT .         MCLEOD               : Witness      - WITNESSED BY                
BASE.         GRANDE PRAIRIE       : Branch       - HOME BASE OF LOGGING UNIT   
MUD .         GEL CHEM             : Mud_type     - MUD TYPE                    
MATR.         SANDSTONE            : Logunit      - NEUTRON MATRIX              
TMAX.C        36                   : BHT          - MAXIMUM RECORDED TEMPERATURE
BHTD.M        623.2                : BHTDEP       - MAXIMUM RECORDED TEMPERATURE
RMT .C        14                   : MDTP         - TEMPERATURE OF MUD          
MUDD.KG/M     1130                 : MWT          - MUD DENSITY                 
NEUT.         1                    : NEUTRON      - NEUTRON TYPE                
RESI.         0                    : RESIST       - RESISTIVITY TYPE            
RM  .OHMM     4                    : RM           - RESISTIVITY OF MUD          
RMC .OHMM     3.4                  : RMC          - RESISTIVITY OF MUD CAKE     
RMF .OHMM     3.5                  : RMF          - RESISTIVITY OF MUD FILTRATE 
SUFT.C        32                   : SUFT         - SURFACE TEMPERATURE         
~A  DEPTH     PHID     PHIN       GR      CAL     RESD
# ...
  458.000    0.141    0.394   96.020  207.979    4.744
  458.250    0.139    0.403   94.863  206.994    4.817
  458.500    0.147    0.401   90.295  205.588    4.763
  458.750    0.159    0.395   88.000  204.823    4.700
  459.000    0.157    0.387   90.253  204.156    4.629
  459.250    0.153    0.385   92.002  203.915    4.567
  459.500    0.152    0.393   93.118  203.354    4.550
  459.750    0.152    0.406   93.666  203.632    4.542
  460.000    0.151    0.414   93.769  203.703    4.524
  460.250    0.150    0.406   93.183  203.247    4.439
  460.500    0.143    0.393   93.163  202.691    4.364
  460.750    0.145    0.382   94.153  199.287    4.121
  461.000    0.158    0.397   87.941  195.464    3.769
  461.250    0.171    0.443   81.417  193.326    3.472
  461.500    0.221    0.421   72.302  191.712    3.242
  461.750    0.251    0.395   63.880  191.253    3.139
  462.000    0.261    0.386   60.638  191.009    3.051
  462.250    0.260    0.379   58.218  191.080    3.039
  462.500    0.255    0.373   55.925  191.249    3.051
  462.750    0.249    0.366   56.534  191.646    3.063
  463.000    0.244    0.356   58.408  192.348    3.116
  463.250    0.242    0.356   60.411  192.944    3.005
  463.500    0.251    0.364   62.470  192.808    3.063
  463.750    0.258    0.371   62.391  192.141    3.092
  464.000    0.260    0.377   61.487  190.634    3.092
  464.250    0.259    0.383   61.082  189.336    3.092
  464.500    0.257    0.392   61.382  190.140    3.092
  464.750    0.257    0.410   63.193  191.689    3.080
  465.000    0.253    0.409   67.466  193.864    3.075
  465.250    0.255    0.398   68.016  195.305    3.086
  465.500    0.262    0.405   66.037  196.425    3.098
  465.750    0.263    0.413   66.139  196.710    3.104
  466.000    0.260    0.398   66.751  196.884    3.116
  466.250    0.256    0.372   67.364  197.270    3.116
  466.500    0.252    0.362   69.112  197.656    3.140
  466.750    0.253    0.366   69.406  197.732    3.200
  467.000    0.256    0.363   66.861  197.380    3.331
  467.250    0.256    0.365   65.451  197.031    3.454
  467.500    0.248    0.366   64.989  196.469    3.671
  467.750    0.238    0.366   64.332  195.800    3.924
  468.000    0.231    0.367   64.060  195.346    4.194
  468.250    0.232    0.373   64.421  195.318    4.407
  468.500    0.242    0.381   64.023  195.600    4.535
  468.750    0.250    0.404   64.065  196.301    4.483
  469.000    0.264    0.430   64.231  197.317    4.178
  469.250    0.262    0.389   64.969  198.126    3.954
  469.500    0.247    0.371   65.773  198.509    3.595
  469.750    0.239    0.358   67.268  198.578    3.294
  470.000    0.244    0.385   68.005  198.446    3.117
  470.250    0.254    0.403   66.595  198.307    3.000
  470.500    0.265    0.400   64.553  198.273    2.944
  470.750    0.270    0.389   63.207  198.344    2.872
  471.000    0.265    0.371   65.144  198.725    2.828
  471.250    0.256    0.383   71.692  199.116    2.812
  471.500    0.244    0.388   77.798  198.973    2.812
  471.750    0.236    0.393   74.998  198.942    2.796
  472.000    0.240    0.400   69.421  198.486    2.759
  472.250    0.246    0.421   64.850  198.139    2.718
  472.500    0.252    0.420   63.442  198.101    2.682
  472.750    0.258    0.414   60.577  197.644    2.646
  473.000    0.260    0.413   56.516  197.190    2.616
  473.250    0.259    0.408   56.812  196.950    2.606
  473.500    0.256    0.401   58.119  196.913    2.596
  473.750    0.254    0.388   59.105  197.089    2.596
  474.000    0.252    0.394   59.908  197.475    2.582
  474.250    0.248    0.401   61.024  197.865    2.562
  474.500    0.243    0.393   62.393  198.672    2.552
  474.750    0.237    0.370   63.700  199.264    2.562
  475.000    0.245    0.373   65.764  199.550    2.572
  475.250    0.245    0.391   67.638  199.304    2.577
  475.500    0.243    0.409   68.375  198.955    2.562
  475.750    0.245    0.414   67.596  198.393    2.553
  476.000    0.257    0.403   67.007  197.937    2.553
  476.250    0.270    0.414   66.733  197.272    2.553
  476.500    0.272    0.414   65.957  197.028    2.562
  476.750    0.268    0.403   65.873  196.679    2.572
  477.000    0.265    0.396   68.758  196.650    2.612
  477.250    0.263    0.393   74.105  196.608    2.652
  477.500    0.257    0.399   71.684  196.572    2.739
  477.750    0.255    0.398   68.697  196.538    2.856
  478.000    0.266    0.392   68.927  196.613    3.013
  478.250    0.252    0.387   71.751  196.792    3.202
  478.500    0.232    0.396   79.119  197.175    3.276
  478.750    0.210    0.422   85.793  197.774    3.371
  479.000    0.184    0.437   83.436  198.372    3.423
  479.250    0.191    0.428   80.445  199.388    3.476
  479.500    0.207    0.425   80.109  200.098    3.542
  479.750    0.203    0.421   81.733  201.115    3.604
  480.000    0.200    0.419   79.565  202.229    3.673
  480.250    0.201    0.424   76.762  202.936    3.744
  480.500    0.205    0.430   77.311  203.635    3.816
  480.750    0.198    0.430   78.679  204.340    3.904
  481.000    0.194    0.423   80.745  204.834    3.987
  481.250    0.194    0.407   83.125  205.226    3.987
  481.500    0.192    0.394   85.756  205.824    3.801
  481.750    0.188    0.407   87.506  206.524    3.456
  482.000    0.183    0.423   90.201  207.019    3.264
  482.250    0.177    0.449   92.643  207.716    3.302
  482.500    0.185    0.441   87.065  208.103    3.469
  482.750    0.188    0.424   85.654  208.490    3.723
  483.000    0.185    0.415   86.770  208.461    3.942
  483.250    0.181    0.417   82.962  208.419    4.095
  483.500    0.180    0.419   80.604  208.384    4.174
  483.750    0.178    0.420   81.023  208.353    4.166
  484.000    0.173    0.420   81.446  208.221    4.142
  484.250    0.166    0.413   81.996  207.868    4.150
  484.500    0.177    0.400   82.227  207.731    4.150
  484.750    0.190    0.391   82.964  207.274    4.190
  485.000    0.187    0.410   84.902  206.819    4.262
  485.250    0.180    0.429   88.924  205.312    4.352
  485.500    0.171    0.428   92.376  202.858    4.386
  485.750    0.176    0.424   94.377  200.289    4.377
  486.000    0.196    0.418   88.926  199.627    4.353
  486.250    0.211    0.414   83.285  199.807    4.303
  486.500    0.204    0.411   78.779  200.614    4.279
  486.750    0.202    0.435   80.336  201.318    4.238
  487.000    0.204    0.433   83.094  202.119    4.190
  487.250    0.206    0.427   84.719  202.614    4.174
  487.500    0.202    0.426   84.761  202.894    4.166
  487.750    0.197    0.422   83.098  202.970    4.119
  488.000    0.193    0.415   80.487  202.720    4.080
  488.250    0.190    0.409   81.540  202.898    4.042
  488.500    0.184    0.416   83.606  202.867    4.057
  488.750    0.178    0.429   86.554  202.939    4.042
  489.000    0.186    0.423   87.541  203.008    3.996
  489.250    0.183    0.407   86.069  201.396    3.981
  489.500    0.183    0.398   84.721  198.620    3.973
  489.750    0.189    0.406   84.450  197.851    3.988
  490.000    0.194    0.411   84.493  197.184    3.988
  490.250    0.205    0.408   84.663  196.727    4.011
  490.500    0.208    0.399   84.640  196.588    4.011
  490.750    0.207    0.388   85.187  196.555    3.973
  491.000    0.204    0.394   85.801  196.633    3.898
  491.250    0.199    0.410   86.159  196.599    3.774
  491.500    0.204    0.416   83.296  196.563    3.551
  491.750    0.203    0.409   81.129  196.206    3.425
  492.000    0.208    0.401   79.467  196.386    3.361
  492.250    0.210    0.398   78.748  196.250    3.432
  492.500    0.207    0.398   77.908  196.634    3.504
  492.750    0.208    0.396   76.689  197.337    3.661
  493.000    0.214    0.387   75.277  198.458    3.855
  493.250    0.218    0.395   73.360  199.375    4.012
  493.500    0.222    0.408   70.943  200.292    4.208
  493.750    0.228    0.417   69.469  201.518    4.371
  494.000    0.234    0.411   69.576  202.219    4.532
  494.250    0.239    0.404   70.945  202.605    4.690
