~VERSION INFORMATION
 VERS.                 2.0:   CWLS LOG ASCII STANDARD -VERSION 2.0
 WRAP.                  NO:   ONE LINE PER DEPTH STEP
~WELL INFORMATION BLOCK
#MNEM.UNIT           DATA                    DESCRIPTION OF MNEMONIC
#---------    -------------------            -------------------------------
# Generated from Intellog Unique Number	CS_71_72/WELL/925
WELL.         ET AL IPIATIK                  : Well_name    - WELL
LOC .         00/14-16-071-09W4/0            : Location     - LOCATION
UWI .         00/14-16-071-09W4/0            : Uwi          - UNIQUE WELL ID
ENTR.         SP                             : Entered      - ENTERED BY
SRVC.         SCHLUMBERGER                   : Scn          - SERVICE COMPANY
STRT.M        300                            : top_depth    - START DEPTH
STOP.M        500                            : bot_depth    - STOP DEPTH
STEP.M        0.25                           : increment    - STEP LENGTH
 NULL. -999.2500:NULL Value
~CURVE INFORMATION BLOCK
#MNEM UNIT       ERCB CURVE CODE    CURVE DESCRIPTION
#-----------   ------------------   ----------------------------------
DEPT.M        00 001 00 00         : DEPTH        - DEPTH
ILD .OHMM     00 120 00 00         : RESD         - DEEP RESISTIVITY (DIL)
DPHI.V/V      00 890 00 00         : PHID         - DENSITY POROSITY (LIMESTONE)
NPHI.V/V      00 330 00 00         : PHIN         - NEUTRON POROSITY (LIMESTONE)
GR  .API      00 310 00 00         : GR           - GAMMA RAY
~PARAMETER INFORMATION
#MNEM.UNIT           DATA             DESCRIPTION OF MNEMONIC
#---------         -----------     ------------------------------
GL  .M        662.6                : gl           - GROUND LEVEL ELEVATION
EREF.M        666.21               : kb           - ELEVATION OF DEPTH REFERENCE
DATM.M        662.6                : datum        - DATUM ELEVATION
TDD .M        504                  : tdd          - TOTAL DEPTH DRILLER
RUN .         ONE                  : Run          - RUN NUMBER
ENG .         BILL                 : Engineer     - RECORDING ENGINEER
WIT .         JIM                  : Witness      - WITNESSED BY
MUD .         GEL                  : Mud_type     - MUD TYPE
MATR.         LIMESTONE            : Logunit      - NEUTRON MATRIX
TMAX.C        24                   : BHT          - MAXIMUM RECORDED TEMPERATURE
BHTD.M        504                  : BHTDEP       - MAXIMUM RECORDED TEMPERATURE
MATR.         1                    : LOGUNIT      - NEUTRON MATRIX
RMT .C        25                   : MDTP         - TEMPERATURE OF MUD
NEUT.         1                    : NEUTRON      - NEUTRON TYPE
RESI.         0                    : RESIST       - RESISTIVITY TYPE
RMC .OHMM     0.25                 : RMC          - RESISTIVITY OF MUD CAKE
RMF .OHMM     0.25                 : RMF          - RESISTIVITY OF MUD FILTRATE
SUFT.C        15                   : SUFT         - SURFACE TEMPERATURE
~A  DEPTH     RESD     PHID     PHIN       GR
# ...
  387.000   16.343    0.376    0.453   56.307
  387.250   16.316    0.363    0.453   56.369
  387.500   16.289    0.353    0.439   57.535
  387.750   16.204    0.348    0.425   58.701
  388.000   16.026    0.346    0.429   57.535
  388.250   16.030    0.346    0.456   59.315
  388.500   16.125    0.346    0.458   59.929
  388.750   16.159    0.346    0.452   58.333
  389.000   16.133    0.338    0.453   57.290
  389.250   16.141    0.332    0.464   59.868
  389.500   16.111    0.327    0.468   62.998
  389.750   16.176    0.324    0.436   65.392
  390.000   16.272    0.323    0.403   65.699
  390.250   16.337    0.331    0.435   62.937
  390.500   16.373    0.342    0.442   60.727
  390.750   16.316    0.348    0.432   58.886
  391.000   16.290    0.353    0.443   61.955
  391.250   16.294    0.355    0.464   63.796
  391.500   15.493    0.351    0.462   64.594
  391.750   15.555    0.353    0.449   65.147
  392.000   15.502    0.355    0.437   64.656
  392.250   15.535    0.349    0.427   61.894
  392.500   15.568    0.348    0.425   61.342
  392.750   15.514    0.351    0.444   62.631
  393.000   15.431    0.356    0.446   64.288
  393.250   15.348    0.363    0.438   64.472
  393.500   15.181    0.360    0.434   63.245
  393.750   15.015    0.356    0.430   61.404
  394.000   14.907    0.357    0.423   60.974
  394.250   14.828    0.360    0.410   61.158
  394.500   14.775    0.354    0.438   61.588
  394.750   14.696    0.346    0.470   62.263
  395.000   14.591    0.341    0.447   63.000
  395.250   14.540    0.344    0.439   63.736
  395.500   14.598    0.350    0.465   63.552
  395.750   14.935    0.356    0.478   61.159
  396.000   16.163    0.357    0.469   60.975
  396.250   18.229    0.358    0.373   62.816
  396.500   20.714    0.345    0.311   63.798
  396.750   24.949    0.294    0.230   62.632
  397.000   28.032    0.236    0.181   55.267
  397.250   32.642    0.144    0.154   52.014
  397.500   34.863    0.023    0.148   55.022
  397.750   37.448    0.030    0.188   56.495
  398.000   39.553    0.120    0.241   56.863
  398.250   40.922    0.189    0.283   56.802
  398.500   43.957    0.274    0.311   56.372
  398.750   47.842    0.295    0.242   54.531
  399.000   49.403    0.146    0.181   53.058
  399.250   40.736    0.020    0.150   52.199
  399.500   29.235    0.041    0.177   56.986
  399.750   21.825    0.177    0.283   64.290
  400.000   18.302    0.258    0.401   66.561
  400.250   16.513    0.297    0.445   63.922
  400.500   15.555    0.327    0.458   61.590
  400.750   14.763    0.336    0.445   59.626
  401.000   14.277    0.333    0.428   59.994
  401.250   14.015    0.331    0.438   62.388
  401.500   13.758    0.330    0.464   63.800
  401.750   12.914    0.329    0.473   64.782
  402.000   12.278    0.332    0.456   65.948
  402.250   11.036    0.340    0.480   67.053
  402.500    9.845    0.343    0.501   75.707
  402.750    8.669    0.320    0.517   87.184
  403.000    7.505    0.274    0.498   92.462
  403.250    6.835    0.251    0.465   92.708
  403.500    6.390    0.249    0.464   90.007
  403.750    5.964    0.250    0.453   89.700
  404.000    5.843    0.247    0.467   92.769
  404.250    5.758    0.236    0.468   94.242
  404.500    5.913    0.224    0.468   94.733
  404.750    6.129    0.215    0.484   94.795
  405.000    6.696    0.211    0.481   93.813
  405.250    7.356    0.219    0.440   92.770
  405.500    8.581    0.231    0.441   92.217
  405.750    8.844    0.228    0.459   91.419
  406.000    9.220    0.220    0.422   87.676
  406.250    9.432    0.220    0.422   86.019
  406.500    9.488    0.241    0.447   85.282
  406.750    9.419    0.262    0.451   86.264
  407.000    9.317    0.278    0.445   87.676
  407.250    9.371    0.234    0.437   88.351
  407.500    9.642    0.245    0.430   87.246
  407.750    9.808    0.265    0.440   83.994
  408.000    9.904    0.261    0.448   80.802
  408.250    9.814    0.236    0.432   83.257
  408.500    9.688    0.210    0.417   86.817
  408.750    9.440    0.197    0.412   89.456
  409.000    9.266    0.191    0.420   90.991
  409.250    9.148    0.201    0.408   90.684
  409.500    9.151    0.223    0.430   87.308
  409.750    9.204    0.236    0.457   87.677
  410.000    9.155    0.219    0.456   89.764
  410.250    8.954    0.196    0.441   91.544
  410.500    8.724    0.189    0.432   94.060
  410.750    8.343    0.194    0.436   95.533
  411.000    8.159    0.193    0.444   95.717
  411.250    7.920    0.188    0.449   94.613
  411.500    7.659    0.195    0.434   91.605
  411.750    7.505    0.206    0.424   90.378
  412.000    7.436    0.207    0.428   95.043
  412.250    7.314    0.228    0.416   96.516
  412.500    7.316    0.237    0.428   96.270
  412.750    7.401    0.242    0.443   98.480
  413.000    7.571    0.246    0.462  100.444
  413.250    7.673    0.241    0.464  100.628
  413.500    7.633    0.234    0.439   97.989
  413.750    7.535    0.228    0.468   96.884
  414.000    7.341    0.225    0.464   97.928
  414.250    7.330    0.223    0.474   98.235
  414.500    7.209    0.226    0.487   93.754
  414.750    7.091    0.232    0.493   91.729
  415.000    7.052    0.237    0.447   97.683
  415.250    7.001    0.221    0.460  100.690
  415.500    6.964    0.212    0.474   97.253
  415.750    6.863    0.208    0.455   95.780
  416.000    6.825    0.215    0.478   99.585
  416.250    6.688    0.220    0.479  102.347
  416.500    6.528    0.221    0.456  101.059
  416.750    6.266    0.210    0.464   97.499
  417.000    5.760    0.212    0.483  101.304
  417.250    5.053    0.221    0.469  103.943
  417.500    4.483    0.226    0.435  105.539
  417.750    3.738    0.233    0.437  107.319
  418.000    3.088    0.240    0.472  109.774
  418.250    2.714    0.247    0.557  110.818
  418.500    2.421    0.255    0.558  110.327
  418.750    2.372    0.258    0.557  102.962
  419.000    2.445    0.246    0.564  104.803
  419.250    2.554    0.235    0.547  105.601
  419.500    2.733    0.226    0.516  104.865
  419.750    2.886    0.215    0.484  104.312
  420.000    3.106    0.268    0.452  102.164
  420.250    3.504    0.274    0.467   98.912
  420.500    3.742    0.260    0.484   96.518
  420.750    4.205    0.244    0.472   97.439
  421.000    4.466    0.237    0.461   98.728
  421.250    4.726    0.242    0.468   99.096
  421.500    4.972    0.249    0.454   96.703
  421.750    5.183    0.260    0.461   90.749
  422.000    5.444    0.267    0.465   85.103
  422.250    5.696    0.277    0.435   82.034
  422.500    5.893    0.286    0.456   85.103
  422.750    5.906    0.296    0.473   87.865
  423.000    5.885    0.302    0.484   89.461
  423.250    5.810    0.300    0.505   85.840
  423.500    5.802    0.298    0.508   82.587
  423.750    5.813    0.296    0.489   81.298
  424.000    5.969    0.291    0.467   83.078
  424.250    6.038    0.280    0.462   85.533
  424.500    5.862    0.273    0.455   88.479
  424.750    5.532    0.294    0.464   89.891
  425.000    5.211    0.306    0.471   88.050
  425.250    5.106    0.306    0.453   84.429
  425.500    5.254    0.305    0.485   85.963
  425.750    5.334    0.320    0.524   85.656
  426.000    6.028    0.339    0.479   82.281
  426.250    6.260    0.343    0.495   78.476
  426.500    6.476    0.340    0.499   76.082
  426.750    6.776    0.323    0.468   79.028
  427.000    6.997    0.300    0.468   81.606
  427.250    7.105    0.269    0.482   84.061
  427.500    6.923    0.254    0.468   86.762
  427.750    6.758    0.249    0.438   86.148
  428.000    6.511    0.244    0.415   85.473
  428.250    6.379    0.237    0.400   89.892
  428.500    6.251    0.231    0.415   93.697
  428.750    6.301    0.227    0.415   96.459
  429.000    6.325    0.224    0.416   97.932
  429.250    6.544    0.221    0.415   94.864
  429.500    6.835    0.219    0.407   93.145
  429.750    6.913    0.227    0.403   91.979
  430.000    6.850    0.233    0.403   91.427
  430.250    6.750    0.237    0.421   91.181
