~VERSION INFORMATION
 VERS.                 2.0:   CWLS LOG ASCII STANDARD -VERSION 2.0
 WRAP.                  NO:   ONE LINE PER DEPTH STEP
~WELL INFORMATION BLOCK
#MNEM.UNIT           DATA                    DESCRIPTION OF MNEMONIC
#---------    -------------------            -------------------------------
# Generated from Intellog Unique Number	CS_67_68/WELL/2207
WELL.         BVX ATMORE                     : Well_name    - WELL
LOC .         00/11-12-067-16W4/0            : Location     - LOCATION
UWI .         00/11-12-067-16W4/0            : Uwi          - UNIQUE WELL ID
ENTR.         SP                             : Entered      - ENTERED BY
SRVC.         SCHLUMBERGER                   : Scn          - SERVICE COMPANY
STRT.M        374.904                        : top_depth    - START DEPTH
STOP.M        563.654                        : bot_depth    - STOP DEPTH
STEP.M        0.25                           : increment    - STEP LENGTH
 NULL. -999.2500:NULL Value
~CURVE INFORMATION BLOCK
#MNEM UNIT       ERCB CURVE CODE    CURVE DESCRIPTION
#-----------   ------------------   ----------------------------------
DEPT.M        00 001 00 00         : DEPTH        - DEPTH
CALI.MM       00 280 01 00         : CAL          - CALIPER
GR  .API      00 310 00 00         : GR           - GAMMA RAY
DPHI.V/V      00 890 00 00         : PHID         - DENSITY POROSITY (SANDSTONE)
NPHI.V/V      00 330 00 00         : PHIN         - NEUTRON POROSITY (SANDSTONE)
ILD .OHMM     00 120 00 00         : RESD         - DEEP RESISTIVITY (DIL)
~PARAMETER INFORMATION
#MNEM.UNIT           DATA             DESCRIPTION OF MNEMONIC
#---------         -----------     ------------------------------
GL  .M        612.953              : gl           - GROUND LEVEL ELEVATION
EREF.M        616.001              : kb           - ELEVATION OF DEPTH REFERENCE
DATM.M        616.001              : datum        - DATUM ELEVATION
TDD .M        567.233              : tdd          - TOTAL DEPTH DRILLER
RUN .         ONE                  : Run          - RUN NUMBER
ENG .         BILL                 : Engineer     - RECORDING ENGINEER
WIT .         JIM                  : Witness      - WITNESSED BY
MUD .         GEL                  : Mud_type     - MUD TYPE
MATR.         SANDSTONE            : Logunit      - NEUTRON MATRIX
TMAX.C        20                   : BHT          - MAXIMUM RECORDED TEMPERATURE
BHTD.M        567.538              : BHTDEP       - MAXIMUM RECORDED TEMPERATURE
MATR.         1                    : LOGUNIT      - NEUTRON MATRIX
RMT .C        25                   : MDTP         - TEMPERATURE OF MUD
NEUT.         1                    : NEUTRON      - NEUTRON TYPE
RESI.         0                    : RESIST       - RESISTIVITY TYPE
RMC .OHMM     0.25                 : RMC          - RESISTIVITY OF MUD CAKE
RMF .OHMM     0.25                 : RMF          - RESISTIVITY OF MUD FILTRATE
SUFT.C        15                   : SUFT         - SURFACE TEMPERATURE
~A  DEPTH      CAL       GR     PHID     PHIN     RESD
# ...
  520.904  169.375  113.870    0.101    0.397    2.919
  521.154  168.865  118.447    0.134    0.409    2.884
  521.404  168.288  122.590    0.145    0.421    2.844
  521.654  167.848  123.379    0.153    0.449    2.795
  521.904  167.495  121.455    0.136    0.470    2.753
  522.154  167.491  123.173    0.138    0.458    2.706
  522.404  167.071  123.829    0.168    0.488    2.687
  522.654  166.442  122.003    0.172    0.512    2.705
  522.904  165.675  119.490    0.172    0.489    2.745
  523.154  165.283  121.676    0.188    0.450    2.774
  523.404  164.989  122.806    0.181    0.475    2.794
  523.654  164.889  119.879    0.146    0.493    2.869
  523.904  165.063  117.621    0.119    0.490    2.983
  524.154  165.277  114.859    0.108    0.442    3.097
  524.404  165.565  112.352    0.126    0.449    3.145
  524.654  166.434  115.140    0.155    0.476    3.226
  524.904  167.194  117.271    0.173    0.495    3.323
  525.154  167.817  117.236    0.186    0.480    3.455
  525.404  168.573  114.130    0.157    0.454    3.629
  525.654  168.794  111.715    0.113    0.448    3.898
  525.904  168.656  107.675    0.087    0.447    3.871
  526.154  167.687  105.188    0.061    0.437    3.329
  526.404  166.831  109.231    0.180    0.362    2.940
  526.654  165.825  118.158    0.193    0.442    2.658
  526.904  165.763  128.020    0.209    0.503    2.386
  527.154  166.046  128.503    0.218    0.553    2.247
  527.404  166.517  123.681    0.174    0.532    2.242
  527.654  166.907  120.963    0.189    0.553    2.306
  527.904  167.331  119.941    0.200    0.543    2.385
  528.154  167.395  119.745    0.208    0.513    2.481
  528.404  167.442  120.159    0.203    0.501    2.654
  528.654  167.423  120.171    0.205    0.494    2.825
  528.904  167.642  117.946    0.201    0.502    3.145
  529.154  167.725  110.430    0.191    0.501    3.541
  529.404  167.025   95.400    0.182    0.396    4.312
  529.654  164.842   83.364    0.182    0.372    5.349
  529.904  163.068   79.316    0.193    0.351    6.204
  530.154  161.624   74.918    0.191    0.345    7.089
  530.404  160.832   69.375    0.193    0.335    8.037
  530.654  160.453   65.161    0.209    0.323    9.178
  530.904  160.197   62.919    0.213    0.317   10.609
  531.154  160.385   63.979    0.202    0.323   11.777
  531.404  161.055   66.519    0.190    0.328   12.572
  531.654  162.220   69.270    0.182    0.327   12.613
  531.904  163.105   71.452    0.176    0.323   12.372
  532.154  163.703   72.395    0.210    0.319   12.046
  532.404  164.109   74.186    0.206    0.327   10.975
  532.654  164.447   76.620    0.200    0.328    9.999
  532.904  164.176   79.186    0.194    0.323    9.383
  533.154  163.258   79.967    0.195    0.318    9.022
  533.404  162.934   80.050    0.190    0.317    8.635
  533.654  163.091   81.782    0.187    0.316    8.378
  533.904  164.116   84.106    0.176    0.313    8.151
  534.154  166.168   86.260    0.166    0.312    8.057
  534.404  167.379   87.447    0.155    0.310    7.889
  534.654  167.888   88.023    0.148    0.311    7.703
  534.904  167.859   86.450    0.141    0.316    7.550
  535.154  164.394   83.559    0.140    0.320    7.367
  535.404  163.077   83.014    0.154    0.313    7.222
  535.654  162.644   77.369    0.182    0.298    7.231
  535.904  162.661   67.044    0.236    0.286    7.580
  536.154  162.179   48.689    0.318    0.247    8.568
  536.404  161.833   41.838    0.354    0.211    9.480
  536.654  161.804   44.197    0.343    0.190    8.406
  536.904  161.976   54.691    0.330    0.241    5.484
  537.154  162.138   65.336    0.314    0.289    3.856
  537.404  162.508   75.808    0.292    0.313    3.295
  537.654  162.557   83.455    0.276    0.333    2.953
  537.904  163.025   89.437    0.267    0.339    2.820
  538.154  163.481   93.245    0.260    0.335    2.922
  538.404  163.630   95.847    0.247    0.334    3.162
  538.654  163.885   97.476    0.230    0.340    3.459
  538.904  164.277   99.361    0.218    0.347    3.798
  539.154  164.363  100.452    0.210    0.352    3.986
  539.404  164.293  101.436    0.204    0.354    4.059
  539.654  163.449  103.939    0.215    0.352    4.105
  539.904  162.585  106.858    0.204    0.350    4.239
  540.154  166.521  109.771    0.174    0.344    4.401
  540.404  169.373  112.158    0.161    0.338    4.664
  540.654  169.979  112.413    0.191    0.348    4.822
  540.904  165.240  100.710    0.225    0.358    4.885
  541.154  164.726   92.177    0.239    0.356    4.840
  541.404  167.172   86.799    0.236    0.349    4.747
  541.654  169.230   87.204    0.227    0.345    4.601
  541.904  170.996   87.211    0.219    0.345    4.359
  542.154  171.416   80.997    0.212    0.348    4.084
  542.404  170.005   76.189    0.238    0.358    3.693
  542.654  168.218   73.115    0.258    0.362    3.299
  542.904  167.842   78.907    0.257    0.360    3.070
  543.154  167.937   83.413    0.250    0.358    3.053
  543.404  168.056   89.272    0.243    0.354    3.159
  543.654  168.846   92.026    0.220    0.345    3.346
  543.904  168.922   94.801    0.195    0.343    3.656
  544.154  166.658   95.851    0.177    0.338    3.951
  544.404  163.635   92.143    0.171    0.332    4.226
  544.654  162.168   84.509    0.205    0.335    4.446
  544.904  161.621   76.084    0.257    0.353    4.524
  545.154  161.357   66.507    0.294    0.364    3.575
  545.404  161.468   61.442    0.294    0.378    2.988
  545.654  161.341   67.198    0.280    0.368    2.496
  545.904  161.239   77.128    0.268    0.350    2.185
  546.154  161.189   87.088    0.258    0.342    2.168
  546.404  161.340   94.843    0.250    0.334    2.521
  546.654  161.337  102.843    0.248    0.339    3.097
  546.904  161.340  108.541    0.250    0.350    3.602
  547.154  161.441  112.638    0.271    0.377    4.130
  547.404  161.438  115.900    0.302    0.523    4.519
  547.654  161.479  109.464    0.342    0.575    3.455
  547.904  161.398   74.832    0.342    0.605    2.773
  548.154  161.234   61.783    0.329    0.592    2.411
  548.404  161.105   57.685    0.319    0.365    2.066
  548.654  160.996   62.185    0.312    0.366    1.867
  548.904  160.672   67.513    0.310    0.369    1.869
  549.154  160.601   73.233    0.305    0.377    1.990
  549.404  160.489   81.601    0.298    0.379    2.129
  549.654  160.279   87.881    0.289    0.382    2.414
  549.904  160.184   96.853    0.270    0.370    3.238
  550.154  160.361  105.935    0.246    0.359    4.130
  550.404  160.719  114.500    0.212    0.374    4.585
  550.654  161.336  118.079    0.177    0.380    4.861
  550.904  162.256  119.849    0.163    0.333    5.033
  551.154  163.434  114.622    0.154    0.309    5.213
  551.404  164.899  111.531    0.143    0.294    5.491
  551.654  166.564  111.167    0.133    0.286    5.754
  551.904  167.137  109.379    0.127    0.290    5.781
  552.154  166.995   97.123    0.118    0.304    4.443
  552.404  166.220   86.905    0.250    0.330    3.751
  552.654  164.952   74.009    0.270    0.342    3.174
  552.904  163.885   55.252    0.270    0.338    2.791
  553.154  163.120   57.751    0.261    0.332    2.718
  553.404  162.862   61.284    0.249    0.336    2.940
  553.654  162.915   67.820    0.243    0.334    3.190
  553.904  163.369   76.536    0.210    0.308    3.569
  554.154  163.578   86.986    0.182    0.284    4.410
  554.404  163.998   95.762    0.163    0.280    5.024
  554.654  164.472   99.799    0.180    0.292    5.397
  554.904  164.961  101.507    0.175    0.298    5.415
  555.154  165.618   72.808    0.171    0.299    4.841
  555.404  166.067   58.224    0.193    0.329    4.253
  555.654  165.947   53.979    0.213    0.350    3.545
  555.904  165.303   53.125    0.244    0.349    3.124
  556.154  164.580   53.027    0.251    0.353    2.786
  556.404  164.143   51.253    0.269    0.360    2.515
  556.654  164.122   51.129    0.285    0.353    2.355
  556.904  164.104   53.984    0.296    0.354    2.219
  557.154  164.194   60.240    0.291    0.354    2.167
