~VERSION INFORMATION
 VERS.                 2.0:   CWLS LOG ASCII STANDARD -VERSION 2.0
 WRAP.                  NO:   ONE LINE PER DEPTH STEP
~WELL INFORMATION BLOCK
#MNEM.UNIT           DATA                    DESCRIPTION OF MNEMONIC
#---------    -------------------            -------------------------------
# Generated from Intellog Unique Number	CS_71_72/WELL/896
WELL.         SUN CALLING LAKE               : Well_name    - WELL
LOC .         00/11-10-072-18W4/0            : Location     - LOCATION
UWI .         00/11-10-072-18W4/0            : Uwi          - UNIQUE WELL ID
ENTR.         SP                             : Entered      - ENTERED BY
SRVC.         SCHLUMBERGER                   : Scn          - SERVICE COMPANY
STRT.M        285                            : top_depth    - START DEPTH
STOP.M        465                            : bot_depth    - STOP DEPTH
STEP.M        0.25                           : increment    - STEP LENGTH
 NULL. -999.2500:NULL Value
~CURVE INFORMATION BLOCK
#MNEM UNIT       ERCB CURVE CODE    CURVE DESCRIPTION
#-----------   ------------------   ----------------------------------
DEPT.M        00 001 00 00         : DEPTH        - DEPTH
ILD .OHMM     00 120 00 00         : RESD         - DEEP RESISTIVITY (DIL)
DPHI.V/V      00 890 00 00         : PHID         - DENSITY POROSITY (LIMESTONE)
NPHI.V/V      00 330 00 00         : PHIN         - NEUTRON POROSITY (LIMESTONE)
GR  .API      00 310 00 00         : GR           - GAMMA RAY
~PARAMETER INFORMATION
#MNEM.UNIT           DATA             DESCRIPTION OF MNEMONIC
#---------         -----------     ------------------------------
GL  .M        598                  : gl           - GROUND LEVEL ELEVATION
EREF.M        598.6                : kb           - ELEVATION OF DEPTH REFERENCE
DATM.M        598                  : datum        - DATUM ELEVATION
TDD .M        486                  : tdd          - TOTAL DEPTH DRILLER
RUN .         ONE                  : Run          - RUN NUMBER
ENG .         BILL                 : Engineer     - RECORDING ENGINEER
WIT .         JIM                  : Witness      - WITNESSED BY
MUD .         GEL                  : Mud_type     - MUD TYPE
MATR.         LIMESTONE            : Logunit      - NEUTRON MATRIX
TMAX.C        27.8                 : BHT          - MAXIMUM RECORDED TEMPERATURE
BHTD.M        486                  : BHTDEP       - MAXIMUM RECORDED TEMPERATURE
MATR.         1                    : LOGUNIT      - NEUTRON MATRIX
RMT .C        25                   : MDTP         - TEMPERATURE OF MUD
NEUT.         1                    : NEUTRON      - NEUTRON TYPE
RESI.         0                    : RESIST       - RESISTIVITY TYPE
RMC .OHMM     0.25                 : RMC          - RESISTIVITY OF MUD CAKE
RMF .OHMM     0.25                 : RMF          - RESISTIVITY OF MUD FILTRATE
SUFT.C        15                   : SUFT         - SURFACE TEMPERATURE
~A  DEPTH     RESD     PHID     PHIN       GR
# ...
  328.500    8.821    0.293    0.489   86.892
  328.750    8.988    0.310    0.482   85.692
  329.000    8.991    0.300    0.486   83.282
  329.250    7.904    0.280    0.491   84.516
  329.500    7.210    0.265    0.489   87.578
  329.750    6.699    0.257    0.488   89.417
  330.000    6.112    0.256    0.494   90.037
  330.250    5.892    0.256    0.498   91.277
  330.500    5.576    0.259    0.494   90.678
  330.750    5.476    0.261    0.478   90.090
  331.000    5.378    0.237    0.472   90.711
  331.250    5.381    0.222    0.485   92.554
  331.500    5.483    0.228    0.476   93.783
  331.750    5.588    0.242    0.473   90.768
  332.000    5.590    0.256    0.481   88.352
  332.250    5.491    0.246    0.489   85.348
  332.500    5.392    0.240    0.491   84.750
  332.750    5.295    0.243    0.484   84.762
  333.000    5.106    0.247    0.480   84.785
  333.250    5.107    0.259    0.474   82.974
  333.500    5.204    0.302    0.463   79.954
  333.750    5.503    0.312    0.456   75.118
  334.000    5.820    0.297    0.450   75.741
  334.250    5.931    0.289    0.449   80.625
  334.500    6.043    0.269    0.451   81.851
  334.750    5.827    0.270    0.449   81.258
  335.000    5.618    0.258    0.452   82.494
  335.250    5.517    0.248    0.456   86.771
  335.500    5.127    0.247    0.467   88.607
  335.750    4.942    0.255    0.484   90.444
  336.000    5.037    0.265    0.501   91.678
  336.250    5.228    0.270    0.514   91.694
  336.500    5.632    0.270    0.511   90.501
  336.750    5.845    0.270    0.504   89.296
  337.000    6.181    0.259    0.506   84.458
  337.250    6.417    0.287    0.494   79.617
  337.500    6.661    0.299    0.489   75.985
  337.750    6.789    0.317    0.506   68.716
  338.000    6.918    0.345    0.529   62.666
  338.250    7.049    0.367    0.546   59.641
  338.500    6.924    0.378    0.576   54.802
  338.750    6.799    0.337    0.464   52.995
  339.000    6.677    0.307    0.446   54.839
  339.250    6.438    0.303    0.445   54.860
  339.500    6.207    0.307    0.443   54.873
  339.750    6.095    0.312    0.443   54.282
  340.000    5.986    0.313    0.442   54.302
  340.250    5.879    0.326    0.440   53.722
  340.500    5.774    0.329    0.440   53.129
  340.750    5.672    0.330    0.446   53.143
  341.000    5.674    0.330    0.458   52.548
  341.250    5.572    0.328    0.464   51.965
  341.500    5.575    0.340    0.466   51.368
  341.750    5.577    0.332    0.467   50.783
  342.000    5.477    0.330    0.453   50.188
  342.250    5.478    0.332    0.456   50.216
  342.500    5.480    0.328    0.459   50.229
  342.750    5.483    0.348    0.455   50.851
  343.000    5.486    0.354    0.453   52.082
  343.250    5.488    0.358    0.463   54.531
  343.500    5.491    0.358    0.466   55.764
  343.750    5.393    0.360    0.462   56.996
  344.000    5.701    0.362    0.469   57.617
  344.250    5.600    0.357    0.473   56.422
  344.500    5.601    0.351    0.464   57.654
  344.750    5.603    0.340    0.454   58.278
  345.000    5.503    0.340    0.450   58.902
  345.250    5.505    0.333    0.451   58.317
  345.500    5.508    0.338    0.464   58.342
  345.750    5.509    0.342    0.473   58.361
  346.000    5.512    0.342    0.469   58.374
  346.250    5.515    0.346    0.458   58.990
  346.500    5.517    0.351    0.451   61.443
  346.750    5.520    0.348    0.450   62.066
  347.000    5.521    0.339    0.458   62.691
  347.250    5.523    0.331    0.463   63.323
  347.500    5.526    0.330    0.463   63.335
  347.750    5.528    0.342    0.459   63.349
  348.000    5.633    0.338    0.457   62.761
  348.250    5.636    0.341    0.468   62.172
  348.500    5.638    0.344    0.474   61.586
  348.750    5.641    0.343    0.469   61.598
  349.000    5.643    0.343    0.461   61.630
  349.250    5.645    0.344    0.469   61.647
  349.500    5.648    0.347    0.478   61.663
  349.750    5.650    0.350    0.475   61.676
  350.000    5.653    0.344    0.471   61.083
  350.250    5.655    0.336    0.479   60.492
  350.500    5.656    0.328    0.472   61.117
  350.750    5.659    0.334    0.482   62.955
  351.000    5.661    0.348    0.485   62.971
  351.250    5.663    0.355    0.484   60.560
  351.500    5.666    0.351    0.474   61.188
  351.750    5.669    0.346    0.476   62.422
  352.000    5.670    0.345    0.478   62.441
  352.250    5.673    0.346    0.479   62.461
  352.500    5.675    0.351    0.474   62.470
  352.750    5.677    0.354    0.475   61.896
  353.000    5.679    0.361    0.485   61.913
  353.250    5.682    0.350    0.490   61.929
  353.500    5.684    0.349    0.490   61.941
  353.750    5.582    0.356    0.487   61.951
  354.000    5.585    0.359    0.480   60.151
  354.250    5.587    0.359    0.491   62.593
  354.500    5.589    0.358    0.507   64.434
  354.750    5.592    0.351    0.513   63.241
  355.000    5.594    0.348    0.495   60.827
  355.250    5.596    0.345    0.482   60.239
  355.500    5.598    0.346    0.488   60.867
  355.750    5.601    0.351    0.491   62.093
  356.000    5.604    0.353    0.487   63.938
  356.250    5.606    0.357    0.486   64.556
  356.500    5.608    0.352    0.488   65.189
  356.750    5.715    0.346    0.481   64.591
  357.000    5.717    0.329    0.471   66.438
  357.250    5.825    0.313    0.460   66.454
  357.500    6.160    0.289    0.447   65.257
  357.750    6.885    0.209    0.401   64.671
  358.000    8.758    0.151    0.318   64.073
  358.250    9.970    0.102    0.291   61.666
  358.500   11.997    0.105    0.283   59.259
  358.750   15.260    0.106    0.280   58.058
  359.000   17.373    0.099    0.283   56.253
  359.250   18.713    0.115    0.313   55.658
  359.500   17.387    0.126    0.351   55.070
  359.750   13.186    0.122    0.343   55.693
  360.000   10.766    0.180    0.354   59.964
  360.250    8.790    0.222    0.382   64.842
  360.500    7.045    0.274    0.423   68.510
  360.750    6.308    0.310    0.477   69.736
  361.000    5.546    0.325    0.495   70.971
  361.250    5.347    0.308    0.502   70.987
  361.500    5.349    0.311    0.505   71.001
  361.750    5.352    0.321    0.501   71.023
  362.000    5.256    0.319    0.486   72.262
  362.250    5.257    0.305    0.477   72.883
  362.500    5.260    0.300    0.472   72.899
  362.750    5.263    0.299    0.465   74.735
  363.000    5.168    0.304    0.468   74.755
  363.250    5.170    0.304    0.462   74.164
  363.500    5.171    0.297    0.457   76.613
  363.750    5.272    0.281    0.452   80.273
  364.000    5.274    0.256    0.454   86.980
  364.250    5.374    0.237    0.460   88.816
  364.500    5.376    0.206    0.462   90.649
  364.750    5.477    0.193    0.469   92.490
  365.000    5.480    0.207    0.475   94.329
  365.250    5.482    0.213    0.482   96.176
  365.500    5.384    0.222    0.482   96.185
  365.750    5.289    0.207    0.480   94.988
  366.000    5.194    0.196    0.487   92.582
  366.250    5.101    0.211    0.483   91.388
  366.500    5.009    0.185    0.475   91.397
  366.750    4.830    0.198    0.485   90.204
  367.000    4.743    0.212    0.487   89.016
  367.250    4.573    0.216    0.488   88.420
  367.500    4.409    0.214    0.488   87.827
  367.750    4.173    0.227    0.488   89.058
  368.000    3.950    0.242    0.490   90.298
  368.250    3.878    0.276    0.496   89.092
  368.500    3.809    0.292    0.507   83.036
  368.750    3.882    0.315    0.523   76.981
  369.000    4.105    0.333    0.531   72.140
  369.250    4.422    0.359    0.545   67.297
  369.500    4.589    0.353    0.499   62.456
  369.750    4.764    0.348    0.475   65.511
  370.000    4.855    0.348    0.479   67.958
  370.250    4.681    0.356    0.489   65.549
  370.500    4.514    0.357    0.497   60.718
  370.750    4.432    0.362    0.514   59.514
  371.000    4.273    0.348    0.508   58.922
  371.250    4.275    0.342    0.457   58.946
  371.500    4.277    0.335    0.457   59.570
  371.750    4.278    0.339    0.461   60.193
