~VERSION INFORMATION
 VERS.                 2.0:   CWLS LOG ASCII STANDARD -VERSION 2.0
 WRAP.                  NO:   ONE LINE PER DEPTH STEP
~WELL INFORMATION BLOCK
#MNEM.UNIT           DATA                    DESCRIPTION OF MNEMONIC
#---------    -------------------            -------------------------------
# Generated from Intellog Unique Number	CS_67_68/WELL/2207
WELL.         BVX ATMORE                     : Well_name    - WELL
LOC .         00/11-12-067-16W4/0            : Location     - LOCATION
UWI .         00/11-12-067-16W4/0            : Uwi          - UNIQUE WELL ID
ENTR.         SP                             : Entered      - ENTERED BY
SRVC.         SCHLUMBERGER                   : Scn          - SERVICE COMPANY
STRT.M        374.904                        : top_depth    - START DEPTH
STOP.M        563.654                        : bot_depth    - STOP DEPTH
STEP.M        0.25                           : increment    - STEP LENGTH
 NULL. -999.2500:NULL Value
~CURVE INFORMATION BLOCK
#MNEM UNIT       ERCB CURVE CODE    CURVE DESCRIPTION
#-----------   ------------------   ----------------------------------
DEPT.M        00 001 00 00         : DEPTH        - DEPTH
CALI.MM       00 280 01 00         : CAL          - CALIPER
GR  .API      00 310 00 00         : GR           - GAMMA RAY
DPHI.V/V      00 890 00 00         : PHID         - DENSITY POROSITY (SANDSTONE)
NPHI.V/V      00 330 00 00         : PHIN         - NEUTRON POROSITY (SANDSTONE)
ILD .OHMM     00 120 00 00         : RESD         - DEEP RESISTIVITY (DIL)
~PARAMETER INFORMATION
#MNEM.UNIT           DATA             DESCRIPTION OF MNEMONIC
#---------         -----------     ------------------------------
GL  .M        612.953              : gl           - GROUND LEVEL ELEVATION
EREF.M        616.001              : kb           - ELEVATION OF DEPTH REFERENCE
DATM.M        616.001              : datum        - DATUM ELEVATION
TDD .M        567.233              : tdd          - TOTAL DEPTH DRILLER
RUN .         ONE                  : Run          - RUN NUMBER
ENG .         BILL                 : Engineer     - RECORDING ENGINEER
WIT .         JIM                  : Witness      - WITNESSED BY
MUD .         GEL                  : Mud_type     - MUD TYPE
MATR.         SANDSTONE            : Logunit      - NEUTRON MATRIX
TMAX.C        20                   : BHT          - MAXIMUM RECORDED TEMPERATURE
BHTD.M        567.538              : BHTDEP       - MAXIMUM RECORDED TEMPERATURE
MATR.         1                    : LOGUNIT      - NEUTRON MATRIX
RMT .C        25                   : MDTP         - TEMPERATURE OF MUD
NEUT.         1                    : NEUTRON      - NEUTRON TYPE
RESI.         0                    : RESIST       - RESISTIVITY TYPE
RMC .OHMM     0.25                 : RMC          - RESISTIVITY OF MUD CAKE
RMF .OHMM     0.25                 : RMF          - RESISTIVITY OF MUD FILTRATE
SUFT.C        15                   : SUFT         - SURFACE TEMPERATURE
~A  DEPTH      CAL       GR     PHID     PHIN     RESD
# ...
  484.404  161.962   68.649    0.305    0.489    1.958
  484.654  161.932   65.997    0.312    0.471    1.964
  484.904  162.032   64.800    0.305    0.463    1.973
  485.154  161.891   63.874    0.304    0.449    1.998
  485.404  161.499   63.667    0.311    0.436    2.043
  485.654  161.505   64.077    0.305    0.431    2.220
  485.904  161.685   64.945    0.301    0.416    2.400
  486.154  162.193   67.646    0.295    0.401    2.554
  486.404  162.655   71.835    0.286    0.396    2.781
  486.654  162.752   76.653    0.281    0.424    2.989
  486.904  162.705   79.549    0.278    0.439    3.164
  487.154  162.865   81.729    0.264    0.426    3.300
  487.404  162.942   85.391    0.227    0.402    3.374
  487.654  163.632   90.538    0.220    0.401    3.357
  487.904  164.015   95.300    0.209    0.431    3.342
  488.154  164.518   98.250    0.197    0.462    3.335
  488.404  165.016  101.283    0.217    0.447    3.360
  488.654  165.570  103.551    0.215    0.453    3.343
  488.904  166.300  105.688    0.208    0.459    3.370
  489.154  166.829  107.365    0.209    0.453    3.418
  489.404  167.260  104.999    0.202    0.447    3.439
  489.654  167.194  102.906    0.206    0.461    3.437
  489.904  167.238  104.242    0.205    0.473    3.455
  490.154  167.152  105.608    0.206    0.483    3.492
  490.404  166.988  105.795    0.215    0.474    3.524
  490.654  167.005  105.372    0.210    0.470    3.564
  490.904  167.284  104.096    0.205    0.466    3.605
  491.154  167.470  103.253    0.198    0.453    3.632
  491.404  167.359  103.083    0.191    0.436    3.639
  491.654  167.370  103.988    0.196    0.437    3.676
  491.904  167.459  105.817    0.194    0.457    3.708
  492.154  167.569  107.878    0.187    0.471    3.700
  492.404  167.653  104.596    0.180    0.435    3.655
  492.654  167.911  105.532    0.202    0.422    3.510
  492.904  168.355  108.802    0.232    0.457    3.320
  493.154  168.621  111.830    0.239    0.486    3.112
  493.404  169.371  114.246    0.237    0.504    2.861
  493.654  169.368  113.356    0.243    0.487    2.626
  493.904  169.463  113.071    0.244    0.467    2.465
  494.154  169.314  116.553    0.230    0.529    2.346
  494.404  169.543  119.567    0.236    0.570    2.259
  494.654  169.666  119.403    0.259    0.584    2.219
  494.904  169.975  116.730    0.262    0.570    2.177
  495.154  170.447  117.261    0.276    0.587    2.137
  495.404  171.046  118.811    0.274    0.610    2.114
  495.654  171.484  120.243    0.258    0.585    2.094
  495.904  171.732  121.527    0.251    0.550    2.091
  496.154  171.569  122.593    0.245    0.543    2.084
  496.404  171.002  122.440    0.237    0.551    2.116
  496.654  169.905  121.185    0.232    0.542    2.222
  496.904  168.328  118.625    0.237    0.531    2.397
  497.154  167.931  116.180    0.245    0.534    2.617
  497.404  168.445  113.836    0.232    0.485    2.885
  497.654  168.952  111.686    0.193    0.438    2.964
  497.904  170.779  109.771    0.198    0.424    2.915
  498.154  172.209  108.432    0.209    0.414    2.896
  498.404  172.695  109.319    0.211    0.425    2.938
  498.654  172.315  110.529    0.209    0.437    3.114
  498.904  171.654  110.692    0.208    0.447    3.315
  499.154  170.292  106.075    0.210    0.459    3.620
  499.404  167.266   99.895    0.207    0.465    3.950
  499.654  164.627   93.009    0.210    0.475    4.318
  499.904  163.472   91.142    0.225    0.462    4.645
  500.154  163.582   90.568    0.230    0.441    4.930
  500.404  164.258   89.713    0.201    0.431    5.175
  500.654  164.971   89.620    0.164    0.415    5.484
  500.904  165.944   89.299    0.148    0.390    5.877
  501.154  166.049   87.172    0.146    0.380    6.314
  501.404  165.502   84.702    0.170    0.381    6.836
  501.654  165.051   83.439    0.188    0.375    7.291
  501.904  164.540   84.028    0.191    0.351    6.267
  502.154  164.100   87.853    0.131    0.329    5.412
  502.404  164.155   92.691    0.099    0.319    4.898
  502.654  164.192   99.864    0.129    0.358    4.448
  502.904  164.461  102.831    0.152    0.386    4.144
  503.154  164.678  102.477    0.172    0.399    3.950
  503.404  164.881  101.304    0.164    0.416    3.880
  503.654  164.875   99.424    0.154    0.412    3.923
  503.904  164.902   97.455    0.163    0.410    4.003
  504.154  165.069   95.895    0.151    0.424    4.078
  504.404  165.207   94.326    0.142    0.394    4.164
  504.654  165.409   97.868    0.142    0.376    4.212
  504.904  165.964  102.198    0.185    0.406    4.250
  505.154  166.524  104.280    0.190    0.421    4.291
  505.404  166.892  104.609    0.181    0.426    4.315
  505.654  167.149  104.814    0.194    0.396    4.298
  505.904  167.264  104.836    0.191    0.398    4.252
  506.154  167.247  104.479    0.183    0.405    4.172
  506.404  167.065  104.232    0.177    0.391    4.143
  506.654  166.815  101.497    0.168    0.378    4.114
  506.904  166.424  103.235    0.168    0.387    4.026
  507.154  165.948  105.183    0.183    0.399    3.954
  507.404  165.150  106.180    0.189    0.401    3.907
  507.654  164.098  106.540    0.188    0.389    3.885
  507.904  163.828  107.067    0.189    0.404    3.885
  508.154  163.571  107.719    0.190    0.403    3.900
  508.404  163.891  108.520    0.190    0.391    3.941
  508.654  164.382  108.047    0.184    0.389    3.995
  508.904  164.855  102.155    0.174    0.391    4.099
  509.154  165.241   98.711    0.157    0.399    4.193
  509.404  166.080   97.597    0.161    0.400    4.441
  509.654  166.673  100.477    0.175    0.400    4.754
  509.904  167.189   95.094    0.173    0.399    4.865
  510.154  167.017   88.186    0.158    0.373    4.841
  510.404  166.684   90.726    0.130    0.337    4.689
  510.654  166.371   98.429    0.126    0.334    4.549
  510.904  166.206  105.526    0.166    0.370    4.488
  511.154  166.380  110.433    0.180    0.393    4.484
  511.404  166.353  107.274    0.181    0.415    4.621
  511.654  166.599  104.120    0.181    0.406    4.762
  511.904  166.479  100.597    0.186    0.383    4.849
  512.154  166.346  103.404    0.178    0.366    4.890
  512.404  165.836  105.898    0.186    0.359    4.886
  512.654  165.597  108.162    0.190    0.363    4.801
  512.904  165.356  108.655    0.186    0.371    4.716
  513.154  165.127  104.211    0.175    0.382    4.624
  513.404  165.528  103.333    0.152    0.398    4.574
  513.654  165.703   99.755    0.128    0.400    4.180
  513.904  166.154   96.176    0.105    0.384    3.253
  514.154  166.152   93.489    0.153    0.380    2.824
  514.404  166.018   97.124    0.195    0.393    2.506
  514.654  166.125  101.090    0.213    0.422    2.221
  514.904  166.023  104.020    0.233    0.499    2.031
  515.154  166.113  106.019    0.224    0.548    1.952
  515.404  166.119  107.038    0.229    0.571    1.969
  515.654  166.160  111.062    0.229    0.562    1.925
  515.904  166.330  114.096    0.219    0.537    1.862
  516.154  166.365  114.926    0.218    0.523    1.870
  516.404  165.657  115.452    0.218    0.536    1.912
  516.654  164.946  116.094    0.213    0.562    1.951
  516.904  163.473  117.020    0.222    0.580    2.028
  517.154  162.795  117.143    0.215    0.590    2.118
  517.404  163.581  115.543    0.205    0.552    2.263
  517.654  165.116  113.997    0.199    0.518    2.455
  517.904  165.966  110.913    0.193    0.494    2.814
  518.154  167.144  107.641    0.190    0.479    3.223
  518.404  167.846  105.335    0.181    0.455    3.560
  518.654  168.116  103.659    0.155    0.408    3.784
  518.904  168.773  102.074    0.127    0.409    3.978
  519.154  169.334   98.445    0.114    0.381    3.915
  519.404  169.396  100.013    0.105    0.348    3.709
  519.654  169.486  107.555    0.092    0.380    3.462
  519.904  169.678  113.982    0.116    0.425    3.316
  520.154  169.785  117.085    0.155    0.450    3.143
  520.404  169.988  113.380    0.156    0.447    3.007
  520.654  169.938  109.743    0.095    0.396    2.944
