~VERSION INFORMATION
 VERS.                 2.0:   CWLS LOG ASCII STANDARD -VERSION 2.0
 WRAP.                  NO:   ONE LINE PER DEPTH STEP
~WELL INFORMATION BLOCK
#MNEM.UNIT           DATA                    DESCRIPTION OF MNEMONIC
#---------    -------------------            -------------------------------
# Generated from Intellog Unique Number	CW_70_72/WELL/1047
NULL.         -999.25                        : NULL_VALUE
WELL.         SUNDANCE ET AL TOMATO 10-33    : Well_name    - WELL              
LOC .         10-33-072-23W4                 : Location     - LOCATION          
UWI .         00/10-33-072-23W4/0            : Uwi          - UNIQUE WELL ID    
ENTR.         JAYE                           : Entered      - ENTERED BY        
SRVC.         SCHLUMBERGER                   : Scn          - SERVICE COMPANY   
DATE.         11 JAN 74                      : Date         - LOG DATE          
STRT.M        414.528                        : top_depth    - START DEPTH       
STOP.M        637.028                        : bot_depth    - STOP DEPTH        
STEP.M        0.25                           : increment    - STEP LENGTH       
~CURVE INFORMATION BLOCK
#MNEM UNIT       ERCB CURVE CODE    CURVE DESCRIPTION
#-----------   ------------------   ----------------------------------
DEPT.M        00 001 00 00         : DEPTH        - DEPTH                       
DPHI.V/V      00 890 00 00         : PHID         - DENSITY POROSITY (SANDSTONE)
NPHI.V/V      00 330 00 00         : PHIN         - NEUTRON POROSITY (SANDSTONE)
GR  .API      00 310 00 00         : GR           - GAMMA RAY                   
CALI.MM       00 280 01 00         : CAL          - CALIPER                     
ILD .OHMM     00 120 00 00         : RESD         - DEEP RESISTIVITY (DIL)      
~PARAMETER INFORMATION       
#MNEM.UNIT           DATA             DESCRIPTION OF MNEMONIC
#---------         -----------     ------------------------------
GL  .M        670.103              : gl           - GROUND LEVEL ELEVATION      
EREF.M        673.151              : kb           - ELEVATION OF DEPTH REFERENCE
DATM.M        670.103              : datum        - DATUM ELEVATION             
TDD .M        647.09               : tdd          - TOTAL DEPTH DRILLER         
RUN .         ONE                  : Run          - RUN NUMBER                  
MATR.         SANDSTONE            : Logunit      - NEUTRON MATRIX              
TMAX.C        41.6667              : BHT          - MAXIMUM RECORDED TEMPERATURE
BHTD.M        646.176              : BHTDEP       - MAXIMUM RECORDED TEMPERATURE
RMT .C        14.4444              : MDTP         - TEMPERATURE OF MUD          
MUDD.KG/M     0                    : MWT          - MUD DENSITY                 
NEUT.         1                    : NEUTRON      - NEUTRON TYPE                
RESI.         0                    : RESIST       - RESISTIVITY TYPE            
RM  .OHMM     3.72                 : RM           - RESISTIVITY OF MUD          
RMC .OHMM     0                    : RMC          - RESISTIVITY OF MUD CAKE     
RMF .OHMM     2.21                 : RMF          - RESISTIVITY OF MUD FILTRATE 
SUFT.C        0                    : SUFT         - SURFACE TEMPERATURE         
~A  DEPTH     PHID     PHIN       GR      CAL     RESD
# ...
  597.028    0.075    0.347  104.347  169.418    6.297
  597.278    0.051    0.282   94.948  167.532    6.936
  597.528    0.002    0.267   86.593  166.063    7.710
  597.778    0.005    0.290   75.045  165.635    8.842
  598.028    0.037    0.349   72.091  163.957   10.464
  598.278    0.048    0.369   85.708  164.566   11.230
  598.528    0.058    0.355   91.469  164.759   11.450
  598.778    0.066    0.337   89.803  164.641   10.827
  599.028    0.076    0.344   96.054  164.105   10.183
  599.278    0.116    0.370   98.133  164.193    9.349
  599.528    0.099    0.381   97.633  164.598    8.538
  599.778    0.081    0.380   98.607  165.206    8.162
  600.028    0.094    0.371   96.573  165.817    7.875
  600.278    0.049    0.355   96.380  166.218    7.613
  600.528    0.052    0.365  101.957  166.826    7.428
  600.778    0.092    0.384  105.386  167.744    7.232
  601.028    0.122    0.395  104.763  168.251    7.031
  601.278    0.101    0.408  106.412  168.757    6.858
  601.528    0.116    0.415  108.736  169.053    6.678
  601.778    0.091    0.399  110.998  169.042    6.491
  602.028    0.106    0.402  109.761  167.572    6.252
  602.278    0.131    0.412  106.624  165.269    6.100
  602.528    0.132    0.405  103.669  165.775    6.060
  602.778    0.054    0.400  100.899  166.486    6.055
  603.028    0.044    0.402   98.374  166.891    6.220
  603.278    0.044    0.380   95.419  167.912    6.567
  603.528    0.018    0.339   89.948  168.210    6.998
  603.778   -0.004    0.324   85.767  168.613    7.456
  604.028    0.024    0.340   95.885  168.912    8.122
  604.278    0.068    0.342   97.349  169.312    8.865
  604.528    0.094    0.340  100.164  169.713    9.325
  604.778    0.084    0.343  104.389  169.283    9.368
  605.028    0.075    0.361  108.555  169.267    8.398
  605.278    0.071    0.357  108.792  169.253    7.204
  605.528    0.061    0.335  103.628  169.241    7.172
  605.778    0.065    0.350   99.385  169.015    7.685
  606.028    0.088    0.365  103.550  168.899    8.235
  606.278    0.101    0.348  109.495  169.093    8.661
  606.528    0.088    0.340  110.652  169.807    9.128
  606.778    0.085    0.377  113.529  171.455    9.358
  607.028    0.069    0.425  117.755  172.377    8.435
  607.278    0.081    0.422  117.500  170.906    7.237
  607.528    0.050    0.358  116.264  167.983    7.298
  607.778    0.049    0.322  111.838  166.616    7.720
  608.028    0.057    0.307  105.507  166.601    8.226
  608.278    0.062    0.296   99.361  167.315    8.927
  608.528    0.073    0.299   93.706  167.924    9.759
  608.778    0.051    0.322   94.250  168.533   10.516
  609.028    0.052    0.339   99.519  168.828   10.860
  609.278    0.074    0.349  102.826  169.024   10.872
  609.528    0.090    0.351  105.149  168.803   10.822
  609.778    0.064    0.356  107.473  168.580   10.812
  610.028    0.057    0.375  111.086  168.668   10.843
  610.278    0.040    0.354  115.435  168.656   10.856
  610.528    0.058    0.363  122.975  167.810   10.867
  610.778    0.071    0.382  129.350  167.484   10.817
  611.028    0.072    0.377  139.898  167.778   10.650
  611.278    0.056    0.353  133.260  168.078   10.410
  611.528    0.058    0.334  120.241  168.271   10.193
  611.778    0.078    0.336  112.008  168.880    9.873
  612.028    0.083    0.343  106.906  169.382    9.630
  612.278    0.074    0.348  103.276  169.683    9.360
  612.528    0.086    0.351   99.708  169.978    9.048
  612.778    0.080    0.356   93.562  170.070    8.605
  613.028    0.097    0.370   88.950  170.264    8.332
  613.278    0.104    0.383   89.371  170.353    8.024
  613.528    0.120    0.393   92.739  170.649    7.672
  613.778    0.132    0.413   90.090  170.947    7.267
  614.028    0.124    0.433   84.926  170.310    6.760
  614.278    0.104    0.460   80.070  162.190    6.345
  614.528    0.118    0.427   74.537  161.135    6.088
  614.778    0.086    0.366   64.647  163.823    6.464
  615.028    0.016    0.178   62.245  162.146    7.619
  615.278    0.021    0.172   83.595  160.155    8.917
  615.528    0.050    0.199   94.143  158.790    9.876
  615.778    0.146    0.350   87.506  157.946    9.493
  616.028    0.272    0.321   75.898  156.475    9.010
  616.278    0.298    0.340   66.683  156.045    9.375
  616.528    0.260    0.375   66.184  156.758   10.231
  616.778    0.205    0.404   82.194  158.304   11.145
  617.028    0.138    0.354   90.900  161.199   12.097
  617.278    0.095    0.336   97.337  162.016   12.174
  617.528    0.081    0.374  110.156  162.626    9.336
  617.778    0.089    0.401  117.266  164.273    6.863
  618.028    0.081    0.426  123.027  165.506    5.282
  618.278    0.097    0.451  122.466  164.971    4.548
  618.528    0.114    0.428  120.862  163.295    4.316
  618.778    0.121    0.420  275.145  163.695    4.142
  619.028    0.113    0.452  282.016  164.615    4.062
  619.278    0.127    0.461  286.364  165.123    4.022
  619.528    0.121    0.477  283.348  165.837    3.961
  619.778    0.132    0.490  284.875  166.341    3.871
  620.028    0.158    0.519  302.542  166.222    3.756
  620.278    0.172    0.632  316.282  165.793    3.643
  620.528    0.165    0.639  327.443  164.842    3.522
  620.778    0.177    0.619  335.291  163.893    3.374
  621.028    0.169    0.628  331.784  162.527    3.279
  621.278    0.187    0.626  334.292  161.161    3.222
  621.528    0.194    0.606  340.421  159.693    3.366
  621.778    0.219    0.580  346.242  158.222    3.520
  622.028    0.197    0.553  347.523  157.690    3.690
  622.278    0.221    0.527  344.139  158.194    3.832
  622.528    0.220    0.575  355.240  159.115    4.121
  622.778    0.203    0.633  365.297  160.139    4.303
  623.028    0.186    0.649  385.603  161.580    4.593
  623.278    0.196    0.631  404.069  162.707    5.051
  623.528    0.213    0.617  412.714  163.630    5.522
  623.778    0.237    0.627  407.980  164.551    5.840
  624.028    0.259    0.658  396.617  165.265    6.189
  624.278    0.292    0.646  385.254  166.082    6.404
  624.528    0.290    0.638  367.446  166.276    6.493
  624.778    0.274    0.666  357.987  166.677    6.596
  625.028    0.290    0.692  346.255  167.179    6.399
  625.278    0.261    0.696  333.972  167.271    5.996
  625.528    0.252    0.670  320.031  167.153    5.839
  625.778    0.191    0.648  296.577  166.306    5.899
  626.028    0.167    0.628  280.918  165.876    6.228
  626.278    0.151    0.646  273.053  166.382    6.292
  626.528    0.154    0.665  269.546  168.447    6.093
  626.778    0.134    0.697  261.130  173.421    5.533
  627.028    0.103    0.701  254.002  172.055    5.016
  627.278    0.121    0.617  245.646  164.975    5.257
  627.528    0.055    0.436  221.272  158.827    5.550
  627.778    0.047    0.372  201.869  154.033    5.849
  628.028    0.119    0.437  207.077  155.162    6.008
  628.278    0.149    0.473  206.454  157.434    6.115
  628.528    0.138    0.493  205.709  159.913    6.526
  628.778    0.103    0.483  208.402  155.223    7.666
  629.028    0.096    0.419  211.769  153.026    8.260
  629.278    0.077    0.424  216.731  155.297    8.865
  629.528    0.045    0.445  222.492  160.892    9.928
  629.778    0.009    0.463  224.018  164.518   11.511
  630.028   -0.011    0.466  221.125  167.933   12.986
  630.278   -0.005    0.420  215.962  169.892   14.543
  630.528    0.024    0.374  208.342  171.748   15.638
  630.778    0.048    0.366  212.568  174.230   16.449
  631.028    0.080    0.404  215.813  179.931   15.159
  631.278    0.098    0.434  219.793  189.271   11.928
  631.528    0.058    0.458  222.731  220.850    9.808
  631.778    0.068    0.476  227.080  258.147    8.538
  632.028    0.090    0.493  225.783  276.424    8.118
  632.278    0.092    0.509  219.024  285.036    9.108
  632.528    0.115    0.527  220.672  298.740   10.236
  632.778    0.053    0.540  218.393  257.154   11.441
  633.028    0.074    0.557  215.806  228.247   12.811
  633.278    0.097    0.569  215.369  203.809   13.133
