~VERSION INFORMATION
 VERS.                 2.0:   CWLS LOG ASCII STANDARD -VERSION 2.0
 WRAP.                  NO:   ONE LINE PER DEPTH STEP
~WELL INFORMATION BLOCK
#MNEM.UNIT           DATA                    DESCRIPTION OF MNEMONIC
#---------    -------------------            -------------------------------
# Generated from Intellog Unique Number	CS_77_79/WELL/956
WELL.         CWWE SOUTH CHRISTINA           : Well_name    - WELL
LOC .         00/10-16-079-09W4/0            : Location     - LOCATION
UWI .         00/10-16-079-09W4/0            : Uwi          - UNIQUE WELL ID
ENTR.         JHS                            : Entered      - ENTERED BY
SRVC.         SCHLUMBERGER                   : Scn          - SERVICE COMPANY
STRT.M        243.84                         : top_depth    - START DEPTH
STOP.M        475.34                         : bot_depth    - STOP DEPTH
STEP.M        0.25                           : increment    - STEP LENGTH
 NULL. -999.2500:NULL Value
~CURVE INFORMATION BLOCK
#MNEM UNIT       ERCB CURVE CODE    CURVE DESCRIPTION
#-----------   ------------------   ----------------------------------
DEPT.M        00 001 00 00         : DEPTH        - DEPTH
RHOB.KG/M3    00 350 00 00         : DENS         - BULK DENSITY
GR  .API      00 310 00 00         : GR           - GAMMA RAY
DPHI.V/V      00 890 00 00         : PHID         - DENSITY POROSITY (SANDSTONE)
NPHI.V/V      00 330 00 00         : PHIN         - NEUTRON POROSITY (SANDSTONE)
ILD .OHMM     00 120 00 00         : RESD         - DEEP RESISTIVITY (DIL)
~PARAMETER INFORMATION
#MNEM.UNIT           DATA             DESCRIPTION OF MNEMONIC
#---------         -----------     ------------------------------
GL  .M        677.601              : gl           - GROUND LEVEL ELEVATION
EREF.M        680.253              : kb           - ELEVATION OF DEPTH REFERENCE
DATM.M        680.253              : datum        - DATUM ELEVATION
TDD .M        478.536              : tdd          - TOTAL DEPTH DRILLER
RUN .         ONE                  : Run          - RUN NUMBER
ENG .         BILL                 : Engineer     - RECORDING ENGINEER
WIT .         JIM                  : Witness      - WITNESSED BY
MUD .         GEL                  : Mud_type     - MUD TYPE
MATR.         SANDSTONE            : Logunit      - NEUTRON MATRIX
TMAX.C        27.2222              : BHT          - MAXIMUM RECORDED TEMPERATURE
BHTD.M        478.536              : BHTDEP       - MAXIMUM RECORDED TEMPERATURE
MATR.         1                    : LOGUNIT      - NEUTRON MATRIX
RMT .C        25                   : MDTP         - TEMPERATURE OF MUD
NEUT.         1                    : NEUTRON      - NEUTRON TYPE
RESI.         0                    : RESIST       - RESISTIVITY TYPE
RMC .OHMM     0.25                 : RMC          - RESISTIVITY OF MUD CAKE
RMF .OHMM     0.25                 : RMF          - RESISTIVITY OF MUD FILTRATE
SUFT.C        15                   : SUFT         - SURFACE TEMPERATURE
~A  DEPTH     DENS       GR     PHID     PHIN     RESD
# ...
  389.840    9.090   95.282    0.335    0.529    5.358
  390.090 1359.760   90.819    0.309    0.515    5.582
  390.340 2088.060   85.432    0.307    0.511    5.956
  390.590 2149.540   82.701    0.305    0.504    6.427
  390.840 2176.690   81.467    0.287    0.520    6.627
  391.090 2124.940   79.580    0.318    0.528    6.825
  391.340 2111.490   78.850    0.326    0.521    6.704
  391.590 2136.870   76.300    0.311    0.512    6.639
  391.840 2166.090   78.611    0.293    0.508    6.570
  392.090 2156.970   80.899    0.299    0.493    6.659
  392.340 2159.610   78.971    0.297    0.500    6.909
  392.590 2241.510   76.659    0.248    0.504    7.349
  392.840 2305.060   74.759    0.209    0.463    8.216
  393.090 2387.500   70.783    0.159    0.405    8.718
  393.340 2463.500   67.615    0.113    0.343    8.989
  393.590 2467.830   74.304    0.110    0.398    8.740
  393.840 2362.140   78.032    0.174    0.440    8.276
  394.090 2184.900   76.947    0.282    0.483    7.944
  394.340 2179.940   75.900    0.285    0.494    7.332
  394.590 2149.720   78.776    0.303    0.504    6.918
  394.840 2124.170   80.115    0.319    0.508    6.610
  395.090 2148.000   82.336    0.304    0.512    6.447
  395.340 2156.720   86.638    0.299    0.498    6.593
  395.590 2187.040   91.873    0.281    0.497    6.592
  395.840 2232.010   93.270    0.253    0.505    6.630
  396.090 2292.110   88.846    0.217    0.509    6.716
  396.340 2333.550   83.694    0.192    0.504    6.732
  396.590 2361.770   89.579    0.175    0.520    6.596
  396.840 2304.430   94.165    0.209    0.545    6.380
  397.090 2290.950   93.598    0.218    0.536    6.186
  397.340 2295.650   94.004    0.215    0.526    6.001
  397.590 2266.090  100.786    0.233    0.518    5.816
  397.840 2252.370  102.461    0.241    0.529    5.808
  398.090 2232.480   97.609    0.253    0.526    5.808
  398.340 2249.960   96.607    0.242    0.533    5.796
  398.590 2239.320  104.202    0.249    0.533    5.911
  398.840 2262.750  106.201    0.235    0.525    6.144
  399.090 2270.990  104.975    0.230    0.520    6.409
  399.340 2243.230  104.149    0.247    0.495    6.611
  399.590 2254.610  104.392    0.240    0.460    6.726
  399.840 2292.400  105.789    0.217    0.465    6.852
  400.090 2279.280  106.169    0.225    0.467    6.982
  400.340 2265.590  104.016    0.233    0.462    6.751
  400.590 2260.620  102.525    0.236    0.463    6.509
  400.840 2277.970   99.732    0.225    0.479    5.972
  401.090 2281.520  102.046    0.223    0.507    5.383
  401.340 2244.400  100.669    0.246    0.526    4.702
  401.590 2220.180   95.261    0.260    0.542    3.842
  401.840 2235.780   94.140    0.251    0.560    3.089
  402.090 2215.170   96.133    0.264    0.582    2.724
  402.340 2129.830   97.254    0.315    0.612    2.413
  402.590 2099.670   94.228    0.334    0.619    2.151
  402.840 2106.860   92.084    0.329    0.621    2.113
  403.090 2104.210   91.209    0.331    0.619    2.120
  403.340 2097.980   92.018    0.335    0.609    2.136
  403.590 2122.420   95.230    0.320    0.599    2.252
  403.840 2130.040   96.539    0.315    0.591    2.395
  404.090 2168.060   96.996    0.292    0.601    2.571
  404.340 2227.410   97.412    0.256    0.610    2.827
  404.590 2243.820  101.319    0.246    0.578    3.198
  404.840 2259.300  105.099    0.237    0.535    3.569
  405.090 2256.580  105.652    0.238    0.532    3.981
  405.340 2274.530  104.356    0.228    0.548    4.623
  405.590 2281.950  100.374    0.223    0.519    5.158
  405.840 2290.050   94.970    0.218    0.492    5.721
  406.090 2284.880   92.614    0.221    0.468    6.276
  406.340 2306.350   92.579    0.208    0.462    6.277
  406.590 2290.750   96.832    0.218    0.469    5.977
  406.840 2312.410  103.232    0.205    0.486    5.447
  407.090 2236.080  107.279    0.251    0.486    4.754
  407.340 2270.600  111.028    0.230    0.488    4.266
  407.590 2303.360  108.273    0.210    0.518    4.048
  407.840 2296.660  105.745    0.214    0.532    3.763
  408.090 2267.210  108.000    0.232    0.533    3.723
  408.340 2244.260  105.508    0.246    0.535    3.632
  408.590 2232.840  103.894    0.253    0.543    3.566
  408.840 2233.740  104.244    0.252    0.545    3.523
  409.090 2239.090  105.184    0.249    0.559    3.489
  409.340 2247.720  104.517    0.244    0.556    3.436
  409.590 2278.440  105.807    0.225    0.548    3.527
  409.840 2252.230  106.974    0.241    0.527    3.796
  410.090 2260.430  105.907    0.236    0.510    3.959
  410.340 2274.190  103.588    0.228    0.497    4.177
  410.590 2284.520  102.042    0.222    0.503    4.296
  410.840 2262.500   98.933    0.235    0.514    4.288
  411.090 2244.170   98.577    0.246    0.520    4.437
  411.340 2269.130   98.523    0.231    0.520    4.720
  411.590 2299.000   97.791    0.213    0.492    5.017
  411.840 2331.760   96.111    0.193    0.478    5.504
  412.090 2325.790   98.452    0.196    0.452    5.866
  412.340 2378.230  100.714    0.165    0.447    6.264
  412.590 2349.770  101.305    0.182    0.490    6.605
  412.840 2325.160   96.682    0.197    0.488    6.928
  413.090 2366.970   87.724    0.172    0.448    7.392
  413.340 2313.620   78.185    0.204    0.427    8.450
  413.590 2303.040   81.225    0.210    0.408    9.855
  413.840 2261.040   82.937    0.236    0.402   11.098
  414.090 2239.370   79.795    0.249    0.402   11.622
  414.340 2241.510   78.910    0.248    0.417   12.008
  414.590 2227.770   79.137    0.256    0.421   12.106
  414.840 2261.100   76.287    0.236    0.439   12.503
  415.090 2267.340   71.666    0.232    0.467   13.800
  415.340 2230.850   66.630    0.254    0.491   18.504
  415.590 2159.530   63.846    0.297    0.460   23.133
  415.840 2094.670   63.547    0.337    0.463   30.269
  416.090 2125.890   68.865    0.323    0.444   37.999
  416.340 2084.840   75.670    0.311    0.427   40.765
  416.590  877.404   82.394    0.301    0.428   33.802
  416.840 2330.360   87.477    0.307    0.475   28.482
  417.090 2126.980   86.156    0.296    0.497   28.940
  417.340 2169.160   75.632    0.288    0.474   30.530
  417.590 2156.830   64.785    0.299    0.449   33.927
  417.840 2134.090   64.819    0.313    0.420   39.520
  418.090 2128.980   69.684    0.316    0.438   42.322
  418.340 2147.480   76.293    0.305    0.433   36.457
  418.590 2217.620   80.839    0.262    0.439   29.743
  418.840 2240.200   81.097    0.248    0.445   26.203
  419.090 2225.610   78.471    0.257    0.425   24.763
  419.340 2174.860   81.694    0.288    0.420   24.758
  419.590 2224.420   81.624    0.258    0.420   24.747
  419.840 2230.240   81.044    0.254    0.422   22.932
  420.090 2245.460   85.534    0.245    0.419   20.198
  420.340 2258.460   94.120    0.237    0.414   16.994
  420.590 2238.770   96.383    0.249    0.402   14.283
  420.840 2253.800  100.464    0.240    0.399   11.739
  421.090 2278.640  106.446    0.225    0.413   10.251
  421.340 2252.720  112.785    0.241    0.425    9.470
  421.590 2292.840  120.334    0.216    0.448    8.463
  421.840 2342.600  123.624    0.186    0.465    8.244
  422.090 2358.800  126.405    0.176    0.469    8.227
  422.340 2282.860  124.352    0.223    0.479    8.413
  422.590 2317.790  117.906    0.201    0.484    9.107
  422.840 2298.400  100.051    0.213    0.461   10.460
  423.090 2226.290   85.200    0.257    0.424   12.289
  423.340 2246.530   71.330    0.245    0.425   14.271
  423.590 2244.560   58.788    0.246    0.431   17.059
  423.840 2211.910   55.318    0.266    0.406   19.988
  424.090 2222.300   53.738    0.259    0.381   20.889
  424.340 2208.540   64.739    0.268    0.371   20.430
  424.590 2292.350   82.317    0.217    0.372   18.893
  424.840 2367.570   87.521    0.171    0.406   16.782
  425.090 2362.030   78.447    0.175    0.410   15.491
  425.340 2277.910   72.154    0.226    0.391   15.157
  425.590 2355.140   76.014    0.179    0.370   14.957
  425.840 2417.790   79.634    0.141    0.369   15.849
  426.090 2344.210   79.090    0.185    0.382   16.346
