~VERSION INFORMATION
 VERS.                 2.0:   CWLS LOG ASCII STANDARD -VERSION 2.0
 WRAP.                  NO:   ONE LINE PER DEPTH STEP
~WELL INFORMATION BLOCK
#MNEM.UNIT           DATA                    DESCRIPTION OF MNEMONIC
#---------    -------------------            -------------------------------
# Generated from Intellog Unique Number	CW_73_75/WELL/2750
WELL.         QUINTANA CEGO BLANCHE 14-15    : Well_name    - WELL
LOC .         00/14-15-073-03W5/0            : Location     - LOCATION
UWI .         00/14-15-073-03W5/0            : Uwi          - UNIQUE WELL ID
ENTR.         JAYE                           : Entered      - ENTERED BY
SRVC.         SCHLUMBERGER                   : Scn          - SERVICE COMPANY
DATE.         31 JAN 81                      : Date         - LOG DATE
STRT.M        400                            : top_depth    - START DEPTH
STOP.M        640                            : bot_depth    - STOP DEPTH
STEP.M        0.25                           : increment    - STEP LENGTH
 NULL. -999.2500:NULL Value
~CURVE INFORMATION BLOCK
#MNEM UNIT       ERCB CURVE CODE    CURVE DESCRIPTION
#-----------   ------------------   ----------------------------------
DEPT.M        00 001 00 00         : DEPTH        - DEPTH
DPHI.V/V      00 890 00 00         : PHID         - DENSITY POROSITY (SANDSTONE)
NPHI.V/V      00 330 00 00         : PHIN         - NEUTRON POROSITY (SANDSTONE)
GR  .API      00 310 00 00         : GR           - GAMMA RAY
CALI.MM       00 280 01 00         : CAL          - CALIPER
ILD .OHMM     00 120 00 00         : RESD         - DEEP RESISTIVITY (DIL)
~PARAMETER INFORMATION
#MNEM.UNIT           DATA             DESCRIPTION OF MNEMONIC
#---------         -----------     ------------------------------
GL  .M        608.48               : gl           - GROUND LEVEL ELEVATION
EREF.M        612.88               : kb           - ELEVATION OF DEPTH REFERENCE
DATM.M        608.48               : datum        - DATUM ELEVATION
TDD .M        1585                 : tdd          - TOTAL DEPTH DRILLER
RUN .         ONE                  : Run          - RUN NUMBER
ENG .         VERKAIK              : Engineer     - RECORDING ENGINEER
WIT .         WALSH                : Witness      - WITNESSED BY
BASE.         EDM                  : Branch       - HOME BASE OF LOGGING UNIT
MUD .         GEL CHEM             : Mud_type     - MUD TYPE
MATR.         SANDSTONE            : Logunit      - NEUTRON MATRIX
TMAX.C        47.8                 : BHT          - MAXIMUM RECORDED TEMPERATURE
BHTD.M        1585                 : BHTDEP       - MAXIMUM RECORDED TEMPERATURE
RMT .C        16.7                 : MDTP         - TEMPERATURE OF MUD
MUDD.KG/M     1070                 : MWT          - MUD DENSITY
NEUT.         1                    : NEUTRON      - NEUTRON TYPE
RESI.         0                    : RESIST       - RESISTIVITY TYPE
RM  .OHMM     0.52                 : RM           - RESISTIVITY OF MUD
RMC .OHMM     0                    : RMC          - RESISTIVITY OF MUD CAKE
RMF .OHMM     0.5                  : RMF          - RESISTIVITY OF MUD FILTRATE
SUFT.C        0                    : SUFT         - SURFACE TEMPERATURE
~A  DEPTH     PHID     PHIN       GR      CAL     RESD
  400.000    0.258    0.483   83.790  296.950    2.603
  400.250    0.313    0.512   83.857  305.032    2.779
  400.500    0.373    0.543   81.253  306.075    3.040
  400.750    0.371    0.562   78.153  284.862    3.350
  401.000    0.309    0.443   71.326  270.584    3.720
  401.250    0.265    0.398   62.572  259.826    4.282
  401.500    0.188    0.360   58.167  249.897    4.911
  401.750    0.239    0.371   60.657  245.765    5.252
  402.000    0.244    0.391   63.643  244.737    5.063
  402.250    0.192    0.385   61.288  244.125    4.798
  402.500    0.167    0.368   59.988  244.340    4.660
  402.750    0.215    0.352   60.802  245.589    4.754
  403.000    0.249    0.365   63.477  247.979    4.942
  403.250    0.237    0.379   68.140  249.955    5.109
  403.500    0.216    0.394   71.251  251.411    5.037
  403.750    0.206    0.419   69.828  253.802    4.792
  404.000    0.194    0.428   69.459  256.605    4.406
  404.250    0.209    0.410   71.515  259.304    4.014
  404.500    0.232    0.419   73.259  263.454    3.595
  404.750    0.253    0.538   75.064  267.292    3.219
  405.000    0.281    0.565   76.436  269.474    2.932
  405.250    0.298    0.581   77.497  267.101    2.827
  405.500    0.327    0.565   75.763  263.695    2.792
  405.750    0.330    0.518   70.737  260.906    2.801
  406.000    0.290    0.485   64.716  255.636    2.862
  406.250    0.266    0.440   62.672  250.468    2.898
  406.500    0.255    0.470   66.776  247.579    2.984
  406.750    0.274    0.508   62.992  246.448    3.108
  407.000    0.290    0.452   60.451  246.042    3.268
  407.250    0.284    0.427   59.152  246.050    3.462
  407.500    0.268    0.404   59.343  246.369    3.723
  407.750    0.257    0.407   59.907  246.687    3.900
  408.000    0.270    0.417   59.849  247.628    3.911
  408.250    0.261    0.424   60.972  248.154    3.672
  408.500    0.240    0.432   65.449  249.094    3.376
  408.750    0.215    0.453   72.100  250.862    3.099
  409.000    0.262    0.486   77.136  252.422    2.786
  409.250    0.311    0.512   74.967  254.191    2.543
  409.500    0.335    0.532   80.190  255.337    2.303
  409.750    0.324    0.555   83.487  257.418    2.126
  410.000    0.316    0.597   82.125  258.667    2.022
  410.250    0.405    0.635   78.217  258.054    2.122
  410.500    0.387    0.513   74.992  253.507    2.484
  410.750    0.303    0.469   70.277  245.544    2.854
  411.000    0.254    0.438   66.120  231.888    3.280
  411.250    0.275    0.442   65.007  229.515    3.928
  411.500    0.290    0.443   61.534  229.836    4.462
  411.750    0.290    0.438   59.240  230.359    4.594
  412.000    0.271    0.418   62.600  232.025    4.454
  412.250    0.244    0.394   66.145  233.276    4.270
  412.500    0.233    0.426   64.784  234.215    4.131
  412.750    0.255    0.449   59.820  235.157    3.990
  413.000    0.283    0.456   56.843  235.891    3.854
  413.250    0.286    0.440   57.904  236.310    3.750
  413.500    0.258    0.451   63.871  236.940    3.718
  413.750    0.233    0.463   71.206  237.879    3.772
  414.000    0.247    0.478   77.112  239.959    3.906
  414.250    0.224    0.492   70.160  242.037    4.193
  414.500    0.198    0.336   57.618  246.186    4.674
  414.750    0.212    0.310   59.238  251.992    5.122
  415.000    0.271    0.399   66.697  255.934    4.910
  415.250    0.326    0.567   69.434  260.290    4.490
  415.500    0.377    0.605   59.750  264.128    3.879
  415.750    0.335    0.489   49.506  254.302    3.390
  416.000    0.293    0.416   43.052  243.441    3.111
  416.250    0.293    0.396   41.504  237.652    3.241
  416.500    0.302    0.392   45.360  233.209    3.511
  416.750    0.304    0.395   53.377  232.078    3.783
  417.000    0.300    0.395   64.439  234.054    3.852
  417.250    0.256    0.416   71.835  236.133    3.596
  417.500    0.239    0.457   78.485  237.279    3.546
  417.750    0.251    0.496   79.795  238.012    3.550
  418.000    0.253    0.409   72.905  237.606    3.581
  418.250    0.236    0.425   65.519  234.614    3.653
  418.500    0.260    0.451   60.058  232.136    3.733
  418.750    0.281    0.464   52.982  229.247    3.844
  419.000    0.294    0.429   45.907  227.184    3.855
  419.250    0.304    0.415   43.986  225.122    3.830
  419.500    0.302    0.430   43.431  223.682    3.834
  419.750    0.292    0.446   43.809  223.586    3.823
  420.000    0.309    0.453   47.168  223.906    3.813
  420.250    0.297    0.430   51.708  224.223    3.832
  420.500    0.277    0.388   56.123  224.647    3.851
  420.750    0.257    0.414   57.245  225.070    3.840
  421.000    0.281    0.459   53.276  225.076    3.844
  421.250    0.310    0.454   50.920  225.187    3.862
  421.500    0.305    0.431   50.552  225.405    3.903
  421.750    0.284    0.393   52.048  226.033    3.944
  422.000    0.275    0.396   53.668  226.869    3.979
  422.250    0.292    0.418   54.108  227.706    4.021
  422.500    0.308    0.434   53.430  228.335    4.047
  422.750    0.319    0.445   52.130  228.654    4.067
  423.000    0.325    0.448   50.706  228.662    4.071
  423.250    0.316    0.439   50.773  228.773    4.091
  423.500    0.310    0.415   54.381  229.196    4.118
  423.750    0.309    0.402   58.174  230.345    4.138
  424.000    0.282    0.409   62.776  231.180    4.166
  424.250    0.278    0.408   67.563  232.326    4.290
  424.500    0.288    0.413   71.792  234.510    4.536
  424.750    0.266    0.418   74.220  236.381    4.724
  425.000    0.225    0.389   77.890  239.081    4.884
  425.250    0.205    0.373   80.130  242.298    4.908
  425.500    0.207    0.379   83.924  248.413    4.941
  425.750    0.345    0.445   83.680  264.364    4.253
  426.000    0.399    0.578   81.015  302.882    3.688
  426.250    0.429    0.579   82.137  294.505    3.303
  426.500    0.381    0.561   86.987  271.635    3.089
  426.750    0.373    0.597   90.160  262.637    2.873
  427.000    0.370    0.620   91.656  253.639    2.707
  427.250    0.366    0.568   92.592  252.198    2.635
  427.500    0.348    0.541   91.541  253.035    2.627
  427.750    0.343    0.526   85.335  253.560    2.773
  428.000    0.387    0.533   77.141  254.293    3.080
  428.250    0.341    0.433   65.469  249.436    3.538
  428.500    0.281    0.382   54.356  237.126    3.922
  428.750    0.294    0.356   40.758  226.885    4.186
  429.000    0.304    0.352   36.415  226.479    3.945
  429.250    0.308    0.364   36.048  226.281    3.738
  429.500    0.314    0.373   34.376  226.085    3.549
  429.750    0.320    0.371   32.580  225.783    3.402
  430.000    0.334    0.375   31.031  225.375    3.268
  430.250    0.324    0.377   28.924  224.864    3.103
  430.500    0.311    0.372   27.377  224.251    2.974
  430.750    0.298    0.375   26.698  224.157    2.872
  431.000    0.300    0.390   26.890  223.958    2.816
  431.250    0.316    0.388   28.758  223.656    2.824
  431.500    0.325    0.381   31.683  223.974    2.865
  431.750    0.330    0.371   35.787  224.811    2.984
  432.000    0.312    0.346   43.618  227.821    3.137
  432.250    0.226    0.390   63.623  231.763    3.329
  432.500    0.202    0.471   90.460  235.085    3.481
  432.750    0.215    0.504   97.111  236.956    3.680
  433.000    0.217    0.483   93.141  238.726    3.892
  433.250    0.190    0.461   90.289  239.561    4.061
  433.500    0.173    0.452   90.356  240.500    4.222
  433.750    0.184    0.449   93.840  241.441    4.456
  434.000    0.228    0.440   95.335  242.484    4.605
  434.250    0.224    0.488   91.613  244.460    4.508
  434.500    0.206    0.554   91.370  245.606    3.701
  434.750    0.231    0.588   94.480  246.235    3.056
  435.000    0.286    0.618   90.386  245.519    2.495
  435.250    0.380    0.593   93.993  243.251    2.164
  435.500    0.418    0.600  105.365  241.292    1.945
  435.750    0.395    0.617  111.954  240.058    2.096
  436.000    0.318    0.629  102.269  240.377    2.363
  436.250    0.278    0.486   89.293  241.939    2.798
