~VERSION INFORMATION
 VERS.                 2.0:   CWLS LOG ASCII STANDARD -VERSION 2.0
 WRAP.                  NO:   ONE LINE PER DEPTH STEP
~WELL INFORMATION BLOCK
#MNEM.UNIT           DATA                    DESCRIPTION OF MNEMONIC
#---------    -------------------            -------------------------------
# Generated from Intellog Unique Number	CW_70_72/WELL/1058
NULL.         -999.25                        : NULL_VALUE
WELL.         WINCAN ET AL SMITH 11-16       : Well_name    - WELL              
LOC .         11-16-071-26W4                 : Location     - LOCATION          
UWI .         00/11-16-071-26W4/0            : Uwi          - UNIQUE WELL ID    
ENTR.         JAYE                           : Entered      - ENTERED BY        
SRVC.         COMPUTALOG                     : Scn          - SERVICE COMPANY   
DATE.         13 AUG 83                      : Date         - LOG DATE          
STRT.M        400                            : top_depth    - START DEPTH       
STOP.M        668.5                          : bot_depth    - STOP DEPTH        
STEP.M        0.25                           : increment    - STEP LENGTH       
~CURVE INFORMATION BLOCK
#MNEM UNIT       ERCB CURVE CODE    CURVE DESCRIPTION
#-----------   ------------------   ----------------------------------
DEPT.M        00 001 00 00         : DEPTH        - DEPTH                       
DPHI.V/V      00 890 00 00         : PHID         - DENSITY POROSITY (SANDSTONE)
NPHI.V/V      00 330 00 00         : PHIN         - NEUTRON POROSITY (SANDSTONE)
GR  .API      00 310 00 00         : GR           - GAMMA RAY                   
CALI.MM       00 280 01 00         : CAL          - CALIPER                     
ILD .OHMM     00 120 00 00         : RESD         - DEEP RESISTIVITY (DIL)      
~PARAMETER INFORMATION       
#MNEM.UNIT           DATA             DESCRIPTION OF MNEMONIC
#---------         -----------     ------------------------------
GL  .M        593.18               : gl           - GROUND LEVEL ELEVATION      
EREF.M        596.48               : kb           - ELEVATION OF DEPTH REFERENCE
DATM.M        593.18               : datum        - DATUM ELEVATION             
TDD .M        668                  : tdd          - TOTAL DEPTH DRILLER         
RUN .         ONE                  : Run          - RUN NUMBER                  
ENG .         WOOD                 : Engineer     - RECORDING ENGINEER          
WIT .         VAN FRAASEN          : Witness      - WITNESSED BY                
BASE.         LLOYD                : Branch       - HOME BASE OF LOGGING UNIT   
MUD .         GEL CHEM             : Mud_type     - MUD TYPE                    
MATR.         SANDSTONE            : Logunit      - NEUTRON MATRIX              
TMAX.C        31                   : BHT          - MAXIMUM RECORDED TEMPERATURE
BHTD.M        668.3                : BHTDEP       - MAXIMUM RECORDED TEMPERATURE
RMT .C        22                   : MDTP         - TEMPERATURE OF MUD          
MUDD.KG/M     1120                 : MWT          - MUD DENSITY                 
NEUT.         1                    : NEUTRON      - NEUTRON TYPE                
RESI.         0                    : RESIST       - RESISTIVITY TYPE            
RM  .OHMM     2.6                  : RM           - RESISTIVITY OF MUD          
RMC .OHMM     0                    : RMC          - RESISTIVITY OF MUD CAKE     
RMF .OHMM     3.2                  : RMF          - RESISTIVITY OF MUD FILTRATE 
SUFT.C        0                    : SUFT         - SURFACE TEMPERATURE         
~A  DEPTH     PHID     PHIN       GR      CAL     RESD
# ...
  546.000    0.187    0.391   90.536  169.288    5.104
  546.250    0.185    0.379   90.392  169.148    5.091
  546.500    0.177    0.369   92.858  168.804    5.097
  546.750    0.175    0.364   94.022  168.463    5.114
  547.000    0.178    0.365   93.319  168.015    5.129
  547.250    0.182    0.361   92.616  167.469    5.174
  547.500    0.183    0.357   92.472  167.540    5.201
  547.750    0.177    0.345   91.521  167.614    5.227
  548.000    0.156    0.340   92.186  167.890    5.244
  548.250    0.156    0.360   93.347  168.171    5.191
  548.500    0.160    0.381   95.877  168.243    5.053
  548.750    0.164    0.368   98.715  168.211    4.900
  549.000    0.168    0.357   99.383  168.283    4.770
  549.250    0.174    0.365   96.252  168.455    4.695
  549.500    0.179    0.368   95.490  168.217    4.675
  549.750    0.177    0.378   97.087  168.186    4.672
  550.000    0.172    0.387   99.492  168.154    4.677
  550.250    0.160    0.390   99.037  168.123    4.685
  550.500    0.162    0.382   99.454  167.987    4.665
  550.750    0.165    0.361   99.870  167.957    4.695
  551.000    0.166    0.379   99.603  168.026    4.692
  551.250    0.163    0.392   96.849  168.201    4.673
  551.500    0.155    0.401   95.709  168.169    4.687
  551.750    0.137    0.392   97.429  167.931    4.685
  552.000    0.130    0.385  101.080  167.900    4.699
  552.250    0.152    0.390  105.039  167.867    4.582
  552.500    0.174    0.392  107.133  168.354    4.247
  552.750    0.190    0.390  110.782  168.635    4.182
  553.000    0.183    0.383  107.779  168.705    4.339
  553.250    0.174    0.372  107.076  168.674    4.606
  553.500    0.168    0.375  107.429  168.536    4.834
  553.750    0.168    0.383  106.603  167.987    4.998
  554.000    0.171    0.396  102.978  166.922    5.005
  554.250    0.177    0.401   97.987  163.054    4.945
  554.500    0.185    0.384   93.553  161.882    4.879
  554.750    0.184    0.376   89.991  161.644    4.856
  555.000    0.173    0.369   88.854  162.543    4.808
  555.250    0.179    0.363   91.881  163.550    4.741
  555.500    0.186    0.384   95.342  164.555    4.624
  555.750    0.183    0.398   97.934  166.687    4.552
  556.000    0.175    0.408   97.729  167.382    4.532
  556.250    0.167    0.398   95.222  168.084    4.530
  556.500    0.157    0.387   92.157  168.157    4.621
  556.750    0.156    0.403   99.534  166.879    4.824
  557.000    0.158    0.427  105.982  165.501    5.198
  557.250    0.117    0.339   92.846  164.332    6.051
  557.500    0.072    0.313   80.395  163.883    7.045
  557.750    0.052    0.286   77.455  163.851    8.743
  558.000    0.060    0.301   74.014  164.021   10.710
  558.250    0.079    0.315   71.635  163.997   12.235
  558.500    0.091    0.301   67.203  163.857   11.108
  558.750    0.077    0.267   63.453  163.622   10.142
  559.000    0.104    0.296   67.351  163.381    9.225
  559.250    0.206    0.334   73.424  163.340    8.533
  559.500    0.229    0.350   76.014  163.208    8.090
  559.750    0.213    0.342   76.556  163.285    7.786
  560.000    0.184    0.335   76.287  163.356    7.464
  560.250    0.190    0.349   78.383  163.423    7.225
  560.500    0.207    0.349   79.419  163.703    6.915
  560.750    0.221    0.344   80.706  163.679    6.555
  561.000    0.210    0.352   84.417  163.228    6.203
  561.250    0.210    0.351   80.917  163.093    5.836
  561.500    0.222    0.356   76.982  162.754    5.482
  561.750    0.223    0.371   77.086  162.096    5.426
  562.000    0.216    0.382   79.926  161.655    5.464
  562.250    0.210    0.369   79.908  161.415    5.629
  562.500    0.198    0.339   79.141  161.589    5.699
  562.750    0.193    0.334   78.750  161.970    5.794
  563.000    0.188    0.337   79.477  162.455    5.856
  563.250    0.177    0.343   77.033  162.839    5.874
  563.500    0.165    0.325   73.161  163.329    5.926
  563.750    0.151    0.314   69.722  163.810    5.923
  564.000    0.139    0.306   72.003  163.676    5.965
  564.250    0.158    0.321   75.963  163.232    6.005
  564.500    0.155    0.326   76.814  162.782    6.047
  564.750    0.144    0.326   74.433  162.546    6.055
  565.000    0.136    0.318   75.036  162.099    6.018
  565.250    0.141    0.307   77.689  161.651    5.956
  565.500    0.159    0.306   81.212  161.727    5.776
  565.750    0.175    0.310   84.114  162.521    5.559
  566.000    0.172    0.315   87.578  163.114    5.401
  566.250    0.159    0.320   91.599  164.427    5.368
  566.500    0.147    0.328   95.930  165.640    5.374
  566.750    0.143    0.336   99.580  165.917    5.392
  567.000    0.140    0.341  102.977  165.263    5.429
  567.250    0.137    0.348  100.783  164.296    5.538
  567.500    0.131    0.326   97.904  163.125    5.619
  567.750    0.116    0.335   94.714  163.093    5.865
  568.000    0.129    0.370   92.024  163.377    6.109
  568.250    0.119    0.363   87.467  164.064    6.523
  568.500    0.089    0.299   80.549  164.555    6.936
  568.750    0.068    0.284   69.153  165.348    7.252
  569.000    0.090    0.312   73.175  166.252    7.471
  569.250    0.124    0.334   78.499  167.050    7.410
  569.500    0.138    0.360   82.151  167.534    7.171
  569.750    0.143    0.353   85.178  167.290    6.560
  570.000    0.142    0.357   86.773  167.057    6.137
  570.250    0.145    0.365   88.122  166.608    5.667
  570.500    0.157    0.371   89.097  166.784    5.485
  570.750    0.148    0.368   92.062  167.272    5.607
  571.000    0.135    0.370   97.825  167.959    5.775
  571.250    0.125    0.374   93.205  168.554    6.235
  571.500    0.111    0.333   83.738  168.625    6.859
  571.750    0.088    0.301   77.876  168.484    7.604
  572.000    0.086    0.330   77.732  168.352    7.788
  572.250    0.115    0.350   81.318  167.806    7.638
  572.500    0.131    0.365   84.967  167.874    7.066
  572.750    0.137    0.368   86.874  168.261    6.378
  573.000    0.139    0.367   87.972  168.332    6.024
  573.250    0.132    0.364   88.577  167.987    5.755
  573.500    0.122    0.360   90.608  167.952    5.635
  573.750    0.127    0.360   93.326  167.927    5.619
  574.000    0.144    0.363   92.996  167.586    5.658
  574.250    0.144    0.356   91.919  167.862    5.666
  574.500    0.140    0.345   93.455  167.517    5.672
  574.750    0.136    0.358   96.420  167.070    5.723
  575.000    0.133    0.364   95.902  167.034    5.807
  575.250    0.129    0.374   90.600  167.425    5.902
  575.500    0.122    0.375   90.892  167.394    6.044
  575.750    0.112    0.364   91.992  167.352    6.167
  576.000    0.118    0.355   91.972  167.120    6.198
  576.250    0.123    0.361   91.954  166.672    6.398
  576.500    0.121    0.366   91.250  166.646    6.563
  576.750    0.118    0.364   90.299  166.815    6.798
  577.000    0.114    0.342   89.410  167.100    7.229
  577.250    0.100    0.321   85.722  167.068    7.631
  577.500    0.088    0.311   83.715  166.722    7.801
  577.750    0.100    0.332   86.865  166.382    7.230
  578.000    0.116    0.351   91.944  165.208    6.701
  578.250    0.130    0.345   98.825  165.696    6.522
  578.500    0.123    0.331  100.421  165.654    6.544
  578.750    0.116    0.319   98.786  165.935    6.677
  579.000    0.114    0.308   94.475  165.804    6.787
  579.250    0.097    0.327   94.893  165.870    6.873
  579.500    0.082    0.338   94.999  166.154    6.778
  579.750    0.105    0.347   87.894  166.023    6.610
  580.000    0.122    0.337   88.870  165.579    6.326
  580.250    0.133    0.314   92.767  165.955    5.896
  580.500    0.133    0.328   99.026  166.136    5.559
  580.750    0.130    0.352  104.663  166.516    5.452
  581.000    0.127    0.349  112.974  166.689    5.562
  581.250    0.124    0.321  106.427  166.658    5.871
  581.500    0.094    0.306   98.141  167.353    6.291
  581.750    0.076    0.282   90.413  167.426    6.678
  582.000    0.052    0.272   84.055  167.497    7.049
  582.250    0.097    0.268   81.176  167.463    6.036
