~VERSION INFORMATION
 VERS.                 2.0:   CWLS LOG ASCII STANDARD -VERSION 2.0
 WRAP.                  NO:   ONE LINE PER DEPTH STEP
~WELL INFORMATION BLOCK
#MNEM.UNIT           DATA                    DESCRIPTION OF MNEMONIC
#---------    -------------------            -------------------------------
# Generated from Intellog Unique Number	CS_69_70/WELL/858
NULL.         -999.25                        : NULL_VALUE
WELL.         HB CS PITLOCHRIE               : Well_name    - WELL              
LOC .         00/10-04-070-12W4/0            : Location     - LOCATION          
UWI .         00/10-04-070-12W4/0            : Uwi          - UNIQUE WELL ID    
ENTR.         SP                             : Entered      - ENTERED BY        
SRVC.         SCHLUMBERGER                   : Scn          - SERVICE COMPANY   
STRT.M        286.512                        : top_depth    - START DEPTH       
STOP.M        493.512                        : bot_depth    - STOP DEPTH        
STEP.M        0.25                           : increment    - STEP LENGTH       
~CURVE INFORMATION BLOCK
#MNEM UNIT       ERCB CURVE CODE    CURVE DESCRIPTION
#-----------   ------------------   ----------------------------------
DEPT.M        00 001 00 00         : DEPTH        - DEPTH                       
GR  .API      00 310 00 00         : GR           - GAMMA RAY                   
DPHI.V/V      00 890 00 00         : PHID         - DENSITY POROSITY (SANDSTONE)
NPHI.V/V      00 330 00 00         : PHIN         - NEUTRON POROSITY (SANDSTONE)
ILD .OHMM     00 120 00 00         : RESD         - DEEP RESISTIVITY (DIL)      
~PARAMETER INFORMATION       
#MNEM.UNIT           DATA             DESCRIPTION OF MNEMONIC
#---------         -----------     ------------------------------
GL  .M        601.98               : gl           - GROUND LEVEL ELEVATION      
EREF.M        604.418              : kb           - ELEVATION OF DEPTH REFERENCE
DATM.M        601.98               : datum        - DATUM ELEVATION             
TDD .M        496.824              : tdd          - TOTAL DEPTH DRILLER         
RUN .         ONE                  : Run          - RUN NUMBER                  
ENG .         BILL                 : Engineer     - RECORDING ENGINEER          
WIT .         JIM                  : Witness      - WITNESSED BY                
MUD .         GEL                  : Mud_type     - MUD TYPE                    
MATR.         SANDSTONE            : Logunit      - NEUTRON MATRIX              
TMAX.C        21                   : BHT          - MAXIMUM RECORDED TEMPERATURE
BHTD.M        481.2                : BHTDEP       - MAXIMUM RECORDED TEMPERATURE
MATR.         1                    : LOGUNIT      - NEUTRON MATRIX              
RMT .C        25                   : MDTP         - TEMPERATURE OF MUD          
NEUT.         1                    : NEUTRON      - NEUTRON TYPE                
RESI.         0                    : RESIST       - RESISTIVITY TYPE            
RMC .OHMM     0.25                 : RMC          - RESISTIVITY OF MUD CAKE     
RMF .OHMM     0.25                 : RMF          - RESISTIVITY OF MUD FILTRATE 
SUFT.C        15                   : SUFT         - SURFACE TEMPERATURE         
~A  DEPTH       GR     PHID     PHIN     RESD
# ...
  373.512   89.377    0.253    0.482    6.676
  373.762   90.436    0.249    0.470    6.904
  374.012   91.595    0.242    0.473    7.121
  374.262   92.228    0.253    0.485    7.199
  374.512   92.432    0.261    0.481    7.224
  374.762   91.897    0.239    0.470    7.145
  375.012   88.891    0.232    0.474    6.794
  375.262   86.450    0.246    0.496    6.246
  375.512   83.905    0.259    0.521    5.766
  375.762   80.966    0.284    0.541    5.508
  376.012   78.544    0.326    0.519    5.330
  376.262   76.237    0.329    0.505    5.303
  376.512   74.624    0.319    0.501    5.432
  376.762   72.527    0.317    0.496    5.542
  377.012   71.791    0.306    0.498    5.797
  377.262   71.633    0.295    0.507    6.006
  377.512   73.031    0.305    0.509    6.157
  377.762   77.429    0.315    0.510    6.260
  378.012   80.519    0.311    0.501    6.301
  378.262   78.021    0.324    0.497    6.219
  378.512   77.680    0.322    0.496    6.089
  378.762   80.608    0.308    0.479    5.861
  379.012   84.493    0.302    0.478    5.771
  379.262   86.690    0.290    0.489    5.779
  379.512   85.293    0.277    0.496    5.842
  379.762   84.594    0.264    0.497    5.946
  380.012   86.715    0.252    0.503    6.008
  380.262   90.599    0.231    0.520    6.115
  380.512   91.479    0.216    0.506    6.200
  380.762   88.940    0.227    0.480    6.432
  381.012   87.201    0.221    0.471    6.567
  381.262   87.314    0.215    0.464    6.890
  381.512   89.710    0.212    0.458    7.191
  381.762   91.885    0.201    0.450    7.344
  382.012   92.206    0.191    0.459    7.501
  382.262   91.008    0.196    0.455    7.565
  382.512   90.561    0.204    0.454    7.502
  382.762   90.784    0.209    0.459    7.448
  383.012   91.881    0.213    0.471    7.487
  383.262   92.943    0.219    0.475    7.526
  383.512   93.181    0.227    0.466    7.457
  383.762   92.669    0.241    0.462    7.273
  384.012   91.120    0.238    0.467    6.867
  384.262   92.367    0.245    0.483    6.538
  384.512   92.823    0.240    0.494    6.121
  384.762   91.301    0.236    0.500    5.858
  385.012   90.167    0.232    0.503    5.773
  385.262   90.665    0.239    0.500    5.784
  385.512   92.516    0.244    0.495    5.915
  385.762   94.045    0.247    0.490    6.173
  386.012   96.062    0.252    0.485    6.339
  386.262   96.898    0.244    0.485    6.369
  386.512   96.489    0.233    0.490    6.346
  386.762   95.707    0.220    0.502    6.456
  387.012   95.277    0.216    0.507    6.613
  387.262   94.853    0.213    0.488    6.663
  387.512   95.280    0.213    0.479    6.622
  387.762   99.047    0.219    0.475    6.496
  388.012  102.335    0.217    0.467    6.342
  388.262  101.999    0.216    0.477    6.222
  388.512   98.074    0.221    0.492    6.178
  388.762   95.656    0.219    0.498    6.126
  389.012   95.299    0.230    0.502    6.151
  389.262   95.532    0.205    0.505    6.223
  389.512   95.422    0.194    0.511    6.333
  389.762   95.084    0.203    0.514    6.410
  390.012   95.396    0.205    0.502    6.456
  390.262   97.694    0.215    0.490    6.446
  390.512   99.558    0.215    0.486    6.351
  390.762  101.003    0.213    0.484    6.215
  391.012  101.323    0.227    0.491    5.432
  391.262   99.066    0.243    0.499    4.281
  391.512  100.278    0.253    0.493    3.285
  391.762  104.082    0.258    0.500    2.604
  392.012  106.319    0.249    0.556    2.182
  392.262  104.013    0.263    0.582    1.963
  392.512  101.573    0.283    0.606    1.911
  392.762  100.604    0.293    0.596    1.982
  393.012  100.358    0.277    0.602    2.211
  393.262  101.026    0.249    0.607    2.572
  393.512  100.501    0.225    0.593    3.096
  393.762   98.485    0.224    0.579    3.640
  394.012   93.944    0.266    0.562    4.268
  394.262   89.665    0.296    0.542    4.718
  394.512   87.949    0.277    0.523    5.129
  394.762   91.384    0.266    0.510    5.318
  395.012   93.366    0.252    0.504    5.347
  395.262   93.467    0.246    0.524    5.193
  395.512   87.619    0.249    0.529    4.863
  395.762   82.272    0.243    0.520    4.443
  396.012   78.649    0.240    0.513    4.228
  396.262   75.621    0.239    0.518    4.158
  396.512   74.051    0.201    0.531    4.259
  396.762   72.695    0.196    0.525    4.403
  397.012   69.902    0.228    0.505    4.689
  397.262   64.769    0.236    0.491    4.925
  397.512   69.799    0.198    0.475    5.020
  397.762   73.254    0.231    0.467    4.942
  398.012   74.737    0.308    0.478    4.778
  398.262   74.395    0.331    0.483    4.617
  398.512   73.377    0.328    0.476    4.495
  398.762   73.059    0.319    0.473    4.398
  399.012   73.078    0.312    0.485    4.356
  399.262   72.298    0.326    0.481    4.351
  399.512   70.029    0.325    0.476    4.367
  399.762   66.807    0.330    0.480    4.374
  400.012   65.471    0.336    0.477    4.371
  400.262   65.463    0.345    0.471    4.363
  400.512   65.792    0.340    0.467    4.367
  400.762   65.632    0.329    0.464    4.348
  401.012   64.828    0.325    0.463    4.335
  401.262   63.608    0.320    0.467    4.312
  401.512   62.462    0.315    0.475    4.275
  401.762   62.880    0.331    0.487    4.269
  402.012   67.397    0.329    0.484    4.311
  402.262   73.935    0.323    0.483    4.442
  402.512   75.968    0.316    0.504    4.943
  402.762   73.210    0.303    0.522    5.720
  403.012   71.932    0.303    0.503    7.761
  403.262   71.141    0.259    0.482   15.121
  403.512   69.013    0.185    0.445   18.685
  403.762   66.842    0.138    0.355   20.886
  404.012   64.101    0.100    0.329   21.307
  404.262   60.179    0.090    0.301   19.379
  404.512   57.450    0.112    0.312   13.969
  404.762   56.753    0.096    0.242   10.603
  405.012   64.993    0.019    0.206    8.428
  405.262   73.638    0.011    0.230    6.799
  405.512   81.785    0.031    0.305    5.556
  405.762   86.101    0.085    0.343    4.981
  406.012   88.342    0.168    0.385    4.762
  406.262   88.984    0.181    0.435    4.641
  406.512   88.410    0.156    0.435    4.580
  406.762   88.827    0.167    0.443    4.585
  407.012   91.635    0.188    0.409    4.620
  407.262   93.024    0.215    0.438    4.690
  407.512   93.773    0.225    0.462    4.788
  407.762   94.736    0.227    0.484    4.873
  408.012   95.664    0.216    0.495    4.978
  408.262   96.733    0.209    0.519    5.015
  408.512   95.960    0.206    0.506    5.047
  408.762   93.142    0.209    0.482    5.081
  409.012   91.367    0.221    0.465    5.116
  409.262   91.600    0.236    0.451    5.146
  409.512   91.491    0.227    0.440    5.193
  409.762   89.975    0.225    0.467    5.263
  410.012   88.755    0.217    0.456    5.298
  410.262   88.019    0.202    0.442    5.317
  410.512   89.497    0.203    0.452    5.329
  410.762   90.846    0.216    0.472    5.282
  411.012   93.059    0.193    0.472    5.254
  411.262   95.900    0.169    0.450    5.126
  411.512   95.635    0.158    0.436    5.038
  411.762   91.448    0.167    0.457    4.933
  412.012   90.087    0.189    0.492    4.808
  412.262   92.966    0.195    0.499    4.755
  412.512   95.968    0.179    0.511    4.602
  412.762   99.022    0.199    0.505    4.522
  413.012  100.470    0.226    0.495    4.350
  413.262  101.916    0.222    0.486    4.079
  413.512  102.809    0.240    0.483    3.943
  413.762  103.715    0.243    0.476    3.790
  414.012  104.232    0.221    0.480    3.735
  414.262  107.818    0.223    0.504    3.730
  414.512  105.392    0.236    0.527    3.719
  414.762  103.636    0.229    0.544    3.703
  415.012  103.017    0.231    0.562    3.621
  415.262  103.861    0.214    0.549    3.445
  415.512  105.394    0.235    0.537    3.213
  415.762  106.972    0.251    0.526    3.025
  416.012  107.513    0.265    0.544    2.550
  416.262  105.799    0.271    0.568    2.231
  416.512  103.558    0.289    0.589    2.161
  416.762  101.730    0.282    0.601    2.337
