~VERSION INFORMATION
 VERS.                 2.0:   CWLS LOG ASCII STANDARD -VERSION 2.0
 WRAP.                  NO:   ONE LINE PER DEPTH STEP
~WELL INFORMATION BLOCK
#MNEM.UNIT           DATA                    DESCRIPTION OF MNEMONIC
#---------    -------------------            -------------------------------
# Generated from Intellog Unique Number	CS_77_79/WELL/996
WELL.         NORTHSTAR ET AL THORNBURY      : Well_name    - WELL
LOC .         00/11-18-079-12W4/0            : Location     - LOCATION
UWI .         00/11-18-079-12W4/0            : Uwi          - UNIQUE WELL ID
ENTR.         JHS                            : Entered      - ENTERED BY
SRVC.         SCHLUMBERGER                   : Scn          - SERVICE COMPANY
STRT.M        275                            : top_depth    - START DEPTH
STOP.M        520                            : bot_depth    - STOP DEPTH
STEP.M        0.25                           : increment    - STEP LENGTH
 NULL. -999.2500:NULL Value
~CURVE INFORMATION BLOCK
#MNEM UNIT       ERCB CURVE CODE    CURVE DESCRIPTION
#-----------   ------------------   ----------------------------------
DEPT.M        00 001 00 00         : DEPTH        - DEPTH
DPHI.V/V      00 890 00 00         : PHID         - DENSITY POROSITY (LIMESTONE)
NPHI.V/V      00 330 00 00         : PHIN         - NEUTRON POROSITY (LIMESTONE)
GR  .API      00 310 00 00         : GR           - GAMMA RAY
ILD .OHMM     00 120 00 00         : RESD         - DEEP RESISTIVITY (DIL)
RHOB.KG/M3    00 350 00 00         : DENS         - BULK DENSITY
~PARAMETER INFORMATION
#MNEM.UNIT           DATA             DESCRIPTION OF MNEMONIC
#---------         -----------     ------------------------------
GL  .M        707.3                : gl           - GROUND LEVEL ELEVATION
EREF.M        711.3                : kb           - ELEVATION OF DEPTH REFERENCE
DATM.M        711.3                : datum        - DATUM ELEVATION
TDD .M        526.6                : tdd          - TOTAL DEPTH DRILLER
RUN .         ONE                  : Run          - RUN NUMBER
ENG .         BILL                 : Engineer     - RECORDING ENGINEER
WIT .         JIM                  : Witness      - WITNESSED BY
MUD .         GEL                  : Mud_type     - MUD TYPE
MATR.         LIMESTONE            : Logunit      - NEUTRON MATRIX
TMAX.C        25.1                 : BHT          - MAXIMUM RECORDED TEMPERATURE
BHTD.M        526.6                : BHTDEP       - MAXIMUM RECORDED TEMPERATURE
MATR.         1                    : LOGUNIT      - NEUTRON MATRIX
RMT .C        25                   : MDTP         - TEMPERATURE OF MUD
NEUT.         1                    : NEUTRON      - NEUTRON TYPE
RESI.         0                    : RESIST       - RESISTIVITY TYPE
RMC .OHMM     0.25                 : RMC          - RESISTIVITY OF MUD CAKE
RMF .OHMM     0.25                 : RMF          - RESISTIVITY OF MUD FILTRATE
SUFT.C        15                   : SUFT         - SURFACE TEMPERATURE
~A  DEPTH     PHID     PHIN       GR     RESD     DENS
# ...
  421.000    0.223    0.471   96.823    6.294    0.000
  421.250    0.248    0.473   96.211    6.541    0.000
  421.500    0.259    0.482   92.525    6.929    0.000
  421.750    0.250    0.486   94.988    7.065    0.000
  422.000    0.254    0.476   97.449    7.483    0.000
  422.250    0.247    0.467  100.525    7.630    0.000
  422.500    0.228    0.449  100.527    7.636    0.000
  422.750    0.217    0.435   99.916    7.788    0.000
  423.000    0.221    0.433   98.690    7.652    0.000
  423.250    0.228    0.435   98.691    7.240    0.000
  423.500    0.231    0.417  100.538    6.722    0.000
  423.750    0.225    0.410   98.696    6.243    0.000
  424.000    0.226    0.410   95.626    5.798    0.000
  424.250    0.237    0.416   93.784    5.801    0.000
  424.500    0.245    0.432   93.171    5.594    0.000
  424.750    0.255    0.450   93.789    5.927    0.000
  425.000    0.241    0.462   91.947    6.043    0.000
  425.250    0.230    0.449   88.261    6.161    0.000
  425.500    0.239    0.452   90.724    6.652    0.000
  425.750    0.249    0.455   91.341    6.783    0.000
  426.000    0.254    0.443   90.113    6.787    0.000
  426.250    0.237    0.424   86.428    6.667    0.000
  426.500    0.240    0.428   83.356    6.078    0.000
  426.750    0.259    0.445   82.744    5.750    0.000
  427.000    0.276    0.439   82.132    5.440    0.000
  427.250    0.302    0.445   82.134    5.243    0.000
  427.500    0.315    0.456   83.368    4.870    0.000
  427.750    0.291    0.462   82.755    4.695    0.000
  428.000    0.292    0.472   80.913    4.612    0.000
  428.250    0.293    0.468   76.612    4.615    0.000
  428.500    0.291    0.472   73.542    4.708    0.000
  428.750    0.299    0.482   73.543    4.985    0.000
  429.000    0.319    0.463   72.931    5.182    0.000
  429.250    0.343    0.460   69.861    5.386    0.000
  429.500    0.330    0.461   66.789    5.391    0.000
  429.750    0.322    0.467   68.022    5.394    0.000
  430.000    0.307    0.473   70.483    5.300    0.000
  430.250    0.303    0.462   74.175    5.305    0.000
  430.500    0.329    0.455   74.792    5.412    0.000
  430.750    0.319    0.455   75.409    5.623    0.000
  431.000    0.300    0.447   74.183    6.182    0.000
  431.250    0.282    0.438   73.570    6.926    0.000
  431.500    0.251    0.402   70.499    8.056    0.000
  431.750    0.177    0.299   63.739   10.486    0.000
  432.000    0.089    0.242   58.824   14.441    0.000
  432.250    0.049    0.196   56.982   18.113    0.000
  432.500    0.052    0.199   55.755   18.470    0.000
  432.750    0.046    0.212   53.299   16.217    0.000
  433.000    0.038    0.205   51.457   13.965    0.000
  433.250    0.038    0.202   55.763    9.424    0.000
  433.500    0.152    0.240   64.987    7.252    0.000
  433.750    0.239    0.303   69.908    6.132    0.000
  434.000    0.280    0.354   69.296    5.694    0.000
  434.250    0.313    0.473   71.143    5.388    0.000
  434.500    0.316    0.467   72.989    5.394    0.000
  434.750    0.316    0.456   73.607    5.499    0.000
  435.000    0.316    0.452   72.380    6.161    0.000
  435.250    0.291    0.453   70.538    7.302    0.000
  435.500    0.250    0.433   68.082    9.157    0.000
  435.750    0.177    0.355   67.469   11.059    0.000
  436.000    0.076    0.260   66.859   11.276    0.000
  436.250    0.057    0.242   69.320   10.277    0.000
  436.500    0.074    0.243   74.240    9.192    0.000
  436.750    0.147    0.277   76.087    7.485    0.000
  437.000    0.222    0.353   79.163    6.327    0.000
  437.250    0.298    0.436   81.011    5.766    0.000
  437.500    0.306    0.474   81.629    5.457    0.000
  437.750    0.304    0.467   80.401    5.359    0.000
  438.000    0.310    0.453   76.715    5.263    0.000
  438.250    0.319    0.444   79.176    5.272    0.000
  438.500    0.320    0.436   81.023    5.275    0.000
  438.750    0.316    0.440   81.025    5.280    0.000
  439.000    0.305    0.463   80.415    5.385    0.000
  439.250    0.304    0.473   81.031    5.389    0.000
  439.500    0.312    0.485   81.034    5.395    0.000
  439.750    0.301    0.479   79.806    5.402    0.000
  440.000    0.292    0.475   80.424    5.408    0.000
  440.250    0.292    0.477   80.427    5.410    0.000
  440.500    0.300    0.478   77.971    5.316    0.000
  440.750    0.293    0.492   81.048    5.321    0.000
  441.000    0.289    0.483   82.279    5.328    0.000
  441.250    0.292    0.469   84.126    5.332    0.000
  441.500    0.303    0.467   83.514    5.236    0.000
  441.750    0.316    0.469   82.287    5.244    0.000
  442.000    0.311    0.464   81.060    5.346    0.000
  442.250    0.306    0.454   82.292    5.352    0.000
  442.500    0.287    0.448   84.139    5.459    0.000
  442.750    0.289    0.465   84.757    5.466    0.000
  443.000    0.296    0.474   82.915    5.470    0.000
  443.250    0.288    0.459   84.763    5.473    0.000
  443.500    0.276    0.458   88.454    5.178    0.000
  443.750    0.261    0.468   91.529    4.721    0.000
  444.000    0.257    0.457   94.606    4.382    0.000
  444.250    0.266    0.454   97.067    4.470    0.000
  444.500    0.260    0.464  100.144    4.732    0.000
  444.750    0.245    0.472  101.991    5.303    0.000
  445.000    0.246    0.462   96.461    5.616    0.000
  445.250    0.257    0.454   93.390    5.836    0.000
  445.500    0.263    0.456   90.933    5.841    0.000
  445.750    0.263    0.463   90.321    5.632    0.000
  446.000    0.267    0.467   87.865    5.328 2253.380
  446.250    0.258    0.469   83.564    5.538 2268.040
  446.500    0.258    0.473   79.263    5.976 2268.050
  446.750    0.268    0.465   80.496    6.572 2251.310
  447.000    0.208    0.475   81.727    7.089 2353.920
  447.250    0.149    0.446   78.042    7.795 2454.440
  447.500    0.113    0.423   74.356    7.951 2517.260
  447.750    0.088    0.322   74.973    7.522 2559.150
  448.000    0.085    0.320   82.353    6.856 2565.440
  448.250    0.173    0.340   88.503    6.247 2414.690
  448.500    0.212    0.442   91.579    5.910 2347.690
  448.750    0.231    0.473   93.426    5.699 2314.200
  449.000    0.219    0.482   95.273    5.597 2335.150
  449.250    0.220    0.486   95.276    5.601 2333.060
  449.500    0.214    0.478   92.206    5.823 2343.540
  449.750    0.205    0.469   91.593    5.937 2360.300
  450.000    0.198    0.453   93.547    6.530 2371.960
  450.250    0.194    0.442   91.017    6.647 2378.030
  450.500    0.172    0.418   90.927    6.894 2415.420
  450.750    0.172    0.412   93.313    7.018 2415.160
  451.000    0.196    0.411   98.728    7.008 2375.170
  451.250    0.168    0.421  102.342    7.135 2423.050
  451.500    0.175    0.425  107.772    6.995 2410.220
  451.750    0.193    0.402  110.737    6.858 2380.720
  452.000    0.204    0.397  108.839    6.726 2361.630
  452.250    0.190    0.409  105.107    6.349 2384.380
  452.500    0.194    0.432  101.356    5.996 2377.880
  452.750    0.198    0.423   97.622    5.663 2371.330
  453.000    0.209    0.421   98.155    5.349 2352.240
  453.250    0.217    0.433  100.528    4.957 2339.490
  453.500    0.209    0.450   97.400    4.424 2351.760
  453.750    0.229    0.464   96.104    3.949 2318.040
  454.000    0.249    0.479   96.642    3.524 2284.360
  454.250    0.264    0.491   96.562    3.207 2259.010
  454.500    0.280    0.515   94.653    2.655 2231.600
  454.750    0.264    0.535   92.136    2.240 2258.540
  455.000    0.253    0.561   90.238    1.963 2277.060
  455.250    0.245    0.541   88.334    1.818 2291.490
  455.500    0.247    0.560   87.644    1.851 2287.050
  455.750    0.222    0.578   89.394    1.993 2330.720
  456.000    0.195    0.584   92.367    2.107 2376.490
  456.250    0.196    0.588   92.928    2.269 2374.120
  456.500    0.208    0.572   91.636    2.786 2355.090
  456.750    0.192    0.491   94.622    3.421 2382.020
  457.000    0.196    0.454   96.364    3.827 2375.500
  457.250    0.210    0.438   94.470    4.526 2350.120
