~VERSION INFORMATION
 VERS.                 2.0:   CWLS LOG ASCII STANDARD -VERSION 2.0
 WRAP.                  NO:   ONE LINE PER DEPTH STEP
~WELL INFORMATION BLOCK
#MNEM.UNIT           DATA                    DESCRIPTION OF MNEMONIC
#---------    -------------------            -------------------------------
# Generated from Intellog Unique Number	CC_84_87/WELL/2344
NULL.         -999.25                        : NULL_VALUE
WELL.         PARA ET AL SALESKI             : Well_name    - WELL
LOC .         13-23-086-18W4                 : Location     - LOCATION          
UWI .         00/13-23-086-18W400            : Uwi          - UNIQUE WELL ID    
ENTR.         DW                             : Entered      - ENTERED BY        
SRVC.         COMPUTALOG                     : Scn          - SERVICE COMPANY   
DATE.         01 FEB 86                      : Date         - LOG DATE
STRT.M        85                             : top_depth    - START DEPTH       
STOP.M        244.902                        : bot_depth    - STOP DEPTH        
STEP.M        0.3                            : increment    - STEP LENGTH       
~CURVE INFORMATION BLOCK
#MNEM UNIT       ERCB CURVE CODE    CURVE DESCRIPTION
#-----------   ------------------   ----------------------------------
DEPT.M        00 001 00 00         : DEPTH        - DEPTH                       
DPHI.V/V      00 890 00 00         : PHID         - DENSITY POROSITY (LIMESTONE)
NPHI.V/V      00 330 00 00         : PHIN         - NEUTRON POROSITY (LIMESTONE)
GR  .API      00 310 00 00         : GR           - GAMMA RAY                   
ILD .OHMM     00 120 00 00         : RESD         - DEEP RESISTIVITY (DIL)      
~PARAMETER INFORMATION       
#MNEM.UNIT           DATA             DESCRIPTION OF MNEMONIC
#---------         -----------     ------------------------------
GL  .M        507.1                : gl           - GROUND LEVEL ELEVATION      
EREF.M        510.9                : kb           - ELEVATION OF DEPTH REFERENCE
DATM.M        510.9                : datum        - DATUM ELEVATION             
TDD .M        248                  : tdd          - TOTAL DEPTH DRILLER         
RUN .         ONE                  : Run          - RUN NUMBER                  
ENG .         BILL                 : Engineer     - RECORDING ENGINEER          
WIT .         JIM                  : Witness      - WITNESSED BY                
MUD .         GEL                  : Mud_type     - MUD TYPE                    
MATR.         LIMESTONE            : Logunit      - NEUTRON MATRIX              
TMAX.C        38                   : BHT          - MAXIMUM RECORDED TEMPERATURE
BHTD.M        2482                 : BHTDEP       - MAXIMUM RECORDED TEMPERATURE
MATR.         1                    : LOGUNIT      - NEUTRON MATRIX              
RMT .C        25                   : MDTP         - TEMPERATURE OF MUD          
NEUT.         1                    : NEUTRON      - NEUTRON TYPE                
RESI.         0                    : RESIST       - RESISTIVITY TYPE            
RMC .OHMM     0.25                 : RMC          - RESISTIVITY OF MUD CAKE     
RMF .OHMM     0.25                 : RMF          - RESISTIVITY OF MUD FILTRATE 
SUFT.C        15                   : SUFT         - SURFACE TEMPERATURE         
~A  DEPTH     PHID     PHIN       GR     RESD
# ...
  189.401    0.216    0.359  102.744   14.303
  189.701    0.221    0.368   98.933   14.876
  190.001    0.211    0.387  100.204   16.085
  190.301    0.225    0.384  108.467   16.734
  190.601    0.229    0.383  108.468   16.422
  190.901    0.203    0.381   97.666   14.914
  191.201    0.174    0.374   96.397   13.028
  191.501    0.201    0.382   98.304   11.161
  191.801    0.216    0.398  102.119    8.849
  192.101    0.222    0.410  111.652    8.193
  192.401    0.221    0.429  116.737    7.588
  192.701    0.220    0.459  123.093    7.591
  193.001    0.205    0.448  125.001    8.370
  193.301    0.193    0.441  111.657    9.971
  193.601    0.158    0.431  101.490   13.876
  193.901    0.027    0.411   83.698   16.533
  194.201    0.169    0.372   87.512   16.225
  194.501    0.196    0.358   93.233    9.617
  194.801    0.205    0.370   98.318    8.401
  195.101    0.207    0.386  104.674    7.778
  195.401    0.201    0.408  110.395    7.634
  195.701    0.168    0.402  107.854    7.943
  196.001    0.169    0.406  114.210    8.261
  196.301    0.203    0.415  116.753    8.591
  196.601    0.208    0.420  112.942    8.765
  196.901    0.202    0.417  118.027    8.771
  197.201    0.193    0.429  121.841    8.443
  197.501    0.191    0.435  114.216    8.613
  197.801    0.186    0.429  110.404    9.134
  198.101    0.184    0.430  121.845   10.269
  198.401    0.187    0.436  125.023   12.235
  198.701    0.201    0.437  120.576   13.753
  199.001    0.205    0.426  106.596   18.411
  199.301    0.131    0.387   99.607   19.155
  199.601    0.129    0.368   97.067   18.080
  199.901    0.178    0.375  105.329   16.103
  200.201    0.201    0.368  114.863   14.626
  200.501    0.192    0.360  125.032   14.351
  200.801    0.194    0.360  122.491   14.362
  201.101    0.196    0.365  116.773   15.531
  201.401    0.193    0.379  111.691   17.458
  201.701    0.198    0.384  109.150   20.402
  202.001    0.213    0.379  104.067   20.026
  202.301    0.123    0.364   95.806   20.032
  202.601    0.075    0.339   86.911   19.282
  202.901    0.169    0.330   98.351   18.562
  203.201    0.204    0.346  104.707   18.940
  203.501    0.215    0.355  105.980   19.320
  203.801    0.216    0.358  104.074   21.305
  204.101    0.234    0.356   97.085   22.588
  204.401    0.235    0.342   88.189   30.237
  204.701    0.207    0.331   85.013   33.995
  205.001    0.140    0.317   83.743   33.359
  205.301    0.047    0.287   81.203   28.584
  205.601    0.017    0.278   78.026   23.108
  205.901    0.044    0.280   83.747   20.979
  206.201    0.140    0.313   92.010   18.329
  206.501    0.204    0.351   96.460   16.974
  206.801    0.216    0.380   97.096   16.023
  207.101    0.211    0.397   93.920   15.420
  207.401    0.207    0.375   98.370   15.431
  207.701    0.202    0.356  104.090   16.687
  208.001    0.213    0.366  104.092   18.045
  208.301    0.217    0.368  102.186   18.410
  208.601    0.174    0.360   98.375   17.382
  208.901    0.087    0.340   87.572   17.054
  209.201    0.132    0.335   93.929   15.791
  209.501    0.190    0.359  100.920   13.270
  209.801    0.198    0.384  104.099   10.318
  210.101    0.201    0.411  105.371    8.340
  210.401    0.208    0.433  107.914    6.486
  210.701    0.208    0.423  115.542    5.243
  211.001    0.202    0.414  122.533    4.761
  211.301    0.197    0.420  119.357    4.673
  211.601    0.194    0.461  114.910    5.460
  211.901    0.208    0.471  127.621    7.030
  212.201    0.209    0.475  131.435   12.589
  212.501    0.190    0.468  125.081   18.931
  212.801    0.182    0.451  105.382   45.350
  213.101    0.214    0.395   78.693   69.542
  213.401    0.264    0.349   45.013   73.762
  213.701    0.287    0.325   35.481   72.387
  214.001    0.297    0.316   32.305   67.027
  214.301    0.288    0.325   33.577   60.869
  214.601    0.285    0.335   39.298   54.203
  214.901    0.297    0.352   41.842   42.980
  215.201    0.293    0.368   43.749   36.823
  215.501    0.290    0.381   47.563   32.801
  215.801    0.289    0.379   54.555   33.460
  216.101    0.289    0.381   60.276   38.351
  216.401    0.293    0.390   56.464   43.114
  216.701    0.299    0.394   52.017   44.848
  217.001    0.309    0.399   51.382   44.007
  217.301    0.323    0.406   56.468   35.574
  217.601    0.340    0.389   58.375   26.095
  217.901    0.132    0.381   56.470   14.877
  218.201    0.055    0.347   56.471    9.714
  218.501    0.205    0.342   79.986    5.226
  218.801    0.227    0.368   93.968    4.224
  219.101    0.231    0.402  104.137    3.762
  219.401    0.230    0.457  121.932    3.621
  219.701    0.245    0.466  124.476    3.694
  220.001    0.249    0.469  122.570    4.318
  220.301    0.236    0.464  121.301    5.453
  220.601    0.216    0.447  122.573    6.623
  220.901    0.195    0.427  121.939    7.302
  221.201    0.100    0.409  113.043    6.633
  221.501    0.146    0.402   91.437    6.262
  221.801    0.194    0.408  113.681    6.144
  222.101    0.203    0.418  128.934    6.517
  222.401    0.203    0.408  127.664    8.555
  222.701    0.235    0.414  118.768   13.374
  223.001    0.299    0.404   99.069   21.318
  223.301    0.308    0.384   84.454   31.447
  223.601    0.291    0.374   76.829   36.041
  223.901    0.262    0.381   80.008   38.969
  224.201    0.240    0.388   87.000   36.794
  224.501    0.297    0.374   68.572   30.919
  224.801    0.303    0.359   67.937   23.578
  225.101    0.278    0.351   92.723   19.816
  225.401    0.216    0.351  127.676   19.075
  225.701    0.198    0.359  119.416   19.455
  226.001    0.203    0.348   85.736   21.041
  226.301    0.189    0.308   63.495   24.117
  226.601    0.178    0.274   53.964   27.641
  226.901    0.223    0.259   38.078   31.680
  227.201    0.237    0.248   22.192   37.021
  227.501    0.234    0.243   26.641   41.622
  227.801    0.233    0.243   34.268   41.641
  228.101    0.232    0.255   33.634   36.379
  228.401    0.379    0.377   53.971   28.840
  228.701    0.505    0.426   74.944   27.229
  229.001    0.604    0.484   79.394   29.441
  229.301    0.555    0.584   99.731   37.183
  229.601    0.513    0.600  106.087   49.778
  229.901    0.476    0.504   95.285   53.820
  230.201    0.428    0.412   55.885   51.800
  230.501    0.207    0.305   36.822   43.535
  230.801    0.191    0.264   37.459   45.282
  231.101    0.189    0.307   46.356   50.899
  231.401    0.210    0.337   42.545   66.831
  231.701    0.232    0.328   30.472   89.452
  232.001    0.247    0.300   32.379  137.173
  232.301    0.252    0.275   34.287  115.280
  232.602    0.242    0.260   32.382   91.388
  232.902    0.226    0.261   29.841   79.823
  233.202    0.199    0.272   33.655   75.359
  233.502    0.190    0.289   35.563   79.919
  233.802    0.185    0.304   35.564   91.605
  234.102    0.182    0.303   33.659  102.985
  234.402    0.198    0.279   31.753  107.116
  234.702    0.210    0.266   29.848  107.199
  235.002    0.219    0.262   35.569  103.171
  235.302    0.238    0.265   43.196   90.135
  235.602    0.237    0.267   63.533   83.453
  235.902    0.228    0.270   62.899   77.282
  236.202    0.228    0.275   57.181   75.826
  236.502    0.247    0.277   59.089   77.362
  236.802    0.246    0.281   56.548   83.658
  237.102    0.233    0.295   47.652   87.019
  237.402    0.231    0.329   40.027   87.078
  237.702    0.272    0.346   33.038   87.128
  238.002    0.262    0.329   28.591   82.254
  238.302    0.246    0.306   31.134   79.167
  238.602    0.229    0.298   43.845   71.890
  238.902    0.230    0.294   54.014   49.759
  239.202    0.224    0.295   61.642   37.950
  239.502    0.193    0.301   67.362   33.154
  239.802    0.274    0.353   69.906   31.300
  240.102    0.293    0.372   60.374   28.983
  240.402    0.314    0.377   54.656   22.972
  240.702    0.274    0.357   67.367   11.214
  241.002    0.265    0.372  127.740    9.423
  241.302    0.272    0.396  147.442    8.896
