~VERSION INFORMATION
 VERS.                 2.0:   CWLS LOG ASCII STANDARD -VERSION 2.0
 WRAP.                  NO:   ONE LINE PER DEPTH STEP
~WELL INFORMATION BLOCK
#MNEM.UNIT           DATA                    DESCRIPTION OF MNEMONIC
#---------    -------------------            -------------------------------
# Generated from Intellog Unique Number	CX_WELLS/WELL/3184
WELL.         CHEVRON CDN-SUP ALGAR          : Well_name    - WELL
LOC .         00/11-09-083-16W4/0            : Location     - LOCATION
UWI .         00/11-09-083-16W400            : Uwi          - UNIQUE WELL ID
ENTR.         DW                             : Entered      - ENTERED BY
SRVC.         SCHLUMBERGER                   : Scn          - SERVICE COMPANY
STRT.F        300                            : top_depth    - START DEPTH
STOP.F        889.731                        : bot_depth    - STOP DEPTH
STEP.F        0.82                           : increment    - STEP LENGTH
 NULL. -999.2500:NULL Value
~CURVE INFORMATION BLOCK
#MNEM UNIT       ERCB CURVE CODE    CURVE DESCRIPTION
#-----------   ------------------   ----------------------------------
DEPT.F        00 001 00 00         : DEPTH        - DEPTH
GR  .API      00 310 00 00         : GR           - GAMMA RAY
NPHI.V/V      00 330 00 00         : PHIN         - NEUTRON POROSITY (SANDSTONE)
DPHI.V/V      00 890 00 00         : PHID         - DENSITY POROSITY (SANDSTONE)
ILD .OHMM     00 120 00 00         : RESD         - DEEP RESISTIVITY (DIL)
~PARAMETER INFORMATION
#MNEM.UNIT           DATA             DESCRIPTION OF MNEMONIC
#---------         -----------     ------------------------------
GL  .M        526.237              : gl           - GROUND LEVEL ELEVATION
EREF.M        529.438              : kb           - ELEVATION OF DEPTH REFERENCE
DATM.M        529.438              : datum        - DATUM ELEVATION
TDD .M        271.577              : tdd          - TOTAL DEPTH DRILLER
RUN .         ONE                  : Run          - RUN NUMBER
ENG .         BILL                 : Engineer     - RECORDING ENGINEER
WIT .         JIM                  : Witness      - WITNESSED BY
MUD .         GEL                  : Mud_type     - MUD TYPE
MATR.         SANDSTONE            : Logunit      - NEUTRON MATRIX
TMAX.C        22.2222              : BHT          - MAXIMUM RECORDED TEMPERATURE
BHTD.M        271.577              : BHTDEP       - MAXIMUM RECORDED TEMPERATURE
MATR.         1                    : LOGUNIT      - NEUTRON MATRIX
RMT .C        25                   : MDTP         - TEMPERATURE OF MUD
NEUT.         1                    : NEUTRON      - NEUTRON TYPE
RESI.         0                    : RESIST       - RESISTIVITY TYPE
RMC .OHMM     0.25                 : RMC          - RESISTIVITY OF MUD CAKE
RMF .OHMM     0.25                 : RMF          - RESISTIVITY OF MUD FILTRATE
SUFT.C        4                    : SUFT         - SURFACE TEMPERATURE
~A  DEPTH       GR     PHIN     PHID     RESD
# ...
  585.433   62.035    0.489    0.314    9.210
  586.253   63.213    0.486    0.303    9.043
  587.073   63.209    0.478    0.297    9.043
  587.894   63.206    0.473    0.299    8.880
  588.714   63.203    0.479    0.310    8.719
  589.534   63.199    0.475    0.317    8.720
  590.354   62.605    0.475    0.313    8.720
  591.175   60.828    0.485    0.307    8.562
  591.995   60.233    0.497    0.305    8.407
  592.815   62.003    0.497    0.315    8.408
  593.635   64.365    0.497    0.317    8.408
  594.455   70.273    0.497    0.317    8.256
  595.276   70.269    0.485    0.319    8.256
  596.096   67.901    0.461    0.320    8.107
  596.916   68.489    0.448    0.310    7.816
  597.736   70.259    0.455    0.301    7.816
  598.556   71.438    0.466    0.296    7.536
  599.377   69.659    0.474    0.290    7.400
  600.197   68.474    0.479    0.280    7.266
  601.017   69.653    0.452    0.280    7.005
  601.837   71.423    0.444    0.278    6.879
  602.657   74.376    0.449    0.271    6.754
  603.478   78.510    0.461    0.267    6.632
  604.298   82.643    0.470    0.262    6.279
  605.118   82.639    0.481    0.256    6.054
  605.938   80.272    0.490    0.249    5.944
  606.759   80.267    0.485    0.243    5.944
  607.579   80.857    0.481    0.235    5.944
  608.399   81.443    0.491    0.241    5.945
  609.219   77.892    0.499    0.246    5.945
  610.039   74.934    0.474    0.258    6.166
  610.860   72.566    0.464    0.278    6.634
  611.680   71.973    0.446    0.273    7.539
  612.500   77.880    0.436    0.271    8.261
  613.320   77.876    0.430    0.280    8.726
  614.140   74.918    0.425    0.287    8.727
  614.961   67.820    0.450    0.280    8.727
  615.781   64.862    0.466    0.280    8.727
  616.601   63.676    0.481    0.280    8.727
  617.421   65.446    0.488    0.280    8.889
  618.241   65.442    0.485    0.278    8.889
  619.062   65.438    0.482    0.272    9.053
  619.882   66.025    0.481    0.265    9.563
  620.702   66.023    0.478    0.261    9.740
  621.522   63.653    0.418    0.253   10.103
  622.343   61.877    0.393    0.247   10.289
  623.163   59.510    0.360    0.238   10.479
  623.983   56.551    0.315    0.219   11.274
  624.803   54.184    0.271    0.143   13.784
  625.623   57.133    0.192    0.010   15.954
  626.444   59.496    0.185    0.014   17.164
  627.264   63.631    0.201    0.060   15.382
  628.084   65.992    0.237    0.160   13.050
  628.904   69.534    0.431    0.243   11.276
  629.724   71.894    0.454    0.264    9.223
  630.545   70.709    0.467    0.271    9.056
  631.365   68.342    0.490    0.278    8.574
  632.185   65.973    0.505    0.284    8.418
  633.005   65.969    0.513    0.291    8.266
  633.825   65.967    0.506    0.295    8.266
  634.646   64.188    0.491    0.296    8.419
  635.466   61.822    0.480    0.299    8.419
  636.286   61.818    0.473    0.299    8.733
  637.106   64.771    0.464    0.290    9.058
  637.927   69.497    0.461    0.286    9.059
  638.747   73.630    0.456    0.284    8.895
  639.567   75.992    0.456    0.280    8.734
  640.387   78.943    0.456    0.266    8.421
  641.207   77.166    0.456    0.252    7.972
  642.028   74.799    0.457    0.246    7.547
  642.848   73.022    0.462    0.240    7.410
  643.668   73.018    0.469    0.234    7.276
  644.488   73.605    0.466    0.231    7.145
  645.308   74.194    0.461    0.229    7.145
  646.129   75.373    0.461    0.229    7.016
  646.949   75.370    0.461    0.229    7.016
  647.769   74.181    0.472    0.230    7.016
  648.589   73.589    0.482    0.236    7.016
  649.409   73.585    0.476    0.258    7.017
  650.230   77.129    0.473    0.252    7.146
  651.050   76.534    0.494    0.247    7.146
  651.870   75.349    0.515    0.246    7.147
  652.690   74.754    0.487    0.243    7.147
  653.510   74.750    0.478    0.247    7.279
  654.331   73.565    0.465    0.246    7.279
  655.151   72.969    0.455    0.240    7.279
  655.971   75.330    0.451    0.234    7.279
  656.791   82.420    0.444    0.236    7.280
  657.612   83.599    0.469    0.241    7.280
  658.432   82.412    0.476    0.235    7.280
  659.252   81.819    0.492    0.229    7.280
  660.072   78.860    0.505    0.222    7.148
  660.892   77.673    0.503    0.222    7.149
  661.713   77.670    0.494    0.228    7.019
  662.533   78.848    0.490    0.231    7.020
  663.353   80.028    0.486    0.236    6.893
  664.173   80.615    0.493    0.237    6.768
  664.993   80.022    0.504    0.237    6.768
  665.814   78.835    0.490    0.241    6.646
  666.634   77.649    0.475    0.246    6.646
  667.454   75.281    0.474    0.251    6.646
  668.274   72.913    0.463    0.263    7.150
  669.094   72.910    0.423    0.280    8.276
  669.915   71.133    0.393    0.300   10.689
  670.735   68.766    0.352    0.304   12.371
  671.555   66.989    0.372    0.306   12.372
  672.375   68.167    0.386    0.300   12.148
  673.196   69.346    0.407    0.285   11.713
  674.016   68.751    0.405    0.280   11.088
  674.836   67.565    0.394    0.280   10.888
  675.656   67.563    0.374    0.285   10.691
  676.476   66.967    0.363    0.292   10.691
  677.297   66.965    0.365    0.297   10.691
  678.117   68.735    0.364    0.289   11.294
  678.937   70.504    0.370    0.270   11.503
  679.757   70.500    0.381    0.264   11.503
  680.577   71.088    0.383    0.260   11.503
  681.398   71.676    0.377    0.258   11.716
  682.218   71.082    0.367    0.253   11.932
  683.038   68.712    0.357    0.252   12.152
  683.858   71.073    0.349    0.249   12.153
  684.678   73.435    0.338    0.234   12.605
  685.499   72.840    0.347    0.193   13.316
  686.319   72.246    0.364    0.163   14.067
  687.139   68.695    0.321    0.142   14.860
  687.959   65.146    0.283    0.108   15.987
  688.780   59.822    0.248   -0.011   18.503
  689.600   55.681    0.193   -0.008   24.338
  690.420   52.131    0.182    0.010   23.041
  691.240   54.491    0.222    0.082   19.908
  692.060   58.625    0.361    0.125   18.170
  692.881   62.169    0.404    0.235   15.700
  693.701   65.121    0.417    0.253   13.815
  694.521   65.117    0.408    0.255   11.937
  695.341   65.706    0.404    0.255   10.504
  696.161   68.066    0.406    0.253   10.127
  696.982   69.836    0.419    0.253    9.764
  697.802   73.969    0.437    0.257    9.414
  698.622   75.150    0.435    0.263    9.077
  699.442   77.510    0.436    0.254    8.912
  700.262   80.462    0.447    0.245    8.593
  701.083   82.823    0.457    0.235    8.135
  701.903   85.184    0.472    0.227    7.988
  702.723   86.954    0.487    0.216    7.425
  703.543   85.178    0.493    0.220    6.654
  704.364   81.628    0.495    0.224    6.416
  705.184   79.259    0.490    0.229    6.416
  706.004   77.482    0.474    0.237    6.777
  706.824   77.478    0.444    0.252    7.563
  707.644   77.475    0.437    0.264    8.439
  708.465   78.063    0.430    0.261    9.417
  709.285   80.424    0.432    0.235    9.591
  710.105   83.966    0.437    0.229    8.440
  710.925   86.919    0.440    0.221    7.703
  711.745   89.281    0.450    0.215    6.904
  712.566   91.642    0.468    0.214    6.779
  713.386   91.638    0.483    0.210    6.536
  714.206   92.225    0.501    0.208    6.536
  715.026   92.222    0.526    0.205    6.779
  715.846   92.219    0.541    0.204    7.162
  716.667   91.624    0.508    0.203    7.565
  717.487   91.029    0.487    0.199    7.566
  718.307   91.616    0.472    0.197    7.566
  719.127   92.204    0.468    0.198    7.566
  719.948   93.974    0.473    0.200    7.566
  720.768   94.562    0.477    0.202    7.429
  721.588   95.740    0.463    0.202    7.163
  722.408   97.510    0.454    0.204    7.163
  723.228   99.280    0.453    0.206    7.034
  724.049   97.503    0.465    0.211    7.034
  724.869   95.725    0.471    0.220    7.296
  725.689   95.132    0.443    0.223    7.849
  726.509   94.538    0.424    0.216    8.142
  727.329   92.759    0.408    0.193    8.921
