~VERSION INFORMATION
 VERS.                 2.0:   CWLS LOG ASCII STANDARD -VERSION 2.0
 WRAP.                  NO:   ONE LINE PER DEPTH STEP
~WELL INFORMATION BLOCK
#MNEM.UNIT           DATA                    DESCRIPTION OF MNEMONIC
#---------    -------------------            -------------------------------
# Generated from Intellog Unique Number	CS_77_79/WELL/937
WELL.         AMOCO B-1 LEISMER              : Well_name    - WELL
LOC .         00/10-09-078-09W4/0            : Location     - LOCATION
UWI .         00/10-09-078-09W4/0            : Uwi          - UNIQUE WELL ID
ENTR.         JHS                            : Entered      - ENTERED BY
SRVC.         SCHLUMBERGER                   : Scn          - SERVICE COMPANY
STRT.M        179.832                        : top_depth    - START DEPTH
STOP.M        402.082                        : bot_depth    - STOP DEPTH
STEP.M        0.25                           : increment    - STEP LENGTH
 NULL. -999.2500:NULL Value
~CURVE INFORMATION BLOCK
#MNEM UNIT       ERCB CURVE CODE    CURVE DESCRIPTION
#-----------   ------------------   ----------------------------------
DEPT.M        00 001 00 00         : DEPTH        - DEPTH
RHOB.KG/M3    00 350 00 00         : DENS         - BULK DENSITY
GR  .API      00 310 00 00         : GR           - GAMMA RAY
DPHI.V/V      00 890 00 00         : PHID         - DENSITY POROSITY (SANDSTONE)
NPHI.V/V      00 330 00 00         : PHIN         - NEUTRON POROSITY (SANDSTONE)
ILD .OHMM     00 120 00 00         : RESD         - DEEP RESISTIVITY (DIL)
~PARAMETER INFORMATION
#MNEM.UNIT           DATA             DESCRIPTION OF MNEMONIC
#---------         -----------     ------------------------------
GL  .M        599.953              : gl           - GROUND LEVEL ELEVATION
EREF.M        602.59               : kb           - ELEVATION OF DEPTH REFERENCE
DATM.M        602.59               : datum        - DATUM ELEVATION
TDD .M        417.576              : tdd          - TOTAL DEPTH DRILLER
RUN .         ONE                  : Run          - RUN NUMBER
ENG .         BILL                 : Engineer     - RECORDING ENGINEER
WIT .         JIM                  : Witness      - WITNESSED BY
MUD .         GEL                  : Mud_type     - MUD TYPE
MATR.         SANDSTONE            : Logunit      - NEUTRON MATRIX
TMAX.C        22.2222              : BHT          - MAXIMUM RECORDED TEMPERATURE
BHTD.M        417.576              : BHTDEP       - MAXIMUM RECORDED TEMPERATURE
MATR.         1                    : LOGUNIT      - NEUTRON MATRIX
RMT .C        25                   : MDTP         - TEMPERATURE OF MUD
NEUT.         1                    : NEUTRON      - NEUTRON TYPE
RESI.         0                    : RESIST       - RESISTIVITY TYPE
RMC .OHMM     0.25                 : RMC          - RESISTIVITY OF MUD CAKE
RMF .OHMM     0.25                 : RMF          - RESISTIVITY OF MUD FILTRATE
SUFT.C        15                   : SUFT         - SURFACE TEMPERATURE
~A  DEPTH     DENS       GR     PHID     PHIN     RESD
  179.832    0.000   89.392    0.256    0.593    4.191
  180.082    0.000   87.675    0.261    0.557    4.002
  180.332    0.000   85.737    0.252    0.561    3.806
  180.582    0.000   86.882    0.262    0.608    3.632
  180.832    0.000   92.636    0.270    0.580    3.625
  181.082    0.000   94.224    0.278    0.564    3.713
  181.332    0.000   94.077    0.269    0.568    3.820
  181.582    0.000   97.070    0.254    0.546    3.990
  181.832    0.000   95.344    0.274    0.530    4.066
  182.082    0.000   91.774    0.254    0.528    4.061
  182.332    0.000   89.727    0.247    0.524    4.058
  182.582    0.000   89.130    0.258    0.536    4.145
  182.832    0.000   92.173    0.276    0.552    4.191
  183.082    0.000   93.945    0.266    0.571    4.309
  183.332    0.000   91.622    0.251    0.545    4.307
  183.582    0.000   88.918    0.259    0.523    4.317
  183.832    0.000   88.577    0.246    0.512    4.218
  184.082    0.000   86.916    0.242    0.533    4.019
  184.332    0.000   88.304    0.258    0.534    3.971
  184.582    0.000   91.102    0.258    0.538    4.034
  184.832    0.000   88.019    0.247    0.589    4.353
  185.082    0.000   84.511    0.261    0.577    5.227
  185.332    0.000   78.897    0.255    0.493    6.194
  185.582    0.000   74.518    0.277    0.457    7.744
  185.832    0.000   72.141    0.290    0.439    9.086
  186.082    0.000   72.069    0.307    0.413   10.477
  186.332    0.000   75.527    0.319    0.430   11.700
  186.582    0.000   83.477    0.324    0.422   11.301
  186.832    0.000   94.239    0.348    0.456    9.974
  187.082    0.000  114.062    0.416    0.520    9.104
  187.332    0.000  131.006    0.553    0.596    8.548
  187.582    0.000  138.498    0.558    0.610    8.878
  187.832    0.000  109.048    0.525    0.607    9.535
  188.082    0.000   68.921    0.487    0.593   11.253
  188.332    0.000   49.999    0.380    0.454   13.934
  188.582    0.000   49.630    0.320    0.391   16.689
  188.832    0.000   50.958    0.326    0.390   19.390
  189.082    0.000   58.930    0.347    0.381   20.637
  189.332    0.000   58.065    0.334    0.408   20.839
  189.582    0.000   55.641    0.320    0.415   20.471
  189.832    0.000   56.725    0.327    0.391   20.282
  190.082    0.000   55.849    0.325    0.377   19.675
  190.332    0.000   57.189    0.323    0.374   18.785
  190.582    0.000   60.643    0.332    0.389   17.835
  190.832    0.000   62.526    0.325    0.411   17.319
  191.082    0.000   62.752    0.328    0.427   17.358
  191.332    0.000   59.443    0.338    0.419   17.499
  191.582    0.000   63.173    0.347    0.384   18.473
  191.832    0.000   63.960    0.331    0.375   18.786
  192.082    0.000   58.689    0.308    0.383   18.806
  192.332    0.000   52.877    0.298    0.381   18.448
  192.582    0.000   51.954    0.295    0.400   17.910
  192.832    0.000   55.763    0.310    0.420   17.372
  193.082    0.000   58.942    0.331    0.421   17.176
  193.332    0.000   60.543    0.336    0.402   17.188
  193.582    0.000   63.178    0.311    0.404   17.215
  193.832    0.000   67.158    0.320    0.416   16.928
  194.082    0.000   69.419    0.331    0.418   16.915
  194.332    0.000   68.330    0.308    0.419   16.921
  194.582    0.000   61.475    0.300    0.435   16.906
  194.832    0.000   60.283    0.325    0.451   17.422
  195.082    0.000   63.090    0.335    0.456   17.590
  195.332    0.000   68.241    0.327    0.475   18.183
  195.582    0.000   73.080    0.322    0.466   18.234
  195.832    0.000   75.476    0.320    0.466   18.607
  196.082    0.000   75.264    0.334    0.442   18.617
  196.332    0.000   78.471    0.330    0.448   18.634
  196.582    0.000   79.140    0.314    0.461   18.661
  196.832    0.000   81.209    0.334    0.450   18.133
  197.082    0.000   86.482    0.326    0.433   17.618
  197.332    0.000   90.737    0.304    0.417   16.852
  197.582    0.000   96.031    0.295    0.423   15.879
  197.832    0.000   96.676    0.289    0.438   14.988
  198.082    0.000   94.837    0.287    0.434   14.809
  198.332    0.000   91.848    0.302    0.415   14.756
  198.582    0.000   89.576    0.287    0.423   14.758
  198.832    0.000   89.637    0.289    0.452   14.966
  199.082    0.000   89.692    0.279    0.440   15.117
  199.332    0.000   88.556    0.271    0.437   15.349
  199.582    0.000   83.587    0.264    0.435   14.906
  199.832    0.000   80.183    0.242    0.381   14.482
  200.082    0.000   83.023    0.230    0.340   13.843
  200.332    0.000   83.455    0.217    0.344   13.255
  200.582    0.000   76.407    0.222    0.426   12.988
  200.832    0.000   63.695    0.256    0.445   13.000
  201.082    0.000   60.062    0.285    0.420   13.010
  201.332    0.000   66.173    0.299    0.392   13.585
  201.582    0.000   66.673    0.306    0.393   13.999
  201.832    0.000   57.341    0.326    0.413   14.502
  202.082    0.000   46.197    0.372    0.548   15.442
  202.332    0.000   45.262    0.399    0.467   16.634
  202.582    0.000   47.928    0.361    0.425   17.318
  202.832    0.000   51.377    0.353    0.428   18.201
  203.082    0.000   56.907    0.344    0.433   18.587
  203.332    0.000   62.423    0.324    0.421   18.993
  203.582    0.000   66.947    0.319    0.422   18.970
  203.832    0.000   68.158    0.309    0.432   18.986
  204.082    0.000   68.350    0.314    0.433   18.996
  204.332    0.000   65.842    0.315    0.452   19.007
  204.582    0.000   61.558    0.312    0.458   19.023
  204.832    0.000   58.437    0.318    0.456   19.031
  205.082    0.000   58.091    0.312    0.432   19.035
  205.332    0.000   57.965    0.328    0.410   18.957
  205.582    0.000   57.371    0.320    0.421   18.718
  205.832    0.000   56.499    0.311    0.412   18.520
  206.082    0.000   53.891    0.344    0.390   18.409
  206.332    0.000   55.278    0.342    0.385   18.413
  206.582    0.000   57.606    0.333    0.406   18.392
  206.832    0.000   55.882    0.341    0.425   18.808
  207.082    0.000   53.860    0.328    0.410   18.756
  207.332    0.000   51.636    0.320    0.412   19.191
  207.582    0.000   49.818    0.325    0.407   19.167
  207.832    0.000   55.778    0.343    0.421   18.927
  208.082    0.000   61.818    0.348    0.435   18.273
  208.332    0.000   69.027    0.328    0.403   17.192
  208.582    0.000   73.828    0.303    0.391   15.744
  208.832    0.000   70.183    0.280    0.432   14.124
  209.082    0.000   66.767    0.287    0.460   13.363
  209.332    0.000   70.588    0.309    0.439   12.829
  209.582    0.000   78.413    0.298    0.408   12.549
  209.832    0.000   84.624    0.278    0.414   12.596
  210.082    0.000   82.775    0.280    0.451   12.640
  210.332    0.000   76.136    0.291    0.440   12.364
  210.582    0.000   75.336    0.270    0.409   11.646
  210.832    0.000   86.941    0.265    0.400   10.538
  211.082    0.000  103.235    0.249    0.415    9.226
  211.332    0.000  115.132    0.227    0.451    7.475
  211.582    0.000  121.783    0.215    0.521    5.973
  211.832    0.000  121.638    0.224    0.591    5.265
  212.082    0.000  118.111    0.217    0.569    5.052
  212.332    0.000  118.170    0.203    0.510    5.197
  212.582    0.000  121.627    0.188    0.462    5.722
  212.832    0.000  121.368    0.181    0.448    6.525
  213.082    0.000  116.435    0.250    0.469    7.426
  213.332    0.000  112.075    0.278    0.463    8.472
  213.582    0.000  108.906    0.285    0.448   10.232
  213.832    0.000  107.348    0.279    0.468   11.492
  214.082    0.000  107.140    0.308    0.457   12.419
  214.332    0.000  108.788    0.331    0.439   12.710
  214.582    0.000  108.071    0.292    0.434   12.309
  214.832    0.000  105.703    0.250    0.449   11.366
  215.082    0.000  105.019    0.236    0.433   10.721
  215.332    0.000  101.162    0.246    0.435   10.275
  215.582    0.000   92.061    0.262    0.445   10.266
  215.832    0.000   84.067    0.272    0.409   10.544
  216.082    0.000   85.644    0.262    0.393   11.214
