~VERSION INFORMATION
 VERS.                 2.0:   CWLS LOG ASCII STANDARD -VERSION 2.0
 WRAP.                  NO:   ONE LINE PER DEPTH STEP
~WELL INFORMATION BLOCK
#MNEM.UNIT           DATA                    DESCRIPTION OF MNEMONIC
#---------    -------------------            -------------------------------
# Generated from Intellog Unique Number	CW_70_72/WELL/1041
NULL.         -999.25                        : NULL_VALUE
WELL.         HOME ALMX MITSUE 10-23         : Well_name    - WELL              
LOC .         10-23-071-04W5                 : Location     - LOCATION          
UWI .         00/10-23-071-04W5/0            : Uwi          - UNIQUE WELL ID    
ENTR.         JAYE                           : Entered      - ENTERED BY        
SRVC.         SCHLUMBERGER                   : Scn          - SERVICE COMPANY   
DATE.         20 FEB 74                      : Date         - LOG DATE          
STRT.M        502.92                         : top_depth    - START DEPTH       
STOP.M        731.42                         : bot_depth    - STOP DEPTH        
STEP.M        0.25                           : increment    - STEP LENGTH       
~CURVE INFORMATION BLOCK
#MNEM UNIT       ERCB CURVE CODE    CURVE DESCRIPTION
#-----------   ------------------   ----------------------------------
DEPT.M        00 001 00 00         : DEPTH        - DEPTH                       
DPHI.V/V      00 890 00 00         : PHID         - DENSITY POROSITY (SANDSTONE)
NPHI.V/V      00 330 00 00         : PHIN         - NEUTRON POROSITY (SANDSTONE)
GR  .API      00 310 00 00         : GR           - GAMMA RAY                   
CALI.MM       00 280 01 00         : CAL          - CALIPER                     
ILD .OHMM     00 120 00 00         : RESD         - DEEP RESISTIVITY (DIL)      
~PARAMETER INFORMATION       
#MNEM.UNIT           DATA             DESCRIPTION OF MNEMONIC
#---------         -----------     ------------------------------
GL  .M        670.011              : gl           - GROUND LEVEL ELEVATION      
EREF.M        674.218              : kb           - ELEVATION OF DEPTH REFERENCE
DATM.M        670.011              : datum        - DATUM ELEVATION             
TDD .M        760.476              : tdd          - TOTAL DEPTH DRILLER         
RUN .         ONE                  : Run          - RUN NUMBER                  
BASE.         EDM                  : Branch       - HOME BASE OF LOGGING UNIT   
MUD .         GEL                  : Mud_type     - MUD TYPE                    
MATR.         SANDSTONE            : Logunit      - NEUTRON MATRIX              
TMAX.C        26.6667              : BHT          - MAXIMUM RECORDED TEMPERATURE
BHTD.M        763.219              : BHTDEP       - MAXIMUM RECORDED TEMPERATURE
RMT .C        10                   : MDTP         - TEMPERATURE OF MUD          
MUDD.KG/M     1128                 : MWT          - MUD DENSITY                 
NEUT.         1                    : NEUTRON      - NEUTRON TYPE                
RESI.         0                    : RESIST       - RESISTIVITY TYPE            
RM  .OHMM     5.97                 : RM           - RESISTIVITY OF MUD          
RMC .OHMM     3.87                 : RMC          - RESISTIVITY OF MUD CAKE     
RMF .OHMM     0.37                 : RMF          - RESISTIVITY OF MUD FILTRATE 
SUFT.C        0                    : SUFT         - SURFACE TEMPERATURE         
~A  DEPTH     PHID     PHIN       GR      CAL     RESD
  502.920    0.175    0.620  100.955  214.256    2.282
  503.170    0.169    0.610   98.409  220.599    2.315
  503.420    0.173    0.584   97.940  221.935    2.327
  503.670    0.173    0.581  100.107  217.298    2.327
  503.920    0.177    0.615  101.143  210.952    2.314
  504.170    0.194    0.608  101.110  205.137    2.297
  504.420    0.208    0.578  100.767  201.988    2.301
  504.670    0.229    0.556   99.475  205.778    2.334
  504.920    0.156    0.535   98.440  208.071    2.381
  505.170    0.219    0.511   96.582  206.310    2.443
  505.420    0.211    0.516   96.803  198.150    2.519
  505.670    0.155    0.534   97.278  196.286    2.547
  505.920    0.136    0.544   93.536  198.253    2.537
  506.170    0.158    0.562   93.062  198.631    2.528
  506.420    0.175    0.558   92.277  196.763    2.551
  506.670    0.189    0.526   88.160  187.110    2.616
  506.920    0.205    0.505   84.168  171.378    2.778
  507.170    0.226    0.474   79.046  171.215    3.021
  507.420    0.181    0.323   72.790  168.495    3.408
  507.670    0.158    0.308   64.837  161.185    3.893
  507.920    0.102    0.378   57.829  155.270    4.119
  508.170    0.133    0.385   57.545  148.805    4.029
  508.420    0.216    0.372   62.099  146.197    3.725
  508.670    0.244    0.381   64.585  144.538    3.431
  508.920    0.236    0.402   65.809  144.708    3.200
  509.170    0.251    0.402   67.414  146.036    3.052
  509.420    0.235    0.388   65.558  146.842    2.996
  509.670    0.240    0.372   65.778  148.380    2.925
  509.920    0.243    0.396   68.573  149.718    2.846
  510.170    0.224    0.426   72.251  151.799    2.714
  510.420    0.210    0.485   75.113  156.231    2.541
  510.670    0.194    0.549   79.604  167.590    2.414
  510.920    0.236    0.511   84.035  181.300    2.327
  511.170    0.280    0.442   88.847  173.138    2.306
  511.420    0.246    0.470   83.785  163.588    2.344
  511.670    0.209    0.556   77.403  169.395    2.431
  511.920    0.206    0.547   73.349  178.737    2.553
  512.170    0.271    0.467   69.610  177.299    2.614
  512.420    0.257    0.429   63.605  158.791    2.662
  512.670    0.235    0.417   58.608  151.477    2.681
  512.920    0.250    0.406   59.016  149.299    2.690
  513.170    0.245    0.414   59.300  148.063    2.710
  513.420    0.224    0.425   60.336  147.690    2.764
  513.670    0.236    0.429   62.692  148.067    2.820
  513.920    0.226    0.432   65.113  148.651    2.979
  514.170    0.227    0.440   67.660  148.920    3.129
  514.420    0.223    0.446   70.393  149.190    3.341
  514.670    0.245    0.461   75.139  149.567    3.587
  514.920    0.238    0.592   80.702  153.349    3.788
  515.170    0.229    0.596   82.996  172.821    3.879
  515.420    0.289    0.531   82.208  167.648    3.787
  515.670    0.263    0.486   87.082  157.991    3.585
  515.920    0.207    0.478   89.061  155.379    3.350
  516.170    0.202    0.496   89.217  156.713    3.143
  516.420    0.169    0.519   89.186  162.952    2.932
  516.670    0.169    0.539   91.606  165.354    2.745
  516.920    0.203    0.551   93.902  167.009    2.514
  517.170    0.224    0.567   96.945  180.183    2.420
  517.420    0.231    0.593  100.563  199.864    2.560
  517.670    0.261    0.495  107.383  187.010    2.759
  517.920    0.218    0.476  108.735  170.202    2.973
  518.170    0.151    0.451  104.995  166.101    3.123
  518.420    0.169    0.425   99.180  155.595    3.215
  518.670    0.191    0.409   93.300  150.741    3.037
  518.920    0.224    0.427   82.836  149.727    2.839
  519.170    0.235    0.418   71.299  151.272    2.762
  519.420    0.235    0.415   66.680  156.655    2.885
  519.670    0.197    0.440   80.100  162.473    3.103
  519.920    0.168    0.464   89.121  172.445    3.283
  520.170    0.201    0.429   99.523  178.371    3.512
  520.420    0.202    0.413  103.453  164.016    3.676
  520.670    0.173    0.405   98.016  163.214    3.486
  520.920    0.156    0.446   90.440  163.482    3.306
  521.170    0.196    0.490   90.215  166.634    3.205
  521.420    0.179    0.509   91.696  176.398    3.118
  521.670    0.215    0.445   89.590  173.571    3.078
  521.920    0.207    0.386   81.387  158.258    3.049
  522.170    0.207    0.354   70.165  155.434    2.950
  522.420    0.183    0.370   68.435  155.807    2.757
  522.670    0.202    0.382   65.386  157.566    2.512
  522.920    0.224    0.336   57.120  156.558    2.235
  523.170    0.218    0.346   51.556  155.002    2.014
  523.420    0.254    0.345   51.462  154.415    1.974
  523.670    0.240    0.326   50.862  154.569    2.054
  523.920    0.210    0.332   53.219  154.735    2.262
  524.170    0.184    0.339   59.476  154.575    2.483
  524.420    0.162    0.348   74.092  154.312    2.725
  524.670    0.149    0.357   79.969  153.938    2.920
  524.920    0.138    0.379   75.850  153.463    3.078
  525.170    0.170    0.416   79.906  155.757    3.028
  525.420    0.168    0.495   92.318  160.716    2.871
  525.670    0.124    0.536  104.548  163.866    2.794
  525.920    0.134    0.558  113.129  167.651    2.918
  526.170    0.151    0.568  116.238  171.544    3.105
  526.420    0.175    0.415  113.063  163.813    3.352
  526.670    0.214    0.404  106.055  160.448    3.520
  526.920    0.191    0.389   98.291  160.823    3.475
  527.170    0.194    0.362   87.383  161.410    3.450
  527.420    0.217    0.341   76.729  161.680    3.171
  527.670    0.237    0.331   61.672  162.254    2.821
  527.920    0.229    0.342   57.366  161.989    2.533
  528.170    0.225    0.359   61.294  161.824    2.312
  528.420    0.228    0.377   67.110  161.465    2.141
  528.670    0.248    0.348   64.690  160.975    1.979
  528.920    0.267    0.341   49.130  161.135    1.853
  529.170    0.265    0.351   44.636  161.296    1.787
  529.420    0.245    0.358   49.062  161.462    1.932
  529.670    0.233    0.355   54.944  161.514    2.223
  529.920    0.223    0.351   72.451  160.916    2.480
  530.170    0.192    0.354   76.129  160.342    2.732
  530.420    0.170    0.356   80.368  159.974    2.922
  530.670    0.182    0.362   85.306  159.693    3.121
  530.920    0.177    0.371   90.742  159.439    3.290
  531.170    0.165    0.386   93.413  158.957    3.381
  531.420    0.145    0.386   94.452  158.585    3.468
  531.670    0.176    0.390   95.361  158.527    3.563
  531.920    0.184    0.388   94.578  159.439    3.736
  532.170    0.170    0.407   96.995  161.629    3.932
  532.420    0.154    0.413  101.679  165.201    3.674
  532.670    0.163    0.385  106.992  167.598    3.245
  532.920    0.157    0.421  110.667  168.935    2.940
  533.170    0.163    0.546  112.584  169.838    2.713
  533.420    0.177    0.567  114.126  168.830    2.513
  533.670    0.216    0.445  106.300  159.279    2.467
  533.920    0.276    0.429   90.236  155.704    2.601
  534.170    0.270    0.421   76.500  154.685    2.742
  534.420    0.260    0.434   79.863  155.282    2.965
  534.670    0.241    0.445   82.724  156.395    3.290
  534.920    0.231    0.454   84.263  157.092    3.751
  535.170    0.215    0.464   86.369  157.683    4.270
  535.420    0.194    0.436   90.297  158.583    4.737
  535.670    0.174    0.384   91.461  159.170    4.967
  535.920    0.157    0.349   88.220  159.763    4.467
  536.170    0.123    0.298   76.625  159.495    4.048
  536.420    0.117    0.341   62.133  156.669    3.694
  536.670    0.212    0.390   58.269  154.482    3.396
  536.920    0.238    0.372   57.354  154.535    3.215
  537.170    0.207    0.332   57.383  155.655    3.162
  537.420    0.177    0.337   57.230  158.482    3.261
  537.670    0.141    0.420   56.191  160.670    3.179
  537.920    0.140    0.405   55.845  158.695    3.014
  538.170    0.154    0.359   56.627  156.508    2.854
  538.420    0.140    0.380   57.543  158.911    2.736
  538.670    0.151    0.444   58.894  159.706    2.701
  538.920    0.244    0.421   65.904  159.976    2.786
  539.170    0.257    0.398   64.737  160.346    2.937
