~VERSION INFORMATION
 VERS.                 2.0:   CWLS LOG ASCII STANDARD -VERSION 2.0
 WRAP.                  NO:   ONE LINE PER DEPTH STEP
~WELL INFORMATION BLOCK
#MNEM.UNIT           DATA                    DESCRIPTION OF MNEMONIC
#---------    -------------------            -------------------------------
# Generated from Intellog Unique Number	CW_70_72/WELL/1040
NULL.         -999.25                        : NULL_VALUE
WELL.         BRASCAN AMOCO MEYER 10-18      : Well_name    - WELL              
LOC .         10-18-071-25W4                 : Location     - LOCATION          
UWI .         00/10-18-071-25W4/0            : Uwi          - UNIQUE WELL ID    
ENTR.         JAYE                           : Entered      - ENTERED BY        
SRVC.         SCHLUMBERGER                   : Scn          - SERVICE COMPANY   
DATE.         25 NOV 73                      : Date         - LOG DATE          
STRT.M        435.864                        : top_depth    - START DEPTH       
STOP.M        646.114                        : bot_depth    - STOP DEPTH        
STEP.M        0.25                           : increment    - STEP LENGTH       
~CURVE INFORMATION BLOCK
#MNEM UNIT       ERCB CURVE CODE    CURVE DESCRIPTION
#-----------   ------------------   ----------------------------------
DEPT.M        00 001 00 00         : DEPTH        - DEPTH                       
DPHI.V/V      00 890 00 00         : PHID         - DENSITY POROSITY (SANDSTONE)
NPHI.V/V      00 330 00 00         : PHIN         - NEUTRON POROSITY (SANDSTONE)
GR  .API      00 310 00 00         : GR           - GAMMA RAY                   
CALI.MM       00 280 01 00         : CAL          - CALIPER                     
ILD .OHMM     00 120 00 00         : RESD         - DEEP RESISTIVITY (DIL)      
~PARAMETER INFORMATION       
#MNEM.UNIT           DATA             DESCRIPTION OF MNEMONIC
#---------         -----------     ------------------------------
GL  .M        609.905              : gl           - GROUND LEVEL ELEVATION      
EREF.M        612.953              : kb           - ELEVATION OF DEPTH REFERENCE
DATM.M        609.905              : datum        - DATUM ELEVATION             
TDD .M        644.652              : tdd          - TOTAL DEPTH DRILLER         
RUN .         ONE                  : Run          - RUN NUMBER                  
MATR.         SANDSTONE            : Logunit      - NEUTRON MATRIX              
TMAX.C        28.8889              : BHT          - MAXIMUM RECORDED TEMPERATURE
BHTD.M        645.566              : BHTDEP       - MAXIMUM RECORDED TEMPERATURE
RMT .C        20                   : MDTP         - TEMPERATURE OF MUD          
MUDD.KG/M     0                    : MWT          - MUD DENSITY                 
NEUT.         1                    : NEUTRON      - NEUTRON TYPE                
RESI.         0                    : RESIST       - RESISTIVITY TYPE            
RM  .OHMM     2.72                 : RM           - RESISTIVITY OF MUD          
RMC .OHMM     0                    : RMC          - RESISTIVITY OF MUD CAKE     
RMF .OHMM     2.56                 : RMF          - RESISTIVITY OF MUD FILTRATE 
SUFT.C        0                    : SUFT         - SURFACE TEMPERATURE         
~A  DEPTH     PHID     PHIN       GR      CAL     RESD
# ...
  508.864    0.260    0.448   64.733  156.980    3.535
  509.114    0.241    0.456   69.419  154.041    3.664
  509.364    0.232    0.453   74.590  150.479    3.769
  509.614    0.221    0.434   77.397  151.023    3.857
  509.864    0.215    0.440   77.902  156.804    3.853
  510.114    0.232    0.436   79.133  158.687    3.771
  510.364    0.245    0.438   71.820  158.203    3.706
  510.614    0.247    0.449   71.053  157.829    3.695
  510.864    0.242    0.444   74.101  157.862    3.705
  511.114    0.225    0.423   78.001  157.379    3.784
  511.364    0.203    0.412   77.777  156.694    3.857
  511.614    0.185    0.400   75.979  155.187    3.832
  511.864    0.170    0.387   73.088  154.711    3.849
  512.114    0.176    0.380   72.502  154.746    4.012
  512.364    0.198    0.401   74.522  155.492    3.920
  512.614    0.205    0.399   77.390  155.942    3.733
  512.864    0.206    0.392   80.865  156.077    3.588
  513.114    0.201    0.389   83.489  156.109    3.558
  513.364    0.194    0.395   83.753  156.036    3.614
  513.614    0.195    0.398   81.468  155.964    3.711
  513.864    0.191    0.389   79.731  155.793    3.804
  514.114    0.185    0.370   78.173  154.904    3.986
  514.364    0.178    0.357   72.920  153.909    4.208
  514.614    0.163    0.366   73.910  152.921    4.533
  514.864    0.140    0.372   69.687  152.441    4.829
  515.114    0.118    0.348   61.828  152.573    4.851
  515.364    0.135    0.381   65.181  153.223    4.552
  515.614    0.169    0.407   76.352  153.773    4.149
  515.864    0.194    0.419   87.158  153.903    3.980
  516.114    0.198    0.421   91.786  154.557    3.818
  516.364    0.187    0.417   92.045  155.002    3.745
  516.614    0.171    0.408   85.277  155.336    3.700
  516.864    0.175    0.407   80.873  155.686    3.696
  517.114    0.181    0.415   83.076  155.918    3.706
  517.364    0.185    0.410   86.064  155.952    3.729
  517.614    0.177    0.403   88.751  156.189    3.788
  517.864    0.193    0.394   91.073  156.121    3.854
  518.114    0.193    0.385   92.607  155.945    3.900
  518.364    0.190    0.376   88.444  155.471    3.997
  518.614    0.186    0.373   81.555  155.293    4.197
  518.864    0.178    0.376   76.059  153.684    4.357
  519.114    0.168    0.396   76.564  151.459    4.434
  519.364    0.178    0.434   79.796  151.699    4.365
  519.614    0.188    0.432   81.150  153.271    4.203
  519.864    0.198    0.420   76.562  155.356    4.062
  520.114    0.202    0.417   77.854  157.032    3.998
  520.364    0.194    0.410   77.996  156.550    4.114
  520.614    0.176    0.395   76.560  152.583    4.505
  520.864    0.181    0.391   75.793  153.646    5.034
  521.114    0.164    0.389   74.903  154.597    6.271
  521.364    0.137    0.381   73.467  155.556    8.255
  521.614    0.105    0.310   65.851  156.822   11.546
  521.864    0.076    0.276   58.234  158.186   15.032
  522.114    0.060    0.260   53.041  158.638   23.049
  522.364    0.045    0.244   50.153  158.664   25.522
  522.614    0.026    0.224   47.626  158.694   20.149
  522.864    0.016    0.245   48.980  159.142   13.756
  523.114    0.050    0.266   56.453  159.686    9.152
  523.364    0.088    0.303   59.141  158.897    6.530
  523.614    0.126    0.321   63.219  157.805    5.662
  523.864    0.159    0.337   70.208  156.196    4.919
  524.114    0.185    0.358   77.439  154.382    4.582
  524.364    0.193    0.372   86.612  154.109    4.268
  524.614    0.181    0.397   93.176  154.962    4.095
  524.864    0.170    0.397   97.255  155.709    4.136
  525.114    0.162    0.385   92.305  156.059    4.248
  525.364    0.152    0.388   89.660  156.088    4.378
  525.614    0.145    0.382   88.406  156.425    4.430
  525.864    0.145    0.376   87.576  156.564    4.500
  526.114    0.147    0.397   88.566  157.213    4.570
  526.364    0.146    0.417   89.740  157.348    4.642
  526.614    0.141    0.403   90.301  157.791    4.679
  526.864    0.150    0.364   91.351  157.929    4.692
  527.114    0.163    0.376   92.828  158.779    4.704
  527.364    0.161    0.389   92.906  159.736    4.692
  527.614    0.153    0.400   97.167  160.080    4.686
  527.864    0.148    0.412   96.763  160.318    4.673
  528.114    0.159    0.415  100.721  160.557    4.668
  528.364    0.167    0.407  103.227  162.023    4.638
  528.614    0.172    0.410   94.579  164.519    4.624
  528.864    0.164    0.411   92.417  167.117    4.628
  529.114    0.158    0.402   99.467  165.097    4.615
  529.364    0.161    0.409   99.122  158.876    4.618
  529.614    0.149    0.414   98.052  157.776    4.795
  529.864    0.144    0.407   95.950  158.533    5.118
  530.114    0.142    0.397   93.606  160.201    5.344
  530.364    0.138    0.385   93.746  162.804    5.437
  530.614    0.133    0.360   88.795  163.242    5.472
  530.864    0.129    0.366   84.148  162.050    5.446
  531.114    0.124    0.386   90.350  159.821    5.215
  531.364    0.128    0.424   96.551  158.418    5.022
  531.614    0.129    0.426  100.814  159.681    4.917
  531.864    0.126    0.434  100.529  161.253    4.921
  532.114    0.122    0.439   97.460  163.956    4.925
  532.364    0.133    0.415   95.054  167.790    4.902
  532.614    0.149    0.403   92.103  165.559    4.851
  532.864    0.147    0.395   88.245  159.539    4.811
  533.114    0.147    0.389   90.204  156.287    4.789
  533.364    0.166    0.378   93.011  157.247    4.748
  533.614    0.167    0.391   94.302  159.436    4.717
  533.864    0.162    0.401   94.203  161.314    4.704
  534.114    0.158    0.413   94.766  164.223    4.656
  534.364    0.159    0.426   98.907  166.818    4.618
  534.614    0.154    0.429   98.200  168.390    4.621
  534.864    0.156    0.408   93.370  162.884    4.633
  535.114    0.150    0.413   91.996  157.271    4.316
  535.364    0.143    0.417   87.228  156.690    4.088
  535.614    0.132    0.405   86.641  157.854    4.331
  535.864    0.123    0.408   88.055  158.299    5.050
  536.114    0.106    0.396   88.741  158.228    8.273
  536.364    0.077    0.366   83.245  158.360   12.004
  536.614    0.056    0.298   71.689  159.111   11.306
  536.864    0.049    0.261   62.134  160.172    8.764
  537.114    0.063    0.278   64.395  160.719    7.365
  537.364    0.096    0.359   77.263  161.471    6.698
  537.614    0.121    0.369   88.070  161.810    6.298
  537.864    0.131    0.363   81.059  160.611    6.315
  538.114    0.120    0.341   75.321  158.078    6.331
  538.364    0.105    0.324   69.947  158.009    6.267
  538.614    0.119    0.344   73.724  161.226    6.124
  538.864    0.138    0.360   81.379  161.770    5.886
  539.114    0.138    0.374   84.005  160.161    5.637
  539.364    0.148    0.385   83.724  158.861    5.388
  539.614    0.159    0.381   87.500  158.072    5.245
  539.864    0.162    0.371   87.579  158.003    5.144
  540.114    0.132    0.384   88.630  157.522    5.102
  540.364    0.122    0.414   92.588  158.387    5.059
  540.614    0.115    0.438   97.395  159.033    5.035
  540.864    0.122    0.431  107.232  159.473    5.048
  541.114    0.130    0.420  107.616  159.709    4.906
  541.364    0.132    0.413  101.757  159.846    4.759
  541.614    0.131    0.400   97.716  159.776    4.719
  541.864    0.129    0.401   91.371  159.806    4.820
  542.114    0.134    0.413   93.937  159.945    4.995
  542.364    0.139    0.390   99.350  162.438    5.283
  542.614    0.139    0.379   96.886  164.728    5.526
  542.864    0.134    0.383   93.086  158.399    5.489
  543.114    0.130    0.368   90.379  157.717    5.494
  543.364    0.134    0.360   88.823  157.646    5.519
  543.614    0.141    0.368   87.086  158.707    5.534
  543.864    0.157    0.378   87.406  159.249    5.518
  544.114    0.159    0.374   88.215  160.825    5.472
  544.364    0.155    0.368   86.356  162.706    5.456
  544.614    0.150    0.372   89.344  164.687    5.420
  544.864    0.142    0.387   91.908  165.026    5.385
  545.114    0.140    0.381   86.838  164.753    5.379
