~VERSION INFORMATION
 VERS.                 2.0:   CWLS LOG ASCII STANDARD -VERSION 2.0
 WRAP.                  NO:   ONE LINE PER DEPTH STEP
~WELL INFORMATION BLOCK
#MNEM.UNIT           DATA                    DESCRIPTION OF MNEMONIC
#---------    -------------------            -------------------------------
# Generated from Intellog Unique Number	CS_69_70/WELL/2903
WELL.         HUSKY OIL OPERATIONS LTD.      : Well_name    - WELL
LOC .         00/12-31-069-08W4/0            : Location     - LOCATION
UWI .         00/12-31-069-08W4/0            : Uwi          - UNIQUE WELL ID
ENTR.         JOETTE                         : Entered      - ENTERED BY
SRVC.         SCHLUMBERGER                   : Scn          - SERVICE COMPANY
DATE.         05/15/92                       : Date         - LOG DATE
STRT.M        350                            : top_depth    - START DEPTH
STOP.M        560                            : bot_depth    - STOP DEPTH
STEP.M        0.25                           : increment    - STEP LENGTH
 NULL. -999.2500:NULL Value
~CURVE INFORMATION BLOCK
#MNEM UNIT       ERCB CURVE CODE    CURVE DESCRIPTION
#-----------   ------------------   ----------------------------------
DEPT.M        00 001 00 00         : DEPTH        - DEPTH
GR  .API      00 310 00 00         : GR           - GAMMA RAY
NPHI.V/V      00 330 00 00         : PHIN         - NEUTRON POROSITY (SANDSTONE)
DPHI.V/V      00 890 00 00         : PHID         - DENSITY POROSITY (SANDSTONE)
ILD .OHMM     00 120 00 00         : RESD         - DEEP RESISTIVITY (DIL)
CALI.MM       00 280 01 00         : CAL          - CALIPER
~PARAMETER INFORMATION
#MNEM.UNIT           DATA             DESCRIPTION OF MNEMONIC
#---------         -----------     ------------------------------
GL  .M        683.4                : gl           - GROUND LEVEL ELEVATION
EREF.M        687.1                : kb           - ELEVATION OF DEPTH REFERENCE
DATM.M        687.1                : datum        - DATUM ELEVATION
TDD .M        561.7                : tdd          - TOTAL DEPTH DRILLER
RUN .         ONE                  : Run          - RUN NUMBER
ENG .         BILL                 : Engineer     - RECORDING ENGINEER
WIT .         JIM                  : Witness      - WITNESSED BY
MUD .         GEL                  : Mud_type     - MUD TYPE
MATR.         SANDSTONE            : Logunit      - NEUTRON MATRIX
TMAX.C        23                   : BHT          - MAXIMUM RECORDED TEMPERATURE
BHTD.M        561.7                : BHTDEP       - MAXIMUM RECORDED TEMPERATURE
RMT .C        14.4                 : MDTP         - TEMPERATURE OF MUD
MUDD.KG/M     1100                 : MWT          - MUD DENSITY
NEUT.         1                    : NEUTRON      - NEUTRON TYPE
RESI.         0                    : RESIST       - RESISTIVITY TYPE
RM  .OHMM     4.51                 : RM           - RESISTIVITY OF MUD
RMC .OHMM     5.23                 : RMC          - RESISTIVITY OF MUD CAKE
RMF .OHMM     5.23                 : RMF          - RESISTIVITY OF MUD FILTRATE
SUFT.C        4                    : SUFT         - SURFACE TEMPERATURE
~A  DEPTH       GR     PHIN     PHID     RESD      CAL
# ...
  459.500   85.612    0.460    0.316    4.399  163.149
  459.750   75.816    0.487    0.336    5.054  162.176
  460.000   72.178    0.475    0.342    5.145  162.280
  460.250   72.835    0.457    0.342    5.150  161.289
  460.500   71.021    0.436    0.343    5.155  159.343
  460.750   66.769    0.439    0.348    5.162  157.328
  461.000   65.581    0.443    0.340    5.167  153.298
  461.250   66.852    0.449    0.343    5.172  150.293
  461.500   69.342    0.449    0.344    5.177  150.413
  461.750   73.687    0.450    0.338    5.181  150.448
  462.000   79.887    0.465    0.331    5.100  152.583
  462.250   85.461    0.465    0.316    5.104  153.677
  462.500   91.651    0.428    0.298    5.197  154.770
  462.750   99.070    0.408    0.287    5.201  155.864
  463.000  100.966    0.421    0.274    5.208  157.965
  463.250   95.474    0.431    0.259    5.214  159.058
  463.500   91.826    0.417    0.254    5.219  161.194
  463.750   90.023    0.412    0.277    5.502  163.329
  464.000   88.220    0.408    0.313    5.796  163.398
  464.250   80.269    0.422    0.329    6.432  164.474
  464.500   76.621    0.465    0.259    7.390  164.543
  464.750   75.433    0.185    0.199    7.790  164.629
  465.000   70.555    0.198    0.133    7.798  163.656
  465.250   56.446    0.231    0.037    7.806  163.725
  465.500   54.642    0.319    0.076    7.170  163.811
  465.750   69.450    0.457    0.142    6.587  163.914
  466.000   76.869    0.446    0.271    6.369  163.966
  466.250   81.829    0.387    0.231    6.266  164.018
  466.500   75.107    0.334    0.194    6.275  164.087
  466.750   73.919    0.376    0.176    6.278  164.155
  467.000   81.963    0.416    0.214    5.971  164.241
  467.250   86.923    0.446    0.239    5.774  164.310
  467.500   90.653    0.431    0.256    5.305  164.396
  467.750   93.154    0.430    0.256    5.042  164.431
  468.000   94.435    0.438    0.259    4.875  164.517
  468.250   96.321    0.447    0.268    4.634  164.603
  468.500   92.673    0.449    0.261    4.407  164.654
  468.750   94.569    0.455    0.250    4.339  164.723
  469.000   97.685    0.448    0.251    4.267  164.792
  469.250   99.560    0.467    0.262    4.272  163.871
  469.500   95.912    0.433    0.272    4.203  163.922
  469.750   92.285    0.435    0.265    4.206  160.934
  470.000   92.306    0.476    0.260    4.211  159.944
  470.250   92.962    0.493    0.258    4.214  157.963
  470.500   93.004    0.457    0.259    4.219  155.983
  470.750   90.596    0.439    0.259    4.297  155.044
  471.000   91.262    0.441    0.265    4.302  155.113
  471.250   94.367    0.451    0.256    4.305  157.231
  471.500   95.023    0.438    0.254    4.310  159.367
  471.750   93.856    0.432    0.262    4.315  161.485
  472.000   93.262    0.436    0.262    4.320  162.578
  472.250   94.543    0.432    0.255    4.322  163.655
  472.500   95.199    0.427    0.252    4.329  163.758
  472.750   94.626    0.428    0.250    4.332  163.827
  473.000   94.073    0.446    0.248    4.335  162.888
  473.250   94.093    0.467    0.251    4.268  162.940
  473.500   94.749    0.466    0.249    4.272  163.009
  473.750   95.406    0.439    0.243    4.204  163.060
  474.000   98.521    0.433    0.244    4.136  162.122
  474.250  102.251    0.448    0.247    4.139  162.190
  474.500  102.907    0.466    0.242    4.143  162.277
  474.750  101.104    0.474    0.233    4.148  162.311
  475.000   98.092    0.464    0.232    4.080  162.380
  475.250   96.289    0.468    0.246    3.813  162.483
  475.500   96.320    0.464    0.253    3.503  163.559
  475.750   96.997    0.441    0.252    3.162  163.663
  476.000   97.632    0.462    0.254    2.806  164.739
  476.250   98.288    0.520    0.254    2.491  166.857
  476.500   99.559    0.519    0.257    2.249  168.958
  476.750  100.840    0.534    0.271    2.030  172.101
  477.000  102.716    0.556    0.281    1.865  174.237
  477.250  107.686    0.564    0.288    1.867  174.323
  477.500  107.727    0.560    0.285    1.902  172.342
  477.750  105.320    0.546    0.284    1.903  171.369
  478.000  108.425    0.550    0.280    1.939  169.406
  478.250  111.540    0.550    0.273    1.941  177.655
  478.500  109.132    0.539    0.274    1.943  180.798
  478.750  105.485    0.539    0.269    1.944  179.859
  479.000  103.057    0.547    0.263    1.946  179.928
  479.250  106.182    0.554    0.265    1.948  181.022
  479.500  110.538    0.527    0.269    2.054  183.157
  479.750  111.809    0.520    0.265    2.164  183.226
  480.000  110.620    0.516    0.264    2.487  182.270
  480.250  108.192    0.493    0.267    2.665  183.346
  480.500  103.929    0.476    0.270    2.958  183.432
  480.750   98.437    0.463    0.264    3.339  181.435
  481.000   98.489    0.458    0.258    3.581  163.076
  481.250  100.364    0.471    0.257    3.647  165.194
  481.500   97.332    0.476    0.255    3.779  165.263
  481.750   93.694    0.478    0.254    3.782  160.208
  482.000   93.121    0.417    0.245    3.853  158.228
  482.250   86.389    0.425    0.241    4.203  159.321
  482.500   85.826    0.459    0.250    4.428  160.415
  482.750   88.316    0.489    0.246    4.748  161.508
  483.000   86.523    0.411    0.246    5.182  162.636
  483.250   92.098    0.289    0.216    5.187  162.688
  483.500   98.287    0.260    0.126    4.932  162.740
  483.750   72.496    0.234    0.065    4.768  162.826
  484.000   63.930    0.347    0.151    4.458  162.912
  484.250   68.900    0.450    0.196    4.237  162.946
  484.500   80.623    0.460    0.222    4.028  163.015
  484.750   93.585    0.433    0.230    3.962  164.126
  485.000   97.326    0.417    0.236    3.833  165.219
  485.250   99.827    0.423    0.243    3.707  166.330
  485.500   94.324    0.452    0.247    3.711  164.349
  485.750   93.761    0.459    0.244    3.911  163.394
  486.000   96.262    0.471    0.240    4.340  162.421
  486.250   98.147    0.489    0.230    4.900  161.499
  486.500   93.875    0.431    0.186    5.629  161.534
  486.750   73.012    0.252    0.132    5.539  161.602
  487.000   66.290    0.208    0.075    5.264  161.688
  487.250   66.947    0.357    0.032    4.672  161.792
  487.500   76.825    0.446    0.112    4.006  161.826
  487.750   92.247    0.477    0.219    3.437  161.895
  488.000   97.822    0.471    0.247    3.323  161.964
  488.250   97.248    0.457    0.255    3.213  162.050
  488.500   95.445    0.430    0.257    3.162  162.101
  488.750   94.871    0.418    0.258    3.222  161.163
  489.000   97.382    0.410    0.257    3.224  161.232
  489.250  101.113    0.415    0.252    3.228  160.259
  489.500  106.687    0.415    0.246    3.177  159.320
  489.750  109.803    0.417    0.238    3.178  159.389
  490.000  108.614    0.423    0.246    3.181  159.475
  490.250  106.196    0.443    0.243    3.131  160.568
  490.500  106.238    0.449    0.238    3.133  161.662
  490.750  103.820    0.444    0.246    3.137  162.755
  491.000   95.868    0.440    0.258    3.086  164.874
  491.250   92.231    0.435    0.267    3.091  169.041
  491.500   93.502    0.425    0.255    3.093  174.234
  491.750   96.617    0.412    0.242    3.045  176.352
  492.000   95.429    0.408    0.229    2.994  175.396
  492.250   84.393    0.411    0.234    2.897  169.317
  492.500   75.827    0.415    0.247    2.899  165.287
  492.750   72.805    0.413    0.261    2.756  163.306
  493.000   74.065    0.404    0.275    2.575  162.367
  493.250   80.275    0.409    0.269    2.325  163.444
  493.500   84.621    0.433    0.265    2.029  164.554
  493.750   85.881    0.503    0.275    1.895  166.656
  494.000   87.767    0.519    0.286    1.865  168.808
  494.250   85.964    0.509    0.289    1.966  171.951
  494.500   86.005    0.499    0.287    2.145  175.094
  494.750   91.590    0.538    0.284    2.380  176.170
  495.000   93.476    0.489    0.290    2.552  174.190
  495.250   80.606    0.420    0.291    2.832  164.029
  495.500   78.803    0.413    0.272    3.144  159.999
  495.750   83.158    0.417    0.239    3.201  158.018
