~VERSION INFORMATION
 VERS.                 2.0:   CWLS LOG ASCII STANDARD -VERSION 2.0
 WRAP.                  NO:   ONE LINE PER DEPTH STEP
~WELL INFORMATION BLOCK
#MNEM.UNIT           DATA                    DESCRIPTION OF MNEMONIC
#---------    -------------------            -------------------------------
# Generated from Intellog Unique Number	CS_67_68/WELL/820
WELL.         DOME PETROLEUM LIMITED         : Well_name    - WELL
LOC .         00/11-08-068-01W4/0            : Location     - LOCATION
UWI .         00/11-08-068-01W4/0            : Uwi          - UNIQUE WELL ID
ENTR.         SP                             : Entered      - ENTERED BY
SRVC.         SCHLUMBERGER                   : Scn          - SERVICE COMPANY
STRT.M        380                            : top_depth    - START DEPTH
STOP.M        635                            : bot_depth    - STOP DEPTH
STEP.M        0.25                           : increment    - STEP LENGTH
 NULL. -999.2500:NULL Value
~CURVE INFORMATION BLOCK
#MNEM UNIT       ERCB CURVE CODE    CURVE DESCRIPTION
#-----------   ------------------   ----------------------------------
DEPT.M        00 001 00 00         : DEPTH        - DEPTH
ILD .OHMM     00 120 00 00         : RESD         - DEEP RESISTIVITY (DIL)
DPHI.V/V      00 890 00 00         : PHID         - DENSITY POROSITY (LIMESTONE)
NPHI.V/V      00 330 00 00         : PHIN         - NEUTRON POROSITY (LIMESTONE)
GR  .API      00 310 00 00         : GR           - GAMMA RAY
~PARAMETER INFORMATION
#MNEM.UNIT           DATA             DESCRIPTION OF MNEMONIC
#---------         -----------     ------------------------------
GL  .M        665.82               : gl           - GROUND LEVEL ELEVATION
EREF.M        669.7                : kb           - ELEVATION OF DEPTH REFERENCE
DATM.M        665.82               : datum        - DATUM ELEVATION
TDD .M        634                  : tdd          - TOTAL DEPTH DRILLER
RUN .         ONE                  : Run          - RUN NUMBER
ENG .         BILL                 : Engineer     - RECORDING ENGINEER
WIT .         JIM                  : Witness      - WITNESSED BY
MUD .         GEL                  : Mud_type     - MUD TYPE
MATR.         LIMESTONE            : Logunit      - NEUTRON MATRIX
TMAX.C        25                   : BHT          - MAXIMUM RECORDED TEMPERATURE
BHTD.M        636                  : BHTDEP       - MAXIMUM RECORDED TEMPERATURE
MATR.         1                    : LOGUNIT      - NEUTRON MATRIX
RMT .C        25                   : MDTP         - TEMPERATURE OF MUD
NEUT.         1                    : NEUTRON      - NEUTRON TYPE
RESI.         0                    : RESIST       - RESISTIVITY TYPE
RMC .OHMM     0.25                 : RMC          - RESISTIVITY OF MUD CAKE
RMF .OHMM     0.25                 : RMF          - RESISTIVITY OF MUD FILTRATE
SUFT.C        15                   : SUFT         - SURFACE TEMPERATURE
~A  DEPTH     RESD     PHID     PHIN       GR
# ...
  467.000   12.719    0.337    0.407   70.461
  467.250   12.669    0.324    0.403   68.702
  467.500   12.453    0.314    0.407   66.811
  467.750   12.288    0.319    0.407   66.706
  468.000   11.989    0.318    0.410   70.713
  468.250   11.830    0.317    0.416   71.591
  468.500   11.760    0.322    0.412   70.073
  468.750   11.824    0.324    0.407   68.129
  469.000   11.909    0.323    0.406   67.836
  469.250   12.018    0.320    0.408   67.856
  469.500   12.038    0.315    0.407   68.362
  469.750   12.104    0.311    0.399   70.101
  470.000   12.100    0.312    0.390   71.097
  470.250   12.188    0.316    0.386   72.957
  470.500   12.300    0.319    0.390   72.482
  470.750   11.133    0.313    0.392   68.509
  471.000   10.700    0.290    0.386   73.806
  471.250   10.518    0.290    0.387   78.428
  471.500   10.615    0.297    0.395   81.519
  471.750   10.712    0.307    0.401   80.552
  472.000   10.830    0.318    0.392   73.386
  472.250   10.930    0.327    0.384   71.928
  472.500   10.927    0.316    0.379   75.076
  472.750   10.924    0.303    0.387   77.119
  473.000   10.901    0.299    0.395   78.243
  473.250   10.939    0.302    0.403   77.031
  473.500   11.039    0.302    0.411   74.903
  473.750   11.458    0.307    0.411   74.118
  474.000   11.716    0.315    0.399   73.583
  474.250   12.070    0.330    0.389   73.175
  474.500   12.365    0.327    0.388   72.942
  474.750   12.479    0.327    0.398   72.592
  475.000   12.267    0.327    0.399   71.442
  475.250   11.812    0.321    0.404   71.215
  475.500   11.721    0.311    0.418   73.075
  475.750   11.828    0.317    0.433   71.309
  476.000   12.049    0.335    0.419   65.985
  476.250   12.205    0.349    0.421   62.441
  476.500   12.271    0.347    0.428   62.949
  476.750   12.314    0.329    0.413   67.880
  477.000   12.334    0.313    0.398   71.400
  477.250   12.284    0.318    0.395   72.703
  477.500   12.143    0.330    0.395   73.701
  477.750   12.027    0.336    0.395   71.385
  478.000   11.890    0.333    0.389   66.124
  478.250   11.666    0.313    0.386   67.676
  478.500   11.318    0.299    0.391   72.793
  478.750   10.225    0.292    0.398   76.121
  479.000    9.790    0.288    0.406   79.826
  479.250    9.843    0.292    0.392   81.191
  479.500   10.046    0.302    0.380   71.077
  479.750   10.214    0.318    0.378   69.005
  480.000   10.443    0.320    0.382   71.171
  480.250   10.579    0.304    0.387   72.541
  480.500   10.696    0.298    0.391   72.007
  480.750   10.754    0.311    0.382   69.446
  481.000   10.873    0.326    0.388   65.044
  481.250   11.014    0.322    0.395   62.048
  481.500   11.115    0.313    0.399   56.848
  481.750   11.408    0.315    0.382   51.708
  482.000   11.621    0.328    0.370   47.794
  482.250   11.860    0.338    0.367   45.847
  482.500   12.013    0.332    0.373   54.276
  482.750   11.966    0.330    0.364   57.915
  483.000   11.851    0.327    0.377   62.845
  483.250   11.520    0.315    0.390   67.897
  483.500   10.968    0.304    0.403   73.070
  483.750   10.424    0.317    0.385   62.406
  484.000   10.698    0.333    0.374   65.251
  484.250   11.272    0.337    0.390   65.817
  484.500   12.012    0.349    0.403   62.642
  484.750   12.945    0.362    0.405   63.029
  485.000   12.677    0.365    0.400   66.298
  485.250   12.368    0.353    0.399   71.725
  485.500   11.623    0.337    0.403   74.994
  485.750   10.383    0.320    0.403   77.095
  486.000    9.594    0.307    0.397   78.646
  486.250    9.718    0.298    0.394   77.191
  486.500    9.844    0.295    0.391   75.490
  486.750    9.915    0.294    0.389   72.867
  487.000    9.969    0.295    0.394   70.979
  487.250   10.079    0.297    0.401   73.146
  487.500   10.306    0.288    0.385   75.740
  487.750   10.858    0.252    0.346   70.970
  488.000   11.506    0.195    0.295   65.954
  488.250   12.192    0.124    0.250   63.145
  488.500   13.090    0.112    0.232   64.267
  488.750   13.136    0.163    0.359   66.250
  489.000   12.961    0.222    0.366   67.003
  489.250   12.670    0.301    0.367   66.899
  489.500   12.177    0.317    0.369   69.001
  489.750   11.209    0.312    0.374   71.477
  490.000   10.733    0.321    0.381   71.615
  490.250   10.200    0.334    0.384   70.038
  490.500    9.859    0.342    0.390   69.011
  490.750    9.801    0.342    0.396   69.519
  491.000    9.817    0.331    0.403   70.580
  491.250    9.870    0.321    0.402   72.745
  491.500    9.923    0.313    0.397   72.148
  491.750    9.995    0.318    0.390   70.078
  492.000   10.144    0.324    0.382   68.563
  492.250   10.470    0.328    0.389   68.456
  492.500   10.990    0.331    0.396   69.272
  492.750   11.408    0.336    0.404   70.270
  493.000   11.753    0.345    0.407   70.534
  493.250   11.905    0.348    0.400   68.830
  493.500   11.835    0.349    0.398   66.759
  493.750   11.612    0.347    0.401   65.918
  494.000   11.393    0.337    0.404   66.733
  494.250   11.095    0.326    0.395   69.947
  494.500   10.948    0.320    0.390   71.804
  494.750   10.802    0.327    0.405   72.557
  495.000   10.860    0.183    0.404   71.286
  495.250   11.400    0.152    0.293   69.706
  495.500   12.286    0.124    0.247   67.880
  495.750   14.487    0.107    0.229   65.502
  496.000   16.179    0.174    0.259   63.434
  496.250   17.435    0.239    0.314   64.495
  496.500   18.098    0.275    0.364   66.294
  496.750   15.541    0.308    0.370   67.601
  497.000   13.832    0.308    0.378   69.088
  497.250   12.543    0.313    0.382   71.564
  497.500   11.568    0.323    0.394   72.868
  497.750   11.286    0.327    0.406   70.798
  498.000   10.888    0.319    0.403   69.771
  498.250   10.764    0.305    0.400   72.308
  498.500   10.761    0.291    0.349   71.034
  498.750   10.900    0.280    0.357   66.385
  499.000   11.167    0.295    0.375   65.729
  499.250   11.678    0.320    0.382   67.955
  499.500   12.235    0.327    0.383   69.875
  499.750   12.210    0.325    0.380   70.935
  500.000   11.516    0.322    0.388   71.199
  500.250   11.278    0.323    0.391   71.830
  500.500   11.318    0.326    0.401   72.708
  500.750   11.508    0.328    0.406   72.540
  501.000   11.944    0.330    0.399   71.329
  501.250   12.398    0.331    0.397   66.434
  501.500   13.411    0.329    0.400   63.320
  501.750   14.507    0.331    0.407   65.057
  502.000   16.293    0.335    0.412   64.277
  502.250   18.926    0.187    0.302   60.856
  502.500   19.608    0.117    0.248   57.865
  502.750   18.810    0.100    0.208   56.468
  503.000   18.079    0.092    0.194   59.189
  503.250   16.029    0.288    0.305   61.354
  503.500   13.359    0.305    0.377   63.337
  503.750   11.430    0.301    0.392   65.133
  504.000   10.153    0.294    0.385   70.125
  504.250    9.541    0.286    0.392   72.781
  504.500    9.033    0.279    0.390   75.623
  504.750    8.863    0.273    0.383   76.990
  505.000    8.696    0.286    0.397   77.561
  505.250    8.792    0.317    0.416   73.956
  505.500    9.511    0.329    0.424   71.580
  505.750   10.682    0.336    0.408   70.248
  506.000   11.817    0.339    0.396   70.140
  506.250   12.522    0.340    0.391   70.278
  506.500   11.855    0.342    0.397   70.603
  506.750   11.267    0.345    0.409   71.724
  507.000   10.668    0.346    0.408   73.032
  507.250   10.292    0.334    0.406   75.136
  507.500   10.155    0.318    0.413   78.225
  507.750   10.171    0.314    0.422   79.161
  508.000   10.577    0.321    0.423   75.864
  508.250   11.376    0.328    0.420   74.226
  508.500   11.721    0.323    0.426   73.812
  508.750   12.488    0.321    0.431   74.073
  509.000   12.841    0.331    0.433   74.399
  509.250   12.911    0.343    0.431   74.661
  509.500   12.716    0.350    0.425   74.618
  509.750   12.477    0.351    0.422   74.939
  510.000   11.769    0.346    0.420   76.246
  510.250   10.833    0.342    0.426   78.048
