~VERSION INFORMATION
 VERS.                 2.0:   CWLS LOG ASCII STANDARD -VERSION 2.0
 WRAP.                  NO:   ONE LINE PER DEPTH STEP
~WELL INFORMATION BLOCK
#MNEM.UNIT           DATA                    DESCRIPTION OF MNEMONIC
#---------    -------------------            -------------------------------
# Generated from Intellog Unique Number	CS_73_76/WELL/3269
WELL.         BAILEY SELBURN OIL & GAS       : Well_name    - WELL
LOC .         00/11-35-075-18W4/0            : Location     - LOCATION
UWI .         00/11-35-075-18W4/0            : Uwi          - UNIQUE WELL ID
ENTR.         SP                             : Entered      - ENTERED BY
SRVC.         SCHLUMBERGER                   : Scn          - SERVICE COMPANY
STRT.M        243.84                         : top_depth    - START DEPTH
STOP.M        450.84                         : bot_depth    - STOP DEPTH
STEP.M        0.25                           : increment    - STEP LENGTH
 NULL. -999.2500:NULL Value
~CURVE INFORMATION BLOCK
#MNEM UNIT       ERCB CURVE CODE    CURVE DESCRIPTION
#-----------   ------------------   ----------------------------------
DEPT.M        00 001 00 00         : DEPTH        - DEPTH
GR  .API      00 310 00 00         : GR           - GAMMA RAY
DPHI.V/V      00 890 00 00         : PHID         - DENSITY POROSITY (SANDSTONE)
NPHI.V/V      00 330 00 00         : PHIN         - NEUTRON POROSITY (SANDSTONE)
ILD .OHMM     00 120 00 00         : RESD         - DEEP RESISTIVITY (DIL)
~PARAMETER INFORMATION
#MNEM.UNIT           DATA             DESCRIPTION OF MNEMONIC
#---------         -----------     ------------------------------
GL  .M        598.932              : gl           - GROUND LEVEL ELEVATION
EREF.M        598.932              : kb           - ELEVATION OF DEPTH REFERENCE
DATM.M        598.932              : datum        - DATUM ELEVATION
TDD .M        459.029              : tdd          - TOTAL DEPTH DRILLER
RUN .         ONE                  : Run          - RUN NUMBER
ENG .         BILL                 : Engineer     - RECORDING ENGINEER
WIT .         JIM                  : Witness      - WITNESSED BY
MUD .         GEL                  : Mud_type     - MUD TYPE
MATR.         SANDSTONE            : Logunit      - NEUTRON MATRIX
TMAX.C        26.6667              : BHT          - MAXIMUM RECORDED TEMPERATURE
BHTD.M        559.308              : BHTDEP       - MAXIMUM RECORDED TEMPERATURE
MATR.         1                    : LOGUNIT      - NEUTRON MATRIX
RMT .C        25                   : MDTP         - TEMPERATURE OF MUD
NEUT.         1                    : NEUTRON      - NEUTRON TYPE
RESI.         0                    : RESIST       - RESISTIVITY TYPE
RMC .OHMM     0.25                 : RMC          - RESISTIVITY OF MUD CAKE
RMF .OHMM     0.25                 : RMF          - RESISTIVITY OF MUD FILTRATE
SUFT.C        15                   : SUFT         - SURFACE TEMPERATURE
~A  DEPTH       GR     PHID     PHIN     RESD
# ...
  330.840   61.368    0.295    0.454   10.896
  331.090   61.420    0.268    0.400   11.869
  331.340   61.411    0.244    0.318   13.275
  331.590   60.021    0.163    0.248   15.277
  331.840   56.367    0.077    0.188   17.437
  332.090   57.947    0.000    0.181   19.742
  332.340   65.318    0.002    0.193   19.727
  332.590   74.153    0.077    0.264   17.096
  332.840   84.641    0.180    0.341   14.985
  333.090   92.423    0.286    0.417   13.305
  333.340   92.819    0.296    0.461   11.555
  333.590   94.201    0.302    0.469   10.793
  333.840  100.083    0.292    0.473    9.736
  334.090  102.736    0.287    0.472    9.193
  334.340  101.276    0.278    0.480    8.798
  334.590   96.067    0.267    0.478    8.344
  334.840   94.693    0.262    0.467    8.288
  335.090   96.522    0.267    0.461    8.365
  335.340   92.657    0.278    0.456    9.059
  335.590   86.610    0.292    0.461    9.604
  335.840   82.891    0.305    0.461   10.013
  336.090   80.062    0.302    0.462   10.308
  336.340   84.076    0.308    0.456    9.808
  336.590   86.315    0.280    0.469    9.056
  336.840   90.612    0.256    0.459    8.349
  337.090   95.095    0.220    0.445    7.889
  337.340   97.648    0.202    0.435    7.316
  337.590  100.987    0.206    0.429    7.111
  337.840  102.510    0.210    0.444    6.780
  338.090  103.505    0.211    0.458    6.580
  338.340  104.512    0.214    0.468    6.382
  338.590  105.506    0.218    0.469    6.098
  338.840  106.346    0.219    0.466    5.664
  339.090  106.349    0.215    0.462    5.518
  339.340  103.636    0.216    0.466    5.230
  339.590  101.475    0.218    0.470    5.016
  339.840   97.957    0.228    0.462    4.773
  340.090   95.450    0.240    0.465    4.625
  340.340   95.260    0.262    0.486    4.475
  340.590   94.323    0.280    0.499    4.269
  340.840   90.136    0.278    0.510    4.335
  341.090   86.492    0.323    0.526    4.534
  341.340   80.698    0.348    0.525    5.425
  341.590   77.558    0.342    0.477    5.935
  341.840   78.270    0.327    0.453    7.017
  342.090   78.428    0.316    0.437    7.985
  342.340   79.451    0.301    0.441    8.454
  342.590   84.223    0.302    0.450    8.001
  342.840   88.064    0.285    0.457    6.957
  343.090   93.251    0.269    0.468    6.306
  343.340   95.730    0.256    0.472    5.866
  343.590   96.635    0.258    0.475    5.397
  343.840   96.648    0.262    0.473    5.876
  344.090   96.627    0.236    0.461    6.417
  344.340   97.842    0.224    0.449    6.988
  344.590   99.226    0.209    0.437    7.415
  344.840  102.563    0.204    0.428    7.917
  345.090  104.870    0.196    0.425    8.038
  345.340  107.685    0.197    0.436    7.394
  345.590  110.360    0.212    0.493    6.155
  345.840  112.191    0.218    0.535    5.113
  346.090  113.717    0.236    0.562    3.991
  346.340  113.617    0.258    0.575    3.369
  346.590  110.506    0.286    0.566    2.732
  346.840  109.094    0.261    0.546    2.484
  347.090  107.222    0.248    0.530    2.855
  347.340  104.566    0.248    0.523    2.620
  347.590  103.253    0.258    0.517    2.873
  347.840  100.315    0.272    0.504    3.381
  348.090   97.322    0.263    0.496    3.958
  348.340   96.316    0.266    0.493    4.443
  348.590   96.241    0.270    0.512    4.700
  348.840   97.977    0.264    0.535    4.656
  349.090   97.617    0.256    0.511    4.644
  349.340   98.679    0.263    0.483    4.739
  349.590   97.254    0.248    0.474    4.892
  349.840   89.181    0.305    0.461    5.297
  350.090   83.390    0.310    0.448    5.879
  350.340   78.949    0.303    0.445    6.642
  350.590   75.427    0.296    0.441    7.386
  350.840   72.856    0.285    0.431    7.649
  351.090   70.957    0.258    0.411    7.658
  351.340   69.234    0.213    0.377    7.509
  351.590   64.382    0.166    0.267    8.076
  351.840   60.178    0.082    0.193    8.746
  352.090   63.806    0.036    0.173    9.289
  352.340   69.517    0.021    0.284    9.700
  352.590   78.234    0.075    0.345    9.694
  352.840   85.256    0.225    0.412    9.651
  353.090   88.519    0.253    0.431    9.207
  353.340   89.094    0.264    0.448    8.598
  353.590   90.526    0.257    0.460    8.192
  353.840   85.762    0.268    0.465    7.791
  354.090   83.263    0.282    0.471    7.778
  354.340   83.414    0.292    0.476    7.774
  354.590   82.019    0.301    0.478    7.778
  354.840   80.104    0.306    0.474    7.815
  355.090   79.762    0.308    0.472    7.918
  355.340   81.121    0.306    0.468    7.916
  355.590   83.291    0.300    0.467    7.915
  355.840   85.253    0.290    0.472    7.914
  356.090   86.248    0.277    0.464    7.909
  356.340   87.251    0.269    0.480    7.893
  356.590   85.236    0.271    0.477    7.761
  356.840   82.456    0.277    0.466    7.764
  357.090   82.996    0.286    0.458    7.763
  357.340   86.441    0.270    0.453    7.866
  357.590   89.974    0.251    0.451    8.161
  357.840   87.788    0.233    0.460    8.513
  358.090   85.999    0.234    0.462    8.788
  358.340   84.644    0.254    0.470    8.826
  358.590   82.984    0.262    0.477    8.827
  358.840   81.671    0.280    0.473    8.746
  359.090   79.616    0.281    0.478    8.468
  359.340   77.580    0.293    0.478    8.358
  359.590   76.779    0.292    0.464    8.181
  359.840   76.813    0.290    0.450    8.197
  360.090   77.212    0.287    0.440    8.181
  360.340   78.896    0.287    0.442    8.363
  360.590   81.226    0.291    0.440    8.346
  360.840   82.291    0.294    0.436    8.345
  361.090   83.874    0.301    0.431    8.345
  361.340   84.800    0.304    0.432    8.343
  361.590   83.797    0.308    0.450    8.245
  361.840   80.654    0.321    0.456    8.191
  362.090   78.708    0.314    0.462    8.196
  362.340   79.823    0.324    0.464    8.025
  362.590   78.472    0.317    0.466    8.041
  362.840   79.570    0.309    0.464    7.911
  363.090   81.283    0.304    0.464    7.893
  363.340   81.262    0.297    0.455    7.888
  363.590   83.341    0.297    0.454    7.887
  363.840   85.375    0.293    0.462    7.887
  364.090   86.729    0.290    0.456    7.886
  364.340   87.707    0.291    0.449    7.771
  364.590   88.431    0.292    0.442    7.903
  364.840   88.505    0.293    0.441    7.881
  365.090   90.469    0.293    0.439    7.793
  365.340   93.308    0.284    0.439    7.725
  365.590   95.744    0.283    0.439    7.360
  365.840   98.564    0.274    0.439    6.942
  366.090   99.040    0.250    0.442    6.407
  366.340  100.188    0.230    0.448    6.115
  366.590   99.117    0.234    0.456    6.202
  366.840   97.799    0.241    0.461    6.448
  367.090   97.336    0.232    0.469    6.771
  367.340   96.887    0.214    0.471    7.049
  367.590   95.369    0.215    0.456    7.447
  367.840   96.603    0.216    0.446    7.598
  368.090  100.118    0.208    0.455    7.587
  368.340  101.977    0.212    0.468    7.586
  368.590  105.228    0.197    0.469    7.583
  368.840  109.154    0.188    0.447    7.578
  369.090  111.257    0.188    0.439    7.705
  369.340  109.488    0.193    0.438    7.733
  369.590  106.725    0.196    0.447    7.574
  369.840  103.554    0.195    0.462    7.582
  370.090  101.378    0.202    0.446    7.577
  370.340  104.662    0.208    0.440    7.576
  370.590  105.795    0.212    0.445    7.429
  370.840  104.474    0.209    0.447    7.435
  371.090  104.663    0.214    0.445    7.442
  371.340  104.243    0.211    0.442    7.290
  371.590  106.154    0.205    0.453    7.306
  371.840  108.196    0.203    0.465    7.180
  372.090  109.112    0.205    0.473    7.179
  372.340  107.661    0.212    0.474    7.010
  372.590  107.239    0.207    0.466    6.899
  372.840  107.089    0.206    0.457    6.863
  373.090  107.764    0.200    0.464    6.652
  373.340  108.208    0.197    0.465    6.561
  373.590  108.494    0.199    0.459    6.493
  373.840  109.600    0.203    0.451    6.411
  374.090  108.709    0.205    0.448    6.284
