~VERSION INFORMATION
 VERS.                 2.0:   CWLS LOG ASCII STANDARD -VERSION 2.0
 WRAP.                  NO:   ONE LINE PER DEPTH STEP
~WELL INFORMATION BLOCK
#MNEM.UNIT           DATA                    DESCRIPTION OF MNEMONIC
#---------    -------------------            -------------------------------
# Generated from Intellog Unique Number	CS_73_76/WELL/840
WELL.         ARGO PETOLEUM CORPORATION      : Well_name    - WELL
LOC .         00/10-36-073-11W4/0            : Location     - LOCATION
UWI .         00/10-36-073-11W4/0            : Uwi          - UNIQUE WELL ID
ENTR.         SP                             : Entered      - ENTERED BY
SRVC.         SCHLUMBERGER                   : Scn          - SERVICE COMPANY
STRT.M        298.704                        : top_depth    - START DEPTH
STOP.M        517.954                        : bot_depth    - STOP DEPTH
STEP.M        0.25                           : increment    - STEP LENGTH
 NULL. -999.2500:NULL Value
~CURVE INFORMATION BLOCK
#MNEM UNIT       ERCB CURVE CODE    CURVE DESCRIPTION
#-----------   ------------------   ----------------------------------
DEPT.M        00 001 00 00         : DEPTH        - DEPTH
GR  .API      00 310 00 00         : GR           - GAMMA RAY
DPHI.V/V      00 890 00 00         : PHID         - DENSITY POROSITY (SANDSTONE)
NPHI.V/V      00 330 00 00         : PHIN         - NEUTRON POROSITY (SANDSTONE)
ILD .OHMM     00 120 00 00         : RESD         - DEEP RESISTIVITY (DIL)
~PARAMETER INFORMATION
#MNEM.UNIT           DATA             DESCRIPTION OF MNEMONIC
#---------         -----------     ------------------------------
GL  .M        654.406              : gl           - GROUND LEVEL ELEVATION
EREF.M        657.606              : kb           - ELEVATION OF DEPTH REFERENCE
DATM.M        654.406              : datum        - DATUM ELEVATION
TDD .M        523.951              : tdd          - TOTAL DEPTH DRILLER
RUN .         ONE                  : Run          - RUN NUMBER
ENG .         BILL                 : Engineer     - RECORDING ENGINEER
WIT .         JIM                  : Witness      - WITNESSED BY
MUD .         GEL                  : Mud_type     - MUD TYPE
MATR.         SANDSTONE            : Logunit      - NEUTRON MATRIX
TMAX.C        16.6667              : BHT          - MAXIMUM RECORDED TEMPERATURE
BHTD.M        523.951              : BHTDEP       - MAXIMUM RECORDED TEMPERATURE
MATR.         1                    : LOGUNIT      - NEUTRON MATRIX
RMT .C        25                   : MDTP         - TEMPERATURE OF MUD
NEUT.         1                    : NEUTRON      - NEUTRON TYPE
RESI.         0                    : RESIST       - RESISTIVITY TYPE
RMC .OHMM     0.25                 : RMC          - RESISTIVITY OF MUD CAKE
RMF .OHMM     0.25                 : RMF          - RESISTIVITY OF MUD FILTRATE
SUFT.C        15                   : SUFT         - SURFACE TEMPERATURE
~A  DEPTH       GR     PHID     PHIN     RESD
  298.704   99.999    0.174    0.492    4.159
  298.954  101.248    0.170    0.510    4.218
  299.204  100.140    0.165    0.525    4.119
  299.454   98.266    0.182    0.564    3.874
  299.704   98.406    0.184    0.597    3.575
  299.954   96.074    0.198    0.605    3.317
  300.204   94.195    0.190    0.611    3.116
  300.454   94.338    0.190    0.614    3.018
  300.704   92.278    0.172    0.605    2.999
  300.954   92.850    0.185    0.600    3.196
  301.204   93.711    0.207    0.588    3.322
  301.454   93.019    0.206    0.579    3.462
  301.704   95.320    0.186    0.585    3.567
  301.954   98.816    0.172    0.595    3.674
  302.204  100.619    0.201    0.610    3.787
  302.454   98.772    0.192    0.569    3.793
  302.704   93.087    0.171    0.536    3.701
  302.954   94.191    0.184    0.516    3.592
  303.204   93.432    0.110    0.536    3.485
  303.454   80.501    0.029    0.555    3.378
  303.704   73.512    0.001    0.567    3.419
  303.954   70.242    0.047    0.437    3.894
  304.204   76.921    0.193    0.435    4.670
  304.454   79.838    0.166    0.450    5.597
  304.704   81.684    0.172    0.434    6.736
  304.954   81.327    0.189    0.433    8.155
  305.204   84.197    0.179    0.429    9.181
  305.454   84.763    0.197    0.418    9.453
  305.704   85.939    0.210    0.395    9.263
  305.954   88.911    0.190    0.404    9.161
  306.204   89.085    0.198    0.421    9.091
  306.454   81.836    0.210    0.431    9.086
  306.704   61.648    0.221    0.404    9.136
  306.954   46.582    0.234    0.380    9.627
  307.204   46.577    0.252    0.380    9.913
  307.454   54.442    0.212    0.400   10.302
  307.704   62.158    0.204    0.421   10.512
  307.954   66.251    0.210    0.440   10.731
  308.204   70.501    0.197    0.440   10.436
  308.454   70.209    0.181    0.429   10.133
  308.704   70.962    0.182    0.423    9.527
  308.954   72.903    0.186    0.440    9.204
  309.204   70.095    0.203    0.446    8.909
  309.454   62.880    0.232    0.443    9.156
  309.704   64.375    0.234    0.436    9.671
  309.954   70.232    0.249    0.443   10.426
  310.204   74.703    0.258    0.453   10.988
  310.454   77.525    0.232    0.445   11.296
  310.704   82.430    0.221    0.439   11.278
  310.954   86.106    0.227    0.423   11.223
  311.204   89.156    0.217    0.406   10.873
  311.454   92.389    0.220    0.412   10.533
  311.704   89.076    0.228    0.428   10.474
  311.954   91.455    0.224    0.440   10.669
  312.204   92.424    0.219    0.448   10.781
  312.454   93.400    0.212    0.435   10.834
  312.704   94.407    0.180    0.426   10.503
  312.954   94.452    0.197    0.444   10.187
  313.204   93.601    0.207    0.452    9.866
  313.454   88.069    0.229    0.446    9.543
  313.704   83.686    0.257    0.444    9.542
  313.954   82.844    0.253    0.457    9.745
  314.204   84.966    0.269    0.474   10.041
  314.454   85.848    0.264    0.492   10.388
  314.704   83.945    0.274    0.497   11.049
  314.954   81.223    0.271    0.473   11.406
  315.204   78.601    0.269    0.463   11.495
  315.454   74.115    0.265    0.459   11.877
  315.704   72.885    0.254    0.477   11.884
  315.954   74.560    0.238    0.501   11.893
  316.204   72.325    0.249    0.474   11.696
  316.454   62.329    0.255    0.388   11.610
  316.704   55.121    0.259    0.399   11.011
  316.954   53.484    0.254    0.415   10.684
  317.204   53.278    0.268    0.434   10.687
  317.454   49.898    0.266    0.411   11.247
  317.704   52.917    0.225    0.414   11.135
  317.954   58.062    0.204    0.425   10.197
  318.204   61.487    0.212    0.419    9.382
  318.454   66.720    0.210    0.433    8.329
  318.704   60.610    0.253    0.526    7.427
  318.954   52.151    0.364    0.610    7.117
  319.204   44.065    0.373    0.536    7.377
  319.454   34.424    0.349    0.487    7.848
  319.704   33.120    0.331    0.462    8.587
  319.954   35.525    0.330    0.491    9.727
  320.204   35.089    0.314    0.441   11.071
  320.454   34.752    0.313    0.433   11.944
  320.704   37.780    0.325    0.423   12.561
  320.954   41.698    0.313    0.451   12.517
  321.204   45.645    0.308    0.468   12.393
  321.454   47.793    0.306    0.431   12.062
  321.704   48.734    0.305    0.430   11.859
  321.954   49.468    0.295    0.435   11.849
  322.204   48.634    0.295    0.432   11.841
  322.454   46.088    0.306    0.447   11.843
  322.704   48.166    0.311    0.457   11.919
  322.954   51.400    0.300    0.451   12.286
  323.204   53.901    0.288    0.460   12.278
  323.454   56.890    0.297    0.463   12.358
  323.704   58.320    0.291    0.486   12.496
  323.954   60.533    0.278    0.501   12.497
  324.204   60.578    0.272    0.510   12.494
  324.454   61.181    0.261    0.495   12.492
  324.704   64.087    0.277    0.475   12.491
  324.954   68.191    0.266    0.472   12.492
  325.204   72.693    0.261    0.510   12.473
  325.454   75.769    0.279    0.482   12.721
  325.704   81.896    0.284    0.474   12.998
  325.954   89.129    0.278    0.489   13.175
  326.204   96.971    0.249    0.494   13.537
  326.454  103.370    0.218    0.524   13.934
  326.704  111.910    0.182    0.556   13.763
  326.954  116.818    0.155    0.601   12.944
  327.204  120.688    0.171    0.610   11.593
  327.454  120.814    0.170    0.606    9.990
  327.704  116.792    0.183    0.608    8.392
  327.954  116.029    0.181    0.614    6.884
  328.204  115.770    0.188    0.599    5.933
  328.454  113.926    0.191    0.583    5.010
  328.704  110.959    0.235    0.550    4.664
  328.954  107.157    0.224    0.515    4.709
  329.204  100.211    0.203    0.519    5.251
  329.454   96.702    0.223    0.504    5.724
  329.704   95.059    0.234    0.488    6.622
  329.954   91.860    0.244    0.476    7.500
  330.204   88.457    0.255    0.464    8.603
  330.454   83.594    0.268    0.455    9.674
  330.704   85.383    0.250    0.459   11.129
  330.954   88.922    0.229    0.484   11.780
  331.204   91.740    0.219    0.521   12.722
  331.454   95.826    0.265    0.505   12.697
  331.704   98.198    0.251    0.492   11.564
  331.954   99.645    0.227    0.498   10.054
  332.204   98.626    0.198    0.483    9.190
  332.454   87.796    0.214    0.459    8.821
  332.704   67.599    0.236    0.433    8.478
  332.954   40.412    0.257    0.424    8.621
  333.204   38.311    0.265    0.410    9.222
  333.454   40.856    0.265    0.383   10.749
  333.704   38.869    0.272    0.418   12.549
  333.954   34.301    0.270    0.470   13.529
  334.204   31.496    0.287    0.436   15.120
  334.454   30.950    0.287    0.428   16.422
  334.704   34.187    0.291    0.414   17.014
  334.954   35.512    0.276    0.403   17.260
  335.204   36.757    0.283    0.402   17.254
  335.454   37.173    0.282    0.436   17.256
  335.704   35.069    0.290    0.447   16.984
  335.954   33.940    0.284    0.429   16.817
  336.204   32.642    0.286    0.407   16.624
  336.454   31.683    0.291    0.400   16.616
  336.704   30.841    0.297    0.407   16.610
  336.954   31.489    0.295    0.415   16.618
  337.204   31.517    0.298    0.405   16.283
  337.454   29.680    0.295    0.399   16.290
  337.704   29.768    0.290    0.406   16.584
  337.954   29.715    0.296    0.420   16.605
  338.204   30.435    0.291    0.424   16.645
  338.454   32.451    0.290    0.415   16.917
  338.704   33.760    0.287    0.413   16.905
  338.954   35.732    0.280    0.399   16.900
  339.204   37.627    0.278    0.400   16.898
  339.454   39.054    0.280    0.404   16.895
  339.704   40.422    0.294    0.400   16.892
  339.954   41.343    0.272    0.392   16.881
  340.204   46.096    0.251    0.378   16.800
  340.454   54.751    0.225    0.372   16.587
  340.704   63.868    0.222    0.399   16.271
  340.954   71.000    0.236    0.428   15.890
  341.204   75.795    0.231    0.457   15.717
  341.454   81.581    0.233    0.498   14.948
  341.704   87.260    0.228    0.533   14.537
  341.954   90.472    0.233    0.548   14.127
