~VERSION INFORMATION
 VERS.                 2.0:   CWLS LOG ASCII STANDARD -VERSION 2.0
 WRAP.                  NO:   ONE LINE PER DEPTH STEP
~WELL INFORMATION BLOCK
#MNEM.UNIT           DATA                    DESCRIPTION OF MNEMONIC
#---------    -------------------            -------------------------------
# Generated from Intellog Unique Number	CS_73_76/WELL/3273
WELL.         STAR OIL & GAS LTD             : Well_name    - WELL
LOC .         00/12-19-075-09W4/0            : Location     - LOCATION
UWI .         00/12-19-075-09W4/0            : Uwi          - UNIQUE WELL ID
ENTR.         SP                             : Entered      - ENTERED BY
SRVC.         SCHLUMBERGER                   : Scn          - SERVICE COMPANY
STRT.M        285                            : top_depth    - START DEPTH
STOP.M        490                            : bot_depth    - STOP DEPTH
STEP.M        0.25                           : increment    - STEP LENGTH
 NULL. -999.2500:NULL Value
~CURVE INFORMATION BLOCK
#MNEM UNIT       ERCB CURVE CODE    CURVE DESCRIPTION
#-----------   ------------------   ----------------------------------
DEPT.M        00 001 00 00         : DEPTH        - DEPTH
ILD .OHMM     00 120 00 00         : RESD         - DEEP RESISTIVITY (DIL)
DPHI.V/V      00 890 00 00         : PHID         - DENSITY POROSITY (LIMESTONE)
NPHI.V/V      00 330 00 00         : PHIN         - NEUTRON POROSITY (LIMESTONE)
GR  .API      00 310 00 00         : GR           - GAMMA RAY
~PARAMETER INFORMATION
#MNEM.UNIT           DATA             DESCRIPTION OF MNEMONIC
#---------         -----------     ------------------------------
GL  .M        678.87               : gl           - GROUND LEVEL ELEVATION
EREF.M        682                  : kb           - ELEVATION OF DEPTH REFERENCE
DATM.M        678.87               : datum        - DATUM ELEVATION
TDD .M        530                  : tdd          - TOTAL DEPTH DRILLER
RUN .         ONE                  : Run          - RUN NUMBER
ENG .         BILL                 : Engineer     - RECORDING ENGINEER
WIT .         JIM                  : Witness      - WITNESSED BY
MUD .         GEL                  : Mud_type     - MUD TYPE
MATR.         LIMESTONE            : Logunit      - NEUTRON MATRIX
TMAX.C        26                   : BHT          - MAXIMUM RECORDED TEMPERATURE
BHTD.M        530                  : BHTDEP       - MAXIMUM RECORDED TEMPERATURE
MATR.         1                    : LOGUNIT      - NEUTRON MATRIX
RMT .C        25                   : MDTP         - TEMPERATURE OF MUD
NEUT.         1                    : NEUTRON      - NEUTRON TYPE
RESI.         0                    : RESIST       - RESISTIVITY TYPE
RMC .OHMM     0.25                 : RMC          - RESISTIVITY OF MUD CAKE
RMF .OHMM     0.25                 : RMF          - RESISTIVITY OF MUD FILTRATE
SUFT.C        15                   : SUFT         - SURFACE TEMPERATURE
~A  DEPTH     RESD     PHID     PHIN       GR
# ...
  328.500   11.207    0.275    0.400  111.239
  328.750   11.210    0.265    0.396  106.960
  329.000   11.428    0.258    0.407  102.064
  329.250   11.216    0.263    0.411   99.622
  329.500   11.217    0.270    0.413   95.958
  329.750   11.010    0.271    0.426   95.976
  330.000   10.602    0.266    0.424   97.846
  330.250    9.829    0.249    0.433   98.475
  330.500    9.288    0.235    0.451   99.722
  330.750    8.776    0.235    0.463  101.593
  331.000    8.292    0.240    0.461  104.684
  331.250    8.295    0.235    0.435  110.859
  331.500    8.618    0.225    0.425  107.190
  331.750    9.126    0.229    0.416   98.605
  332.000    9.662    0.245    0.405   90.631
  332.250   11.465    0.262    0.404   83.884
  332.500   14.130    0.281    0.390   74.688
  332.750   16.765    0.271    0.374   69.171
  333.000   18.439    0.267    0.358   63.048
  333.250   18.798    0.263    0.364   62.454
  333.500   19.162    0.266    0.379   64.335
  333.750   19.167    0.271    0.390   64.347
  334.000   19.173    0.285    0.402   61.288
  334.250   19.178    0.298    0.395   60.694
  334.500   19.549    0.304    0.391   61.944
  334.750   20.312    0.291    0.380   63.808
  335.000   20.705    0.286    0.390   63.826
  335.250   21.514    0.285    0.398   60.159
  335.500   21.930    0.295    0.406   58.342
  335.750   22.782    0.310    0.398   57.750
  336.000   24.128    0.315    0.394   57.153
  336.250   24.132    0.313    0.401   56.559
  336.500   25.072    0.312    0.402   56.581
  336.750   25.075    0.324    0.397   55.984
  337.000   25.567    0.330    0.392   54.778
  337.250   26.062    0.337    0.394   54.803
  337.500   26.567    0.334    0.407   55.429
  337.750   26.572    0.333    0.420   57.919
  338.000   27.088    0.333    0.436   59.780
  338.250   27.617    0.335    0.427   59.798
  338.500   28.151    0.340    0.408   59.820
  338.750   28.696    0.344    0.392   60.454
  339.000   28.703    0.349    0.384   58.014
  339.250   29.263    0.352    0.385   59.266
  339.500   29.829    0.353    0.400   70.967
  339.750   29.839    0.350    0.402   83.283
  340.000   29.846    0.342    0.404   97.444
  340.250   29.852    0.335    0.397   85.791
  340.500   29.864    0.331    0.404   80.890
  340.750   29.869    0.329    0.423   75.990
  341.000   29.879    0.330    0.432   72.938
  341.250   29.884    0.337    0.440   66.823
  341.500   29.889    0.342    0.427   64.376
  341.750   30.474    0.346    0.421   61.934
  342.000   29.907    0.343    0.416   64.420
  342.250   29.913    0.337    0.409   65.673
  342.500   30.494    0.339    0.419   66.304
  342.750   30.501    0.343    0.422   65.103
  343.000   30.513    0.348    0.411   65.112
  343.250   29.944    0.353    0.401   61.444
  343.500   29.951    0.353    0.399   57.169
  343.750   29.965    0.344    0.409   57.197
  344.000   29.971    0.348    0.408   57.833
  344.250   29.977    0.351    0.402   58.465
  344.500   29.985    0.350    0.400   58.480
  344.750   29.990    0.344    0.413   59.114
  345.000   29.998    0.346    0.414   59.131
  345.250   30.006    0.344    0.403   57.312
  345.500   30.011    0.339    0.404   56.720
  345.750   29.458    0.336    0.410   57.976
  346.000   29.463    0.340    0.412   57.371
  346.250   29.473    0.342    0.409   53.708
  346.500   29.481    0.342    0.395   56.193
  346.750   29.485    0.345    0.400   58.668
  347.000   29.496    0.346    0.415   56.852
  347.250   28.946    0.350    0.427   55.636
  347.500   28.957    0.356    0.411   52.590
  347.750   28.961    0.363    0.400   52.601
  348.000   28.423    0.368    0.389   52.627
  348.250   28.431    0.367    0.391   53.877
  348.500   27.906    0.364    0.395   55.122
  348.750   27.911    0.359    0.388   56.989
  349.000   27.921    0.358    0.388   57.014
  349.250   27.924    0.357    0.402   55.805
  349.500   27.934    0.357    0.408   57.671
  349.750   27.938    0.364    0.402   60.151
  350.000   27.947    0.365    0.386   61.401
  350.250   27.956    0.364    0.387   61.420
  350.500   27.961    0.363    0.402   60.217
  350.750   27.971    0.364    0.407   59.614
  351.000   28.511    0.361    0.398   57.175
  351.250   28.517    0.351    0.390   54.740
  351.500   28.525    0.349    0.392   56.605
  351.750   28.532    0.350    0.399   58.469
  352.000   28.004    0.357    0.399   59.107
  352.250   26.967    0.357    0.399   59.135
  352.500   25.481    0.362    0.404   58.533
  352.750   23.180    0.356    0.396   58.557
  353.000   21.902    0.354    0.401   58.576
  353.250   20.307    0.351    0.409   59.213
  353.500   20.312    0.366    0.412   58.619
  353.750   20.709    0.369    0.418   57.407
  354.000   21.514    0.373    0.428   58.048
  354.250   22.353    0.378    0.437   61.143
  354.500   22.784    0.372    0.420   63.618
  354.750   22.791    0.368    0.412   64.869
  355.000   21.946    0.363    0.410   61.819
  355.250   19.966    0.362    0.407   59.380
  355.500   18.162    0.359    0.421   59.400
  355.750   16.214    0.357    0.426   58.188
  356.000   15.612    0.344    0.418   61.899
  356.250   14.475    0.333    0.393   72.380
  356.500   13.421    0.315    0.377   79.771
  356.750   12.924    0.297    0.385   85.939
  357.000   12.446    0.287    0.412   89.040
  357.250   12.687    0.282    0.423   89.671
  357.500   13.691    0.280    0.438   86.008
  357.750   15.347    0.282    0.436   81.724
  358.000   16.561    0.291    0.431   75.595
  358.250   16.882    0.296    0.423   68.237
  358.500   16.887    0.306    0.409   62.723
  358.750   15.656    0.307    0.397   63.362
  359.000   13.974    0.287    0.383   68.915
  359.250   12.239    0.267    0.387   78.160
  359.500   10.127    0.260    0.406   84.941
  359.750    9.040    0.254    0.424   92.339
  360.000    8.541    0.250    0.441   94.822
  360.250    7.624    0.246    0.431   94.226
  360.500    7.068    0.242    0.418   94.256
  360.750    6.430    0.239    0.423   94.882
  361.000    5.962    0.227    0.438   97.364
  361.250    5.527    0.222    0.447  101.685
  361.500    5.222    0.224    0.433   99.255
  361.750    5.029    0.227    0.443   98.040
  362.000    5.031    0.229    0.474   98.061
  362.250    5.226    0.230    0.501   99.312
  362.500    5.748    0.238    0.527  100.560
  362.750    6.820    0.257    0.480   93.819
  363.000    8.567    0.297    0.448   84.620
  363.250    9.245    0.316    0.439   76.034
  363.500   10.764    0.332    0.422   72.374
  363.750   11.615    0.342    0.401   70.544
  364.000   12.067    0.348    0.392   66.264
  364.250   12.303    0.350    0.381   64.436
  364.500   12.305    0.352    0.388   66.914
  364.750   12.077    0.349    0.407   65.707
  365.000   12.079    0.343    0.405   62.653
  365.250   13.540    0.339    0.398   65.755
  365.500   17.666    0.332    0.397   65.770
  365.750   23.047    0.272    0.400   61.486
  366.000   30.643    0.217    0.350   54.134
  366.250   37.057    0.054    0.224   48.005
  366.500   40.757    0.024    0.161   42.491
  366.750   43.156    0.005    0.142   39.439
  367.000   40.014    0.010    0.175   38.229
  367.250   37.094    0.029    0.254   40.102
  367.500   27.913    0.040    0.294   43.189
  367.750   21.003    0.068    0.313   52.447
  368.000   17.050    0.147    0.349   56.147
  368.250   14.107    0.250    0.378   62.929
  368.500   12.592    0.287    0.386   64.792
  368.750   11.899    0.317    0.402   64.823
  369.000   11.458    0.335    0.416   64.832
  369.250   11.246    0.351    0.414   67.932
  369.500   11.249    0.342    0.417   69.183
  369.750   11.251    0.333    0.423   69.200
  370.000   11.255    0.332    0.429   68.000
  370.250   11.257    0.338    0.423   67.397
  370.500   11.476    0.344    0.413   64.964
  370.750   11.478    0.346    0.410   63.749
  371.000   11.701    0.347    0.408   65.004
  371.250   11.705    0.347    0.419   65.637
  371.500   11.707    0.347    0.437   66.278
  371.750   11.490    0.349    0.446   65.677
