~VERSION INFORMATION
 VERS.                 2.0:   CWLS LOG ASCII STANDARD -VERSION 2.0
 WRAP.                  NO:   ONE LINE PER DEPTH STEP
~WELL INFORMATION BLOCK
#MNEM.UNIT           DATA                    DESCRIPTION OF MNEMONIC
#---------    -------------------            -------------------------------
# Generated from Intellog Unique Number	nealta/WELL/2359
WELL.         HB MARTEN HILLS 10-34          : Well_name    - WELL              
LOC .         10-34-074-01W5                 : Location     - LOCATION          
UWI .         00/10-34-074-01W5/0            : Uwi          - UNIQUE WELL ID    
ENTR.         JAYE                           : Entered      - ENTERED BY        
SRVC.         SCHLUMBERGER                   : Scn          - SERVICE COMPANY   
DATE.         27 MAR 74                      : Date         - LOG DATE          
STRT.M        454.152                        : top_depth    - START DEPTH       
STOP.M        655.402                        : bot_depth    - STOP DEPTH        
STEP.M        0.25                           : increment    - STEP LENGTH       
NULL.         -999.250                       : null         - NULL VALUE       
~CURVE INFORMATION BLOCK
#MNEM UNIT       ERCB CURVE CODE    CURVE DESCRIPTION
#-----------   ------------------   ----------------------------------
DEPT.M        00 001 00 00         : DEPTH        - DEPTH                       
DPHI.V/V      00 890 00 00         : PHID         - DENSITY POROSITY (SANDSTONE)
CALI.MM       00 280 01 00         : CAL          - CALIPER                     
GR  .API      00 310 00 00         : GR           - GAMMA RAY                   
ILD .OHMM     00 120 00 00         : RESD         - DEEP RESISTIVITY (DIL)      
NPHI.V/V      00 330 00 00         : PHIN         - NEUTRON POROSITY (SANDSTONE)
~PARAMETER INFORMATION       
#MNEM.UNIT           DATA             DESCRIPTION OF MNEMONIC
#---------         -----------     ------------------------------
GL  .M        721.766              : gl           - GROUND LEVEL ELEVATION      
EREF.M        725.119              : kb           - ELEVATION OF DEPTH REFERENCE
DATM.M        721.766              : datum        - DATUM ELEVATION             
TDD .M        685.8                : tdd          - TOTAL DEPTH DRILLER         
RUN .         ONE                  : Run          - RUN NUMBER                  
ENG .         SIROIS/SMILEY        : Engineer     - RECORDING ENGINEER          
WIT .         FILLO/JASTER         : Witness      - WITNESSED BY                
BASE.         EDM                  : Branch       - HOME BASE OF LOGGING UNIT   
MUD .         GEL CHEM             : Mud_type     - MUD TYPE                    
MATR.         SANDSTONE            : Logunit      - NEUTRON MATRIX              
TMAX.C        26.6667              : BHT          - MAXIMUM RECORDED TEMPERATURE
BHTD.M        685.8                : BHTDEP       - MAXIMUM RECORDED TEMPERATURE
RMT .C        -12.3889             : MDTP         - TEMPERATURE OF MUD          
MUDD.KG/M     7800                 : MWT          - MUD DENSITY                 
NEUT.         1                    : NEUTRON      - NEUTRON TYPE                
RESI.         0                    : RESIST       - RESISTIVITY TYPE            
RM  .OHMM     4.1                  : RM           - RESISTIVITY OF MUD          
RMC .OHMM     2.5                  : RMC          - RESISTIVITY OF MUD CAKE     
RMF .OHMM     2.13                 : RMF          - RESISTIVITY OF MUD FILTRATE 
SUFT.C        -17.7778             : SUFT         - SURFACE TEMPERATURE         
~A  DEPTH     PHID      CAL       GR     RESD     PHIN
# ...
  600.152    0.223  209.449   67.671    6.542    0.442
  600.402    0.236  210.246   68.567    6.293    0.420
  600.652    0.227  210.925   65.654    6.122    0.462
  600.902    0.247  211.410   63.725    6.077    0.510
  601.152    0.265  211.778   64.192    6.180    0.548
  601.402    0.247  212.150   65.094    6.533    0.539
  601.652    0.246  212.427   63.344    7.128    0.466
  601.902    0.232  212.797   59.757    7.892    0.451
  602.152    0.214  212.545   57.829    9.444    0.426
  602.402    0.187  212.508   55.593   10.284    0.376
  602.652    0.148  212.166   51.208   10.458    0.330
  602.902    0.125  212.213   45.406   10.402    0.327
  603.152    0.149  211.968   47.104   10.025    0.353
  603.402    0.168  212.029   56.229    9.485    0.446
  603.652    0.165  212.091   60.998    8.728    0.394
  603.902    0.178  211.526   61.220    8.152    0.401
  604.152    0.195  210.964   64.023    7.813    0.451
  604.402    0.192  210.086   66.389    7.447    0.479
  604.652    0.183  209.537   65.997    7.298    0.462
  604.902    0.181  209.081   62.716    7.191    0.394
  605.152    0.182  208.920   61.589    7.192    0.376
  605.402    0.175  209.095   61.685    7.114    0.367
  605.652    0.181  209.474   62.396    6.958    0.384
  605.902    0.166  209.736   63.112    6.694    0.421
  606.152    0.183  209.794   64.805    6.476    0.437
  606.402    0.187  210.169   66.564    6.346    0.446
  606.652    0.193  210.546   67.396    6.300    0.432
  606.902    0.194  210.710   67.926    6.335    0.423
  607.152    0.156  210.776   68.330    6.563    0.391
  607.402    0.141  211.040   68.370    6.964    0.375
  607.652    0.127  210.895   68.835    7.308    0.363
  607.902    0.129  211.169   63.280    7.988    0.370
  608.152    0.149  211.334   61.106    8.429    0.410
  608.402    0.158  211.814   63.480    8.764    0.434
  608.652    0.148  212.083   65.912    8.945    0.450
  608.902    0.152  212.249   65.088    9.130    0.402
  609.152    0.153  211.898   60.271    9.216    0.386
  609.402    0.155  211.752   58.956    9.337    0.380
  609.652    0.145  211.499   58.811    9.390    0.371
  609.902    0.134  210.729   60.628    9.408    0.385
  610.152    0.125  208.502   61.706    9.357    0.390
  610.402    0.144  205.344   62.486    9.255    0.391
  610.652    0.154  204.880   63.133    9.070    0.391
  610.902    0.159  204.954   64.155    8.839    0.406
  611.152    0.167  204.602   66.034    8.503    0.426
  611.402    0.193  204.339   68.156    8.120    0.469
  611.652    0.213  203.888   69.176    7.898    0.493
  611.902    0.201  203.636   68.232    7.655    0.508
  612.152    0.184  203.799   67.776    7.460    0.496
  612.402    0.168  204.595   67.077    7.216    0.445
  612.652    0.154  205.069   69.755    6.942    0.413
  612.902    0.140  205.966   74.460    6.703    0.367
  613.152    0.076  207.185   78.427    6.425    0.354
  613.402    0.107  208.586   80.920    6.284    0.396
  613.652    0.117  210.727   85.629    6.158    0.433
  613.902    0.110  212.352   91.561    6.024    0.463
  614.152    0.114  213.040   92.088    5.947    0.434
  614.402    0.101  213.311   88.256    5.882    0.439
  614.652    0.085  213.370   88.784    5.807    0.440
  614.902    0.118  213.227   90.790    5.765    0.452
  615.152    0.122  213.078   91.129    5.723    0.461
  615.402    0.117  212.621   91.472    5.766    0.477
  615.652    0.134  212.164   93.108    5.853    0.485
  615.902    0.135  212.122   94.498    5.864    0.469
  616.152    0.129  212.093   95.578    5.833    0.429
  616.402    0.108  211.726   96.967    5.898    0.415
  616.652    0.103  211.160   97.739    6.133    0.440
  616.902    0.104  210.091   93.418    6.472    0.452
  617.152    0.099  208.691   89.214    7.073    0.440
  617.402    0.103  206.979   85.626    7.875    0.371
  617.652    0.077  205.696   87.750    9.015    0.360
  617.902    0.095  205.344   92.273   10.970    0.370
  618.152    0.082  205.712   86.847   11.554    0.379
  618.402    0.097  205.892   83.007   11.033    0.383
  618.652    0.081  206.363   83.414   10.555    0.363
  618.902    0.124  206.840   89.347    9.968    0.377
  619.152    0.127  207.316   93.868    9.275    0.389
  619.402    0.126  208.100   97.592    8.775    0.392
  619.652    0.119  208.897   94.740    8.473    0.389
  619.902    0.123  209.579   87.835    8.335    0.381
  620.152    0.135  209.954   80.992    8.320    0.373
  620.402    0.129  210.326   77.404    8.635    0.365
  620.652    0.115  211.117   73.635    9.095    0.344
  620.902    0.097  211.597   72.010    9.758    0.323
  621.152    0.066  212.075   79.174   10.845    0.306
  621.402    0.058  212.458   87.321   11.172    0.337
  621.652    0.119  212.927   91.840   10.648    0.362
  621.902    0.108  213.307   91.017   10.019    0.369
  622.152    0.083  213.270   90.875    9.254    0.332
  622.402    0.085  214.062   92.754    8.836    0.346
  622.652    0.109  214.633   94.567    8.268    0.360
  622.902    0.094  215.439   97.558    7.925    0.379
  623.152    0.071  215.709  100.110    7.568    0.387
  623.402    0.045  216.607  102.969    7.443    0.389
  623.652    0.023  216.763   94.470    7.597    0.340
  623.902   -0.003  216.087   83.939    8.212    0.337
  624.152    0.081  214.382   81.213    8.909    0.335
  624.402    0.093  213.622   81.864    9.246    0.328
  624.652    0.101  213.362   83.680    9.196    0.371
  624.902    0.111  213.538   81.509    8.573    0.390
  625.152    0.123  213.487   82.162    7.962    0.404
  625.402    0.101  213.449   84.161    7.409    0.445
  625.652    0.115  212.678   88.010    6.830    0.435
  625.902    0.113  211.593   89.334    6.321    0.420
  626.152    0.108  210.521   87.290    5.991    0.452
  626.402    0.088  209.949   85.782    5.839    0.454
  626.652    0.103  208.554   85.641    5.926    0.428
  626.902    0.095  206.431   86.039    6.347    0.389
  627.152    0.055  205.145   87.739    7.067    0.354
  627.402    0.023  206.144   84.212    8.363    0.332
  627.652   -0.003  208.077   76.997    8.957    0.280
  627.902    0.020  209.605   76.357    8.242    0.297
  628.152    0.031  209.765   83.029    7.543    0.328
  628.402    0.086  209.305   89.087    7.005    0.424
  628.652    0.095  208.540   92.316    6.555    0.433
  628.902    0.093  207.565   91.248    6.248    0.429
  629.152    0.080  207.629   89.564    6.520    0.423
  629.402    0.060  207.889   88.926    6.045    0.413
  629.652    0.052  208.156   90.131    5.837    0.399
  629.902    0.081  208.230   94.527    5.773    0.408
  630.152    0.099  208.291   99.973    5.849    0.411
  630.402    0.116  208.251  101.545    5.981    0.411
  630.652    0.092  208.097   97.035    6.104    0.392
  630.902    0.073  207.953   93.573    6.312    0.365
  631.152    0.056  208.227   95.758    6.406    0.375
  631.402    0.063  208.388   98.436    6.395    0.380
  631.652    0.074  208.657  100.375    6.314    0.369
  631.902    0.072  209.347   98.203    6.130    0.362
  632.152    0.062  209.932   96.826    5.919    0.362
  632.402    0.063  210.096  100.303    5.705    0.360
  632.652    0.071  210.258  104.514    5.125    0.361
  632.902    0.100  210.436  106.578    4.292    0.363
  633.152    0.116  211.316  106.493    3.554    0.379
  633.402    0.130  215.022  104.135    2.821    0.465
  633.652    0.141  222.781   99.997    2.465    0.497
  633.902    0.187  237.820   96.471    2.451    0.567
  634.152    0.188  236.221   92.082    2.568    0.551
  634.402    0.153  225.153   88.371    2.945    0.400
  634.652    0.055  211.691   83.432    3.472    0.356
  634.902    0.008  203.434   80.643    4.225    0.329
  635.152    0.065  205.997   86.824    4.908    0.351
  635.402    0.071  209.388   93.984    5.928    0.383
  635.652    0.055  211.736   99.980    5.745    0.423
  635.902    0.068  212.953  100.631    5.735    0.424
  636.152    0.088  211.860   97.351    6.019    0.393
  636.402    0.100  211.090   80.433    6.386    0.359
