~VERSION INFORMATION
 VERS.                 2.0:   CWLS LOG ASCII STANDARD -VERSION 2.0
 WRAP.                  NO:   ONE LINE PER DEPTH STEP
~WELL INFORMATION BLOCK
#MNEM.UNIT           DATA                    DESCRIPTION OF MNEMONIC
#---------    -------------------            -------------------------------
# Generated from Intellog Unique Number	CW_76_78/WELL/2577
WELL.         10-19-078-25W4                 : Well_name    - WELL
LOC .         00/10-19-078-25W4/0            : Location     - LOCATION
UWI .         00/10-19-078-25W4/0            : Uwi          - UNIQUE WELL ID
ENTR.         MAX                            : Entered      - ENTERED BY
SRVC.         COMPUTALOG                     : Scn          - SERVICE COMPANY
STRT.M        270                            : top_depth    - START DEPTH
STOP.M        500                            : bot_depth    - STOP DEPTH
STEP.M        0.25                           : increment    - STEP LENGTH
 NULL. -999.2500:NULL Value
~CURVE INFORMATION BLOCK
#MNEM UNIT       ERCB CURVE CODE    CURVE DESCRIPTION
#-----------   ------------------   ----------------------------------
DEPT.M        00 001 00 00         : DEPTH        - DEPTH
ILD .OHMM     00 120 00 00         : RESD         - DEEP RESISTIVITY (DIL)
NPHI.V/V      00 330 00 00         : PHIN         - NEUTRON POROSITY (SANDSTONE)
DPHI.V/V      00 890 00 00         : PHID         - DENSITY POROSITY (SANDSTONE)
CALI.MM       00 280 01 00         : CAL          - CALIPER
GR  .API      00 310 00 00         : GR           - GAMMA RAY
~PARAMETER INFORMATION
#MNEM.UNIT           DATA             DESCRIPTION OF MNEMONIC
#---------         -----------     ------------------------------
GL  .M        581.86               : gl           - GROUND LEVEL ELEVATION
EREF.M        586.11               : kb           - ELEVATION OF DEPTH REFERENCE
DATM.M        581.86               : datum        - DATUM ELEVATION
TDD .M        501                  : tdd          - TOTAL DEPTH DRILLER
RUN .         ONE                  : Run          - RUN NUMBER
ENG .         BILL                 : Engineer     - RECORDING ENGINEER
WIT .         JIM                  : Witness      - WITNESSED BY
MUD .         GEL                  : Mud_type     - MUD TYPE
MATR.         SANDSTONE            : Logunit      - NEUTRON MATRIX
TMAX.C        18                   : BHT          - MAXIMUM RECORDED TEMPERATURE
BHTD.M        501                  : BHTDEP       - MAXIMUM RECORDED TEMPERATURE
RMT .C        16                   : MDTP         - TEMPERATURE OF MUD
MUDD.KG/M     1100                 : MWT          - MUD DENSITY
NEUT.         1                    : NEUTRON      - NEUTRON TYPE
RESI.         0                    : RESIST       - RESISTIVITY TYPE
RM  .OHMM     4.4                  : RM           - RESISTIVITY OF MUD
RMC .OHMM     4.1                  : RMC          - RESISTIVITY OF MUD CAKE
RMF .OHMM     5.4                  : RMF          - RESISTIVITY OF MUD FILTRATE
SUFT.C        -10                  : SUFT         - SURFACE TEMPERATURE
~A  DEPTH     RESD     PHIN     PHID      CAL       GR
  270.000    2.415    0.395    0.228  209.740  107.039
  270.250    2.529    0.382    0.214  209.745  110.313
  270.500    2.649    0.463    0.153  209.254  101.693
  270.750    2.774    0.451    0.194  209.260  101.399
  271.000    2.931    0.379    0.194  212.734  110.619
  271.250    3.015    0.342    0.176  215.712  108.839
  271.500    3.072    0.401    0.168  218.196   99.327
  271.750    3.076    0.420    0.179  218.697   94.276
  272.000    3.105    0.408    0.165  220.686   94.874
  272.250    3.107    0.389    0.149  221.184   98.445
  272.500    3.107    0.374    0.146  221.685  106.773
  272.750    3.111    0.359    0.159  222.186  105.884
  273.000    3.113    0.374    0.162  222.191   98.157
  273.250    3.115    0.416    0.171  222.692   99.349
  273.500    3.118    0.445    0.189  222.697  105.002
  273.750    3.120    0.433    0.189  222.702  101.437
  274.000    3.151    0.454    0.185  221.717  102.035
  274.250    3.211    0.476    0.172  220.731  105.308
  274.500    3.272    0.483    0.169  219.250  108.880
  274.750    3.334    0.512    0.189  217.769  115.424
  275.000    3.338    0.489    0.195  215.792  109.480
  275.250    3.431    0.482    0.191  213.814  101.158
  275.500    3.626    0.469    0.178  210.845   85.998
  275.750    3.973    0.281    0.131  207.382   73.215
  276.000    4.857    0.396    0.139  205.405   72.624
  276.250    5.180    0.458    0.178  203.429   80.953
  276.500    5.781    0.410    0.189  202.443   74.712
  276.750    6.392    0.326    0.186  202.449   73.228
  277.000    7.331    0.290    0.160  202.453   79.178
  277.250    8.108    0.309    0.156  202.458   88.696
  277.500    8.415    0.331    0.156  202.464  100.294
  277.750    8.119    0.354    0.149  202.464  109.217
  278.000    7.352    0.391    0.140  201.979  119.925
  278.250    6.657    0.396    0.136  201.983  109.224
  278.500    6.251    0.388    0.144  201.988  111.309
  278.750    5.870    0.401    0.152  202.985  102.986
  279.000    5.512    0.407    0.160  203.982   96.151
  279.250    5.222    0.341    0.169  203.987   92.883
  279.500    4.860    0.346    0.183  203.992   91.102
  279.750    4.482    0.386    0.197  203.501   89.322
  280.000    4.208    0.422    0.208  203.501   93.785
  280.250    3.776    0.424    0.218  203.017   96.166
  280.500    3.482    0.380    0.228  202.527   94.090
  280.750    3.423    0.378    0.236  202.531   98.552
  281.000    3.362    0.412    0.237  202.537  101.231
  281.250    4.222    0.413    0.222  202.542   92.016
  281.500    7.159    0.364    0.212  202.548   72.396
  281.750    8.671    0.353    0.197  202.552   62.587
  282.000   10.314    0.404    0.175  202.062   58.131
  282.250   12.604    0.392    0.135  202.068   54.268
  282.500   14.326    0.391    0.163  202.073   51.298
  282.750   14.337    0.385    0.192  202.077   53.977
  283.000   14.347    0.329    0.213  202.083   58.143
  283.250   15.024    0.385    0.232  201.593   57.255
  283.500   15.318    0.422    0.247  199.616   56.960
  283.750   15.600    0.436    0.243  197.639   59.342
  284.000   17.413    0.451    0.237  196.654   60.237
  284.250   18.232    0.506    0.249  196.163   58.456
  284.500   19.803    0.484    0.257  196.168   53.405
  284.750   20.926    0.447    0.262  196.173   55.191
  285.000   22.114    0.420    0.264  196.673   62.628
  285.250   23.583    0.410    0.268  197.174   61.739
  285.500   25.849    0.432    0.280  197.180   54.012
  285.750   27.815    0.425    0.279  197.186   53.420
  286.000   28.091    0.382    0.272  196.695   57.883
  286.250   26.863    0.367    0.272  196.700   62.346
  286.500   24.768    0.363    0.265  196.705   60.864
  286.750   23.257    0.407    0.243  197.206   62.352
  287.000   22.854    0.485    0.256  197.211   64.140
  287.250   22.854    0.496    0.273  197.712   62.359
  287.500   22.889    0.452    0.271  197.717   58.199
  287.750   23.966    0.412    0.267  198.219   53.743
  288.000   25.791    0.376    0.275  198.223   58.801
  288.250   28.009    0.420    0.288  198.724   58.803
  288.500   31.258    0.430    0.296  197.739   54.050
  288.750   33.337    0.400    0.303  197.743   55.242
  289.000   33.363    0.368    0.298  197.749   60.299
  289.250   32.194    0.379    0.295  198.745   62.086
  289.500   29.957    0.386    0.293  198.750   57.630
  289.750   28.127    0.382    0.287  199.252   51.983
  290.000   27.141    0.407    0.277  199.752   55.258
  290.250   25.958    0.426    0.277  199.758   54.370
  290.500   25.736    0.414    0.290  199.763   51.993
  290.750   25.765    0.410    0.293  199.767   48.131
  291.000   25.084    0.427    0.292  199.772   42.188
  291.250   24.647    0.430    0.289  199.779   41.002
  291.500   23.784    0.440    0.284  199.783   47.843
  291.750   23.369    0.472    0.287  199.788   50.819
  292.000   22.964    0.467    0.297  199.793   52.012
  292.250   21.962    0.433    0.298  198.808   57.665
  292.500   21.001    0.419    0.295  198.318   59.749
  292.750   20.080    0.397    0.290  198.322   60.347
  293.000   19.199    0.432    0.284  198.331   57.079
  293.250   18.362    0.407    0.281  198.333   52.325
  293.500   18.362    0.383    0.285  198.339   55.004
  293.750   17.737    0.389    0.290  197.849   59.764
  294.000   17.267    0.417    0.291  197.853   57.983
  294.250   16.968    0.442    0.291  197.362   57.689
  294.500   16.826    0.423    0.292  197.369   57.693
  294.750   16.836    0.370    0.287  196.878   57.102
  295.000   16.847    0.394    0.280  196.883   55.023
  295.250   17.016    0.430    0.288  196.889   50.864
  295.500   17.180    0.430    0.295  196.895   55.327
  295.750   17.192    0.389    0.284  196.898   55.925
  296.000   17.204    0.377    0.278  196.904   57.414
  296.250   17.224    0.404    0.285  196.909   53.552
  296.500   17.229    0.406    0.289  196.914   55.042
  296.750   17.086    0.410    0.289  196.919   55.640
  297.000   16.942    0.400    0.284  196.925   53.264
  297.250   16.800    0.416    0.282  196.435   55.943
  297.500   16.661    0.419    0.278  195.944   61.001
  297.750   16.521    0.423    0.279  195.950   58.031
  298.000   16.088    0.439    0.272  195.459   56.547
  298.250   15.809    0.441    0.275  197.447   58.334
  298.500   15.254    0.419    0.277  198.939   61.014
  298.750   14.456    0.414    0.269  198.944   59.827
  299.000   13.947    0.350    0.276  198.948   52.695
  299.250   12.516    0.369    0.290  198.955   44.967
  299.500   11.230    0.351    0.277  198.961   38.429
  299.750    9.986    0.324    0.260  199.461   33.675
  300.000    8.484    0.347    0.254  199.961   33.975
  300.250    7.824    0.372    0.259  200.462   46.764
  300.500    7.084    0.408    0.244  201.954   59.254
  300.750    5.910    0.405    0.211  202.455   92.261
  301.000    5.067    0.420    0.215  202.955   89.886
  301.250    4.802    0.424    0.216  202.465   73.833
  301.500    5.711    0.383    0.218  200.984   65.808
  301.750    6.259    0.321    0.226  200.493   55.405
  302.000    7.720    0.425    0.245  199.507   45.894
  302.250    9.016    0.440    0.263  199.512   43.518
  302.500    9.357    0.424    0.270  199.512   45.603
  302.750    9.449    0.387    0.255  199.523   62.851
  303.000    9.455    0.320    0.237  200.023   77.423
  303.250    9.463    0.315    0.212  201.516  102.402
  303.500    9.470    0.319    0.205  203.998  102.108
  303.750    9.649    0.307    0.215  212.429   89.623
  304.000    9.923    0.309    0.213  205.000   92.302
  304.250   10.111    0.339    0.207  202.032   92.305
  304.500   10.398    0.426    0.225  200.551   78.631
  304.750   10.597    0.402    0.275  199.564   66.146
  305.000   10.509    0.378    0.295  199.074   51.580
  305.250   10.421    0.394    0.292  198.089   45.340
  305.500   10.334    0.417    0.278  198.095   42.964
  305.750   10.341    0.424    0.267  199.090   44.454
  306.000   10.254    0.389    0.279  199.591   45.350
  306.250   10.168    0.385    0.286  199.597   45.055
