~VERSION INFORMATION
 VERS.                 2.0:   CWLS LOG ASCII STANDARD -VERSION 2.0
 WRAP.                  NO:   ONE LINE PER DEPTH STEP
~WELL INFORMATION BLOCK
#MNEM.UNIT           DATA                    DESCRIPTION OF MNEMONIC
#---------    -------------------            -------------------------------
# Generated from Intellog Unique Number	CC_88_90/WELL/3154
WELL.         PETRO-CANADA INC.              : Well_name    - WELL
LOC .         00/11-33-090-17W4/0            : Location     - LOCATION
UWI .         00/11-33-090-17W400            : Uwi          - UNIQUE WELL ID
ENTR.         JOETTE                         : Entered      - ENTERED BY
SRVC.         SCHLUMBERGER                   : Scn          - SERVICE COMPANY
DATE.         03/04/92                       : Date         - LOG DATE
STRT.M        85.000                         : top_depth    - START DEPTH
STOP.M        186.000                        : bot_depth    - STOP DEPTH
STEP.M        0.25                           : increment    - STEP LENGTH
 NULL. -999.2500:NULL Value
~CURVE INFORMATION BLOCK
#MNEM UNIT       ERCB CURVE CODE    CURVE DESCRIPTION
#-----------   ------------------   ----------------------------------
DEPT.M        00 001 00 00         : DEPTH        - DEPTH
GR  .API      00 310 00 00         : GR           - GAMMA RAY
CALI.MM       00 280 01 00         : CAL          - CALIPER
NPHI.V/V      00 330 00 00         : PHIN         - NEUTRON POROSITY (SANDSTONE)
DPHI.V/V      00 890 00 00         : PHID         - DENSITY POROSITY (SANDSTONE)
ILD .OHMM     00 120 00 00         : RESD         - DEEP RESISTIVITY (DIL)
~PARAMETER INFORMATION
#MNEM.UNIT           DATA             DESCRIPTION OF MNEMONIC
#---------         -----------     ------------------------------
GL  .M        499.9                : gl           - GROUND LEVEL ELEVATION
EREF.M        503.3                : kb           - ELEVATION OF DEPTH REFERENCE
DATM.M        503.3                : datum        - DATUM ELEVATION
TDD .M        239                  : tdd          - TOTAL DEPTH DRILLER
RUN .         ONE                  : Run          - RUN NUMBER
ENG .         BILL                 : Engineer     - RECORDING ENGINEER
WIT .         JIM                  : Witness      - WITNESSED BY
MUD .         GEL                  : Mud_type     - MUD TYPE
MATR.         SANDSTONE            : Logunit      - NEUTRON MATRIX
TMAX.C        25                   : BHT          - MAXIMUM RECORDED TEMPERATURE
BHTD.M        238                  : BHTDEP       - MAXIMUM RECORDED TEMPERATURE
RMT .C        14                   : MDTP         - TEMPERATURE OF MUD
MUDD.KG/M     1110                 : MWT          - MUD DENSITY
NEUT.         1                    : NEUTRON      - NEUTRON TYPE
RESI.         0                    : RESIST       - RESISTIVITY TYPE
RM  .OHMM     2.55                 : RM           - RESISTIVITY OF MUD
RMC .OHMM     2.55                 : RMC          - RESISTIVITY OF MUD CAKE
RMF .OHMM     2.55                 : RMF          - RESISTIVITY OF MUD FILTRATE
SUFT.C        4                    : SUFT         - SURFACE TEMPERATURE
~A  DEPTH       GR      CAL     PHIN     PHID     RESD
# ...
  158.000   25.505  148.775    0.397    0.269   22.522
  158.250   21.820  149.777    0.388    0.272   22.515
  158.500   31.042  149.770    0.397    0.299   22.507
  158.750   48.867  149.764    0.467    0.308   24.276
  159.000   44.568  149.751    0.425    0.297   27.200
  159.250   42.728  148.729    0.399    0.272   32.879
  159.500   45.190  148.720    0.393    0.271   34.141
  159.750   47.651  148.712    0.348    0.265   27.695
  160.000   71.622  148.703    0.302    0.174   22.460
  160.250   87.604  148.694    0.340    0.178   23.324
  160.500   92.523  148.688    0.379    0.210   25.642
  160.750   94.370  148.677    0.399    0.242   29.840
  161.000   77.780  148.668    0.424    0.267   37.467
  161.250   71.638  149.670    0.432    0.281   43.601
  161.500   86.391  149.666    0.393    0.289   43.584
  161.750   96.841  149.653    0.326    0.087   41.160
  162.000   96.230  149.649    0.276    0.042   37.416
  162.250   95.618  149.636    0.227    0.061   34.667
  162.500   82.716  149.631    0.294    0.089   33.367
  162.750   72.272  149.621    0.340    0.117   33.993
  163.000   64.285  151.640    0.324    0.155   35.301
  163.250   64.903  152.644    0.281    0.121   35.966
  163.500   82.728  150.607    0.283    0.118   32.697
  163.750   82.117  148.573    0.339    0.163   27.030
  164.000   75.360  148.564    0.405    0.236   21.514
  164.250   75.363  150.581    0.401    0.237   18.475
  164.500   77.210  153.612    0.418    0.204   16.480
  164.750   71.068  155.624    0.400    0.158   15.859
  165.000   69.227  157.644    0.359    0.109   16.158
  165.250   66.772  158.650    0.367    0.143   16.777
  165.500   63.702  160.665    0.408    0.180   17.093
  165.750   46.498  160.654    0.426    0.199   17.089
  166.000   45.886  159.637    0.413    0.180   17.083
  166.250   55.722  158.616    0.410    0.172   16.441
  166.500   73.548  156.579    0.414    0.185   15.825
  166.750   83.999  155.555    0.410    0.200   15.229
  167.000   79.700  154.538    0.403    0.194   14.936
  167.250   66.797  154.527    0.403    0.173   14.932
  167.500   48.978  154.521    0.413    0.169   15.211
  167.750   71.105  155.523    0.420    0.178   15.208
  168.000   95.691  155.516    0.418    0.193   15.204
  168.250  123.964  155.507    0.428    0.202   15.491
  168.500  115.978  154.486    0.431    0.172   15.485
  168.750  115.981  153.464    0.438    0.175   15.481
  169.000  124.588  153.453    0.448    0.194   15.475
  169.250  120.904  155.471    0.444    0.189   15.470
  169.500   92.637  159.514    0.430    0.095   15.760
  169.750   76.047  160.518    0.431    0.122   15.756
  170.000   47.780  159.496    0.436    0.187   14.879
  170.250   63.762  156.447    0.433    0.224   14.051
  170.500  106.785  156.438    0.439    0.193   12.533
  170.750  104.330  159.470    0.426    0.157   13.264
  171.000  106.176  161.485    0.407    0.144   14.036
  171.250   93.888  161.477    0.420    0.156   14.031
  171.500   61.934  161.468    0.435    0.185   13.503
  171.750   44.115  161.455    0.430    0.204   14.022
  172.000   65.014  161.451    0.428    0.197   15.415
  172.250   74.235  161.442    0.434    0.198   16.625
  172.500   83.457  161.435    0.435    0.168   17.593
  172.750  113.573  161.427    0.405    0.125   17.588
  173.000   96.984  159.390    0.377    0.153   16.929
  173.250   55.196  156.343    0.373    0.205   15.985
  173.500   39.221  154.308    0.379    0.223   16.917
  173.750   52.744  158.351    0.384    0.215   18.954
  174.000   66.882  157.327    0.388    0.215   20.834
  174.250   77.948  157.323    0.392    0.179   20.827
  174.500   87.169  155.286    0.398    0.105   19.299
  174.750   83.485  154.267    0.357    0.081   16.891
  175.000   75.499  155.271    0.333    0.117   15.353
  175.250   73.044  158.301    0.365    0.161   15.060
  175.500   77.349  159.303    0.377    0.191   15.056
  175.750   74.894  155.245    0.403    0.208   16.238
  176.000   76.126  155.232    0.422    0.199   17.515
  176.250   67.525  158.262    0.394    0.161   15.041
  176.500   63.841  159.269    0.394    0.130   13.164
  176.750   65.688  159.258    0.416    0.131   11.522
  177.000   59.545  159.249    0.432    0.171   10.878
  177.250   54.632  159.243    0.454    0.186   11.298
  177.500   60.781  157.206    0.485    0.211   12.900
  177.750   63.242  156.187    0.440    0.177   12.415
  178.000   58.944  155.163    0.406    0.138   10.865
  178.250   62.020  156.167    0.418    0.158   10.457
  178.500   70.627  158.186    0.433    0.189   11.280
  178.750   73.703  160.201    0.444    0.208   12.399
  179.000   74.935  160.193    0.443    0.221   12.631
  179.250   74.324  159.171    0.439    0.186   12.157
  179.500   71.869  158.147    0.443    0.171   12.157
  179.750   63.883  159.154    0.427    0.139    9.858
  180.000   63.885  161.171    0.397    0.151   13.104
  180.250   66.347  162.175    0.411    0.162   12.372
  180.500   67.579  162.167    0.433    0.180   12.138
  180.750   76.187  161.147    0.428    0.140   11.904
  181.000   71.887  158.095    0.392    0.096   12.361
  181.250   69.432  157.078    0.404    0.114   14.116
  181.500   66.362  155.039    0.433    0.194   17.063
  181.750   66.980  156.041    0.345    0.207   19.857
  182.000   68.213  156.037    0.259    0.255   21.012
  182.250   65.757  155.015    0.181    0.330   20.612
  182.500   67.605  152.981    0.255    0.304   18.039
  182.750   76.212  150.946    0.303    0.296   17.035
  183.000   74.371  149.923    0.324    0.288   14.629
  183.250   70.072  149.912    0.325    0.290   13.048
  183.500   72.534  150.920    0.320    0.299   13.293
  183.750   71.308  151.923    0.323    0.308   13.545
  184.000   67.623  151.914    0.329    0.311   14.332
  184.250   65.168  151.907    0.333    0.313   14.330
  184.500   74.390  150.886    0.336    0.311   14.877
  184.750   71.935  149.862    0.339    0.306   14.875
  185.000   59.032  148.840    0.340    0.305   15.445
  185.250   39.369  148.832    0.339    0.306   16.038
  185.500   20.320  149.834    0.333    0.311   16.973
  185.750   21.553  149.829    0.326    0.319   17.961
  186.000   25.243  150.832    0.331    0.323   18.653
