~VERSION INFORMATION
 VERS.                 2.0:   CWLS LOG ASCII STANDARD -VERSION 2.0
 WRAP.                  NO:   ONE LINE PER DEPTH STEP
~WELL INFORMATION BLOCK
#MNEM.UNIT           DATA                    DESCRIPTION OF MNEMONIC
#---------    -------------------            -------------------------------
# Generated from Intellog Unique Number	CW_73_75/WELL/201
WELL.         CDN-SUP ET AL DRIFTWOOD 10-18  : Well_name    - WELL
LOC .         00/10-18-074-03W5/0            : Location     - LOCATION
UWI .         00/10-18-074-03W5/0            : Uwi          - UNIQUE WELL ID
ENTR.         JJ                             : Entered      - ENTERED BY
SRVC.         SCHLUMBERGER                   : Scn          - SERVICE COMPANY
DATE.         2 APR 71                       : Date         - LOG DATE
STRT.M        573.024                        : top_depth    - START DEPTH
STOP.M        701.024                        : bot_depth    - STOP DEPTH
STEP.M        0.25                           : increment    - STEP LENGTH
 NULL. -999.2500:NULL Value
~CURVE INFORMATION BLOCK
#MNEM UNIT       ERCB CURVE CODE    CURVE DESCRIPTION
#-----------   ------------------   ----------------------------------
DEPT.M        00 001 00 00         : DEPTH        - DEPTH
DELT.US/F     00 520 00 00         : DELT         - SONIC TRAVEL TIME
GR  .API      00 310 00 00         : GR           - GAMMA RAY
CALI.MM       00 280 01 00         : CAL          - CALIPER
ILD .OHMM     00 120 00 00         : RESD         - DEEP RESISTIVITY (DIL)
~PARAMETER INFORMATION
#MNEM.UNIT           DATA             DESCRIPTION OF MNEMONIC
#---------         -----------     ------------------------------
GL  .M        732.739              : gl           - GROUND LEVEL ELEVATION
EREF.M        737.006              : kb           - ELEVATION OF DEPTH REFERENCE
DATM.M        732.739              : datum        - DATUM ELEVATION
TDD .M        1700.78              : tdd          - TOTAL DEPTH DRILLER
RUN .         ONE                  : Run          - RUN NUMBER
ENG .         TALBOT               : Engineer     - RECORDING ENGINEER
WIT .         STRATULATE & SMAILES : Witness      - WITNESSED BY
BASE.         EDM                  : Branch       - HOME BASE OF LOGGING UNIT
MUD .         GEL                  : Mud_type     - MUD TYPE
MATR.         SANDSTONE            : Logunit      - NEUTRON MATRIX
TMAX.C        38.8889              : BHT          - MAXIMUM RECORDED TEMPERATURE
BHTD.M        1697.13              : BHTDEP       - MAXIMUM RECORDED TEMPERATURE
RMT .C        21.6667              : MDTP         - TEMPERATURE OF MUD
MUDD.KG/M     1176                 : MWT          - MUD DENSITY
NEUT.         1                    : NEUTRON      - NEUTRON TYPE
RESI.         0                    : RESIST       - RESISTIVITY TYPE
RM  .OHMM     2.03                 : RM           - RESISTIVITY OF MUD
RMC .OHMM     0                    : RMC          - RESISTIVITY OF MUD CAKE
RMF .OHMM     4.57                 : RMF          - RESISTIVITY OF MUD FILTRATE
SUFT.C        5                    : SUFT         - SURFACE TEMPERATURE
~A  DEPTH     DELT       GR      CAL     RESD
# ...
  660.024  363.471   48.278  291.894    3.971
  660.274  362.868   49.032  292.321    3.997
  660.524  362.198   49.484  292.218    4.024
  660.774  360.255   49.636  292.220    4.090
  661.024  357.842   49.536  292.223    4.179
  661.274  356.904   49.086  292.013    4.279
  661.524  360.456   45.478  291.591    4.472
  661.774  362.065   45.480  291.594    4.665
  662.024  357.441   45.130  291.702    4.932
  662.274  357.039   44.630  291.810    5.011
  662.524  362.199   44.731  291.919    5.017
  662.774  367.627   45.384  291.922    4.974
  663.024  366.555   45.435  291.924    4.824
  663.274  364.746   45.386  291.926    4.591
  663.524  362.736   45.237  291.823    4.451
  663.774  360.658   43.634  292.674    4.300
  664.024  358.045   44.287  293.737    4.201
  664.274  358.715   48.248  294.164    4.127
  664.524  362.602   47.898  293.530    4.093
  664.774  362.133   47.749  291.835    4.031
  665.024  358.783   46.247  291.519    4.005
  665.274  352.149   43.742  291.628    4.000
  665.524  353.556   45.196  291.949    3.960
  665.774  358.046   48.406  292.800    3.971
  666.024  361.665   52.567  293.864    4.066
  666.274  365.551   56.378  295.457    4.322
  666.524  379.959   55.226  298.325    4.673
  666.774  366.289   50.666  298.115    4.793
  667.024  347.526   48.512  292.812    4.528
  667.274  337.944   47.711  290.056    4.276
  667.524  342.768   47.462  289.847    4.193
  667.774  347.392   49.067  290.485    4.905
  668.024  370.176   51.324  292.822    5.759
  668.274  385.589   50.823  286.777    6.560
  668.524  401.872   48.419  279.883    7.688
  668.774  346.455   47.618  272.777    8.924
  669.024  319.584   46.817  272.356   10.244
  669.274  331.780   43.209  272.464   10.892
  669.524  328.027   41.506  273.421   11.003
  669.774  325.481   46.570  274.272    9.807
  670.024  326.017   47.924  275.548    7.958
  670.274  330.038   49.028  277.778    6.398
  670.524  330.440   51.135  280.115    5.953
  670.774  330.775   53.742  279.587    5.861
  671.024  331.513   53.042  280.757    5.909
  671.274  333.523   50.988  284.473    6.028
  671.524  335.198   49.535  284.051    6.194
  671.774  333.992   47.381  279.703    6.355
  672.024  333.657   48.335  277.053    6.595
  672.274  335.869   50.240  275.783    6.740
  672.524  338.952   51.194  275.573    6.783
  672.774  340.962   48.789  275.788    6.867
  673.024  341.297   45.081  276.321    6.887
  673.274  340.024   44.281  277.278    6.973
  673.524  338.215   43.229  278.448    6.979
  673.774  335.535   46.037  279.511    6.908
  674.024  331.782   48.194  280.362    6.649
  674.274  324.344   46.440  281.850    6.107
  674.524  308.932   48.747  282.489    5.544
  674.774  300.690   47.746  282.704    4.841
  675.024  307.994   48.650  282.600    4.219
  675.274  318.582   51.508  282.496    3.882
  675.524  329.706   52.411  282.181    3.708
  675.774  340.628   52.212  282.289    3.616
  676.024  345.989   51.862  281.761    3.931
  676.274  352.155   54.420  282.719    4.809
  676.524  358.521   52.115  286.328    5.840
  676.774  366.830   49.059  285.270    6.869
  677.024  355.438   45.200  273.814    7.782
  677.274  314.026   42.946  269.148    8.148
  677.524  286.284   45.503  270.212    7.932
  677.774  306.990   48.963  273.609    7.324
  678.024  311.212   50.969  275.097    6.276
  678.274  331.784   52.575  273.932    5.938
  678.524  349.006   53.829  270.327    5.879
  678.774  359.594   54.031  273.619    6.099
  679.024  350.079   54.884  271.711    6.605
  679.274  340.094   54.384  274.685    6.994
  679.524  349.476   52.881  274.157    7.217
  679.774  358.589   47.770  268.961    7.089
  680.024  360.935   47.620  272.570    6.648
  680.274  349.476   48.424  267.904    6.245
  680.524  342.507   46.520  265.467    5.986
  680.774  332.925   44.566  269.077    5.653
  681.024  339.291   50.382  276.718    5.441
  681.274  350.214   51.336  277.994    5.326
  681.524  353.430   49.833  277.467    5.331
  681.774  349.477   47.729  277.150    5.397
  682.024  344.585   47.530  278.002    5.516
  682.274  345.859   49.235  278.640    5.658
  682.524  343.044   50.539  279.173    5.847
  682.774  339.091   48.335  280.131    6.022
  683.024  338.354   47.033  280.558    6.038
  683.274  340.632   46.583  280.879    5.856
  683.524  341.102   47.587  281.623    5.459
  683.774  333.865   49.543  282.369    5.032
  684.024  334.267   50.496  284.599    4.708
  684.274  341.705   49.194  286.830    4.456
  684.524  346.329   50.048  288.106    4.444
  684.774  346.530   49.247  288.852    4.886
  685.024  349.077   46.190  289.384    5.444
  685.274  356.381   47.194  289.704    5.830
  685.524  360.268   52.759  289.707    5.980
  685.774  353.299   55.166  289.922    5.841
  686.024  339.629   52.260  289.924    5.345
  686.274  340.969   50.206  290.351    4.807
  686.524  345.392   48.603  291.521    3.493
  686.774  351.624   46.549  293.963    2.363
  687.024  377.825   42.941  306.910    1.691
  687.274  457.501   36.476  326.753    1.327
  687.524  581.873   30.162  348.081    1.089
  687.774  637.089   27.256  365.484    1.036
  688.024  643.456   28.059  366.866    1.097
  688.274  579.528   30.967  354.986    1.253
  688.524  572.291   35.730  362.627    1.390
  688.774  583.280   38.488  359.552    1.554
  689.024  624.358   41.397  282.209    1.845
  689.274  628.781   44.706  255.580    2.199
  689.524  568.940   47.464  243.594    2.890
  689.774  577.116   45.661  239.140    3.656
  690.024  571.554   45.612  246.463    4.317
  690.274  501.528   47.318  273.521    5.042
  690.524  435.456   49.574  279.996    5.319
  690.774  348.677   51.380  280.953    5.404
  691.024  365.899   50.479  280.425    5.259
  691.274  350.487   52.986  280.109    4.600
  691.524  345.193   50.181  282.658    4.146
  691.774  341.106   47.325  284.676    3.844
  692.024  354.307   45.521  283.936    3.650
  692.274  339.431   47.026  284.257    3.462
  692.524  355.715   45.624  287.230    3.394
  692.774  372.668   49.785  290.734    3.342
  693.024  377.024   50.338  296.890    3.320
  693.274  364.091   51.041  307.927    3.268
  693.524  347.071   52.496  277.903    3.075
  693.774  354.643   51.495  243.317    2.905
  694.024  398.803   55.405  225.708    2.875
  694.274  420.783   59.416  215.843    2.889
  694.524  411.267   58.766  216.906    2.964
  694.774  390.561   54.858  227.094    3.121
  695.024  374.211   52.302  247.255    3.392
  695.274  364.293   53.456  277.178    3.829
  695.524  356.453   58.871  264.342    4.355
  695.774  360.541   56.617  248.324    4.630
  696.024  342.314   55.415  242.066    4.848
  696.274  352.567   55.917  253.210    4.907
  696.524  345.196   56.319  259.578    4.758
  696.774  346.536   55.218  259.368    4.345
  697.024  339.567   56.622  252.898    3.888
  697.274  342.516   58.128  247.278    3.848
  697.524  343.588   57.978  245.159    4.385
  697.774  359.604   55.273  243.145    5.043
  698.024  371.666   50.361  237.736    5.574
  698.274  377.362   43.295  229.463    7.732
  698.524  274.300   29.361  225.009   11.075
  698.774  225.717   19.788  222.784   16.282
  699.024  212.181   14.326  221.514   25.997
  699.274  212.785   14.327  221.516   28.855
  699.524  207.692   14.629  222.473   27.204
  699.774  228.800   15.181  224.386   25.032
  700.024  250.177   15.784  225.661   23.071
  700.274  221.496   15.635  226.512   20.878
  700.524  221.363   16.087  226.197   19.718
  700.774  219.151   20.850  225.987   19.046
  701.024  209.837   18.245  225.565   18.365
