~VERSION INFORMATION
 VERS.                 2.0:   CWLS LOG ASCII STANDARD -VERSION 2.0
 WRAP.                  NO:   ONE LINE PER DEPTH STEP
~WELL INFORMATION BLOCK
#MNEM.UNIT           DATA                    DESCRIPTION OF MNEMONIC
#---------    -------------------            -------------------------------
# Generated from Intellog Unique Number	CW_73_75/WELL/1038
WELL.         CDN SUP ET AL FRANCIS 11-13    : Well_name    - WELL
LOC .         00/11-13-075-20W4/0            : Location     - LOCATION
UWI .         00/11-13-075-20W4/0            : Uwi          - UNIQUE WELL ID
ENTR.         JAYE                           : Entered      - ENTERED BY
SRVC.         SCHLUMBERGER                   : Scn          - SERVICE COMPANY
DATE.         2 FEB 77                       : Date         - LOG DATE
STRT.M        292.608                        : top_depth    - START DEPTH
STOP.M        496.858                        : bot_depth    - STOP DEPTH
STEP.M        0.25                           : increment    - STEP LENGTH
 NULL. -999.2500:NULL Value
~CURVE INFORMATION BLOCK
#MNEM UNIT       ERCB CURVE CODE    CURVE DESCRIPTION
#-----------   ------------------   ----------------------------------
DEPT.M        00 001 00 00         : DEPTH        - DEPTH
ILD .OHMM     00 120 00 00         : RESD         - DEEP RESISTIVITY (DIL)
NPHI.V/V      00 330 00 00         : PHIN         - NEUTRON POROSITY (SANDSTONE)
DPHI.V/V      00 890 00 00         : PHID         - DENSITY POROSITY (SANDSTONE)
GR  .API      00 310 00 00         : GR           - GAMMA RAY
CALI.MM       00 280 01 00         : CAL          - CALIPER
~PARAMETER INFORMATION
#MNEM.UNIT           DATA             DESCRIPTION OF MNEMONIC
#---------         -----------     ------------------------------
GL  .M        611.734              : gl           - GROUND LEVEL ELEVATION
EREF.M        616.001              : kb           - ELEVATION OF DEPTH REFERENCE
DATM.M        611.734              : datum        - DATUM ELEVATION
TDD .M        548.64               : tdd          - TOTAL DEPTH DRILLER
RUN .         ONE                  : Run          - RUN NUMBER
ENG .         LEDUC                : Engineer     - RECORDING ENGINEER
WIT .         KELLY                : Witness      - WITNESSED BY
BASE.         EDM                  : Branch       - HOME BASE OF LOGGING UNIT
MUD .         GEL CHEM             : Mud_type     - MUD TYPE
MATR.         SANDSTONE            : Logunit      - NEUTRON MATRIX
TMAX.C        100082               : BHT          - MAXIMUM RECORDED TEMPERATURE
BHTD.M        548.945              : BHTDEP       - MAXIMUM RECORDED TEMPERATURE
RMT .C        16.1111              : MDTP         - TEMPERATURE OF MUD
MUDD.KG/M     0                    : MWT          - MUD DENSITY
NEUT.         1                    : NEUTRON      - NEUTRON TYPE
RESI.         0                    : RESIST       - RESISTIVITY TYPE
RM  .OHMM     4                    : RM           - RESISTIVITY OF MUD
RMC .OHMM     0                    : RMC          - RESISTIVITY OF MUD CAKE
RMF .OHMM     4.32                 : RMF          - RESISTIVITY OF MUD FILTRATE
SUFT.C        -17.7778             : SUFT         - SURFACE TEMPERATURE
~A  DEPTH     RESD     PHIN     PHID       GR      CAL
# ...
  438.608    4.299    0.425    0.238   89.792  165.538
  438.858    4.030    0.425    0.221   95.728  165.449
  439.108    3.627    0.423    0.233   98.890  165.483
  439.358    3.432    0.425    0.242   95.753  165.697
  439.608    3.432    0.411    0.212   98.187  166.337
  439.858    3.536    0.409    0.210  100.252  167.793
  440.108    3.676    0.429    0.184  102.140  169.551
  440.358    3.901    0.454    0.194  104.750  171.824
  440.608    4.116    0.476    0.208  105.129  175.427
  440.858    4.295    0.474    0.203  105.257  177.186
  441.108    4.466    0.472    0.210  105.148  177.619
  441.358    4.634    0.482    0.214  105.465  177.741
  441.608    4.819    0.480    0.226  108.438  177.140
  441.858    4.964    0.472    0.217  111.410  176.435
  442.108    5.123    0.467    0.217  108.218  176.157
  442.358    5.297    0.468    0.213  106.958  176.896
  442.608    5.507    0.470    0.186  107.515  177.729
  442.858    5.726    0.478    0.181  106.620  178.569
  443.108    5.888    0.468    0.195  106.753  176.953
  443.358    6.032    0.453    0.205  102.408  173.480
  443.608    6.167    0.451    0.216   99.455  171.454
  443.858    6.283    0.445    0.199   99.466  170.030
  444.108    6.354    0.436    0.208  102.258  169.548
  444.358    6.355    0.442    0.185  104.571  169.354
  444.608    6.297    0.422    0.179  103.371  169.163
  444.858    6.240    0.393    0.177  100.235  169.091
  445.108    6.081    0.405    0.179   97.707  169.114
  445.358    5.807    0.406    0.188   97.838  169.019
  445.608    5.744    0.394    0.178   99.177  169.453
  445.858    5.798    0.376    0.167  100.521  169.771
  446.108    5.917    0.396    0.187  101.017  169.893
  446.358    6.006    0.425    0.205  102.119  170.011
  446.608    6.153    0.420    0.217  105.337  170.244
  446.858    6.269    0.418    0.215  106.316  170.370
  447.108    6.351    0.424    0.206  102.757  170.379
  447.358    6.423    0.430    0.194   97.809  170.616
  447.608    6.459    0.430    0.188   96.187  170.826
  447.858    6.484    0.415    0.179   97.345  171.167
  448.108    6.461    0.409    0.168  101.591  171.183
  448.358    6.497    0.413    0.203  105.718  171.409
  448.608    6.522    0.418    0.194  108.025  171.527
  448.858    6.547    0.421    0.181  108.098  171.551
  449.108    6.451    0.423    0.184  109.500  171.554
  449.358    6.381    0.416    0.186  112.416  171.783
  449.608    6.230    0.418    0.176  111.337  172.112
  449.858    6.105    0.424    0.167  111.228  172.854
  450.108    6.016    0.433    0.164  111.721  173.683
  450.358    5.940    0.436    0.169  111.007  174.012
  450.608    5.940    0.414    0.159  112.292  174.642
  450.858    6.030    0.409    0.163  114.722  175.077
  451.108    6.177    0.411    0.164  116.247  175.609
  451.358    6.316    0.418    0.151  111.901  176.247
  451.608    6.435    0.426    0.153  110.340  176.983
  451.858    6.568    0.428    0.148  110.473  174.131
  452.108    6.679    0.406    0.133  114.594  171.989
  452.358    6.704    0.398    0.152  116.359  173.763
  452.608    6.718    0.392    0.158  115.765  175.009
  452.858    6.743    0.382    0.167  115.902  172.465
  453.108    6.921    0.368    0.161  118.937  170.025
  453.358    7.196    0.365    0.153  122.940  169.113
  453.608    7.399    0.368    0.155  126.520  170.066
  453.858    7.386    0.415    0.147  128.829  172.746
  454.108    7.053    0.427    0.136  123.702  173.892
  454.358    6.773    0.407    0.136  118.145  171.956
  454.608    6.990    0.375    0.139  114.891  169.514
  454.858    7.611    0.367    0.140  113.447  167.598
  455.108    8.380    0.366    0.148  112.372  166.371
  455.358    9.451    0.360    0.158  107.181  166.081
  455.608   11.247    0.354    0.166  102.171  165.702
  455.858   13.811    0.366    0.164   97.157  165.613
  456.108   15.178    0.378    0.170   91.666  165.948
  456.358   14.929    0.389    0.175   80.306  166.477
  456.608   12.642    0.399    0.163   69.124  167.214
  456.858   10.587    0.376    0.175   69.070  167.440
  457.108    8.801    0.282    0.030   73.439  167.460
  457.358    7.676    0.233    0.009   77.804  167.375
  457.608    6.783    0.217   -0.013   81.687  167.493
  457.858    6.733    0.239    0.003   87.690  167.623
  458.108    6.772    0.265    0.019   98.472  167.831
  458.358    6.810    0.335    0.041  108.769  168.160
  458.608    6.900    0.370    0.116  116.036  168.184
  458.858    6.926    0.397    0.131  117.075  168.488
  459.108    7.030    0.418    0.139  113.641  168.729
  459.358    7.123    0.414    0.142  109.478  168.859
  459.608    7.229    0.407    0.143  109.369  168.877
  459.858    7.284    0.403    0.133  112.523  168.995
  460.108    7.339    0.400    0.134  115.804  169.532
  460.358    7.394    0.381    0.126  115.270  170.357
  460.608    7.381    0.383    0.134  112.072  171.206
  460.858    7.409    0.389    0.147  113.720  172.049
  461.108    7.410    0.392    0.144  117.543  172.568
  461.358    7.439    0.392    0.137  117.005  172.903
  461.608    7.371    0.385    0.127  118.594  172.923
  461.858    7.277    0.368    0.101  120.538  173.450
  462.108    7.278    0.362    0.111  117.588  174.086
  462.358    7.319    0.364    0.137  114.329  174.419
  462.608    7.093    0.370    0.154  113.067  174.541
  462.858    6.761    0.373    0.159  110.905  174.450
  463.108    6.468    0.363    0.147  105.957  174.269
  463.358    5.715    0.344    0.135  107.420  174.476
  463.608    4.778    0.334    0.130  109.666  174.304
  463.858    3.935    0.344    0.144  111.249  174.623
  464.108    3.217    0.362    0.142  112.898  174.542
  464.358    2.563    0.368    0.117  115.146  174.675
  464.608    2.215    0.376    0.149  112.678  174.690
  464.858    2.084    0.391    0.147  112.567  175.224
  465.108    2.080    0.414    0.161  113.421  177.179
  465.358    2.167    0.432    0.190  115.306  178.939
  465.608    2.351    0.470    0.178  116.834  181.525
  465.858    2.839    0.520    0.207  115.453  183.900
  466.108    3.196    0.536    0.217  112.383  184.538
  466.358    3.632    0.548    0.202  108.824  185.066
  466.608    4.354    0.563    0.194  108.231  186.212
  466.858    4.937    0.503    0.195  110.357  187.771
  467.108    5.527    0.481    0.187  112.665  187.172
  467.358    6.064    0.463    0.176  113.347  187.088
  467.608    6.281    0.443    0.163  110.390  185.776
  467.858    6.155    0.415    0.156  106.408  183.647
  468.108    5.889    0.382    0.138  104.971  182.536
  468.358    5.686    0.369    0.121  106.553  180.398
  468.608    5.501    0.359    0.089  115.578  178.064
  468.858    5.282    0.359    0.092  115.529  175.220
  469.108    5.138    0.369    0.129  110.878  172.985
  469.358    5.235    0.338    0.110  107.688  171.457
  469.608    5.432    0.351    0.114  106.188  170.860
  469.858    5.764    0.374    0.098  104.021  170.474
  470.108    6.116    0.392    0.064   99.435  170.297
  470.358    6.383    0.375    0.057   97.024  170.302
  470.608    6.661    0.357    0.033  103.387  170.232
  470.858    6.849    0.384    0.038  102.909  170.135
  471.108    6.888    0.407    0.062  102.684  170.062
  471.358    6.863    0.407    0.108  103.180  169.963
  471.608    6.750    0.393    0.092  106.335  169.999
  471.858    6.627    0.380    0.093  111.246  169.812
  472.108    6.495    0.396    0.112  112.712  170.243
  472.358    6.412    0.410    0.105  108.725  170.560
  472.608    6.401    0.406    0.091  105.414  170.788
  472.858    6.545    0.373    0.073  106.026  170.902
  473.108    6.693    0.380    0.094  110.215  171.032
  473.358    6.499    0.391    0.134  114.705  171.150
  473.608    5.925    0.393    0.129  116.523  171.365
  473.858    5.524    0.404    0.134  113.214  171.394
  474.108    5.226    0.392    0.147  110.016  171.313
  474.358    4.963    0.380    0.129  107.123  171.235
  474.608    4.801    0.367    0.099  108.589  170.939
  474.858    4.793    0.359    0.069  118.219  170.955
