~VERSION INFORMATION
 VERS.                 2.0:   CWLS LOG ASCII STANDARD -VERSION 2.0
 WRAP.                  NO:   ONE LINE PER DEPTH STEP
~WELL INFORMATION BLOCK
#MNEM.UNIT           DATA                    DESCRIPTION OF MNEMONIC
#---------    -------------------            -------------------------------
# Generated from Intellog Unique Number	CC_80_83/WELL/2361
NULL.         -999.25                        : NULL_VALUE
WELL.         KASISER DIVIDE                 : Well_name    - WELL              
LOC .         10-21-082-13W4                 : Location     - LOCATION          
UWI .         00/10-21-082-13W400            : Uwi          - UNIQUE WELL ID    
ENTR.         DW                             : Entered      - ENTERED BY        
SRVC.         SCHLUMBERGER                   : Scn          - SERVICE COMPANY   
DATE.         24 FEB 79                      : Date         - LOG DATE
STRT.M        145                            : top_depth    - START DEPTH       
STOP.M        375.996                        : bot_depth    - STOP DEPTH        
STEP.M        0.3                            : increment    - STEP LENGTH       
~CURVE INFORMATION BLOCK
#MNEM UNIT       ERCB CURVE CODE    CURVE DESCRIPTION
#-----------   ------------------   ----------------------------------
DEPT.M        00 001 00 00         : DEPTH        - DEPTH                       
DPHI.V/V      00 890 00 00         : PHID         - DENSITY POROSITY (LIMESTONE)
NPHI.V/V      00 330 00 00         : PHIN         - NEUTRON POROSITY (LIMESTONE)
GR  .API      00 310 00 00         : GR           - GAMMA RAY                   
ILD .OHMM     00 120 00 00         : RESD         - DEEP RESISTIVITY (DIL)      
~PARAMETER INFORMATION       
#MNEM.UNIT           DATA             DESCRIPTION OF MNEMONIC
#---------         -----------     ------------------------------
GL  .M        593.2                : gl           - GROUND LEVEL ELEVATION      
EREF.M        596.85               : kb           - ELEVATION OF DEPTH REFERENCE
DATM.M        596.85               : datum        - DATUM ELEVATION             
TDD .M        382                  : tdd          - TOTAL DEPTH DRILLER         
RUN .         ONE                  : Run          - RUN NUMBER                  
ENG .         BILL                 : Engineer     - RECORDING ENGINEER          
WIT .         JIM                  : Witness      - WITNESSED BY                
MUD .         GEL                  : Mud_type     - MUD TYPE                    
MATR.         LIMESTONE            : Logunit      - NEUTRON MATRIX              
TMAX.C        20                   : BHT          - MAXIMUM RECORDED TEMPERATURE
BHTD.M        382                  : BHTDEP       - MAXIMUM RECORDED TEMPERATURE
MATR.         1                    : LOGUNIT      - NEUTRON MATRIX              
RMT .C        25                   : MDTP         - TEMPERATURE OF MUD          
NEUT.         1                    : NEUTRON      - NEUTRON TYPE                
RESI.         0                    : RESIST       - RESISTIVITY TYPE            
RMC .OHMM     0.25                 : RMC          - RESISTIVITY OF MUD CAKE     
RMF .OHMM     0.25                 : RMF          - RESISTIVITY OF MUD FILTRATE 
SUFT.C        4                    : SUFT         - SURFACE TEMPERATURE         
~A  DEPTH     PHID     PHIN       GR     RESD
  145.000    0.239    0.478  101.835    4.011
  145.300    0.234    0.487  101.194    3.930
  145.600    0.244    0.476  103.634    3.778
  145.900    0.245    0.458  104.832    3.918
  146.200    0.225    0.468  101.100    3.983
  146.500    0.245    0.479  101.073    3.903
  146.800    0.208    0.473  103.501    3.754
  147.100    0.239    0.498  101.625    3.541
  147.400    0.229    0.516  106.531    3.343
  147.700    0.222    0.490  112.054    3.155
  148.000    0.239    0.504  108.325    2.977
  148.300    0.227    0.516  105.206    2.756
  148.600    0.248    0.511  111.349    2.650
  148.900    0.271    0.520  107.612    2.596
  149.200    0.263    0.527  108.818    2.640
  149.500    0.271    0.527  116.196    2.843
  149.800    0.284    0.534  117.395    3.177
  150.100    0.259    0.544  106.874    3.550
  150.400    0.268    0.540  111.782    3.748
  150.700    0.232    0.513  111.128    3.743
  151.000    0.226    0.497  109.247    3.737
  151.300    0.228    0.476  106.134    3.947
  151.600    0.229    0.486  104.864    4.014
  151.900    0.229    0.470  108.534    3.861
  152.200    0.216    0.457  107.269    3.643
  152.500    0.246    0.491  107.860    3.436
  152.800    0.239    0.506  116.473    3.495
  153.100    0.232    0.493  117.677    3.692
  153.400    0.232    0.496  111.473    4.049
  153.700    0.215    0.476  104.648    4.276
  154.000    0.206    0.468  104.619    4.270
  154.300    0.183    0.466   97.801    4.263
  154.600    0.192    0.493   98.387    4.177
  154.900    0.217    0.519  110.083    4.091
  155.200    0.231    0.494  108.196    4.086
  155.500    0.240    0.483  108.171    4.000
  155.800    0.224    0.492  109.993    3.997
  156.100    0.228    0.510  113.665    4.064
  156.400    0.228    0.501  113.019    4.136
  156.700    0.235    0.491  103.112    4.889
  157.000    0.255    0.481   87.648    5.671
  157.300    0.249    0.446   86.385    6.335
  157.600    0.211    0.453   89.438    6.690
  157.900    0.250    0.450   94.962    7.064
  158.200    0.213    0.458   96.780    7.055
  158.500    0.188    0.441   89.962    6.911
  158.800    0.231    0.400   87.462    6.772
  159.100    0.227    0.419   89.281    6.636
  159.400    0.243    0.449   91.097    6.876
  159.700    0.244    0.452   91.070    6.868
  160.000    0.241    0.438   89.811    6.728
  160.300    0.246    0.429   91.011    6.349
  160.600    0.244    0.443   95.912    6.101
  160.900    0.248    0.459   95.882    6.093
  161.200    0.268    0.471   94.007    6.316
  161.500    0.221    0.469  100.765    6.549
  161.800    0.240    0.436  101.354    6.414
  162.100    0.257    0.404   90.210    6.282
  162.400    0.222    0.437   90.181    6.159
  162.700    0.230    0.437   93.234    6.147
  163.000    0.236    0.446   96.278    6.253
  163.300    0.244    0.456   97.497    6.481
  163.600    0.238    0.450   98.697    6.470
  163.900    0.245    0.451   97.432    6.338
  164.200    0.257    0.409   93.084    6.212
  164.500    0.240    0.425   98.608    6.438
  164.800    0.255    0.420   96.723    6.551
  165.100    0.251    0.421   92.991    6.300
  165.400    0.244    0.432   93.569    5.833
  165.700    0.253    0.450   96.629    5.611
  166.000    0.237    0.465   95.977    5.599
  166.300    0.241    0.435   91.012    6.142
  166.600    0.251    0.466   87.897    8.597
  166.900    0.254    0.482   81.692   11.375
  167.200    0.113    0.343   66.231   15.046
  167.500    0.194    0.370   74.224   16.810
  167.800    0.261    0.401   79.133   16.160
  168.100    0.239    0.426   77.250   14.966
  168.400    0.260    0.432   73.518   13.606
  168.700    0.280    0.372   78.422   11.908
  169.000    0.247    0.374   88.884   10.828
  169.300    0.228    0.381   95.028    9.654
  169.600    0.230    0.418   99.930    9.462
  169.900    0.211    0.439  101.134    9.625
  170.200    0.302    0.423   99.253   10.556
  170.500    0.275    0.391   94.281   12.017
  170.800    0.264    0.370   91.167   12.930
  171.100    0.260    0.369   91.137   12.673
  171.400    0.252    0.389   87.406   13.131
  171.700    0.275    0.377   91.077   13.875
  172.000    0.284    0.377   86.105   14.927
  172.300    0.275    0.396   86.079   15.189
  172.600    0.312    0.417   82.957   15.737
  172.900    0.296    0.415   74.906   16.936
  173.200    0.299    0.412   84.133   17.885
  173.500    0.289    0.425   80.400   17.864
  173.800    0.304    0.406   82.220   17.833
  174.100    0.302    0.419   87.129   17.470
  174.400    0.307    0.429   87.095   17.772
  174.700    0.311    0.393   91.382   18.076
  175.000    0.298    0.380   92.587   18.390
  175.300    0.301    0.393   89.472   18.361
  175.600    0.310    0.408   93.762   19.028
  175.900    0.310    0.422   92.495   18.642
  176.200    0.318    0.401   86.911   17.590
  176.500    0.321    0.390   87.499   16.922
  176.800    0.301    0.392  102.283   16.572
  177.100    0.298    0.413  105.336   16.236
  177.400    0.293    0.438   84.939   16.207
  177.700    0.301    0.427   85.520   16.804
  178.000    0.296    0.417   92.285   17.091
  178.300    0.278    0.416   94.101   17.390
  178.600    0.276    0.401   70.618   17.362
  178.900    0.295    0.356   45.900   16.383
  179.200    0.237    0.352   58.830   14.888
  179.500    0.245    0.377   77.316   14.313
  179.800    0.301    0.395   76.669   14.021
  180.100    0.316    0.372   79.096   13.746
  180.400    0.287    0.380   79.689   13.215
  180.700    0.271    0.397   79.662   12.471
  181.000    0.266    0.393   79.012   11.120
  181.300    0.249    0.387   86.387    9.558
  181.600    0.222    0.400  102.408    7.908
  181.900    0.124    0.436  117.191    6.544
  182.200    0.129    0.465  117.150    5.622
  182.500    0.183    0.451  117.129    5.404
  182.800    0.182    0.463  123.269    5.497
  183.100    0.192    0.467  118.914    5.805
  183.400    0.163    0.435  113.945    6.132
  183.700    0.119    0.455  110.834    6.121
  184.000    0.176    0.448  115.739    5.776
  184.300    0.196    0.464  124.350    5.057
  184.600    0.223    0.490  130.484    4.264
  184.900    0.207    0.515  126.754    3.949
  185.200    0.219    0.553  131.044    4.171
  185.500    0.206    0.501  127.931    5.519
  185.800    0.236    0.420  114.937    7.440
  186.100    0.289    0.383  103.796   10.218
  186.400    0.300    0.386  101.911   12.078
  186.700    0.265    0.409  104.970   12.761
  187.000    0.243    0.406  103.087   13.223
  187.300    0.228    0.393  106.140   12.713
  187.600    0.266    0.411   99.323   11.560
  187.900    0.266    0.422   93.115   10.309
  188.200    0.264    0.398   98.023    9.193
  188.500    0.228    0.413  109.106    8.839
  188.800    0.206    0.441  121.418    8.664
  189.100    0.263    0.406  113.983    9.148
  189.400    0.274    0.385  114.567   10.223
  189.700    0.268    0.402  105.894   11.208
  190.000    0.267    0.417  105.245   11.839
  190.300    0.257    0.410  107.065   12.046
  190.600    0.279    0.392  103.333   12.028
  190.900    0.251    0.394  100.219   11.783
  191.200    0.240    0.402   91.547   12.214
  191.500    0.275    0.421   77.318   12.659
  191.800    0.285    0.432   68.025   12.877
  192.100    0.290    0.412   66.765   13.099
  192.400    0.267    0.415   75.989   12.832
  192.700    0.260    0.419   81.515   12.808
  193.000    0.270    0.420   78.396   12.787
  193.300    0.275    0.406   82.686   12.533
  193.600    0.286    0.417   83.269   12.279
  193.900    0.281    0.417   87.563   11.586
  194.201    0.260    0.400   92.471   11.353
  194.501    0.223    0.417   91.208   10.711
  194.801    0.261    0.437   85.005   10.498
  195.101    0.293    0.422   79.411   10.477
  195.401    0.289    0.420   83.089   10.463
  195.701    0.280    0.431   86.760   10.245
  196.001    0.274    0.434   93.523   10.044
  196.301    0.258    0.401  102.131    9.298
  196.601    0.208    0.399  107.040    8.613
  196.901    0.259    0.443  113.178    7.683
