~VERSION INFORMATION
 VERS.                 2.0:   CWLS LOG ASCII STANDARD -VERSION 2.0
 WRAP.                  NO:   ONE LINE PER DEPTH STEP
~WELL INFORMATION BLOCK
#MNEM.UNIT           DATA                    DESCRIPTION OF MNEMONIC
#---------    -------------------            -------------------------------
# Generated from Intellog Unique Number	CW_82_90/WELL/3075
WELL.         TEXACO WOODEN                  : Well_name    - WELL
LOC .         00/11-12-087-22W4/0            : Location     - LOCATION
UWI .         00/11-12-087-22W4/0            : Uwi          - UNIQUE WELL ID
ENTR.         MAX                            : Entered      - ENTERED BY
SRVC.         SCHLUMBERGER                   : Scn          - SERVICE COMPANY
STRT.M        145                            : top_depth    - START DEPTH
STOP.M        330                            : bot_depth    - STOP DEPTH
STEP.M        0.25                           : increment    - STEP LENGTH
 NULL. -999.2500:NULL Value
~CURVE INFORMATION BLOCK
#MNEM UNIT       ERCB CURVE CODE    CURVE DESCRIPTION
#-----------   ------------------   ----------------------------------
DEPT.M        00 001 00 00         : DEPTH        - DEPTH
ILD .OHMM     00 120 00 00         : RESD         - DEEP RESISTIVITY (DIL)
NPHI.V/V      00 330 00 00         : PHIN         - NEUTRON POROSITY (SANDSTONE)
DPHI.V/V      00 890 00 00         : PHID         - DENSITY POROSITY (SANDSTONE)
CALI.MM       00 280 01 00         : CAL          - CALIPER
GR  .API      00 310 00 00         : GR           - GAMMA RAY
~PARAMETER INFORMATION
#MNEM.UNIT           DATA             DESCRIPTION OF MNEMONIC
#---------         -----------     ------------------------------
GL  .M        559.47               : gl           - GROUND LEVEL ELEVATION
EREF.M        562.92               : kb           - ELEVATION OF DEPTH REFERENCE
DATM.M        559.47               : datum        - DATUM ELEVATION
TDD .M        337                  : tdd          - TOTAL DEPTH DRILLER
RUN .         ONE                  : Run          - RUN NUMBER
ENG .         BILL                 : Engineer     - RECORDING ENGINEER
WIT .         JIM                  : Witness      - WITNESSED BY
MUD .         GEL                  : Mud_type     - MUD TYPE
MATR.         SANDSTONE            : Logunit      - NEUTRON MATRIX
TMAX.C        22.2                 : BHT          - MAXIMUM RECORDED TEMPERATURE
BHTD.M        337                  : BHTDEP       - MAXIMUM RECORDED TEMPERATURE
MATR.         1                    : LOGUNIT      - NEUTRON MATRIX
RMT .C        20                   : MDTP         - TEMPERATURE OF MUD
NEUT.         1                    : NEUTRON      - NEUTRON TYPE
RESI.         0                    : RESIST       - RESISTIVITY TYPE
RMC .OHMM     5.06                 : RMC          - RESISTIVITY OF MUD CAKE
RMF .OHMM     3.27                 : RMF          - RESISTIVITY OF MUD FILTRATE
SUFT.C        -10                  : SUFT         - SURFACE TEMPERATURE
~A  DEPTH     RESD     PHIN     PHID      CAL       GR
  145.000    4.360    0.490    0.227  232.285   94.611
  145.250    4.999    0.441    0.225  232.241   90.093
  145.500    5.837    0.426    0.218  232.201   83.184
  145.750    6.512    0.401    0.211  232.161   73.281
  146.000    7.133    0.389    0.211  232.116   65.171
  146.250    8.179    0.379    0.240  229.586   65.147
  146.500    9.639    0.386    0.271  227.550   65.120
  146.750   10.951    0.406    0.263  225.010   65.395
  147.000   10.947    0.398    0.247  224.975   64.772
  147.250   11.043    0.413    0.248  224.926   64.449
  147.500   11.242    0.403    0.250  224.886   63.527
  147.750   11.445    0.371    0.238  225.350   63.200
  148.000   11.759    0.357    0.249  225.799   62.581
  148.250   11.863    0.400    0.255  226.268   64.952
  148.500   11.750    0.402    0.257  226.727   66.125
  148.750   11.745    0.398    0.249  227.186   64.302
  149.000   11.741    0.407    0.231  227.136   63.380
  149.250   11.736    0.428    0.230  227.101   63.658
  149.500   11.839    0.436    0.267  228.049   64.530
  149.750   12.388    0.433    0.270  228.518   65.104
  150.000   13.081    0.413    0.284  228.473   63.880
  150.250   13.441    0.420    0.280  227.440   65.056
  150.500   13.192    0.411    0.290  225.903   68.326
  150.750   11.925    0.426    0.297  225.863   72.792
  151.000    9.837    0.441    0.283  226.816   78.157
  151.250    7.010    0.472    0.267  228.278   82.025
  151.500    5.375    0.487    0.235  230.728   84.093
  151.750    4.948    0.486    0.241  232.185   81.977
  152.000    5.177    0.475    0.230  233.642   80.157
  152.250    5.518    0.462    0.228  233.592   79.231
  152.500    5.935    0.456    0.231  233.557   78.306
  152.750    6.153    0.460    0.232  233.522   76.786
  153.000    6.264    0.483    0.226  233.482   76.765
  153.250    6.555    0.461    0.226  232.444   75.244
  153.500    7.115    0.449    0.229  230.403   65.041
  153.750    8.857    0.436    0.230  229.365   51.243
  154.000   11.027    0.413    0.217  226.826   45.531
  154.250   12.415    0.400    0.101  225.793   44.905
  154.500   17.249    0.391    0.090  225.254   46.076
  154.750   21.870    0.403    0.121  225.214   47.549
  155.000   20.504    0.398    0.288  224.176   49.324
  155.250   19.761    0.401    0.311  223.138   50.497
  155.500   19.219    0.415    0.327  222.589   49.575
  155.750   19.388    0.399    0.334  222.050   47.153
  156.000   21.235    0.398    0.335  222.005   47.432
  156.250   23.475    0.407    0.332  221.975   48.602
  156.500   25.948    0.406    0.331  221.925   48.581
  156.750   27.399    0.407    0.321  221.895   45.857
  157.000   28.411    0.391    0.314  222.345   43.438
  157.250   29.457    0.378    0.315  222.315   41.920
  157.500   30.544    0.373    0.320  222.769   42.190
  157.750   31.672    0.380    0.327  223.228   42.468
  158.000   32.244    0.385    0.329  223.188   41.546
  158.250   32.827    0.378    0.325  223.647   40.624
  158.500   33.416    0.364    0.318  224.101   42.396
  158.750   33.712    0.358    0.323  223.562   43.270
  159.000   34.007    0.368    0.325  222.524   42.944
  159.250   34.308    0.380    0.324  222.489   43.519
  159.500   34.295    0.393    0.335  222.449   43.797
  159.750   34.281    0.394    0.329  221.905   41.977
  160.000   33.645    0.383    0.328  221.366   42.549
  160.250   33.020    0.380    0.321  221.311   44.321
  160.500   32.710    0.390    0.323  221.286   44.599
  160.750   32.398    0.387    0.326  221.241   43.968
  161.000   31.800    0.390    0.303  219.679   44.246
  161.250   30.926    0.397    0.289  223.651   45.422
  161.500   30.077    0.399    0.267  223.616   45.997
  161.750   29.522    0.395    0.303  223.082   46.572
  162.000   28.974    0.391    0.325  223.032   49.239
  162.250   28.437    0.387    0.331  222.997   49.515
  162.500   28.951    0.389    0.326  222.952   47.698
  162.750   29.206    0.396    0.333  222.912   47.674
  163.000   29.196    0.402    0.319  221.880   47.949
  163.250   28.654    0.409    0.314  219.345   47.024
  163.500   27.363    0.419    0.314  216.311   43.704
  163.750   25.422    0.405    0.320  215.762   46.075
  164.000   22.155    0.397    0.325  215.717   49.643
  164.250   17.460    0.403    0.321  215.687   53.814
  164.500   13.265    0.410    0.320  215.642   60.077
  164.750   11.145    0.409    0.322  215.607   64.843
  165.000   10.166    0.406    0.308  216.066   60.927
  165.250   10.070    0.398    0.214  216.027   50.125
  165.500   11.131    0.404    0.221  216.481   47.105
  165.750   12.763    0.388    0.256  216.441   44.982
  166.000   18.060    0.374    0.308  216.401   44.659
  166.250   26.508    0.375    0.307  215.862   43.737
  166.500   30.115    0.387    0.314  215.822   41.913
  166.750   30.943    0.385    0.322  215.772   40.997
  167.000   31.502    0.389    0.316  215.742   40.671
  167.250   31.201    0.393    0.323  216.191   40.946
  167.500   30.908    0.397    0.326  216.655   41.222
  167.750   31.178    0.394    0.314  217.114   41.494
  168.000   30.879    0.390    0.302  216.575   42.072
  168.250   28.956    0.391    0.313  216.535   41.749
  168.500   22.819    0.393    0.309  217.493   43.521
  168.750   17.819    0.419    0.311  218.945   46.191
  169.000   16.707    0.456    0.310  219.409   50.358
  169.250   16.549    0.443    0.307  219.868   57.217
  169.500   17.158    0.407    0.312  220.327   51.804
  169.750   19.855    0.390    0.317  220.786   51.182
  170.000   24.269    0.391    0.319  222.732   53.250
  170.250   23.390    0.384    0.308  223.191   55.020
  170.500   14.935    0.382    0.293  223.655   56.199
  170.750   11.770    0.392    0.278  223.106   61.264
  171.000   10.836    0.420    0.251  223.076   74.117
  171.250    8.939    0.455    0.224  223.036   79.781
  171.500    8.007    0.432    0.223  225.985   75.263
  171.750    8.610    0.407    0.225  226.943   68.952
  172.000    9.519    0.388    0.201  226.409   58.450
  172.250   11.743    0.394    0.216  222.871   52.732
  172.500   12.861    0.386    0.262  222.831   60.196
  172.750   12.170    0.396    0.266  222.791   68.557
  173.000   10.802    0.416    0.232  224.248   72.721
  173.250   10.221    0.417    0.246  226.204   70.000
  173.500    9.941    0.422    0.248  228.160   67.581
  173.750    9.936    0.419    0.250  226.618   66.060
  174.000   10.492    0.408    0.262  226.079   65.138
  174.250   11.081    0.392    0.276  226.044   67.210
  174.500   11.808    0.404    0.263  226.493   68.084
  174.750   11.911    0.420    0.261  226.453   65.366
  175.000   11.691    0.414    0.243  226.413   65.042
  175.250   10.962    0.408    0.196  226.872   66.512
  175.500    9.729    0.399    0.200  226.837   73.975
  175.750    9.463    0.405    0.231  227.291   78.146
  176.000    9.546    0.437    0.226  227.256   78.113
  176.250   10.172    0.430    0.243  227.211   76.595
  176.500   10.547    0.406    0.256  225.670   73.281
  176.750   10.738    0.402    0.264  224.637   69.066
  177.000   10.735    0.410    0.231  224.098   70.239
  177.250   10.633    0.414    0.207  224.053   72.308
  177.500   10.531    0.414    0.177  224.013   76.478
  177.750   10.240    0.401    0.196  223.973   73.757
  178.000   10.428    0.405    0.240  223.933   63.853
  178.250   11.113    0.413    0.268  223.898   56.944
  178.500   12.397    0.407    0.305  223.853   47.936
  178.750   14.744    0.402    0.320  223.803   44.020
  179.000   19.214    0.403    0.331  223.768   41.900
  179.250   23.921    0.387    0.329  223.723   42.176
  179.500   26.931    0.363    0.328  224.192   44.547
  179.750   28.700    0.360    0.327  224.147   41.825
  180.000   28.425    0.361    0.324  224.107   41.200
  180.250   27.900    0.364    0.306  224.072   40.876
  180.500   26.889    0.372    0.296  224.033   39.358
  180.750   25.442    0.370    0.296  222.985   38.436
  181.000   24.970    0.374    0.311  221.942   40.502
  181.250   25.655    0.386    0.326  221.912   41.083
