~VERSION INFORMATION
VERS.                2.00:   CWLS LOG ASCII STANDARD -VERSION 2.0
WRAP.                  NO:
~WELL INFORMATION BLOCK
#MNEM.UNIT           DATA                    DESCRIPTION OF MNEMONIC
#---------    -------------------            -------------------------------
# Generated from Intellog Unique Number	CC_80_83/WELL/2471
LOC .         00/10-22-083-08W4/0            : Location     - LOCATION
UWI .         00/10-22-083-08W4/0            : Uwi          - UNIQUE WELL ID
ENTR.         DW                             : Entered      - ENTERED BY
STRT.M             259.08:
STOP.M             511.83:
STEP.M               0.25:
NULL.             -999.25:
COMP.  :COMPANY
WELL.  ARC0 ET AL SURMONT:WELL
FLD.   :FIELD
LOC.   :LOCATION
CTRY.  :COUNTRY
PROV.  :PROVINCE
SRVC.  SCHLUMBERGER:SERVICE COMPANY
DATE.  :LOG DATE
UWI.   :UNIQUE WELL ID
~PARAMETER INFORMATION
#MNEM.UNIT           DATA             DESCRIPTION OF MNEMONIC
#---------         -----------     ------------------------------
GL  .M        732.13               : gl           - GROUND LEVEL ELEVATION
EREF.M        735.178              : kb           - ELEVATION OF DEPTH REFERENCE
DATM.M        735.178              : datum        - DATUM ELEVATION
TDD .M        515.722              : tdd          - TOTAL DEPTH DRILLER
RUN .         ONE                  : Run          - RUN NUMBER
ENG .         BILL                 : Engineer     - RECORDING ENGINEER
WIT .         JIM                  : Witness      - WITNESSED BY
MUD .         GEL                  : Mud_type     - MUD TYPE
MATR.         SANDSTONE            : Logunit      - NEUTRON MATRIX
TMAX.C        20                   : BHT          - MAXIMUM RECORDED TEMPERATURE
BHTD.M        515.722              : BHTDEP       - MAXIMUM RECORDED TEMPERATURE
MATR.         1                    : LOGUNIT      - NEUTRON MATRIX
RMT .C        25                   : MDTP         - TEMPERATURE OF MUD
NEUT.         1                    : NEUTRON      - NEUTRON TYPE
RESI.         0                    : RESIST       - RESISTIVITY TYPE
RMC .OHMM     0.25                 : RMC          - RESISTIVITY OF MUD CAKE
RMF .OHMM     0.25                 : RMF          - RESISTIVITY OF MUD FILTRATE
SUFT.C        15                   : SUFT         - SURFACE TEMPERATURE
~Curve Information Block
#MNEM UNIT       ERCB CURVE CODE    CURVE DESCRIPTION
#MNEM.UNIT         API CODE    Curve Description
#----------    ------------    --------------------
DEPT.M                     :   DEPTH
DPHI.V/V                   :   DPHI
DT  .us/m                  :   DT
GR  .API       00 310 00 00:   GR
ILD .Ohmm      00 120 00 00:   ILD
NPHI.V/V       00 330 00 00:   NPHI
RHOB.gm/c3                 :   RHOB
~A  Depth           DPHI          DT          GR         ILD        NPHI        RHOB
# ...
449.08              0.34     -999.25       87.38        9.21        0.32     -999.25
449.33              0.34     -999.25       64.79        8.29        0.31     -999.25
449.58              0.34     -999.25       65.94        7.95        0.26     -999.25
449.83              0.34     -999.25       73.80        7.77        0.23     -999.25
450.08              0.34     -999.25       78.80        8.09        0.24     -999.25
450.33              0.34     -999.25       84.39        8.26        0.27     -999.25
450.58              0.34     -999.25       90.55        8.00        0.29     -999.25
450.83              0.33     -999.25       91.91        7.59        0.29     -999.25
451.08              0.33     -999.25       90.08        7.01        0.29     -999.25
451.33              0.32     -999.25       93.88        6.71        0.31     -999.25
451.58              0.31     -999.25       95.03        6.75        0.32     -999.25
451.83              0.30     -999.25       91.73        6.86        0.32     -999.25
452.08              0.30     -999.25       90.33        7.00        0.31     -999.25
452.33              0.31     -999.25       93.31        7.51        0.31     -999.25
452.58              0.32     -999.25       97.02        8.55        0.32     -999.25
452.83              0.34     -999.25       98.43        9.09        0.32     -999.25
453.08              0.35     -999.25       94.84        9.61        0.31     -999.25
453.33              0.35     -999.25       84.89       10.49        0.29     -999.25
453.58              0.35     -999.25       76.28       11.26        0.28     -999.25
453.83              0.35     -999.25       77.86       11.61        0.28     -999.25
454.08              0.35     -999.25       74.92       11.78        0.26     -999.25
454.33              0.35     -999.25       75.62       12.01        0.28     -999.25
454.58              0.34     -999.25       79.13       12.03        0.29     -999.25
454.83              0.34     -999.25       75.20       11.79        0.26     -999.25
455.08              0.34     -999.25       64.71       11.62        0.26     -999.25
455.33              0.33     -999.25       63.08       11.49        0.27     -999.25
455.58              0.33     -999.25       74.76       10.83        0.28     -999.25
455.83              0.32     -999.25       90.91       10.42        0.29     -999.25
456.08              0.31     -999.25       96.14       10.29        0.30     -999.25
456.33              0.28     -999.25       88.30        9.93        0.30     -999.25
456.58              0.26     -999.25       81.86        9.63        0.30     -999.25
456.83              0.24     -999.25       80.68        9.57        0.30     -999.25
457.08              0.25     -999.25       82.04        9.81        0.31     -999.25
457.33              0.26     -999.25       81.46       10.15        0.31     -999.25
457.58              0.28     -999.25       78.13       10.47        0.30     -999.25
457.83              0.28     -999.25       75.38       10.79        0.28     -999.25
458.08              0.27     -999.25       75.37       10.98        0.29     -999.25
458.33              0.28     -999.25       75.74       10.94        0.30     -999.25
458.58              0.28     -999.25       77.12       11.25        0.30     -999.25
458.83              0.27     -999.25       77.93       11.90        0.29     -999.25
459.08              0.27     -999.25       76.27       12.73        0.29     -999.25
459.33              0.26     -999.25       72.59       13.77        0.31     -999.25
459.58              0.26     -999.25       66.73       14.46        0.30     -999.25
459.83              0.26     -999.25       63.68       15.11        0.29     -999.25
460.08              0.26     -999.25       56.04       15.92        0.30     -999.25
460.33              0.26     -999.25       48.64       16.48        0.30     -999.25
460.58              0.26     -999.25       51.07       16.35        0.30     -999.25
460.83              0.27     -999.25       53.53       15.84        0.30     -999.25
461.08              0.28     -999.25       56.57       15.50        0.29     -999.25
461.33              0.29     -999.25       58.82       15.57        0.27     -999.25
461.58              0.32     -999.25       59.73       15.98        0.27     -999.25
461.83              0.32     -999.25       59.09       16.49        0.30     -999.25
462.08              0.33     -999.25       54.60       17.33        0.31     -999.25
462.33              0.33     -999.25       46.09       19.31        0.28     -999.25
462.58              0.33     -999.25       43.00       21.17        0.26     -999.25
462.83              0.33     -999.25       42.22       20.90        0.27     -999.25
463.08              0.32     -999.25       48.47       19.40        0.29     -999.25
463.33              0.33     -999.25       62.46       18.21        0.30     -999.25
463.58              0.33     -999.25       67.18       16.55        0.28     -999.25
463.83              0.33     -999.25       68.78       15.45        0.27     -999.25
464.08              0.33     -999.25       57.67       14.65        0.28     -999.25
464.33              0.32     -999.25       51.45       14.27        0.28     -999.25
464.58              0.29     -999.25       60.54       14.86        0.28     -999.25
464.83              0.27     -999.25       63.06       16.10        0.29     -999.25
465.08              0.24     -999.25       49.08       16.90        0.29     -999.25
465.33              0.24     -999.25       43.00       17.52        0.27     -999.25
465.58              0.23     -999.25       44.37       17.75        0.26     -999.25
465.83              0.23     -999.25       48.58       17.66        0.26     -999.25
466.08              0.23     -999.25       53.65       17.71        0.27     -999.25
466.33              0.23     -999.25       51.36       18.00        0.28     -999.25
466.58              0.23     -999.25       44.37       18.34        0.26     -999.25
466.83              0.24     -999.25       45.68       18.34        0.28     -999.25
467.08              0.24     -999.25       51.28       18.61        0.33     -999.25
467.33              0.25     -999.25       50.31       19.22        0.32     -999.25
467.58              0.25     -999.25       43.87       19.88        0.26     -999.25
467.83              0.25     -999.25       41.31       21.21        0.25     -999.25
468.08              0.25     -999.25       38.93       21.93        0.25     -999.25
468.33              0.26     -999.25       36.77       23.03        0.27     -999.25
468.58              0.25     -999.25       35.78       24.52        0.29     -999.25
468.83              0.25     -999.25       35.41       26.28        0.28     -999.25
469.08              0.25     -999.25       34.90       28.90        0.27     -999.25
469.33              0.25     -999.25       33.36       30.38        0.28     -999.25
469.58              0.25     -999.25       32.52       31.85        0.29     -999.25
469.83              0.25     -999.25       32.27       32.97        0.29     -999.25
470.08              0.26     -999.25       35.06       33.15        0.26     -999.25
470.33              0.27     -999.25       40.63       33.18        0.26     -999.25
470.58              0.28     -999.25       41.14       33.73        0.31     -999.25
470.83              0.28     -999.25       40.42       33.92        0.32     -999.25
471.08              0.27     -999.25       37.76       33.42        0.29     -999.25
471.33              0.28     -999.25       34.11       33.19        0.28     -999.25
471.58              0.28     -999.25       33.17       33.03        0.28     -999.25
471.83              0.28     -999.25       36.56       31.39        0.28     -999.25
472.08              0.27     -999.25       41.32       29.81        0.28     -999.25
472.33              0.27     -999.25       39.15       33.65        0.29     -999.25
472.58              0.26     -999.25       32.62       37.84        0.29     -999.25
