~VERSION INFORMATION
 VERS.                 2.0:   CWLS LOG ASCII STANDARD -VERSION 2.0
 WRAP.                  NO:   ONE LINE PER DEPTH STEP
~WELL INFORMATION BLOCK
#MNEM.UNIT           DATA                    DESCRIPTION OF MNEMONIC
#---------    -------------------            -------------------------------
# Generated from Intellog Unique Number	CS_71_72/WELL/851
WELL.         PEX PHILLIPS AEC KIRBY         : Well_name    - WELL
LOC .         00/10-08-072-07W4/0            : Location     - LOCATION
UWI .         00/10-08-072-07W4/0            : Uwi          - UNIQUE WELL ID
ENTR.         SP                             : Entered      - ENTERED BY
SRVC.         SCHLUMBERGER                   : Scn          - SERVICE COMPANY
STRT.M        310                            : top_depth    - START DEPTH
STOP.M        525                            : bot_depth    - STOP DEPTH
STEP.M        0.25                           : increment    - STEP LENGTH
 NULL. -999.2500:NULL Value
~CURVE INFORMATION BLOCK
#MNEM UNIT       ERCB CURVE CODE    CURVE DESCRIPTION
#-----------   ------------------   ----------------------------------
DEPT.M        00 001 00 00         : DEPTH        - DEPTH
ILD .OHMM     00 120 00 00         : RESD         - DEEP RESISTIVITY (DIL)
DPHI.V/V      00 890 00 00         : PHID         - DENSITY POROSITY (LIMESTONE)
NPHI.V/V      00 330 00 00         : PHIN         - NEUTRON POROSITY (LIMESTONE)
GR  .API      00 310 00 00         : GR           - GAMMA RAY
~PARAMETER INFORMATION
#MNEM.UNIT           DATA             DESCRIPTION OF MNEMONIC
#---------         -----------     ------------------------------
GL  .M        672.83               : gl           - GROUND LEVEL ELEVATION
EREF.M        675.83               : kb           - ELEVATION OF DEPTH REFERENCE
DATM.M        672.83               : datum        - DATUM ELEVATION
TDD .M        540                  : tdd          - TOTAL DEPTH DRILLER
RUN .         ONE                  : Run          - RUN NUMBER
ENG .         BILL                 : Engineer     - RECORDING ENGINEER
WIT .         JIM                  : Witness      - WITNESSED BY
MUD .         GEL                  : Mud_type     - MUD TYPE
MATR.         LIMESTONE            : Logunit      - NEUTRON MATRIX
TMAX.C        20                   : BHT          - MAXIMUM RECORDED TEMPERATURE
BHTD.M        540                  : BHTDEP       - MAXIMUM RECORDED TEMPERATURE
MATR.         1                    : LOGUNIT      - NEUTRON MATRIX
RMT .C        25                   : MDTP         - TEMPERATURE OF MUD
NEUT.         1                    : NEUTRON      - NEUTRON TYPE
RESI.         0                    : RESIST       - RESISTIVITY TYPE
RMC .OHMM     0.25                 : RMC          - RESISTIVITY OF MUD CAKE
RMF .OHMM     0.25                 : RMF          - RESISTIVITY OF MUD FILTRATE
SUFT.C        15                   : SUFT         - SURFACE TEMPERATURE
~A  DEPTH     RESD     PHID     PHIN       GR
# ...
  440.500    6.852    0.187    0.334  110.837
  440.750    6.723    0.184    0.352  110.839
  441.000    6.721    0.178    0.360  109.618
  441.250    6.975    0.163    0.356  107.173
  441.500    6.974    0.157    0.354  109.626
  441.750    6.841    0.149    0.346  109.629
  442.000    6.713    0.142    0.334  106.572
  442.250    6.712    0.137    0.318   99.840
  442.500    6.463    0.127    0.311  102.293
  442.750    6.341    0.135    0.306  112.092
  443.000    6.222    0.145    0.358  121.893
  443.250    5.992    0.135    0.349  129.242
  443.500    5.990    0.130    0.333  123.736
  443.750    5.768    0.127    0.323   98.025
  444.000    5.555    0.158    0.338   88.845
  444.250    5.152    0.257    0.351   86.400
  444.500    4.779    0.302    0.355   93.137
  444.750    4.270    0.311    0.360   99.876
  445.000    3.816    0.258    0.372   99.268
  445.250    3.346    0.267    0.379  101.720
  445.500    3.162    0.269    0.383   96.825
  445.750    3.162    0.232    0.383   98.667
  446.000    3.220    0.246    0.383  100.506
  446.250    3.280    0.262    0.395  102.346
  446.500    3.341    0.279    0.366  106.024
  446.750    3.404    0.264    0.372  101.129
  447.000    3.667    0.254    0.397  102.358
  447.250    3.878    0.247    0.411  107.871
  447.500    4.257    0.243    0.396  111.548
  447.750    4.502    0.236    0.373  111.552
  448.000    4.850    0.232    0.355  106.045
  448.250    5.128    0.226    0.340  105.436
  448.500    5.224    0.194    0.331  109.113
  448.750    5.223    0.213    0.334   97.484
  449.000    5.125    0.236    0.346   93.814
  449.250    5.028    0.273    0.362   95.654
  449.500    5.027    0.286    0.386   96.883
  449.750    5.217    0.270    0.384  100.559
  450.000    5.315    0.267    0.378   95.053
  450.250    5.620    0.276    0.373  101.180
  450.500    6.169    0.260    0.391  103.631
  450.750    7.163    0.197    0.380   99.350
  451.000    7.718    0.174    0.364   95.680
  451.250    8.963    0.197    0.348   95.683
  451.500    9.658    0.214    0.330   92.013
  451.750   12.315    0.227    0.312   84.670
  452.000   14.036    0.227    0.290   80.387
  452.250   15.123    0.235    0.266   78.554
  452.500   15.992    0.196    0.259   73.048
  452.750   15.988    0.160    0.232   67.541
  453.000   15.395    0.196    0.221   63.258
  453.250   15.391    0.240    0.271   70.611
  453.500   15.974    0.271    0.298   75.511
  453.750   18.899    0.308    0.313   81.026
  454.000   23.213    0.264    0.282   83.477
  454.250   27.983    0.227    0.258   80.419
  454.500   30.154    0.203    0.248   76.138
  454.750   35.675    0.182    0.236   70.018
  455.000   36.341    0.148    0.226   62.676
  455.250   28.482    0.109    0.215   64.517
  455.500   22.745    0.073    0.233   66.357
  455.750   17.826    0.088    0.269   68.197
  456.000   15.633    0.158    0.302   69.424
  456.250   13.968    0.249    0.331   71.877
  456.500   12.715    0.292    0.343   73.717
  456.750   12.477    0.280    0.340   74.332
  457.000   12.242    0.267    0.343   75.562
  457.250   12.012    0.263    0.347   76.177
  457.500   12.940    0.258    0.343   78.016
  457.750   12.462    0.259    0.341   80.471
  458.000   11.777    0.253    0.346   81.698
  458.250   11.557    0.244    0.358   81.701
  458.500   11.130    0.249    0.342   78.645
  458.750   10.519    0.261    0.336   78.035
  459.000    9.941    0.267    0.331   77.427
  459.250    9.574    0.267    0.351   76.818
  459.500    9.048    0.271    0.352   74.986
  459.750    8.713    0.272    0.343   74.376
  460.000    8.235    0.276    0.338   73.769
  460.250    7.783    0.272    0.333   73.771
  460.500    7.085    0.262    0.328   74.998
  460.750    6.823    0.261    0.324   76.838
  461.000    6.570    0.245    0.325   79.291
  461.250    6.327    0.237    0.336   76.233
  461.500    6.209    0.237    0.332   78.687
  461.750    6.091    0.231    0.331   82.364
  462.000    6.089    0.226    0.328   82.367
  462.250    7.072    0.222    0.327   79.309
  462.500    6.938    0.215    0.327   83.599
  462.750    6.936    0.203    0.327   85.439
  463.000    6.805    0.194    0.328   88.503
  463.250    6.804    0.193    0.331   89.118
  463.500    6.552    0.204    0.332   89.736
  463.750    6.550    0.211    0.337   92.187
  464.000    6.548    0.198    0.339   95.253
  464.250    6.796    0.184    0.343   94.031
  464.500    7.322    0.191    0.349   89.748
  464.750    7.744    0.191    0.345   95.263
  465.000    8.825    0.179    0.341   95.266
  465.250    9.333    0.210    0.344   92.210
  465.500   10.244    0.213    0.347   89.151
  465.750   10.633    0.184    0.334   84.257
  466.000   11.456    0.185    0.317   82.423
  466.250   11.890    0.191    0.314   81.815
  466.500   12.339    0.205    0.305   79.981
  466.750   12.807    0.209    0.307   77.536
  467.000   13.047    0.215    0.310   74.478
  467.250   13.538    0.185    0.292   71.422
  467.500   13.535    0.094    0.267   67.141
  467.750   13.280    0.044    0.249   65.307
  468.000   12.320    0.079    0.255   63.472
  468.250    8.469    0.124    0.303   78.783
  468.500    6.764    0.160    0.318   83.071
  468.750    5.714    0.190    0.328   88.585
  469.000    5.010    0.217    0.338   93.487
  469.250    4.477    0.207    0.349  100.838
  469.500    4.075    0.221    0.387  104.514
  469.750    3.999    0.229    0.400  108.803
  470.000    3.779    0.221    0.384  104.521
  470.250    3.778    0.196    0.365  101.464
  470.500    3.777    0.191    0.344  104.528
  470.750    4.147    0.205    0.366  112.491
  471.000    4.907    0.196    0.383  120.453
  471.250    7.000    0.200    0.393  128.417
  471.500    9.441    0.210    0.387  132.093
  471.750   10.964    0.207    0.383  121.689
  472.000   13.721    0.196    0.361  111.896
  472.250   14.511    0.192    0.349  101.492
  472.500   16.850    0.207    0.344   97.210
  472.750   18.848    0.219    0.333   94.151
  473.000   19.931    0.233    0.328   95.381
  473.250   19.555    0.238    0.319   97.833
  473.500   19.918    0.235    0.322   97.224
  473.750   21.064    0.225    0.330   97.228
  474.000   25.393    0.227    0.344   99.681
  474.250   29.489    0.216    0.333  102.133
  474.500   36.904    0.209    0.324  105.198
  474.750   42.058    0.241    0.315   88.670
  475.000   43.651    0.255    0.313   75.817
  475.250   42.036    0.274    0.310   66.025
  475.500   38.990    0.274    0.306   66.028
  475.750   37.546    0.255    0.311   66.033
  476.000   35.484    0.249    0.315   66.037
  476.250   35.479    0.266    0.313   66.038
  476.500   34.162    0.253    0.311   65.430
  476.750   32.897    0.256    0.321   62.372
  477.000   31.679    0.252    0.314   64.214
  477.250   30.509    0.246    0.305   64.828
  477.500   27.775    0.233    0.301   58.097
  477.750   27.252    0.218    0.300   57.489
  478.000   23.899    0.211    0.302   66.678
  478.250   20.186    0.207    0.300   71.580
  478.500   18.726    0.224    0.299   75.256
  478.750   17.370    0.231    0.311   78.319
  479.000   15.520    0.220    0.314   85.669
  479.250   13.867    0.204    0.310   94.244
  479.500   12.624    0.191    0.305  105.269
  479.750   11.710    0.191    0.297  111.394
  480.000   11.067    0.228    0.313  114.459
  480.250   10.860    0.201    0.313   94.259
  480.500   12.609    0.191    0.317   94.262
  480.750   13.843    0.176    0.322  108.347
  481.000   15.198    0.180    0.313   85.085
  481.250   17.648    0.196    0.303   66.722
  481.500   19.375    0.215    0.305   68.563
  481.750   20.107    0.226    0.312   75.301
  482.000   18.650    0.235    0.308   75.305
  482.250   16.664    0.243    0.303   71.022
  482.500   15.750    0.224    0.300   79.597
  482.750   14.609    0.210    0.296   85.722
  483.000   14.336    0.254    0.295   80.829
  483.250   16.960    0.236    0.306   88.180
  483.500   18.973    0.181    0.309   95.530
  483.750   24.192    0.198    0.315   99.206
