~VERSION INFORMATION
 VERS.                 2.0:   CWLS LOG ASCII STANDARD -VERSION 2.0
 WRAP.                  NO:   ONE LINE PER DEPTH STEP
~WELL INFORMATION BLOCK
#MNEM.UNIT           DATA                    DESCRIPTION OF MNEMONIC
#---------    -------------------            -------------------------------
# Generated from Intellog Unique Number	CW_70_72/WELL/1043
NULL.         -999.25                        : NULL_VALUE
WELL.         NORCEN WESTBURNE SPUR 10-26    : Well_name    - WELL              
LOC .         10-26-072-02W5                 : Location     - LOCATION          
UWI .         00/10-26-072-02W5/0            : Uwi          - UNIQUE WELL ID    
ENTR.         JAYE                           : Entered      - ENTERED BY        
SRVC.         COMPUTALOG                     : Scn          - SERVICE COMPANY   
DATE.         25 JAN 85                      : Date         - LOG DATE          
STRT.M        385                            : top_depth    - START DEPTH       
STOP.M        618                            : bot_depth    - STOP DEPTH        
STEP.M        0.25                           : increment    - STEP LENGTH       
~CURVE INFORMATION BLOCK
#MNEM UNIT       ERCB CURVE CODE    CURVE DESCRIPTION
#-----------   ------------------   ----------------------------------
DEPT.M        00 001 00 00         : DEPTH        - DEPTH                       
DPHI.V/V      00 890 00 00         : PHID         - DENSITY POROSITY (SANDSTONE)
NPHI.V/V      00 330 00 00         : PHIN         - NEUTRON POROSITY (SANDSTONE)
GR  .API      00 310 00 00         : GR           - GAMMA RAY                   
CALI.MM       00 280 01 00         : CAL          - CALIPER                     
ILD .OHMM     00 120 00 00         : RESD         - DEEP RESISTIVITY (DIL)      
~PARAMETER INFORMATION       
#MNEM.UNIT           DATA             DESCRIPTION OF MNEMONIC
#---------         -----------     ------------------------------
GL  .M        594.25               : gl           - GROUND LEVEL ELEVATION      
EREF.M        598.3                : kb           - ELEVATION OF DEPTH REFERENCE
DATM.M        594.25               : datum        - DATUM ELEVATION             
TDD .M        627                  : tdd          - TOTAL DEPTH DRILLER         
RUN .         ONE                  : Run          - RUN NUMBER                  
ENG .         HUDSON               : Engineer     - RECORDING ENGINEER          
WIT .         MCLEOD               : Witness      - WITNESSED BY                
BASE.         GRANDE PRAIRIE       : Branch       - HOME BASE OF LOGGING UNIT   
MUD .         GEL CHEM             : Mud_type     - MUD TYPE                    
MATR.         SANDSTONE            : Logunit      - NEUTRON MATRIX              
TMAX.C        36                   : BHT          - MAXIMUM RECORDED TEMPERATURE
BHTD.M        623.2                : BHTDEP       - MAXIMUM RECORDED TEMPERATURE
RMT .C        14                   : MDTP         - TEMPERATURE OF MUD          
MUDD.KG/M     1130                 : MWT          - MUD DENSITY                 
NEUT.         1                    : NEUTRON      - NEUTRON TYPE                
RESI.         0                    : RESIST       - RESISTIVITY TYPE            
RM  .OHMM     4                    : RM           - RESISTIVITY OF MUD          
RMC .OHMM     3.4                  : RMC          - RESISTIVITY OF MUD CAKE     
RMF .OHMM     3.5                  : RMF          - RESISTIVITY OF MUD FILTRATE 
SUFT.C        32                   : SUFT         - SURFACE TEMPERATURE         
~A  DEPTH     PHID     PHIN       GR      CAL     RESD
# ...
  421.500    0.243    0.424   71.536  192.225    3.304
  421.750    0.265    0.395   62.231  192.509    3.298
  422.000    0.264    0.389   79.138  193.627    3.486
  422.250    0.241    0.383   83.284  195.062    3.761
  422.500    0.224    0.374   85.979  196.510    3.945
  422.750    0.212    0.381   88.485  199.210    4.005
  423.000    0.198    0.425   91.623  202.021    3.945
  423.250    0.182    0.430   95.456  204.513    3.649
  423.500    0.208    0.414   93.350  199.531    3.453
  423.750    0.229    0.395   92.005  195.496    3.305
  424.000    0.223    0.411   96.278  193.567    3.163
  424.250    0.206    0.429  100.616  193.319    3.086
  424.500    0.191    0.443  100.784  193.495    3.051
  424.750    0.173    0.455   98.996  191.886    3.045
  425.000    0.183    0.467   97.901  191.010    3.034
  425.250    0.197    0.459   95.984  192.135    3.063
  425.500    0.202    0.448   93.186  194.307    3.200
  425.750    0.203    0.435   91.650  196.272    3.356
  426.000    0.207    0.446   89.231  197.927    3.526
  426.250    0.212    0.466   85.862  199.157    3.684
  426.500    0.219    0.463   86.663  198.699    3.842
  426.750    0.218    0.455   90.684  196.352    3.916
  427.000    0.205    0.444   91.295  194.524    3.946
  427.250    0.190    0.446   89.255  193.858    3.961
  427.500    0.199    0.450   88.536  193.298    3.938
  427.750    0.205    0.443   89.403  192.419    3.827
  428.000    0.207    0.423   88.246  191.549    3.513
  428.250    0.219    0.413   78.119  190.879    3.287
  428.500    0.245    0.416   66.163  190.429    3.104
  428.750    0.273    0.420   68.287  189.755    2.994
  429.000    0.263    0.414   73.322  189.727    3.040
  429.250    0.257    0.406   77.722  189.899    3.158
  429.500    0.254    0.395   79.091  190.397    3.287
  429.750    0.248    0.385   77.366  191.512    3.408
  430.000    0.242    0.389   72.355  192.534    3.434
  430.250    0.256    0.391   64.944  193.767    3.369
  430.500    0.264    0.391   60.314  194.680    3.319
  430.750    0.265    0.388   56.631  195.068    3.201
  431.000    0.268    0.384   54.147  194.927    3.087
  431.250    0.273    0.379   51.030  194.473    2.977
  431.500    0.278    0.373   49.243  193.913    2.872
  431.750    0.282    0.371   48.274  193.455    2.839
  432.000    0.284    0.378   48.632  193.314    2.823
  432.250    0.287    0.383   49.751  193.285    2.823
  432.500    0.290    0.391   51.371  193.139    2.828
  432.750    0.292    0.399   52.172  193.006    2.888
  433.000    0.292    0.398   51.836  192.964    2.916
  433.250    0.290    0.391   52.951  192.937    2.927
  433.500    0.277    0.388   55.016  193.110    2.905
  433.750    0.267    0.400   56.763  193.185    2.829
  434.000    0.285    0.409   51.501  193.151    2.697
  434.250    0.297    0.389   48.445  192.906    2.567
  434.500    0.307    0.379   47.288  192.767    2.557
  434.750    0.311    0.367   47.270  192.523    2.839
  435.000    0.300    0.337   47.946  192.272    3.300
  435.250    0.271    0.308   48.935  192.450    3.637
  435.500    0.230    0.289   50.873  193.051    3.947
  435.750    0.190    0.276   53.632  193.650    4.309
  436.000    0.257    0.324   53.042  193.924    4.276
  436.250    0.291    0.358   52.454  193.793    3.735
  436.500    0.298    0.365   54.009  193.333    3.351
  436.750    0.292    0.369   56.140  192.772    3.076
  437.000    0.286    0.374   60.602  192.426    2.781
  437.250    0.291    0.385   63.045  192.392    2.697
  437.500    0.290    0.420   66.308  193.093    2.734
  437.750    0.270    0.433   70.710  194.426    2.776
  438.000    0.251    0.419   72.774  196.606    2.792
  438.250    0.241    0.414   66.815  198.991    2.744
  438.500    0.262    0.427   59.279  199.587    2.677
  438.750    0.284    0.425   49.407  199.450    2.592
  439.000    0.299    0.407   44.270  198.671    2.533
  439.250    0.292    0.393   48.796  198.118    2.533
  439.500    0.295    0.386   55.531  197.662    2.592
  439.750    0.274    0.375   60.819  198.045    2.771
  440.000    0.256    0.369   67.937  199.174    3.071
  440.250    0.227    0.382   74.864  201.871    3.295
  440.500    0.210    0.407   84.948  205.314    3.403
  440.750    0.197    0.433   95.538  208.016    3.436
  441.000    0.192    0.452   94.002  209.143    3.423
  441.250    0.230    0.448   85.641  208.686    3.384
  441.500    0.244    0.428   81.075  206.444    3.359
  441.750    0.255    0.409   78.529  199.357    3.308
  442.000    0.266    0.399   78.128  195.419    3.314
  442.250    0.283    0.387   78.742  194.863    3.430
  442.500    0.299    0.390   80.802  195.042    3.590
  442.750    0.276    0.402   82.742  197.001    3.949
  443.000    0.267    0.432   85.943  198.660    4.286
  443.250    0.340    0.500   83.458  201.567    4.555
  443.500    0.349    0.538   84.701  203.644    4.741
  443.750    0.315    0.506   89.544  204.978    4.841
  444.000    0.273    0.497   92.620  204.415    4.741
  444.250    0.266    0.499   95.818  204.274    4.478
  444.500    0.265    0.505  100.282  204.031    4.254
  444.750    0.260    0.504   98.242  204.310    4.033
  445.000    0.267    0.439   85.400  203.225    3.860
  445.250    0.279    0.407   71.233  198.349    3.723
  445.500    0.264    0.394   76.643  195.371    3.618
  445.750    0.231    0.410   84.137  197.966    3.604
  446.000    0.208    0.417   92.014  201.717    3.667
  446.250    0.197    0.414   89.781  202.949    3.809
  446.500    0.198    0.408   89.696  204.073    4.072
  446.750    0.196    0.408   91.191  204.566    4.328
  447.000    0.193    0.408   93.826  204.006    4.428
  447.250    0.179    0.416   96.963  203.341    4.419
  447.500    0.162    0.429   98.270  201.407    4.369
  447.750    0.191    0.422   89.913  197.588    4.311
  448.000    0.228    0.402   84.080  196.713    4.287
  448.250    0.215    0.394   84.313  199.100    4.246
  448.500    0.201    0.397   88.838  201.173    4.222
  448.750    0.185    0.413   90.019  202.925    4.190
  449.000    0.172    0.432   88.104  203.727    4.222
  449.250    0.190    0.425   85.746  204.016    4.255
  449.500    0.215    0.425   84.401  205.239    4.279
  449.750    0.202    0.426   85.200  206.264    4.295
  450.000    0.191    0.411   87.769  207.175    4.328
  450.250    0.197    0.399   92.359  207.138    4.370
  450.500    0.189    0.408   94.614  206.684    4.403
  450.750    0.179    0.413   98.445  205.808    4.420
  451.000    0.164    0.405   94.697  204.407    4.403
  451.250    0.185    0.413   88.614  203.637    4.312
  451.500    0.212    0.406   82.026  203.074    4.183
  451.750    0.220    0.388   78.785  202.619    4.034
  452.000    0.216    0.382   77.310  201.954    3.847
  452.250    0.235    0.398   76.405  201.289    3.689
  452.500    0.255    0.414   75.501  200.416    3.471
  452.750    0.272    0.420   73.837  199.219    3.260
  453.000    0.280    0.420   73.249  198.239    3.192
  453.250    0.280    0.419   73.983  197.680    3.367
  453.500    0.279    0.411   73.209  197.221    3.811
  453.750    0.280    0.398   71.041  196.876    4.387
  454.000    0.282    0.393   68.556  196.311    5.237
  454.250    0.285    0.392   66.641  195.645    5.838
  454.500    0.285    0.399   65.102  194.981    6.683
  454.750    0.277    0.404   64.075  194.634    6.877
  455.000    0.264    0.409   63.737  194.279    6.495
  455.250    0.271    0.410   65.169  194.565    5.588
  455.500    0.280    0.403   68.688  195.262    4.817
  455.750    0.287    0.397   69.236  195.862    4.097
  456.000    0.284    0.388   72.373  196.562    3.690
  456.250    0.262    0.382   80.182  197.897    3.525
  456.500    0.232    0.380   86.540  199.025    3.586
  456.750    0.203    0.414   94.985  200.879    3.739
  457.000    0.174    0.439   93.636  202.743    3.997
  457.250    0.161    0.423   92.227  205.130    4.232
  457.500    0.154    0.411   93.028  207.202    4.430
  457.750    0.146    0.399   94.144  208.430    4.576
