~VERSION INFORMATION
 VERS.                 2.0:   CWLS LOG ASCII STANDARD -VERSION 2.0
 WRAP.                  NO:   ONE LINE PER DEPTH STEP
~WELL INFORMATION BLOCK
#MNEM.UNIT           DATA                    DESCRIPTION OF MNEMONIC
#---------    -------------------            -------------------------------
# Generated from Intellog Unique Number	CS_67_68/WELL/820
WELL.         DOME PETROLEUM LIMITED         : Well_name    - WELL
LOC .         00/11-08-068-01W4/0            : Location     - LOCATION
UWI .         00/11-08-068-01W4/0            : Uwi          - UNIQUE WELL ID
ENTR.         SP                             : Entered      - ENTERED BY
SRVC.         SCHLUMBERGER                   : Scn          - SERVICE COMPANY
STRT.M        380                            : top_depth    - START DEPTH
STOP.M        635                            : bot_depth    - STOP DEPTH
STEP.M        0.25                           : increment    - STEP LENGTH
 NULL. -999.2500:NULL Value
~CURVE INFORMATION BLOCK
#MNEM UNIT       ERCB CURVE CODE    CURVE DESCRIPTION
#-----------   ------------------   ----------------------------------
DEPT.M        00 001 00 00         : DEPTH        - DEPTH
ILD .OHMM     00 120 00 00         : RESD         - DEEP RESISTIVITY (DIL)
DPHI.V/V      00 890 00 00         : PHID         - DENSITY POROSITY (LIMESTONE)
NPHI.V/V      00 330 00 00         : PHIN         - NEUTRON POROSITY (LIMESTONE)
GR  .API      00 310 00 00         : GR           - GAMMA RAY
~PARAMETER INFORMATION
#MNEM.UNIT           DATA             DESCRIPTION OF MNEMONIC
#---------         -----------     ------------------------------
GL  .M        665.82               : gl           - GROUND LEVEL ELEVATION
EREF.M        669.7                : kb           - ELEVATION OF DEPTH REFERENCE
DATM.M        665.82               : datum        - DATUM ELEVATION
TDD .M        634                  : tdd          - TOTAL DEPTH DRILLER
RUN .         ONE                  : Run          - RUN NUMBER
ENG .         BILL                 : Engineer     - RECORDING ENGINEER
WIT .         JIM                  : Witness      - WITNESSED BY
MUD .         GEL                  : Mud_type     - MUD TYPE
MATR.         LIMESTONE            : Logunit      - NEUTRON MATRIX
TMAX.C        25                   : BHT          - MAXIMUM RECORDED TEMPERATURE
BHTD.M        636                  : BHTDEP       - MAXIMUM RECORDED TEMPERATURE
MATR.         1                    : LOGUNIT      - NEUTRON MATRIX
RMT .C        25                   : MDTP         - TEMPERATURE OF MUD
NEUT.         1                    : NEUTRON      - NEUTRON TYPE
RESI.         0                    : RESIST       - RESISTIVITY TYPE
RMC .OHMM     0.25                 : RMC          - RESISTIVITY OF MUD CAKE
RMF .OHMM     0.25                 : RMF          - RESISTIVITY OF MUD FILTRATE
SUFT.C        15                   : SUFT         - SURFACE TEMPERATURE
~A  DEPTH     RESD     PHID     PHIN       GR
# ...
  597.500    6.821    0.227    0.381   96.087
  597.750    6.668    0.233    0.371   98.192
  598.000    6.530    0.236    0.357  103.552
  598.250    6.419    0.242    0.343  107.253
  598.500    6.370    0.249    0.348  101.990
  598.750    6.368    0.258    0.357   95.927
  599.000    6.354    0.273    0.366   95.515
  599.250    6.317    0.276    0.354   97.867
  599.500    6.316    0.269    0.338  102.058
  599.750    6.373    0.262    0.332  110.489
  600.000    6.456    0.260    0.371  137.565
  600.250    6.887    0.261    0.373  136.036
  600.500    7.041    0.276    0.376  131.552
  600.750    7.199    0.275    0.379  126.454
  601.000    7.361    0.261    0.381  128.865
  601.250    7.526    0.251    0.385  133.983
  601.500    7.624    0.245    0.384  138.792
  601.750    7.693    0.243    0.386  136.156
  602.000    7.423    0.248    0.393  133.641
  602.250    6.671    0.262    0.411  131.929
  602.500    6.040    0.278    0.419  125.782
  602.750    5.763    0.293    0.398  115.022
  603.000    5.794    0.302    0.388  107.152
  603.250    6.047    0.311    0.378   96.513
  603.500    6.552    0.284    0.368   88.091
  603.750    8.046    0.262    0.359   84.899
  604.000    9.662    0.246    0.363   97.958
  604.250   10.666    0.232    0.365  106.276
  604.500   11.070    0.221    0.362  112.072
  604.750   11.404    0.204    0.371  117.130
  605.000   11.253    0.195    0.397  120.893
  605.250   10.817    0.191    0.418  123.796
  605.500   10.262    0.194    0.428  124.298
  605.750   10.202    0.203    0.428  121.599
  606.000   10.392    0.217    0.422  118.469
  606.250   10.665    0.224    0.415  120.512
  606.500   10.905    0.229    0.411  123.598
  606.750   10.923    0.229    0.410  125.393
  607.000   10.920    0.221    0.407  123.432
  607.250   10.959    0.218    0.402  127.627
  607.500   10.534    0.217    0.404  130.222
  607.750    9.700    0.218    0.417  128.262
  608.000    8.288    0.225    0.421  122.547
  608.250    7.095    0.239    0.417  101.199
  608.500    6.281    0.262    0.405   81.758
  608.750    5.478    0.279    0.380   70.443
  609.000    4.997    0.297    0.362   64.729
  609.250    4.876    0.311    0.344   64.677
  609.500    5.118    0.303    0.356   68.933
  609.750    5.213    0.300    0.367   71.222
  610.000    5.040    0.299    0.377   73.016
  610.250    4.817    0.301    0.384   74.379
  610.500    4.665    0.308    0.375   74.205
  610.750    4.612    0.316    0.358   71.013
  611.000    4.655    0.324    0.351   66.160
  611.250    4.786    0.323    0.350   65.740
  611.500    4.893    0.312    0.354   66.856
  611.750    4.910    0.307    0.364   70.373
  612.000    4.863    0.298    0.372   74.877
  612.250    4.606    0.295    0.383   78.763
  612.500    4.257    0.306    0.387   82.405
  612.750    4.039    0.323    0.378   58.163
  613.000    3.992    0.332    0.363   48.509
  613.250    4.067    0.335    0.349   52.644
  613.500    4.166    0.328    0.350   68.779
  613.750    4.244    0.324    0.345   84.545
  614.000    4.259    0.322    0.340   96.742
  614.250    4.194    0.321    0.345  110.662
  614.500    4.100    0.326    0.341  117.811
  614.750    4.107    0.333    0.336  113.266
  615.000    4.278    0.336    0.343  101.582
  615.250    4.491    0.340    0.357   97.097
  615.500    4.793    0.338    0.369   93.353
  615.750    5.116    0.317    0.375   81.484
  616.000    5.471    0.291    0.362   71.398
  616.250    5.807    0.269    0.321   79.473
  616.500    5.971    0.246    0.322   81.451
  616.750    6.026    0.241    0.341   79.368
  617.000    5.968    0.254    0.346   74.514
  617.250    5.933    0.252    0.339   75.324
  617.500    5.822    0.243    0.340   76.504
  617.750    5.565    0.243    0.346   76.205
  618.000    5.319    0.255    0.348   72.584
  618.250    5.171    0.258    0.349   69.885
  618.500    5.160    0.267    0.357   65.647
  618.750    5.237    0.284    0.362   59.195
  619.000    5.394    0.303    0.358   55.634
  619.250    5.516    0.305    0.352   60.630
  619.500    5.703    0.282    0.348   64.947
  619.750    5.985    0.260    0.354   71.544
  620.000    6.132    0.247    0.350   76.600
  620.250    6.176    0.239    0.345   81.104
  620.500    5.937    0.246    0.342   80.004
  620.750    5.902    0.253    0.342   72.321
  621.000    5.956    0.266    0.339   73.376
  621.250    6.067    0.261    0.338   76.833
  621.500    6.111    0.251    0.355   75.980
  621.750    5.941    0.247    0.367   69.220
  622.000    5.636    0.257    0.364   64.983
  622.250    5.308    0.270    0.357   59.145
  622.500    5.121    0.284    0.352   55.339
  622.750    5.091    0.294    0.342   54.240
  623.000    5.157    0.303    0.338   55.665
  623.250    5.322    0.306    0.333   59.369
  623.500    5.422    0.282    0.342   64.242
  623.750    5.554    0.257    0.352   69.544
  624.000    5.753    0.241    0.342   76.445
  624.250    5.860    0.239    0.338   84.951
  624.500    5.761    0.254    0.346   86.745
  624.750    5.664    0.266    0.341   79.614
  625.000    5.599    0.276    0.332   74.946
  625.250    5.630    0.279    0.340   77.294
  625.500    5.670    0.276    0.348   78.291
  625.750    5.669    0.273    0.350   77.991
  626.000    5.563    0.273    0.347   75.538
  626.250    5.258    0.273    0.344   72.531
  626.500    5.026    0.278    0.342   69.218
  626.750    4.978    0.288    0.339   67.320
  627.000    4.958    0.296    0.337   66.282
  627.250    5.013    0.298    0.343   68.323
  627.500    5.068    0.287    0.349   70.797
  627.750    5.143    0.283    0.350   72.775
  628.000    5.200    0.291    0.349   71.306
  628.250    5.257    0.296    0.351   67.193
  628.500    5.316    0.296    0.345   64.801
  628.750    5.384    0.289    0.337   65.857
  629.000    5.599    0.284    0.332   73.315
  629.250    6.123    0.281    0.336   78.188
  629.500    6.913    0.274    0.333   81.029
  629.750    8.117    0.252    0.325   81.529
  630.000    9.062    0.208    0.334   77.540
  630.250   10.581    0.184    0.330   78.410
  630.500   12.262    0.049    0.249   81.190
  630.750   13.638    0.038    0.232   82.738
  631.000   14.804    0.039    0.250   82.686
  631.250   16.312    0.039    0.265   77.094
  631.500   17.185    0.035    0.265   84.062
  631.750   17.473    0.038    0.263   86.100
  632.000   16.392    0.043    0.261   85.186
  632.250   16.115    0.048    0.264   80.395
  632.500   16.171    0.050    0.275   80.404
  632.750   16.198    0.053    0.277   80.784
  633.000   16.194    0.057    0.279   80.855
  633.250   16.098    0.055    0.280   80.865
  633.500   16.066    0.051    0.281   80.630
  633.750   16.121    0.048    0.278   80.084
  634.000   16.238    0.047    0.278   79.724
  634.250   16.235    0.046    0.280   80.164
  634.500   16.110    0.045    0.283   80.731
  634.750   15.926    0.045    0.285   81.232
  635.000   15.745    0.048    0.286   81.671
