~VERSION INFORMATION
 VERS.                 2.0:   CWLS LOG ASCII STANDARD -VERSION 2.0
 WRAP.                  NO:   ONE LINE PER DEPTH STEP
~WELL INFORMATION BLOCK
#MNEM.UNIT           DATA                    DESCRIPTION OF MNEMONIC
#---------    -------------------            -------------------------------
# Generated from Intellog Unique Number	CS_67_68/WELL/855
WELL.         FISHER CREEK                   : Well_name    - WELL
LOC .         00/14-05-068-07W4/0            : Location     - LOCATION
UWI .         00/14-05-068-07W4/0            : Uwi          - UNIQUE WELL ID
ENTR.         S608.1                         : Entered      - ENTERED BY
SRVC.         SCHLUMBERGER                   : Scn          - SERVICE COMPANY
STRT.M        280                            : top_depth    - START DEPTH
STOP.M        510                            : bot_depth    - STOP DEPTH
STEP.M        0.25                           : increment    - STEP LENGTH
 NULL. -999.2500:NULL Value
~CURVE INFORMATION BLOCK
#MNEM UNIT       ERCB CURVE CODE    CURVE DESCRIPTION
#-----------   ------------------   ----------------------------------
DEPT.M        00 001 00 00         : DEPTH        - DEPTH
ILD .OHMM     00 120 00 00         : RESD         - DEEP RESISTIVITY (DIL)
DPHI.V/V      00 890 00 00         : PHID         - DENSITY POROSITY (LIMESTONE)
NPHI.V/V      00 330 00 00         : PHIN         - NEUTRON POROSITY (LIMESTONE)
GR  .API      00 310 00 00         : GR           - GAMMA RAY
~PARAMETER INFORMATION
#MNEM.UNIT           DATA             DESCRIPTION OF MNEMONIC
#---------         -----------     ------------------------------
GL  .M        608.1                : gl           - GROUND LEVEL ELEVATION
EREF.M        611.71               : kb           - ELEVATION OF DEPTH REFERENCE
DATM.M        608.1                : datum        - DATUM ELEVATION
TDD .M        519.5                : tdd          - TOTAL DEPTH DRILLER
RUN .         ONE                  : Run          - RUN NUMBER
ENG .         BILL                 : Engineer     - RECORDING ENGINEER
WIT .         JIM                  : Witness      - WITNESSED BY
MUD .         GEL                  : Mud_type     - MUD TYPE
MATR.         LIMESTONE            : Logunit      - NEUTRON MATRIX
TMAX.C        25                   : BHT          - MAXIMUM RECORDED TEMPERATURE
BHTD.M        519.5                : BHTDEP       - MAXIMUM RECORDED TEMPERATURE
MATR.         1                    : LOGUNIT      - NEUTRON MATRIX
RMT .C        25                   : MDTP         - TEMPERATURE OF MUD
NEUT.         1                    : NEUTRON      - NEUTRON TYPE
RESI.         0                    : RESIST       - RESISTIVITY TYPE
RMC .OHMM     0.25                 : RMC          - RESISTIVITY OF MUD CAKE
RMF .OHMM     0.25                 : RMF          - RESISTIVITY OF MUD FILTRATE
SUFT.C        15                   : SUFT         - SURFACE TEMPERATURE
~A  DEPTH     RESD     PHID     PHIN       GR
# ...
  367.000    3.542    0.299    0.411   79.714
  367.250    3.901    0.298    0.419   74.399
  367.500    4.338    0.298    0.417   80.835
  367.750    4.619    0.299    0.410   86.598
  368.000    4.737    0.290    0.421   90.217
  368.250    4.695    0.307    0.435   89.676
  368.500    4.663    0.321    0.441   85.587
  368.750    4.622    0.335    0.435   83.453
  369.000    4.607    0.343    0.429   82.055
  369.250    4.611    0.347    0.427   82.248
  369.500    4.649    0.344    0.429   82.380
  369.750    4.669    0.339    0.430   80.861
  370.000    4.707    0.335    0.421   79.951
  370.250    4.746    0.334    0.418   81.920
  370.500    4.776    0.334    0.423   84.929
  370.750    4.788    0.332    0.428   86.895
  371.000    4.818    0.330    0.415   88.621
  371.250    4.822    0.331    0.405   87.955
  371.500    4.815    0.341    0.418   83.315
  371.750    4.799    0.333    0.444   80.938
  372.000    4.741    0.324    0.463   79.784
  372.250    4.708    0.335    0.449   78.202
  372.500    4.691    0.348    0.431   76.436
  372.750    4.677    0.351    0.430   74.550
  373.000    4.662    0.350    0.431   72.722
  373.250    4.647    0.348    0.420   70.101
  373.500    4.677    0.344    0.403   69.926
  373.750    4.742    0.333    0.395   78.198
  374.000    4.872    0.316    0.405   85.430
  374.250    5.014    0.302    0.407   90.458
  374.500    5.180    0.284    0.402   93.405
  374.750    5.332    0.246    0.407   94.087
  375.000    5.489    0.238    0.412   94.525
  375.250    5.565    0.243    0.426   93.985
  375.500    5.579    0.251    0.437   93.565
  375.750    5.541    0.257    0.424   94.615
  376.000    5.441    0.261    0.420   96.216
  376.250    5.362    0.263    0.417   95.613
  376.500    5.325    0.265    0.417   91.522
  376.750    5.349    0.267    0.419   96.489
  377.000    5.393    0.269    0.419   98.152
  377.250    5.530    0.270    0.414   97.978
  377.500    5.627    0.257    0.404   98.905
  377.750    5.760    0.229    0.393   95.854
  378.000    5.863    0.194    0.383   98.006
  378.250    5.888    0.175    0.369   96.302
  378.500    5.892    0.197    0.373   91.721
  378.750    5.895    0.219    0.384   94.669
  379.000    5.866    0.230    0.377   91.679
  379.250    5.814    0.244    0.382   96.710
  379.500    5.710    0.254    0.394   98.859
  379.750    5.595    0.256    0.402  100.767
  380.000    5.392    0.270    0.410   99.918
  380.250    5.275    0.278    0.419  102.070
  380.500    5.131    0.270    0.423  102.202
  380.750    5.001    0.275    0.406   97.316
  381.000    4.928    0.281    0.396   95.979
  381.250    4.840    0.274    0.414   97.091
  381.500    4.806    0.263    0.432   97.467
  381.750    4.809    0.265    0.434   95.579
  382.000    4.812    0.281    0.435   92.284
  382.250    4.815    0.291    0.445   89.234
  382.500    4.755    0.304    0.454   93.221
  382.750    4.634    0.314    0.463   96.964
  383.000    4.507    0.325    0.447   95.872
  383.250    4.319    0.314    0.431   95.637
  383.500    4.107    0.299    0.427   98.156
  383.750    3.914    0.303    0.444  101.653
  384.000    3.736    0.309    0.458  106.314
  384.250    3.594    0.319    0.469  101.551
  384.500    3.496    0.326    0.454   97.215
  384.750    3.445    0.336    0.446   97.654
  385.000    3.295    0.346    0.441   98.581
  385.250    3.200    0.335    0.439   97.428
  385.500    3.118    0.322    0.437   95.968
  385.750    3.044    0.306    0.434   97.263
  386.000    2.995    0.307    0.432   99.660
  386.250    2.979    0.337    0.450  101.627
  386.500    3.003    0.356    0.470  101.270
  386.750    3.210    0.354    0.480   93.568
  387.000    3.412    0.327    0.441   87.029
  387.250    3.626    0.312    0.417   87.711
  387.500    3.818    0.307    0.429   91.332
  387.750    3.990    0.317    0.447   85.772
  388.000    4.076    0.323    0.426   87.007
  388.250    4.125    0.310    0.410   90.871
  388.500    4.081    0.307    0.417   94.371
  388.750    4.000    0.317    0.412   92.788
  389.000    3.898    0.329    0.408   84.780
  389.250    3.798    0.342    0.418   78.794
  389.500    3.709    0.354    0.429   76.904
  389.750    3.649    0.359    0.437   74.894
  390.000    3.637    0.354    0.445   74.476
  390.250    3.654    0.351    0.445   72.588
  390.500    3.662    0.350    0.431   68.804
  390.750    3.679    0.351    0.447   66.426
  391.000    3.695    0.350    0.463   64.232
  391.250    3.746    0.346    0.440   68.648
  391.500    3.820    0.339    0.425   73.862
  391.750    3.880    0.336    0.430   75.890
  392.000    3.934    0.335    0.432   75.165
  392.250    3.967    0.339    0.432   74.990
  392.500    3.962    0.342    0.434   77.631
  392.750    3.942    0.340    0.438   80.093
  393.000    3.892    0.336    0.394   81.020
  393.250    3.851    0.337    0.373   81.211
  393.500    3.810    0.339    0.361   80.669
  393.750    3.826    0.311    0.224   79.882
  394.000    3.991    0.053    0.187   76.220
  394.250    4.306    0.018    0.169   68.763
  394.500    4.898    0.002    0.167   61.919
  394.750    5.426    0.196    0.277   58.501
  395.000    5.932    0.230    0.325   80.909
  395.250    6.509    0.252    0.372   86.978
  395.500    6.563    0.145    0.349   89.987
  395.750    6.592    0.099    0.304   92.505
  396.000    6.571    0.066    0.265   87.618
  396.250    6.392    0.075    0.240   72.267
  396.500    6.253    0.178    0.362   57.711
  396.750    6.025    0.294    0.398   71.125
  397.000    5.508    0.319    0.422   79.579
  397.250    5.198    0.327    0.432   82.954
  397.500    4.842    0.335    0.441   85.475
  397.750    4.553    0.343    0.449   86.829
  398.000    4.298    0.350    0.430   86.656
  398.250    4.220    0.355    0.420   84.768
  398.500    4.199    0.330    0.429   84.594
  398.750    4.217    0.319    0.432   85.399
  399.000    4.260    0.312    0.421   85.469
  399.250    4.302    0.304    0.416   83.765
  399.500    4.338    0.293    0.416   85.060
  399.750    4.365    0.282    0.427   89.478
  400.000    4.327    0.275    0.420   91.934
  400.250    4.170    0.279    0.401   94.514
  400.500    3.905    0.281    0.394   96.359
  400.750    3.444    0.269    0.417   90.188
  401.000    3.072    0.261    0.430   87.198
  401.250    2.803    0.256    0.420   92.226
  401.500    2.671    0.257    0.401   97.439
  401.750    2.871    0.260    0.392  101.181
  402.000    3.138    0.260    0.408  104.067
  402.250    3.425    0.260    0.417  104.872
  402.500    3.668    0.258    0.425  102.313
  402.750    3.848    0.256    0.430  101.280
  403.000    3.968    0.256    0.414  102.576
  403.250    4.023    0.264    0.402  105.279
  403.500    4.010    0.279    0.395  107.552
  403.750    3.849    0.298    0.409  109.030
  404.000    3.466    0.310    0.416  106.897
  404.250    3.045    0.332    0.430  105.194
  404.500    2.768    0.337    0.465  108.324
  404.750    2.497    0.341    0.491  111.027
  405.000    2.198    0.335    0.477  111.159
  405.250    2.036    0.323    0.469  108.720
  405.500    1.950    0.312    0.465  103.651
  405.750    2.015    0.307    0.461  100.110
  406.000    2.051    0.320    0.460   96.754
  406.250    2.099    0.336    0.468   97.192
  406.500    2.120    0.342    0.472  100.506
  406.750    2.122    0.337    0.465   98.864
  407.000    2.115    0.332    0.464  101.443
  407.250    2.112    0.330    0.472  105.064
  407.500    2.106    0.332    0.483  107.829
  407.750    2.139    0.334    0.468  108.695
  408.000    2.231    0.334    0.450  106.134
  408.250    2.458    0.316    0.442  100.085
  408.500    2.637    0.307    0.441   94.463
  408.750    2.905    0.306    0.435   91.167
  409.000    3.151    0.316    0.456   92.830
  409.250    3.498    0.312    0.432   90.514
  409.500    3.846    0.303    0.417   90.279
  409.750    4.049    0.300    0.414   91.634
  410.000    4.128    0.298    0.412   92.502
  410.250    4.210    0.284    0.398   92.755
