~VERSION INFORMATION
 VERS.                 2.0:   CWLS LOG ASCII STANDARD -VERSION 2.0
 WRAP.                  NO:   ONE LINE PER DEPTH STEP
~WELL INFORMATION BLOCK
#MNEM.UNIT           DATA                    DESCRIPTION OF MNEMONIC
#---------    -------------------            -------------------------------
# Generated from Intellog Unique Number	CW_76_78/WELL/2578
WELL.         10-20-078-24W4                 : Well_name    - WELL
LOC .         00/10-20-078-24W4/0            : Location     - LOCATION
UWI .         00/10-20-078-24W4/0            : Uwi          - UNIQUE WELL ID
ENTR.         MAX                            : Entered      - ENTERED BY
SRVC.         SCHLUMBERGER                   : Scn          - SERVICE COMPANY
STRT.M        274.32                         : top_depth    - START DEPTH
STOP.M        518.07                         : bot_depth    - STOP DEPTH
STEP.M        0.25                           : increment    - STEP LENGTH
 NULL. -999.2500:NULL Value
~CURVE INFORMATION BLOCK
#MNEM UNIT       ERCB CURVE CODE    CURVE DESCRIPTION
#-----------   ------------------   ----------------------------------
DEPT.M        00 001 00 00         : DEPTH        - DEPTH
ILD .OHMM     00 120 00 00         : RESD         - DEEP RESISTIVITY (DIL)
NPHI.V/V      00 330 00 00         : PHIN         - NEUTRON POROSITY (SANDSTONE)
DPHI.V/V      00 890 00 00         : PHID         - DENSITY POROSITY (SANDSTONE)
CALI.MM       00 280 01 00         : CAL          - CALIPER
GR  .API      00 310 00 00         : GR           - GAMMA RAY
~PARAMETER INFORMATION
#MNEM.UNIT           DATA             DESCRIPTION OF MNEMONIC
#---------         -----------     ------------------------------
GL  .M        588.874              : gl           - GROUND LEVEL ELEVATION
EREF.M        592.836              : kb           - ELEVATION OF DEPTH REFERENCE
DATM.M        588.874              : datum        - DATUM ELEVATION
TDD .M        536.448              : tdd          - TOTAL DEPTH DRILLER
RUN .         ONE                  : Run          - RUN NUMBER
ENG .         BILL                 : Engineer     - RECORDING ENGINEER
WIT .         JIM                  : Witness      - WITNESSED BY
MUD .         GEL                  : Mud_type     - MUD TYPE
MATR.         SANDSTONE            : Logunit      - NEUTRON MATRIX
TMAX.C        16.6667              : BHT          - MAXIMUM RECORDED TEMPERATURE
BHTD.M        536.448              : BHTDEP       - MAXIMUM RECORDED TEMPERATURE
RMT .C        19.4444              : MDTP         - TEMPERATURE OF MUD
MUDD.KG/M     9300                 : MWT          - MUD DENSITY
NEUT.         1                    : NEUTRON      - NEUTRON TYPE
RESI.         0                    : RESIST       - RESISTIVITY TYPE
RM  .OHMM     3.82                 : RM           - RESISTIVITY OF MUD
RMC .OHMM     0                    : RMC          - RESISTIVITY OF MUD CAKE
RMF .OHMM     3.9                  : RMF          - RESISTIVITY OF MUD FILTRATE
SUFT.C        -20.5556             : SUFT         - SURFACE TEMPERATURE
~A  DEPTH     RESD     PHIN     PHID      CAL       GR
# ...
  347.320   16.118    0.455    0.293  204.929   50.396
  347.570   16.693    0.453    0.298  204.390   50.669
  347.820   17.291    0.456    0.300  204.354   50.937
  348.070   18.233    0.463    0.292  204.322   51.207
  348.320   19.403    0.462    0.262  204.290   51.186
  348.570   21.210    0.437    0.243  203.755   50.575
  348.820   23.817    0.412    0.231  203.719   49.387
  349.070   26.744    0.368    0.215  203.180   48.491
  349.320   27.456    0.361    0.174  202.654   49.053
  349.570   26.465    0.378    0.167  202.124   51.359
  349.820   23.955    0.400    0.221  203.071   53.671
  350.070   21.687    0.415    0.241  203.533   55.403
  350.320   19.109    0.417    0.254  203.533   56.842
  350.570   17.612    0.433    0.263  202.957   57.982
  350.820   17.126    0.451    0.280  202.431   58.541
  351.070   17.113    0.463    0.290  201.901   59.692
  351.320   17.412    0.475    0.294  202.844   62.879
  351.570   17.874    0.492    0.297  202.807   64.608
  351.820   18.514    0.471    0.283  203.754   64.000
  352.070   19.522    0.455    0.272  204.221   63.103
  352.320   20.221    0.428    0.256  204.674   65.996
  352.570   20.570    0.421    0.255  204.637   69.478
  352.820   20.191    0.425    0.244  204.597   73.245
  353.070   19.286    0.443    0.235  204.533   75.557
  353.320   18.425    0.452    0.236  204.030   80.494
  353.570   17.764    0.473    0.261  203.994   83.098
  353.820   17.429    0.484    0.260  203.957   87.451
  354.070   17.264    0.493    0.245  203.916   95.597
  354.320   17.405    0.492    0.222  203.386  106.657
  354.570   17.547    0.494    0.215  203.350   90.593
  354.820   17.378    0.511    0.228  202.811   79.196
  355.070   17.055    0.508    0.231  202.774   70.713
  355.320   16.439    0.489    0.246  202.239   66.317
  355.570   15.989    0.488    0.272  202.208   64.537
  355.820   15.550    0.487    0.268  202.208   64.229
  356.070   15.401    0.483    0.272  202.130   61.583
  356.320   15.252    0.480    0.273  202.094   62.431
  356.570   15.239    0.494    0.274  202.524   63.870
  356.820   15.239    0.502    0.267  202.515   65.013
  357.070   15.215    0.489    0.255  202.470   63.531
  357.320   15.759    0.476    0.254  202.434   61.759
  357.570   16.178    0.462    0.250  202.397   61.446
  357.820   17.368    0.454    0.242  201.871   61.716
  358.070   18.481    0.464    0.259  201.871   61.111
  358.320   18.804    0.457    0.257  201.799   60.793
  358.570   17.645    0.461    0.248  201.264   61.357
  358.820   14.340    0.486    0.246  201.712   64.253
  359.070   12.080    0.514    0.255  201.187   66.859
  359.320   10.837    0.526    0.265  200.661   70.624
  359.570   10.078    0.537    0.262  199.628   73.519
  359.820    9.713    0.565    0.268  199.102   75.540
  360.070    9.535    0.556    0.275  199.039   76.104
  360.320    9.522    0.542    0.273  199.510   76.372
  360.570    9.520    0.535    0.255  200.461   77.801
  360.820    9.520    0.540    0.262  201.422   78.371
  361.070    9.504    0.536    0.276  202.863   80.972
  361.320    9.504    0.505    0.251  203.316   82.408
  361.570    9.571    0.488    0.248  203.746   82.384
  361.820    9.569    0.484    0.247  204.226   83.238
  362.070    9.569    0.478    0.235  204.226   84.675
  362.320    9.549    0.476    0.245  204.634   86.984
  362.570    9.460    0.474    0.244  204.616   87.546
  362.820    9.367    0.493    0.236  204.616   86.941
  363.070    9.367    0.510    0.234  204.538   85.756
  363.320    9.354    0.523    0.237  204.502   84.273
  363.570    9.263    0.502    0.233  203.972   83.668
  363.820    9.255    0.485    0.216  203.931   83.933
  364.070    9.164    0.473    0.212  203.931   85.078
  364.320    9.158    0.477    0.223  203.840   85.935
  364.570    9.151    0.477    0.216  203.822   87.080
  364.820    9.151    0.485    0.216  203.786   89.097
  365.070    9.054    0.484    0.225  203.722   88.493
  365.320    9.048    0.486    0.222  203.708   88.763
  365.570    9.048    0.503    0.207  203.672   89.614
  365.820    8.950    0.509    0.217  203.604   90.467
  366.070    8.946    0.497    0.224  203.581   90.735
  366.320    8.780    0.489    0.220  203.554   90.133
  366.570    8.617    0.479    0.216  204.505   88.653
  366.820    8.457    0.474    0.205  205.942   87.168
  367.070    8.225    0.486    0.186  206.408   87.727
  367.320    8.000    0.482    0.187  206.368   89.164
  367.570    7.782    0.495    0.191  205.842   89.728
  367.820    7.568    0.515    0.194  205.307   89.415
  368.070    7.428    0.519    0.203  204.768   89.394
  368.320    7.224    0.513    0.191  204.704   90.245
  368.570    7.154    0.503    0.188  204.695   92.268
  368.820    7.214    0.504    0.185  204.659   95.160
  369.070    7.404    0.508    0.193  204.659   95.139
  369.320    7.601    0.507    0.187  204.581   92.201
  369.570    7.874    0.494    0.196  204.056   88.679
  369.820    8.154    0.478    0.183  204.015   84.274
  370.070    8.154    0.478    0.193  203.979   82.800
  370.320    8.363    0.499    0.184  203.942   80.445
  370.570    8.663    0.507    0.193  203.906   76.335
  370.820    8.814    0.480    0.224  203.870   75.438
  371.070    9.047    0.473    0.239  203.829   78.045
  371.320    9.203    0.497    0.220  203.765   81.520
  371.570    9.197    0.510    0.207  203.756   80.913
  371.820    9.026    0.498    0.215  203.756   80.894
  372.070    8.779    0.474    0.231  203.665   82.912
  372.320    8.539    0.477    0.220  204.136   84.935
  372.570    8.084    0.493    0.206  204.589   89.578
  372.820    7.793    0.506    0.199  205.541   91.012
  373.070    7.379    0.505    0.189  206.492   93.615
  373.320    7.113    0.489    0.188  207.444   96.802
  373.570    7.040    0.506    0.173  210.865   93.864
  373.820    6.976    0.529    0.165  209.338   87.426
  374.070    7.290    0.519    0.180  205.350   82.446
  374.320    8.113    0.505    0.212  203.343   76.877
  374.570    9.110    0.484    0.236  202.314   75.108
  374.820    9.782    0.478    0.229  202.255   74.793
  375.070   10.693    0.469    0.229  202.241   75.646
  375.320   11.378    0.468    0.234  202.205   76.791
  375.570   11.785    0.485    0.240  202.164   76.770
  375.820   12.205    0.502    0.234  202.164   77.032
  376.070   12.418    0.510    0.228  202.073   78.183
  376.320   12.861    0.490    0.233  202.051   78.745
  376.570   13.323    0.498    0.196  202.014   77.265
  376.820   13.921    0.501    0.252  202.014   74.615
  377.070   14.291    0.487    0.275  201.937   73.716
  377.320   14.410    0.482    0.284  201.411   73.692
  377.570   13.521    0.476    0.270  201.411   73.379
  377.820   12.574    0.480    0.247  200.840   73.652
  378.070   11.587    0.500    0.258  200.799   75.378
  378.320   10.873    0.497    0.263  200.758   78.270
  378.570   10.388    0.485    0.257  200.718   80.296
  378.820    9.924    0.486    0.244  201.180   84.355
  379.070    9.828    0.502    0.232  202.127   90.168
  379.320   10.180    0.522    0.223  202.593   93.646
  379.570   12.171    0.529    0.222  203.037   90.708
  379.820   13.069    0.483    0.209  203.010   79.017
  380.070   16.944    0.440    0.188  202.974   74.037
  380.320   22.772    0.318    0.164  202.937   69.054
  380.570   28.738    0.254    0.124  202.896   65.822
  380.820   30.582    0.265    0.038  202.855   64.928
  381.070   29.212    0.279    0.015  202.824   65.195
  381.320   27.414    0.286    0.065  202.284   66.338
  381.570   24.590    0.297    0.096  202.746   69.233
  381.820   22.666    0.346    0.120  204.686   72.131
  382.070   18.752    0.382    0.146  205.633   76.776
  382.320   16.087    0.381    0.150  205.596   81.416
  382.570   14.562    0.391    0.143  205.555   86.940
  382.820   12.831    0.428    0.155  205.519   92.749
  383.070   11.511    0.470    0.182  204.989   94.475
  383.320   10.327    0.467    0.193  204.454   93.578
  383.570    9.690    0.477    0.187  204.422   92.685
