~VERSION INFORMATION
 VERS.                 2.0:   CWLS LOG ASCII STANDARD -VERSION 2.0
 WRAP.                  NO:   ONE LINE PER DEPTH STEP
~WELL INFORMATION BLOCK
#MNEM.UNIT           DATA                    DESCRIPTION OF MNEMONIC
#---------    -------------------            -------------------------------
# Generated from Intellog Unique Number	CC_80_83/WELL/2359
NULL.         -999.25                        : NULL_VALUE
WELL.         KANDEX HOMESTEAD PORT          : Well_name    - WELL              
LOC .         10-20-080-14W4                 : Location     - LOCATION          
UWI .         00/10-20-080-14W4/0            : Uwi          - UNIQUE WELL ID    
ENTR.         RJA                            : Entered      - ENTERED BY        
SRVC.         SCHLUMBERGER                   : Scn          - SERVICE COMPANY   
DATE.         13 FEB 78                      : Date         - LOG DATE
STRT.M        213.36                         : top_depth    - START DEPTH       
STOP.M        454.157                        : bot_depth    - STOP DEPTH        
STEP.M        0.305                          : increment    - STEP LENGTH       
~CURVE INFORMATION BLOCK
#MNEM UNIT       ERCB CURVE CODE    CURVE DESCRIPTION
#-----------   ------------------   ----------------------------------
DEPT.M        00 001 00 00         : DEPTH        - DEPTH                       
DPHI.V/V      00 890 00 00         : PHID         - DENSITY POROSITY (LIMESTONE)
NPHI.V/V      00 330 00 00         : PHIN         - NEUTRON POROSITY (LIMESTONE)
GR  .API      00 310 00 00         : GR           - GAMMA RAY                   
ILD .OHMM     00 120 00 00         : RESD         - DEEP RESISTIVITY (DIL)      
~PARAMETER INFORMATION       
#MNEM.UNIT           DATA             DESCRIPTION OF MNEMONIC
#---------         -----------     ------------------------------
GL  .M        640.69               : gl           - GROUND LEVEL ELEVATION      
EREF.M        644.042              : kb           - ELEVATION OF DEPTH REFERENCE
DATM.M        644.042              : datum        - DATUM ELEVATION             
TDD .M        459.029              : tdd          - TOTAL DEPTH DRILLER         
RUN .         ONE                  : Run          - RUN NUMBER                  
ENG .         BILL                 : Engineer     - RECORDING ENGINEER          
WIT .         JIM                  : Witness      - WITNESSED BY                
MUD .         GEL                  : Mud_type     - MUD TYPE                    
MATR.         LIMESTONE            : Logunit      - NEUTRON MATRIX              
TMAX.C        15                   : BHT          - MAXIMUM RECORDED TEMPERATURE
BHTD.M        459.029              : BHTDEP       - MAXIMUM RECORDED TEMPERATURE
MATR.         1                    : LOGUNIT      - NEUTRON MATRIX              
RMT .C        25                   : MDTP         - TEMPERATURE OF MUD          
NEUT.         1                    : NEUTRON      - NEUTRON TYPE                
RESI.         0                    : RESIST       - RESISTIVITY TYPE            
RMC .OHMM     0.25                 : RMC          - RESISTIVITY OF MUD CAKE     
RMF .OHMM     0.25                 : RMF          - RESISTIVITY OF MUD FILTRATE 
SUFT.C        4                    : SUFT         - SURFACE TEMPERATURE         
~A  DEPTH     PHID     PHIN       GR     RESD
# ...
  266.395    0.260    0.450  105.536   12.924
  266.700    0.268    0.420  107.335   13.682
  267.004    0.256    0.407   95.656   14.213
  267.309    0.285    0.414   85.211   14.765
  267.614    0.313    0.451   76.002   15.051
  267.919    0.307    0.474   67.387   15.057
  268.224    0.328    0.447   63.667   15.067
  268.528    0.318    0.445   63.026   14.794
  268.833    0.308    0.461   64.205   14.258
  269.138    0.302    0.456   62.936   14.271
  269.443    0.328    0.472   61.067   14.276
  269.748    0.345    0.481   60.408   14.281
  270.052    0.334    0.434   61.597   14.291
  270.357    0.319    0.431   63.377   14.300
  270.662    0.323    0.458   62.720   14.306
  270.967    0.324    0.476   62.082   14.317
  271.272    0.343    0.496   59.590   14.594
  271.577    0.339    0.500   58.948   14.603
  271.881    0.333    0.451   60.126   15.171
  272.186    0.339    0.445   67.422   15.465
  272.491    0.333    0.474   66.159   15.476
  272.796    0.326    0.488   63.061   15.482
  273.101    0.294    0.470   60.569   15.203
  273.405    0.257    0.456   61.144   14.651
  273.710    0.285    0.439   62.943   14.388
  274.015    0.310    0.414   63.518   14.397
  274.320    0.322    0.437   62.236   14.404
  274.625    0.321    0.456   62.813   14.683
  274.929    0.318    0.460   63.390   14.419
  275.234    0.339    0.453   62.130   13.637
  275.539    0.354    0.457   62.086   12.898
  275.844    0.345    0.453   65.109   13.152
  276.149    0.351    0.457   61.995   13.157
  276.453    0.364    0.455   62.580   12.680
  276.758    0.383    0.448   68.661   10.920
  277.063    0.391    0.463   74.740    9.404
  277.368    0.336    0.465   77.750    8.567
  277.673    0.320    0.435   79.552    8.254
  277.978    0.341    0.439   79.512    9.966
  278.282    0.372    0.437   83.143   10.746
  278.587    0.430    0.461   84.331   12.034
  278.892    0.475    0.511   87.957   12.504
  279.197    0.289    0.554   90.967   12.745
  279.502    0.283    0.490   93.993   12.282
  279.806    0.289    0.415   91.507   11.189
  280.111    0.322    0.393   84.730   10.193
  280.416    0.361    0.417   81.626    9.114
  280.721    0.373    0.440   80.363    8.459
  281.026    0.397    0.453   80.333    7.563
  281.330    0.320    0.460   86.406    7.152
  281.635    0.327    0.419   92.481    8.161
  281.940    0.357    0.454   96.728   11.232
  282.245    0.380    0.496   99.131   14.616
  282.550    0.321    0.549   94.812   16.676
  282.854    0.347    0.564   85.593   17.986
  283.159    0.299    0.516   72.084   17.996
  283.464    0.324    0.475   64.085   17.674
  283.769    0.355    0.492   59.153   17.355
  284.074    0.374    0.416   57.891   17.361
  284.379    0.380    0.416   60.299   17.373
  284.683    0.369    0.434   65.760   17.379
  284.988    0.369    0.437   63.883   18.401
  285.293    0.380    0.426   57.720   19.113
  285.598    0.390    0.376   52.176   19.486
  285.903    0.384    0.378   50.303   20.245
  286.207    0.363    0.388   53.319   20.634
  286.512    0.372    0.395   54.499   21.039
  286.817    0.357    0.396   53.235   21.452
  287.122    0.358    0.393   50.132   21.064
  287.427    0.357    0.382   46.426   21.073
  287.731    0.355    0.368   42.709   20.697
  288.036    0.364    0.372   47.570   20.707
  288.341    0.358    0.374   53.643   20.330
  288.646    0.361    0.374   54.825   20.341
  288.951    0.361    0.374   52.951   20.354
  289.255    0.364    0.383   50.463   20.749
  289.560    0.368    0.390   48.592   21.156
  289.865    0.373    0.404   50.374   20.775
  290.170    0.377    0.393   50.343   20.790
  290.475    0.364    0.365   47.849   20.796
  290.780    0.363    0.358   45.360   20.810
  291.084    0.340    0.377   44.104   20.057
  291.389    0.324    0.391   44.050   19.695
  291.694    0.286    0.407   46.466   19.342
  291.999    0.314    0.402   48.879   18.989
  292.304    0.366    0.395   49.437   18.651
  292.608    0.401    0.415   51.240   18.657
  292.913    0.382    0.429   54.262   17.983
  293.218    0.359    0.432   56.060   17.989
  293.523    0.352    0.427   56.629   18.005
  293.828    0.367    0.440   55.346   17.678
  294.132    0.359    0.462   54.711   18.022
  294.437    0.357    0.475   55.273   18.030
  294.742    0.361    0.485   54.633   18.041
  295.047    0.347    0.467   52.139   18.398
  295.352    0.336    0.466   49.647   18.407
  295.656    0.342    0.475   47.158   18.414
  295.961    0.354    0.476   45.889   18.422
  296.266    0.365    0.471   46.467   18.440
  296.571    0.345    0.486   47.044   18.105
  296.876    0.345    0.472   46.375   18.112
  297.181    0.349    0.475   46.346   18.124
  297.485    0.337    0.468   47.525   17.801
  297.790    0.342    0.456   48.105   17.808
  298.095    0.352    0.463   48.055   17.818
  298.400    0.344    0.475   51.082   17.829
  298.705    0.338    0.486   52.871   17.837
  299.009    0.351    0.490   53.445   17.513
  299.314    0.350    0.495   50.337   17.523
  299.619    0.345    0.496   47.247   17.532
  299.924    0.351    0.486   44.759   17.542
  300.229    0.343    0.473   44.718   17.552
  300.533    0.345    0.468   45.895   17.564
  300.838    0.349    0.454   45.242   17.574
  301.143    0.350    0.441   43.978   17.917
  301.448    0.348    0.447   45.168   17.928
  301.753    0.319    0.461   48.189   17.937
  302.057    0.327    0.477   52.431   18.285
  302.362    0.341    0.487   53.003   18.301
  302.667    0.340    0.493   52.960   18.656
  302.972    0.338    0.487   54.140   18.666
  303.277    0.346    0.496   58.388   18.678
  303.582    0.334    0.497   60.791   18.688
  303.886    0.321    0.490   58.309   19.051
  304.191    0.339    0.471   56.434   19.062
  304.496    0.336    0.463   55.158   19.071
  304.801    0.330    0.471   57.556   19.080
  305.106    0.339    0.486   58.147   19.097
  305.410    0.332    0.485   58.716   18.749
  305.715    0.334    0.463   56.817   18.756
  306.020    0.341    0.457   56.795   18.422
  306.325    0.346    0.450   57.372   18.430
  306.630    0.328    0.463   59.159   18.101
  306.934    0.319    0.473   60.337   18.107
  307.239    0.327    0.464   59.696   17.783
  307.544    0.322    0.471   59.652   17.462
  307.849    0.311    0.495   60.229   17.145
  308.154    0.309    0.510   62.026   17.154
  308.458    0.314    0.491   61.970   17.819
  308.763    0.319    0.468   61.942   22.335
  309.068    0.312    0.467   61.904   27.469
  309.373    0.297    0.465   60.637   33.783
  309.678    0.288    0.468   64.264   39.267
  309.983    0.206    0.461   66.670   40.037
  310.287    0.026    0.461   65.413   33.208
  310.592    0.205    0.441   58.020   24.613
  310.897    0.278    0.185   52.478   21.193
  311.202    0.299    0.288   51.820   18.250
  311.507    0.310    0.334   62.797   16.318
  311.811    0.315    0.381   65.209   15.723
  312.116    0.320    0.440   64.555   15.155
  312.421    0.333    0.471   62.057   15.161
  312.726    0.333    0.495   60.803   15.170
  313.031    0.317    0.483   62.587   14.900
  313.335    0.328    0.474   63.767   14.906
  313.640    0.306    0.472   64.338   14.640
  313.945    0.307    0.464   64.925   14.105
  314.250    0.324    0.483   74.672   13.342
  314.555    0.300    0.478   86.261   12.386
  314.859    0.284    0.465   88.056   12.160
  315.164    0.270    0.475   83.117   12.872
  315.469    0.274    0.493   75.723   13.627
  315.774    0.285    0.503   71.410   13.631
  316.079    0.303    0.512   68.916   12.420
  316.384    0.313    0.474   71.943   11.315
  316.688    0.290    0.466   76.794   10.306
  316.993    0.268    0.457   81.643    8.877
  317.298    0.257    0.448   82.836    8.238
  317.603    0.273    0.464   83.402    8.558
  317.908    0.282    0.464   80.921    9.766
  318.212    0.281    0.474   69.243   10.335
  318.517    0.300    0.484   60.632   11.146
  318.822    0.312    0.457   57.534   10.544
  319.127    0.321    0.436   58.107   10.159
