~VERSION INFORMATION
 VERS.                 2.0:   CWLS LOG ASCII STANDARD -VERSION 2.0
 WRAP.                  NO:   ONE LINE PER DEPTH STEP
~WELL INFORMATION BLOCK
#MNEM.UNIT           DATA                    DESCRIPTION OF MNEMONIC
#---------    -------------------            -------------------------------
# Generated from Intellog Unique Number	CS_77_79/WELL/3008
WELL.         CDN OXY WINEFRED               : Well_name    - WELL
LOC .         00/11-34-077-03W4/0            : Location     - LOCATION
UWI .         00/11-34-077-03W4/0            : Uwi          - UNIQUE WELL ID
ENTR.         TIM                            : Entered      - ENTERED BY
SRVC.         SCHLUMBERGER                   : Scn          - SERVICE COMPANY
STRT.M        195                            : top_depth    - START DEPTH
STOP.M        455                            : bot_depth    - STOP DEPTH
STEP.M        0.25                           : increment    - STEP LENGTH
 NULL. -999.2500:NULL Value
~CURVE INFORMATION BLOCK
#MNEM UNIT       ERCB CURVE CODE    CURVE DESCRIPTION
#-----------   ------------------   ----------------------------------
DEPT.M        00 001 00 00         : DEPTH        - DEPTH
GR  .API      00 310 00 00         : GR           - GAMMA RAY
NPHI.V/V      00 330 00 00         : PHIN         - NEUTRON POROSITY (DOLOMITE)
DPHI.V/V      00 890 00 00         : PHID         - DENSITY POROSITY (DOLOMITE)
ILD .OHMM     00 120 00 00         : RESD         - DEEP RESISTIVITY (DIL)
~PARAMETER INFORMATION
#MNEM.UNIT           DATA             DESCRIPTION OF MNEMONIC
#---------         -----------     ------------------------------
GL  .M        588.9                : gl           - GROUND LEVEL ELEVATION
EREF.M        591.9                : kb           - ELEVATION OF DEPTH REFERENCE
DATM.M        591.9                : datum        - DATUM ELEVATION
TDD .M        457                  : tdd          - TOTAL DEPTH DRILLER
RUN .         ONE                  : Run          - RUN NUMBER
ENG .         BILL                 : Engineer     - RECORDING ENGINEER
WIT .         JIM                  : Witness      - WITNESSED BY
MUD .         GEL                  : Mud_type     - MUD TYPE
MATR.         DOLOMITE             : Logunit      - NEUTRON MATRIX
TMAX.C        13                   : BHT          - MAXIMUM RECORDED TEMPERATURE
BHTD.M        457                  : BHTDEP       - MAXIMUM RECORDED TEMPERATURE
MATR.         1                    : LOGUNIT      - NEUTRON MATRIX
RMT .C        20                   : MDTP         - TEMPERATURE OF MUD
NEUT.         1                    : NEUTRON      - NEUTRON TYPE
RESI.         2.8                  : RESIST       - RESISTIVITY TYPE
RMC .OHMM     2.6                  : RMC          - RESISTIVITY OF MUD CAKE
RMF .OHMM     2.6                  : RMF          - RESISTIVITY OF MUD FILTRATE
SUFT.C        15                   : SUFT         - SURFACE TEMPERATURE
~A  DEPTH       GR     PHIN     PHID     RESD
# ...
  412.500   47.525    0.372    0.296    2.076
  412.750   46.318    0.371    0.304    1.962
  413.000   33.882    0.367    0.326    1.855
  413.250   30.306    0.359    0.335    1.787
  413.500   31.462    0.353    0.342    1.753
  413.750   34.396    0.355    0.337    1.720
  414.000   37.914    0.362    0.329    1.687
  414.250   42.023    0.366    0.320    1.687
  414.500   43.763    0.371    0.316    1.686
  414.750   41.972    0.375    0.323    1.716
  415.000   37.812    0.375    0.328    1.779
  415.250   33.645    0.374    0.338    1.778
  415.500   34.210    0.372    0.342    1.778
  415.750   35.353    0.361    0.328    1.947
  416.000   35.925    0.352    0.327    2.019
  416.250   37.080    0.352    0.328    2.056
  416.500   36.464    0.358    0.337    2.054
  416.750   35.848    0.365    0.345    2.092
  417.000   35.829    0.372    0.353    2.169
  417.250   35.200    0.379    0.337    2.334
  417.500   35.187    0.382    0.330    2.511
  417.750   35.161    0.379    0.322    2.653
  418.000   38.076    0.367    0.316    2.750
  418.250   42.191    0.352    0.306    2.852
  418.500   46.307    0.408    0.310    2.747
  418.750   50.403    0.423    0.320    2.597
  419.000   50.968    0.425    0.321    2.456
  419.250   50.949    0.416    0.290    2.365
  419.500   49.145    0.351    0.267    2.278
  419.750   45.575    0.339    0.267    2.235
  420.000   40.825    0.346    0.272    2.193
  420.250   39.624    0.355    0.290    2.151
  420.500   38.411    0.364    0.310    2.111
  420.750   37.794    0.368    0.318    2.149
  421.000   40.138    0.370    0.304    2.228
  421.250   93.863    0.368    0.263    2.310
  421.500   79.662    0.367    0.212    2.396
  421.750   66.050    0.361    0.221    2.439
  422.000   53.614    0.354    0.252    2.393
  422.250   41.185    0.347    0.277    2.348
  422.500   34.662    0.342    0.280    2.303
  422.750   31.092    0.339    0.274    2.302
  423.000   33.429    0.345    0.269    2.387
  423.250   36.357    0.350    0.256    2.715
  423.500   40.466    0.353    0.162    3.031
  423.750   53.435    0.371    0.145    3.384
  424.000   91.803    0.385    0.136    4.067
  424.250   96.503    0.388    0.138    4.458
  424.500   99.424    0.388    0.143    5.260
  424.750  100.586    0.387    0.146    5.982
  425.000  100.561    0.386    0.146    6.318
  425.250   99.938    0.390    0.145    6.798
  425.500   99.315    0.393    0.143    6.921
  425.750   99.303    0.398    0.142    6.914
  426.000  100.446    0.401    0.141    6.911
  426.250  101.614    0.401    0.140    6.906
  426.500  102.770    0.402    0.139    6.776
  426.750  103.926    0.402    0.139    6.771
  427.000  103.894    0.402    0.139    6.767
  427.250  103.862    0.401    0.143    6.640
  427.500  103.842    0.395    0.145    6.637
  427.750  102.635    0.389    0.145    6.632
  428.000  100.247    0.382    0.145    6.628
  428.250   87.220    0.372    0.151    6.153
  428.500   77.160    0.359    0.157    5.305
  428.750   64.133    0.342    0.175    4.659
  429.000   47.569    0.318    0.212    3.731
  429.250   39.864    0.297    0.234    3.338
  429.500   37.470    0.301    0.252    3.099
  429.750   35.075    0.313    0.263    2.876
  430.000   33.868    0.329    0.278    2.771
  430.250   33.849    0.336    0.288    2.718
  430.500   34.407    0.338    0.294    2.766
  430.750   34.972    0.338    0.284    2.869
  431.000   35.538    0.332    0.265    2.975
  431.250   36.103    0.322    0.252    3.260
  431.500   36.668    0.298    0.247    3.381
  431.750   37.239    0.284    0.229    3.570
  432.000   38.395    0.288    0.219    3.914
  432.250   40.135    0.507    0.220    4.212
  432.500   43.647    0.537    0.237    4.702
  432.750   48.353    0.555    0.293    5.059
  433.000   56.603    0.568    0.352    5.752
  433.250   66.619    0.563    0.407    5.857
  433.500   76.044    0.540    0.224    6.072
  433.750  103.189    0.491    0.177    6.183
  434.000  110.252    0.443    0.149    6.411
  434.250  113.180    0.430    0.125    6.526
  434.500  110.201    0.422    0.113    6.642
  434.750  103.087    0.415    0.107    6.639
  435.000   97.155    0.404    0.108    6.639
  435.250   88.263    0.389    0.123    6.390
  435.500   77.605    0.374    0.137    5.933
  435.750   75.801    0.368    0.150    5.506
  436.000   73.413    0.360    0.164    5.112
  436.250   71.031    0.356    0.169    4.489
  436.500   66.870    0.355    0.173    4.016
  436.750   61.522    0.354    0.183    3.593
  437.000   56.181    0.354    0.217    3.461
  437.250   49.067    0.354    0.255    3.213
  437.500   43.725    0.355    0.260    3.037
  437.750   40.746    0.354    0.259    2.872
  438.000   39.539    0.354    0.259    2.818
  438.250   39.508    0.352    0.267    2.765
  438.500   34.166    0.350    0.280    2.814
  438.750   32.368    0.351    0.287    2.918
  439.000   31.155    0.354    0.286    3.139
  439.250   31.720    0.362    0.278    3.256
  439.500   35.245    0.360    0.271    3.703
  439.750   48.805    0.363    0.260    3.984
  440.000  104.899    0.444    0.250    4.529
  440.250  112.552    0.506    0.220    4.698
  440.500  113.702    0.548    0.234    4.963
  440.750  109.541    0.568    0.270    5.339
  441.000  111.281    0.583    0.317    5.436
  441.250  112.450    0.578    0.317    5.741
  441.500  114.190    0.570    0.293    5.952
  441.750  115.345    0.559    0.259    6.061
  442.000  110.004    0.547    0.266    6.284
  442.250   96.984    0.533    0.272    6.517
  442.500   89.870    0.508    0.237    6.883
  442.750   82.165    0.485    0.179    7.007
  443.000   75.045    0.432    0.168    7.003
  443.250   71.476    0.423    0.163    6.621
  443.500   94.486    0.479    0.257    6.376
  443.750  100.965    0.506    0.347    6.030
  444.000  116.296    0.536    0.383    5.808
  444.250  113.317    0.558    0.386    5.699
  444.500  110.929    0.593    0.374    5.388
  444.750  115.032    0.585    0.302    5.386
  445.000  119.732    0.577    0.280    5.283
  445.250  124.438    0.577    0.273    5.280
  445.500  129.131    0.575    0.243    5.276
  445.750  128.515    0.568    0.198    5.273
  446.000  127.886    0.554    0.174    5.368
  446.250  127.276    0.539    0.159    5.464
  446.500  125.478    0.499    0.144    5.564
  446.750  123.090    0.488    0.136    5.877
  447.000  118.936    0.478    0.136    6.322
  447.250  110.044    0.446    0.138    6.802
  447.500  107.065    0.418    0.140    6.925
  447.750  102.314    0.402    0.145    7.050
  448.000   78.662    0.388    0.159    7.177
  448.250   67.407    0.377    0.177    7.305
  448.500   68.563    0.365    0.170    7.436
  448.750   83.310    0.360    0.155    7.569
  449.000   93.917    0.364    0.144    7.567
  449.250  106.886    0.368    0.132    8.140
  449.500  115.720    0.373    0.120    8.443
  449.750  110.379    0.377    0.109    8.918
  450.000  103.849    0.381    0.093   10.140
  450.250   98.507    0.380    0.029   11.113
  450.500   97.891    0.351    0.033   11.959
  450.750   97.866    0.329    0.060   14.374
  451.000   97.840    0.302    0.056   18.600
  451.250   97.217    0.168    0.040   26.395
  451.500   97.192    0.159    0.039   32.316
  451.750   98.932    0.156    0.032   38.132
  452.000   99.510    0.152    0.021   44.171
  452.250  100.075    0.149    0.021   51.167
  452.500   99.446    0.146    0.025   56.071
  452.750  100.017    0.141    0.027   59.226
  453.000  101.173    0.139    0.024   63.725
  453.250   99.369    0.136    0.019   64.882
  453.500   98.752    0.134    0.014   66.051
  453.750   99.908    0.133    0.009   68.472
  454.000  102.245    0.132    0.006   67.169
  454.250  103.992    0.130    0.006   65.921
  454.500  105.154    0.130    0.002   63.493
  454.750  106.310    0.130   -0.002   60.019
  455.000  106.278    0.130   -0.005   60.001
