~VERSION INFORMATION
 VERS.                 2.0:   CWLS LOG ASCII STANDARD -VERSION 2.0
 WRAP.                  NO:   ONE LINE PER DEPTH STEP
~WELL INFORMATION BLOCK
#MNEM.UNIT           DATA                    DESCRIPTION OF MNEMONIC
#---------    -------------------            -------------------------------
# Generated from Intellog Unique Number	CW_79_81/WELL/2469
WELL.         10-18-081-20W4                 : Well_name    - WELL
LOC .         00/10-18-081-20W4/0            : Location     - LOCATION
UWI .         00/10-18-081-20W4/0            : Uwi          - UNIQUE WELL ID
ENTR.         MAX                            : Entered      - ENTERED BY
SRVC.         COMPUTALOG                     : Scn          - SERVICE COMPANY
STRT.M        190                            : top_depth    - START DEPTH
STOP.M        415                            : bot_depth    - STOP DEPTH
STEP.M        0.3                            : increment    - STEP LENGTH
 NULL. -999.2500:NULL Value
~CURVE INFORMATION BLOCK
#MNEM UNIT       ERCB CURVE CODE    CURVE DESCRIPTION
#-----------   ------------------   ----------------------------------
DEPT.M        00 001 00 00         : DEPTH        - DEPTH
GR  .API      00 310 00 00         : GR           - GAMMA RAY
CALI.MM       00 280 01 00         : CAL          - CALIPER
DPHI.V/V      00 890 00 00         : PHID         - DENSITY POROSITY (SANDSTONE)
NPHI.V/V      00 330 00 00         : PHIN         - NEUTRON POROSITY (SANDSTONE)
ILD .OHMM     00 120 00 00         : RESD         - DEEP RESISTIVITY (DIL)
~PARAMETER INFORMATION
#MNEM.UNIT           DATA             DESCRIPTION OF MNEMONIC
#---------         -----------     ------------------------------
GL  .M        581.81               : gl           - GROUND LEVEL ELEVATION
EREF.M        585.04               : kb           - ELEVATION OF DEPTH REFERENCE
DATM.M        581.81               : datum        - DATUM ELEVATION
TDD .M        415                  : tdd          - TOTAL DEPTH DRILLER
RUN .         ONE                  : Run          - RUN NUMBER
ENG .         BILL                 : Engineer     - RECORDING ENGINEER
WIT .         JIM                  : Witness      - WITNESSED BY
MUD .         GEL                  : Mud_type     - MUD TYPE
MATR.         SANDSTONE            : Logunit      - NEUTRON MATRIX
TMAX.C        27                   : BHT          - MAXIMUM RECORDED TEMPERATURE
BHTD.M        415                  : BHTDEP       - MAXIMUM RECORDED TEMPERATURE
MATR.         1                    : LOGUNIT      - NEUTRON MATRIX
RMT .C        9                    : MDTP         - TEMPERATURE OF MUD
NEUT.         1                    : NEUTRON      - NEUTRON TYPE
RESI.         0                    : RESIST       - RESISTIVITY TYPE
RMC .OHMM     6.3                  : RMC          - RESISTIVITY OF MUD CAKE
RMF .OHMM     8                    : RMF          - RESISTIVITY OF MUD FILTRATE
SUFT.C        -20                  : SUFT         - SURFACE TEMPERATURE
~A  DEPTH       GR      CAL     PHID     PHIN     RESD
  190.000   88.362  235.327    0.310    0.514    2.964
  190.300   94.342  233.971    0.306    0.540    2.941
  190.600   93.515  232.123    0.312    0.538    2.946
  190.900   92.104  231.707    0.306    0.537    2.951
  191.200   89.801  230.351    0.298    0.481    2.954
  191.500   85.147  230.450    0.294    0.479    2.958
  191.800   84.019  230.582    0.296    0.471    2.962
  192.100   84.386  230.670    0.300    0.521    3.022
  192.400   85.923  231.272    0.297    0.561    3.054
  192.700   85.982  231.874    0.288    0.546    3.174
  193.000   75.703  231.984    0.262    0.477    3.359
  193.300   61.880  231.109    0.253    0.438    3.621
  193.600   47.466  225.782    0.265    0.398    4.086
  193.900   46.049  211.112    0.297    0.387    4.874
  194.200   48.182  195.950    0.307    0.412    6.675
  194.500   47.657  191.619    0.317    0.425    9.227
  194.800   48.314  191.729    0.317    0.406   15.192
  195.100   49.575  191.368    0.316    0.387   24.785
  195.400   51.400  190.953    0.314    0.386   26.966
  195.700   54.715  189.597    0.313    0.389   28.799
  196.000   56.842  188.711    0.318    0.392   32.808
  196.300   58.089  188.810    0.322    0.379   44.538
  196.600   57.859  188.920    0.322    0.390   49.342
  196.900   56.737  189.522    0.322    0.409   56.723
  197.200   55.038  191.120    0.325    0.435   65.830
  197.500   55.104  192.214    0.327    0.430   71.622
  197.800   56.928  191.821    0.323    0.427   71.728
  198.100   58.176  191.438    0.318    0.425   71.175
  198.400   59.725  190.563    0.313    0.419   78.142
  198.700   58.308  190.662    0.306    0.408   94.959
  199.000   58.078  190.761    0.298    0.392   92.496
  199.300   56.365  190.379    0.293    0.384   91.784
  199.600   52.887  190.007    0.285    0.388  100.782
  199.900   49.113  190.598    0.274    0.376  118.010
  200.200   46.219  190.697    0.268    0.371  133.207
  200.500   46.285  190.807    0.251    0.363  142.304
  200.800   47.821  190.425    0.241    0.391  133.641
  201.100   48.484  190.042    0.223    0.337  112.314
  201.400   50.322  191.629    0.206    0.313   80.742
  201.700   52.738  193.216    0.229    0.303   59.123
  202.000   57.832  193.304    0.252    0.299   58.139
  202.300   60.261  188.994    0.289    0.408   57.154
  202.600   60.320  188.601    0.315    0.431   45.466
  202.900   58.325  188.699    0.322    0.441   38.592
  203.200   61.928  188.317    0.316    0.423   35.566
  203.500   67.606  188.427    0.308    0.417   31.025
  203.800   70.633  189.510    0.302    0.408   28.592
  204.100   68.322  191.589    0.301    0.401   26.602
  204.400   65.737  187.783    0.303    0.406   23.851
  204.700   65.796  187.860    0.302    0.389   17.629
  205.000   65.567  187.992    0.302    0.398   14.284
  205.300   63.558  187.609    0.308    0.387   13.918
  205.600   61.550  187.227    0.312    0.404   14.457
  205.900   56.890  187.796    0.304    0.422   14.216
  206.200   56.070  189.886    0.289    0.445   12.632
  206.500   56.424  189.996    0.268    0.464   11.641
  206.800   60.035  190.106    0.279    0.456   10.932
  207.100   62.181  190.226    0.297    0.446   10.847
  207.400   62.234  190.807    0.306    0.439   11.167
  207.700   61.414  192.393    0.301    0.431   11.289
  208.000   60.305  192.996    0.294    0.424   10.994
  208.300   60.653  194.068    0.292    0.406   10.133
  208.600   64.270  194.189    0.286    0.386    9.174
  208.900   68.760  192.811    0.270    0.365    8.853
  209.200   70.900  192.921    0.259    0.366    8.867
  209.500   68.006  194.507    0.256    0.405    8.878
  209.800   67.186  194.606    0.246    0.422    8.974
  210.100   67.836  194.727    0.226    0.406    9.071
  210.400   69.083  194.815    0.188    0.370    9.778
  210.700   72.096  195.920    0.175    0.344   10.443
  211.000   75.122  195.057    0.182    0.322   10.651
  211.300   76.363  195.156    0.231    0.348   10.379
  211.600   75.543  195.747    0.255    0.405    9.832
  211.900   76.495  197.815    0.281    0.429    8.737
  212.200   77.151  193.013    0.289    0.413    8.432
  212.500   74.848  192.116    0.279    0.379    9.259
  212.800   76.102  195.672    0.281    0.364    9.981
  213.100   80.296  207.104    0.297    0.342   10.088
  213.400   87.451  219.532    0.307    0.356    9.561
  213.700   91.652  222.104    0.319    0.375    8.185
  214.000   89.953  229.609    0.330    0.391    6.453
  214.300   92.382  231.666    0.341    0.428    6.003
  214.600   94.797  237.705    0.352    0.411    6.237
  214.900   96.937  242.235    0.361    0.414    7.040
  215.200   95.520  242.344    0.358    0.440    8.398
  215.500   88.786  239.008    0.355    0.472    9.570
  215.800   79.393  233.681    0.333    0.414   10.034
  216.100   73.552  215.565    0.298    0.358   10.521
  216.400   73.329  199.419    0.266    0.294   11.134
  216.700   74.267  191.652    0.241    0.306   11.463
  217.000   75.515  194.705    0.223    0.345   11.480
  217.300   76.762  198.753    0.216    0.390   11.497
  217.600   78.600  203.796    0.212    0.413   11.617
  217.900   80.727  200.449    0.205    0.407   11.527
  218.200   80.800  196.118    0.199    0.377   11.334
  218.500   80.564  199.181    0.200    0.391   10.842
  218.800   80.046  201.763    0.209    0.392   10.179
  219.100   79.803  203.842    0.219    0.385    9.558
  219.400   81.943  204.434    0.229    0.364    8.891
  219.700   86.728  204.533    0.247    0.353    8.273
  220.000   99.508  205.627    0.266    0.377    7.696
  220.300  105.482  207.728    0.265    0.379    7.224
  220.600  103.473  207.816    0.258    0.422    6.479
  220.900  102.351  207.926    0.256    0.444    5.809
  221.200  106.552  211.011    0.234    0.433    5.257
  221.500  107.806  214.556    0.233    0.460    4.714
  221.800  111.706  217.105    0.231    0.442    4.227
  222.100  108.818  218.681    0.252    0.486    3.861
  222.400  103.856  213.387    0.290    0.477    3.795
  222.700   93.873  204.614    0.317    0.442    3.945
  223.000   87.434  226.887    0.342    0.412    4.330
  223.300   92.528  230.443    0.370    0.398    5.359
  223.600   93.775  228.081    0.383    0.408    6.512
  223.900   96.499  227.709    0.380    0.416    7.768
  224.200  100.989  227.327    0.369    0.423    7.708
  224.500  101.055  228.421    0.343    0.413    7.104
  224.800   96.388  228.509    0.334    0.475    6.371
  225.100   84.337  222.712    0.318    0.468    6.206
  225.400   70.803  209.026    0.329    0.446    6.753
  225.700   59.940  198.295    0.329    0.412    8.129
  226.000   57.348  192.990    0.333    0.404   11.445
  226.300   59.179  191.130    0.334    0.395   14.695
  226.600   60.729  190.737    0.331    0.377   19.404
  226.900   61.969  190.858    0.333    0.390   26.326
  227.200   64.097  190.946    0.334    0.404   30.277
  227.500   65.646  191.056    0.331    0.464   30.593
  227.800   63.644  191.680    0.326    0.461   34.216
  228.100   61.642  192.763    0.325    0.474   39.698
  228.400   60.514  193.858    0.333    0.447   51.461
  228.700   61.761  195.422    0.341    0.414   55.980
  229.000   63.297  197.009    0.343    0.394   67.394
  229.300   59.825  197.622    0.343    0.397   73.313
  229.600   58.414  197.240    0.343    0.408   83.519
  229.900   60.239  196.857    0.341    0.453   94.289
  230.200   66.817  196.464    0.336    0.475   97.058
  230.500   74.260  196.574    0.334    0.463   92.843
  230.800   80.529  196.169    0.327    0.439   85.575
  231.100   75.272  194.321    0.329    0.399   82.603
  231.400   66.765  195.897    0.334    0.397   82.713
  231.700   60.635  197.484    0.337    0.418   84.387
  232.000   61.291  195.613    0.337    0.461   83.712
  232.300   61.640  196.226    0.337    0.462   81.552
  232.600   61.410  194.837    0.338    0.455   75.180
  232.900   61.785  192.497    0.337    0.440   62.622
  233.200   63.019  191.611    0.336    0.436   53.139
  233.500   63.964  192.224    0.337    0.441   44.672
