~VERSION INFORMATION
 VERS.                 2.0:   CWLS LOG ASCII STANDARD -VERSION 2.0
 WRAP.                  NO:   ONE LINE PER DEPTH STEP
~WELL INFORMATION BLOCK
#MNEM.UNIT           DATA                    DESCRIPTION OF MNEMONIC
#---------    -------------------            -------------------------------
# Generated from Intellog Unique Number	CS_77_79/WELL/1001
WELL.         PCI PCEJ CHARD                 : Well_name    - WELL
LOC .         00/11-28-079-06W4/0            : Location     - LOCATION
UWI .         00/11-28-079-06W4/0            : Uwi          - UNIQUE WELL ID
ENTR.         JHS                            : Entered      - ENTERED BY
SRVC.         SCHLUMBERGER                   : Scn          - SERVICE COMPANY
STRT.M        70                             : top_depth    - START DEPTH
STOP.M        335                            : bot_depth    - STOP DEPTH
STEP.M        0.25                           : increment    - STEP LENGTH
 NULL. -999.2500:NULL Value
~CURVE INFORMATION BLOCK
#MNEM UNIT       ERCB CURVE CODE    CURVE DESCRIPTION
#-----------   ------------------   ----------------------------------
DEPT.M        00 001 00 00         : DEPTH        - DEPTH
DPHI.V/V      00 890 00 00         : PHID         - DENSITY POROSITY (LIMESTONE)
NPHI.V/V      00 330 00 00         : PHIN         - NEUTRON POROSITY (LIMESTONE)
GR  .API      00 310 00 00         : GR           - GAMMA RAY
ILD .OHMM     00 120 00 00         : RESD         - DEEP RESISTIVITY (DIL)
RHOB.KG/M3    00 350 00 00         : DENS         - BULK DENSITY
~PARAMETER INFORMATION
#MNEM.UNIT           DATA             DESCRIPTION OF MNEMONIC
#---------         -----------     ------------------------------
GL  .M        513.8                : gl           - GROUND LEVEL ELEVATION
EREF.M        516.9                : kb           - ELEVATION OF DEPTH REFERENCE
DATM.M        516.9                : datum        - DATUM ELEVATION
TDD .M        341                  : tdd          - TOTAL DEPTH DRILLER
RUN .         ONE                  : Run          - RUN NUMBER
ENG .         BILL                 : Engineer     - RECORDING ENGINEER
WIT .         JIM                  : Witness      - WITNESSED BY
MUD .         GEL                  : Mud_type     - MUD TYPE
MATR.         LIMESTONE            : Logunit      - NEUTRON MATRIX
TMAX.C        18                   : BHT          - MAXIMUM RECORDED TEMPERATURE
BHTD.M        341                  : BHTDEP       - MAXIMUM RECORDED TEMPERATURE
MATR.         1                    : LOGUNIT      - NEUTRON MATRIX
RMT .C        25                   : MDTP         - TEMPERATURE OF MUD
NEUT.         1                    : NEUTRON      - NEUTRON TYPE
RESI.         0                    : RESIST       - RESISTIVITY TYPE
RMC .OHMM     0.25                 : RMC          - RESISTIVITY OF MUD CAKE
RMF .OHMM     0.25                 : RMF          - RESISTIVITY OF MUD FILTRATE
SUFT.C        15                   : SUFT         - SURFACE TEMPERATURE
~A  DEPTH     PHID     PHIN       GR     RESD     DENS
# ...
  106.500    0.377    0.497   57.323   14.941    0.000
  106.750    0.376    0.458   51.247   17.062    0.000
  107.000    0.357    0.442   50.030   19.484    0.000
  107.250    0.351    0.434   50.028   22.253    0.000
  107.500    0.359    0.437   51.240   23.564    0.000
  107.750    0.370    0.453   51.844   24.029    0.000
  108.000    0.359    0.474   51.234   24.049    0.000
  108.250    0.359    0.483   49.410   23.610    0.000
  108.500    0.373    0.494   48.800   23.189    0.000
  108.750    0.390    0.467   48.191   22.772    0.000
  109.000    0.385    0.461   48.796   22.787    0.000
  109.250    0.413    0.486   51.830   22.804    0.000
  109.500    0.403    0.501   52.434   23.253    0.000
  109.750    0.342    0.479   50.610   23.710    0.000
  110.000    0.348    0.442   49.392   24.638    0.000
  110.250    0.355    0.456   52.426   25.603    0.000
  110.500    0.349    0.453   53.639   25.620    0.000
  110.750    0.349    0.424   53.029   25.640    0.000
  111.000    0.341    0.423   53.026   25.654    0.000
  111.250    0.358    0.435   54.845   24.721    0.000
  111.500    0.379    0.447   56.665   23.823    0.000
  111.750    0.391    0.443   56.663   23.391    0.000
  112.000    0.428    0.469   59.089   22.543    0.000
  112.250    0.440    0.574   65.159   21.724    0.000
  112.500    0.356    0.467   71.230   20.930    0.000
  112.750    0.331    0.441   76.085   20.171    0.000
  113.000    0.349    0.435   75.475   19.435    0.000
  113.250    0.359    0.452   73.651   18.729    0.000
  113.500    0.336    0.453   76.685   17.709    0.000
  113.750    0.287    0.455   89.435   16.124    0.000
  114.000    0.244    0.470   94.898   13.874    0.000
  114.250    0.183    0.489  102.183   10.073    0.000
  114.500    0.181    0.496  110.075    8.037    0.000
  114.750    0.237    0.510  115.538    6.787    0.000
  115.000    0.253    0.550  117.965    6.180    0.000
  115.250    0.265    0.533  118.569    5.734    0.000
  115.500    0.274    0.521  114.923    5.321    0.000
  115.750    0.258    0.529  108.241    5.032    0.000
  116.000    0.246    0.546  110.060    4.758    0.000
  116.250    0.242    0.566  113.093    4.499    0.000
  116.500    0.270    0.584  113.698    4.174    0.000
  116.750    0.299    0.602  111.874    4.099    0.000
  117.000    0.293    0.593  103.977    4.180    0.000
  117.250    0.275    0.505   90.007    4.865    0.000
  117.500    0.307    0.464   67.536    5.769    0.000
  117.750    0.354    0.445   54.173    8.744    0.000
  118.000    0.441    0.472   57.207   11.835    0.000
  118.250    0.452    0.484   66.921   14.036    0.000
  118.500    0.332    0.456   66.311   15.435    0.000
  118.750    0.308    0.461   53.555   16.043    0.000
  119.000    0.331    0.458   43.836   16.356    0.000
  119.250    0.351    0.444   44.441   18.682    0.000
  119.500    0.339    0.433   51.726   21.334    0.000
  119.750    0.306    0.407   57.797   22.591    0.000
  120.000    0.323    0.423   58.401   23.041    0.000
  120.250    0.339    0.444   60.220   23.058    0.000
  120.500    0.344    0.416   65.076   21.802    0.000
  120.750    0.337    0.400   67.502   21.009    0.000
  121.000    0.301    0.441   68.107   20.243    0.000
  121.250    0.306    0.466   65.675   19.878    0.000
  121.500    0.320    0.478   62.029   19.157    0.000
  121.750    0.324    0.451   62.026   19.169    0.000
  122.000    0.331    0.439   62.024   19.180    0.000
  122.250    0.342    0.451   65.665   19.930    0.000
  122.500    0.344    0.458   66.878   20.324    0.000
  122.750    0.330    0.440   63.839   20.336    0.000
  123.000    0.317    0.423   63.836   19.601    0.000
  123.250    0.308    0.435   89.340   18.184    0.000
  123.500    0.245    0.477  103.304   14.508    0.000
  123.750    0.235    0.504  105.731    8.889    0.000
  124.000    0.224    0.513  111.194    7.794    0.000
  124.250    0.210    0.509  119.693    7.369    0.000
  124.500    0.237    0.484  134.873    7.374    0.000
  124.750    0.270    0.470  145.801    7.664    0.000
  125.000    0.313    0.463  120.293    8.919    0.000
  125.250    0.349    0.470  106.930   11.846    0.000
  125.500    0.364    0.471   92.960   14.588    0.000
  125.750    0.375    0.463   70.489   17.631    0.000
  126.000    0.346    0.459   66.235   20.136    0.000
  126.250    0.346    0.478   69.269   20.535    0.000
  126.500    0.350    0.479   74.732   19.786    0.000
  126.750    0.335    0.461   81.409   18.020    0.000
  127.000    0.318    0.455   86.872   17.039    0.000
  127.250    0.311    0.465   91.728   15.809    0.000
  127.500    0.301    0.478   89.297   15.233    0.000
  127.750    0.286    0.496   83.828   14.678    0.000
  128.000    0.291    0.503   88.684   14.413    0.000
  128.250    0.314    0.457   90.503   14.698    0.000
  128.500    0.323    0.444   84.428   15.275    0.000
  128.750    0.330    0.461   74.102   16.175    0.000
  129.000    0.339    0.498   66.812   18.474    0.000
  129.250    0.347    0.461   61.344   20.314    0.000
  129.500    0.351    0.420   60.127   21.511    0.000
  129.750    0.409    0.445   55.266   21.528    0.000
  130.000    0.446    0.517   51.620   21.540    0.000
  130.250    0.401    0.493   56.476   21.559    0.000
  130.500    0.369    0.443   53.437   22.401    0.000
  130.750    0.354    0.435   53.434   23.276    0.000
  131.000    0.349    0.422   57.075   23.296    0.000
  131.250    0.294    0.412   54.036   22.872    0.000
  131.500    0.273    0.435   52.212   22.045    0.000
  131.750    0.333    0.407   55.246   21.241    0.000
  132.000    0.350    0.398   63.138   20.468    0.000
  132.250    0.330    0.424   67.386   19.355    0.000
  132.500    0.322    0.443   66.169   18.651    0.000
  132.750    0.339    0.439   69.203   18.316    0.000
  133.000    0.338    0.432   71.023   17.649    0.000
  133.250    0.348    0.445   67.984   17.006    0.000
  133.500    0.361    0.478   66.767   15.782    0.000
  133.750    0.344    0.456   74.659   15.497    0.000
  134.000    0.296    0.450   75.263   15.505    0.000
  134.250    0.312    0.467   65.544   16.111    0.000
  134.500    0.345    0.434   61.898   17.065    0.000
  134.750    0.344    0.420   71.005   16.444    0.000
  135.000    0.324    0.425   77.075   15.257    0.000
  135.250    0.322    0.447   84.360   13.378    0.000
  135.500    0.283    0.456   89.823   12.412    0.000
  135.750    0.255    0.453   94.071   11.302    0.000
  136.000    0.257    0.459   95.890   10.100    0.000
  136.250    0.269    0.487   97.103    9.024    0.000
  136.500    0.240    0.498  101.958    8.219    0.000
  136.750    0.227    0.486  105.599    7.921    0.000
  137.000    0.238    0.486  104.383    8.076    0.000
  137.250    0.244    0.499   98.307    8.881    0.000
  137.500    0.280    0.489   87.981    9.953    0.000
  137.750    0.322    0.443   83.120   11.366    0.000
  138.000    0.335    0.423   87.368   12.499    0.000
  138.250    0.294    0.425   91.010   12.989    0.000
  138.500    0.261    0.436   89.185   12.996    0.000
  138.750    0.258    0.445   97.078   12.290    0.000
  139.000    0.262    0.441  106.791   11.620    0.000
  139.250    0.263    0.439  109.218   10.784    0.000
  139.500    0.272    0.460  109.216   10.391    0.000
  139.750    0.281    0.431  107.998   10.013    0.000
  140.000    0.265    0.431  104.352    9.647    0.000
  140.250    0.256    0.475  104.350    9.473    0.000
  140.500    0.259    0.504  105.562    9.482    0.000
  140.750    0.250    0.520  103.737    9.667    0.000
  141.000    0.249    0.509   98.269   10.239    0.000
  141.250    0.267    0.494   88.550   11.049    0.000
  141.500    0.303    0.475   81.868   12.151    0.000
  141.750    0.338    0.432   88.545   13.112    0.000
  142.000    0.331    0.430   92.794   13.628    0.000
  142.250    0.309    0.446   92.791   13.636    0.000
  142.500    0.304    0.468   90.966   13.388    0.000
  142.750    0.298    0.465   90.965   13.150    0.000
