~VERSION INFORMATION
 VERS.                 2.0:   CWLS LOG ASCII STANDARD -VERSION 2.0
 WRAP.                  NO:   ONE LINE PER DEPTH STEP
~WELL INFORMATION BLOCK
#MNEM.UNIT           DATA                    DESCRIPTION OF MNEMONIC
#---------    -------------------            -------------------------------
# Generated from Intellog Unique Number	CS_77_79/WELL/956
WELL.         CWWE SOUTH CHRISTINA           : Well_name    - WELL
LOC .         00/10-16-079-09W4/0            : Location     - LOCATION
UWI .         00/10-16-079-09W4/0            : Uwi          - UNIQUE WELL ID
ENTR.         JHS                            : Entered      - ENTERED BY
SRVC.         SCHLUMBERGER                   : Scn          - SERVICE COMPANY
STRT.M        243.84                         : top_depth    - START DEPTH
STOP.M        475.34                         : bot_depth    - STOP DEPTH
STEP.M        0.25                           : increment    - STEP LENGTH
 NULL. -999.2500:NULL Value
~CURVE INFORMATION BLOCK
#MNEM UNIT       ERCB CURVE CODE    CURVE DESCRIPTION
#-----------   ------------------   ----------------------------------
DEPT.M        00 001 00 00         : DEPTH        - DEPTH
RHOB.KG/M3    00 350 00 00         : DENS         - BULK DENSITY
GR  .API      00 310 00 00         : GR           - GAMMA RAY
DPHI.V/V      00 890 00 00         : PHID         - DENSITY POROSITY (SANDSTONE)
NPHI.V/V      00 330 00 00         : PHIN         - NEUTRON POROSITY (SANDSTONE)
ILD .OHMM     00 120 00 00         : RESD         - DEEP RESISTIVITY (DIL)
~PARAMETER INFORMATION
#MNEM.UNIT           DATA             DESCRIPTION OF MNEMONIC
#---------         -----------     ------------------------------
GL  .M        677.601              : gl           - GROUND LEVEL ELEVATION
EREF.M        680.253              : kb           - ELEVATION OF DEPTH REFERENCE
DATM.M        680.253              : datum        - DATUM ELEVATION
TDD .M        478.536              : tdd          - TOTAL DEPTH DRILLER
RUN .         ONE                  : Run          - RUN NUMBER
ENG .         BILL                 : Engineer     - RECORDING ENGINEER
WIT .         JIM                  : Witness      - WITNESSED BY
MUD .         GEL                  : Mud_type     - MUD TYPE
MATR.         SANDSTONE            : Logunit      - NEUTRON MATRIX
TMAX.C        27.2222              : BHT          - MAXIMUM RECORDED TEMPERATURE
BHTD.M        478.536              : BHTDEP       - MAXIMUM RECORDED TEMPERATURE
MATR.         1                    : LOGUNIT      - NEUTRON MATRIX
RMT .C        25                   : MDTP         - TEMPERATURE OF MUD
NEUT.         1                    : NEUTRON      - NEUTRON TYPE
RESI.         0                    : RESIST       - RESISTIVITY TYPE
RMC .OHMM     0.25                 : RMC          - RESISTIVITY OF MUD CAKE
RMF .OHMM     0.25                 : RMF          - RESISTIVITY OF MUD FILTRATE
SUFT.C        15                   : SUFT         - SURFACE TEMPERATURE
~A  DEPTH     DENS       GR     PHID     PHIN     RESD
# ...
  353.340   -0.000   95.601    0.234    0.473    7.690
  353.590   -0.000   95.074    0.245    0.479    7.223
  353.840    0.000   94.536    0.249    0.489    7.042
  354.090    0.000   98.734    0.262    0.497    6.551
  354.340    0.000   98.849    0.250    0.505    6.254
  354.590   -0.000   96.812    0.231    0.520    6.192
  354.840   -0.000   94.543    0.229    0.526    5.994
  355.090    0.000   91.743    0.226    0.527    5.929
  355.340    0.000   88.978    0.229    0.520    5.811
  355.590    0.000   89.515    0.223    0.523    5.821
  355.840   -0.000   89.952    0.245    0.514    5.823
  356.090   -0.000   90.529    0.261    0.516    5.816
  356.340   -0.000   91.846    0.245    0.511    5.957
  356.590    0.000   92.318    0.260    0.502    6.038
  356.840    0.000   93.013    0.256    0.511    6.170
  357.090    0.000   93.706    0.237    0.512    6.159
  357.340   -0.000   95.705    0.232    0.525    6.167
  357.590   -0.000   98.952    0.232    0.510    5.974
  357.840   -0.000  100.792    0.228    0.537    5.621
  358.090    0.000   98.999    0.233    0.550    5.369
  358.340    0.000   97.901    0.247    0.563    4.975
  358.590   -0.000   99.474    0.243    0.574    4.617
  358.840   -0.000  105.005    0.240    0.572    4.265
  359.090   -0.000  110.131    0.257    0.558    3.946
  359.340    0.000  113.091    0.269    0.553    3.772
  359.590    0.000  114.736    0.272    0.571    3.735
  359.840    0.000  110.094    0.265    0.568    3.621
  360.090   -0.000  109.976    0.266    0.566    3.618
  360.340   -0.000  114.466    0.263    0.572    3.688
  360.590   -0.000  115.264    0.271    0.590    3.836
  360.840    0.000  112.995    0.279    0.575    4.005
  361.090    0.000  110.519    0.276    0.566    4.160
  361.340   -0.000  108.146    0.263    0.564    4.518
  361.590   -0.000  102.885    0.257    0.552    4.909
  361.840   -0.000   96.885    0.287    0.533    5.443
  362.090    0.000   89.975    0.306    0.512    5.922
  362.340    0.000   89.394    0.298    0.490    6.674
  362.590    0.000   94.784    0.279    0.497    7.384
  362.840   -0.000   98.932    0.267    0.514    8.074
  363.090   -0.000   98.133    0.270    0.540    8.534
  363.340   -0.000   95.434    0.269    0.511    8.783
  363.590    0.000   92.342    0.274    0.491    8.773
  363.840    0.000   91.256    0.281    0.486    8.734
  364.090    0.000   93.237    0.269    0.505    8.463
  364.340   -0.000   96.064    0.263    0.517    8.007
  364.590   -0.000   96.691    0.270    0.522    7.656
  364.840    0.000   93.303    0.274    0.509    7.315
  365.090    0.000   93.906    0.269    0.497    7.325
  365.340    0.000   96.064    0.247    0.502    7.144
  365.590   -0.000   99.675    0.238    0.531    7.058
  365.840   -0.000  100.920    0.258    0.549    6.912
  366.090   -0.000  103.681    0.236    0.534    6.926
  366.340    0.000  104.351    0.234    0.528    6.929
  366.590    0.000  101.870    0.234    0.535    6.938
  366.840    0.000  100.994    0.245    0.546    6.796
  367.090   -0.000  102.948    0.238    0.530    6.675
  367.340   -0.000  106.397    0.210    0.552    6.661
  367.590    0.000  106.507    0.213    0.551    6.329
  367.840    0.000  106.357    0.240    0.546    5.945
  368.090    0.000  107.553    0.225    0.556    4.546
  368.340   -0.000  106.499    0.222    0.556    4.174
  368.590   -0.000  108.911    0.281    0.568    3.491
  368.840   -0.000  113.312    0.283    0.607    2.996
  369.090    0.000  114.686    0.293    0.621    2.577
  369.340    0.000  116.315    0.316    0.631    2.319
  369.590    0.000  114.755    0.306    0.632    2.309
  369.840   -0.000  112.833    0.303    0.632    2.416
  370.090   -0.000  109.623    0.316    0.627    2.596
  370.340   -0.000  107.152    0.307    0.626    2.938
  370.590    0.000  105.739    0.291    0.627    3.564
  370.840    0.000  105.370    0.295    0.623    4.403
  371.090   -0.000  103.093    0.263    0.567    5.443
  371.340   -0.000  101.129    0.253    0.536    6.561
  371.590   -0.000   99.194    0.274    0.515    7.326
  371.840    0.000   99.338    0.260    0.502    8.169
  372.090    0.000   98.727    0.254    0.490    8.864
  372.340    0.000   93.215    0.256    0.467    9.376
  372.590   -0.000   84.629    0.218    0.381    9.869
  372.840   -0.000   79.055    0.147    0.339    9.618
  373.090   -0.000   80.391    0.094    0.314    9.138
  373.340    0.000   85.630    0.154    0.310    8.064
  373.590    0.000   95.032    0.241    0.419    7.505
  373.840   -0.000   98.886    0.323    0.502    6.971
  374.090   -0.000   96.483    0.300    0.510    6.742
  374.340   -0.000   93.611    0.273    0.512    6.854
  374.590    0.000   96.344    0.277    0.488    6.967
  374.840    0.000   98.389    0.258    0.479    7.020
  375.090    0.000   98.973    0.244    0.471    7.410
  375.340   -0.000   99.413    0.262    0.465    7.614
  375.590   -0.000  101.986    0.241    0.468    8.007
  375.840   -0.000  103.143    0.217    0.462    8.416
  376.090    0.000   99.801    0.206    0.443    8.660
  376.340    0.000   99.177    0.167    0.422    8.856
  376.590    0.000  103.279    0.140    0.426    8.230
  376.840   -0.000  108.660    0.143    0.496    7.551
  377.090   -0.000  108.744    0.229    0.521    6.974
  377.340    0.000  105.662    0.234    0.522    6.383
  377.590    0.000  105.237    0.226    0.495    6.260
  377.840    0.000  106.956    0.245    0.483    6.304
  378.090   -0.000  105.809    0.233    0.493    6.609
  378.340   -0.000  102.524    0.243    0.483    6.875
  378.590   -0.000  100.060    0.254    0.472    7.144
  378.840    0.000   98.545    0.242    0.463    7.368
  379.090    0.000   97.554    0.238    0.456    7.605
  379.340    0.000   96.540    0.252    0.462    7.673
  379.590   -0.000   94.819    0.275    0.477    7.688
  379.840   -0.000   94.038    0.289    0.491    7.485
  380.090    0.000   93.088    0.281    0.518    7.267
  380.340    0.000   92.072    0.283    0.503    7.040
  380.590    0.000   91.991    0.290    0.493    6.986
  380.840   -0.000   90.782    0.309    0.488    6.762
  381.090   -0.000   90.978    0.294    0.477    6.757
  381.340   -0.000   93.731    0.297    0.479    6.739
  381.590    0.000   97.222    0.272    0.485    6.633
  381.840    0.000   96.191    0.263    0.497    6.637
  382.090    0.000   95.044    0.262    0.502    6.637
  382.340   -0.000   95.629    0.249    0.479    6.731
  382.590   -0.000   94.759    0.245    0.470    6.951
  382.840   -0.000   93.122    0.256    0.475    7.021
  383.090    0.000   93.014    0.257    0.479    6.946
  383.340    0.000   92.101    0.254    0.489    6.768
  383.590   -0.000   92.527    0.238    0.492    6.653
  383.840   -0.000   93.943    0.253    0.483    6.447
  384.090   -0.000   89.942    0.244    0.511    6.413
  384.340    0.000   84.694    0.257    0.522    6.412
  384.590    0.000   75.790    0.302    0.509    6.412
  384.840    0.000   74.654    0.326    0.513    6.411
  385.090   -0.000   75.545    0.309    0.535    6.519
  385.340   -0.000   77.008    0.312    0.527    6.584
  385.590   -0.000   79.042    0.319    0.532    6.650
  385.840    0.000   82.339    0.310    0.530    6.520
  386.090    0.000   84.250    0.306    0.511    6.673
  386.340    0.000   81.271    0.301    0.502    6.663
  386.590   -0.000   79.962    0.299    0.497    6.664
  386.840   -0.000   80.865    0.289    0.504    6.666
  387.090    0.000   85.301    0.277    0.496    6.667
  387.340    0.000   88.080    0.323    0.488    6.668
  387.590    0.000   88.381    0.317    0.503    6.668
  387.840   -0.000   88.020    0.313    0.501    6.680
  388.090   -0.000   85.228    0.303    0.503    6.548
  388.340   -0.000   82.386    0.302    0.506    6.417
  388.590    0.001   82.607    0.302    0.511    6.156
  388.840    0.019   87.657    0.311    0.507    5.667
  389.090    0.028   91.088    0.309    0.517    5.349
  389.340   -1.155   94.020    0.299    0.547    5.189
  389.590  -11.068   97.029    0.279    0.565    5.191
