~VERSION INFORMATION
 VERS.                 2.0:   CWLS LOG ASCII STANDARD -VERSION 2.0
 WRAP.                  NO:   ONE LINE PER DEPTH STEP
~WELL INFORMATION BLOCK
#MNEM.UNIT           DATA                    DESCRIPTION OF MNEMONIC
#---------    -------------------            -------------------------------
# Generated from Intellog Unique Number	CS_73_76/WELL/842
WELL.         HOUSTON OILS LIMITED           : Well_name    - WELL
LOC .         00/10-36-073-16W4/0            : Location     - LOCATION
UWI .         00/10-36-073-16W4/0            : Uwi          - UNIQUE WELL ID
ENTR.         SP                             : Entered      - ENTERED BY
SRVC.         SCHLUMBERGER                   : Scn          - SERVICE COMPANY
STRT.M        265.176                        : top_depth    - START DEPTH
STOP.M        481.426                        : bot_depth    - STOP DEPTH
STEP.M        0.25                           : increment    - STEP LENGTH
 NULL. -999.2500:NULL Value
~CURVE INFORMATION BLOCK
#MNEM UNIT       ERCB CURVE CODE    CURVE DESCRIPTION
#-----------   ------------------   ----------------------------------
DEPT.M        00 001 00 00         : DEPTH        - DEPTH
GR  .API      00 310 00 00         : GR           - GAMMA RAY
DPHI.V/V      00 890 00 00         : PHID         - DENSITY POROSITY (SANDSTONE)
NPHI.V/V      00 330 00 00         : PHIN         - NEUTRON POROSITY (SANDSTONE)
ILD .OHMM     00 120 00 00         : RESD         - DEEP RESISTIVITY (DIL)
~PARAMETER INFORMATION
#MNEM.UNIT           DATA             DESCRIPTION OF MNEMONIC
#---------         -----------     ------------------------------
GL  .M        609.295              : gl           - GROUND LEVEL ELEVATION
EREF.M        612.038              : kb           - ELEVATION OF DEPTH REFERENCE
DATM.M        609.295              : datum        - DATUM ELEVATION
TDD .M        485.546              : tdd          - TOTAL DEPTH DRILLER
RUN .         ONE                  : Run          - RUN NUMBER
ENG .         BILL                 : Engineer     - RECORDING ENGINEER
WIT .         JIM                  : Witness      - WITNESSED BY
MUD .         GEL                  : Mud_type     - MUD TYPE
MATR.         SANDSTONE            : Logunit      - NEUTRON MATRIX
TMAX.C        25.5556              : BHT          - MAXIMUM RECORDED TEMPERATURE
BHTD.M        485.546              : BHTDEP       - MAXIMUM RECORDED TEMPERATURE
MATR.         1                    : LOGUNIT      - NEUTRON MATRIX
RMT .C        25                   : MDTP         - TEMPERATURE OF MUD
NEUT.         1                    : NEUTRON      - NEUTRON TYPE
RESI.         0                    : RESIST       - RESISTIVITY TYPE
RMC .OHMM     0.25                 : RMC          - RESISTIVITY OF MUD CAKE
RMF .OHMM     0.25                 : RMF          - RESISTIVITY OF MUD FILTRATE
SUFT.C        15                   : SUFT         - SURFACE TEMPERATURE
~A  DEPTH       GR     PHID     PHIN     RESD
  265.176  103.199    0.211    0.539    3.754
  265.426  102.312    0.180    0.508    3.893
  265.676  103.350    0.262    0.533    3.740
  265.926  104.364    0.270    0.553    3.752
  266.176  104.178    0.263    0.563    3.789
  266.426  102.585    0.262    0.570    3.738
  266.676  103.650    0.275    0.577    3.557
  266.926  105.091    0.267    0.596    3.519
  267.176  104.958    0.258    0.589    3.562
  267.426  103.419    0.259    0.609    3.508
  267.676  103.596    0.287    0.636    3.400
  267.926  101.234    0.312    0.657    3.368
  268.176   96.313    0.315    0.713    3.479
  268.426   92.631    0.329    0.593    3.495
  268.676   95.300    0.217    0.546    3.432
  268.926   96.933    0.275    0.572    3.329
  269.176   91.000    0.344    0.603    3.221
  269.426   83.693    0.365    0.668    3.391
  269.676   78.289    0.240    0.462    4.023
  269.926   71.488    0.192    0.432    4.789
  270.176   66.774    0.162    0.446    6.302
  270.426   59.061    0.253    0.401    8.176
  270.676   54.318    0.387    0.347   10.071
  270.926   52.859    0.344    0.323   11.627
  271.176   54.981    0.354    0.338   12.392
  271.426   56.958    0.389    0.355   12.654
  271.676   59.577    0.392    0.348   12.414
  271.926   61.523    0.365    0.387   11.018
  272.176   63.387    0.341    0.446    9.999
  272.426   67.688    0.327    0.495    8.838
  272.676   70.511    0.319    0.484    8.190
  272.926   73.908    0.314    0.473    7.455
  273.176   78.373    0.311    0.482    7.208
  273.426   80.481    0.301    0.502    7.305
  273.676   82.232    0.324    0.448    7.410
  273.926   80.205    0.334    0.431    7.490
  274.176   83.466    0.338    0.430    7.578
  274.426   86.413    0.322    0.473    7.725
  274.676   85.079    0.321    0.484    7.717
  274.926   88.017    0.319    0.489    7.717
  275.176   93.247    0.316    0.493    7.714
  275.426   95.976    0.306    0.478    7.688
  275.676   98.326    0.290    0.469    7.577
  275.926   97.144    0.301    0.480    7.592
  276.176   94.363    0.280    0.507    7.426
  276.426   92.241    0.281    0.518    7.562
  276.676   93.897    0.294    0.504    7.579
  276.926   94.676    0.303    0.494    7.585
  277.176   94.527    0.308    0.476    7.488
  277.426   94.761    0.292    0.466    7.256
  277.676   93.474    0.261    0.497    7.042
  277.926   94.986    0.143    0.510    6.511
  278.176   99.309    0.099    0.503    5.988
  278.426  108.106    0.085    0.524    5.375
  278.676  118.600    0.138    0.543    5.010
  278.926  120.450    0.198    0.558    4.763
  279.176  115.416    0.186    0.578    4.706
  279.426  111.000    0.194    0.570    4.706
  279.676  110.629    0.205    0.525    4.699
  279.926  114.049    0.212    0.496    4.620
  280.176  118.098    0.220    0.516    4.631
  280.426  115.718    0.227    0.567    4.537
  280.676  118.412    0.238    0.558    4.539
  280.926  119.251    0.244    0.540    4.510
  281.176  116.305    0.242    0.505    4.541
  281.426  113.647    0.232    0.500    4.771
  281.676  107.576    0.250    0.493    5.190
  281.926  100.366    0.274    0.459    5.622
  282.176   95.562    0.267    0.414    6.160
  282.426   91.277    0.189    0.383    6.725
  282.676   98.473    0.181    0.400    6.811
  282.926  108.438    0.206    0.438    6.825
  283.176  116.008    0.230    0.492    6.527
  283.426  117.165    0.219    0.524    6.030
  283.676  114.399    0.214    0.458    5.831
  283.926  115.116    0.208    0.487    5.773
  284.176  118.344    0.214    0.517    5.601
  284.426  116.565    0.234    0.532    5.462
  284.676  116.234    0.237    0.505    5.372
  284.926  116.243    0.232    0.527    5.213
  285.176  115.203    0.225    0.568    5.059
  285.426  110.726    0.266    0.509    5.336
  285.676  105.057    0.252    0.476    5.564
  285.926  106.647    0.236    0.453    5.780
  286.176  114.921    0.219    0.459    5.797
  286.426  118.439    0.219    0.498    5.553
  286.676  114.829    0.237    0.537    5.455
  286.926  112.007    0.236    0.504    5.266
  287.176  108.129    0.230    0.468    5.303
  287.426  103.648    0.230    0.450    5.471
  287.676   93.688    0.253    0.441    5.867
  287.926   86.337    0.346    0.458    6.030
  288.176   76.426    0.350    0.475    6.219
  288.426   68.632    0.290    0.465    6.223
  288.676   60.072    0.276    0.414    6.225
  288.926   59.130    0.295    0.411    6.235
  289.176   52.176    0.306    0.439    6.100
  289.426   43.069    0.310    0.437    6.104
  289.676   35.951    0.331    0.419    6.000
  289.926   39.451    0.325    0.407    6.019
  290.176   42.483    0.312    0.401    5.780
  290.426   45.063    0.311    0.400    5.755
  290.676   39.397    0.316    0.415    5.786
  290.926   35.297    0.324    0.406    5.791
  291.176   30.992    0.333    0.397    5.857
  291.426   29.098    0.344    0.390    5.895
  291.676   29.184    0.332    0.398    5.907
  291.926   29.162    0.332    0.379    5.783
  292.176   29.100    0.336    0.364    5.793
  292.426   28.551    0.333    0.359    5.795
  292.676   28.621    0.325    0.365    5.798
  292.926   27.941    0.322    0.388    5.802
  293.176   28.035    0.329    0.402    5.909
  293.426   27.290    0.321    0.388    5.894
  293.676   27.362    0.323    0.379    6.014
  293.926   26.697    0.333    0.369    5.895
  294.176   26.593    0.326    0.366    5.904
  294.426   26.175    0.314    0.373    5.912
  294.676   25.559    0.326    0.374    5.790
  294.926   24.895    0.331    0.357    5.800
  295.176   24.963    0.336    0.347    5.801
  295.426   25.152    0.320    0.341    5.803
  295.676   26.929    0.315    0.355    5.805
  295.926   27.938    0.316    0.372    5.718
  296.176   28.665    0.322    0.377    5.701
  296.426   27.924    0.311    0.378    5.698
  296.676   28.015    0.324    0.388    5.710
  296.926   27.303    0.343    0.381    5.585
  297.176   26.760    0.331    0.382    5.597
  297.426   26.160    0.318    0.395    5.597
  297.676   25.468    0.325    0.398    5.598
  297.926   25.531    0.335    0.373    5.598
  298.176   25.522    0.346    0.364    5.599
  298.426   25.502    0.343    0.370    5.600
  298.676   26.028    0.339    0.393    5.600
  298.926   26.102    0.341    0.397    5.601
  299.176   26.116    0.338    0.386    5.601
  299.426   26.114    0.324    0.376    5.602
  299.676   26.100    0.318    0.373    5.605
  299.926   26.106    0.329    0.375    5.604
  300.176   25.464    0.319    0.376    5.713
  300.426   25.502    0.324    0.363    5.682
  300.676   25.505    0.325    0.356    5.604
  300.926   25.521    0.328    0.360    5.605
  301.176   25.613    0.334    0.358    5.606
  301.426   26.072    0.331    0.366    5.607
  301.676   26.726    0.324    0.382    5.607
  301.926   27.428    0.328    0.387    5.608
  302.176   29.485    0.329    0.387    5.609
  302.426   30.755    0.322    0.374    5.612
  302.676   32.098    0.330    0.370    5.614
  302.926   34.358    0.344    0.386    5.709
  303.176   36.569    0.331    0.386    5.825
  303.426   43.350    0.334    0.378    5.927
  303.676   49.377    0.303    0.376    5.931
  303.926   60.657    0.286    0.391    5.955
  304.176   78.970    0.277    0.435    6.045
  304.426   89.885    0.283    0.473    6.101
  304.676   92.733    0.275    0.481    6.137
  304.926   94.735    0.265    0.497    5.972
  305.176   96.676    0.279    0.510    5.571
  305.426  100.012    0.282    0.516    5.092
  305.676  100.595    0.290    0.494    4.867
  305.926   99.284    0.312    0.487    4.880
  306.176  101.090    0.342    0.499    5.035
  306.426  103.749    0.351    0.506    5.279
  306.676  103.593    0.320    0.484    5.550
  306.926  101.145    0.326    0.476    5.823
  307.176   99.172    0.347    0.461    5.891
  307.426   98.587    0.372    0.466    5.936
  307.676   98.623    0.331    0.503    5.941
  307.926   97.816    0.315    0.595    5.950
  308.176   95.404    0.359    0.630    5.817
  308.426   93.320    0.357    0.585    5.631
