~VERSION INFORMATION
 VERS.                 2.0:   CWLS LOG ASCII STANDARD -VERSION 2.0
 WRAP.                  NO:   ONE LINE PER DEPTH STEP
~WELL INFORMATION BLOCK
#MNEM.UNIT           DATA                    DESCRIPTION OF MNEMONIC
#---------    -------------------            -------------------------------
# Generated from Intellog Unique Number	CW_79_81/WELL/222
WELL.         MEGA ET AL MISTAHAE 10-06      : Well_name    - WELL
LOC .         00/10-06-080-01W5/0            : Location     - LOCATION
UWI .         00/10-06-080-01W5/0            : Uwi          - UNIQUE WELL ID
ENTR.         JJ                             : Entered      - ENTERED BY
SRVC.         COMPUTALOG                     : Scn          - SERVICE COMPANY
DATE.         3 MAR 89                       : Date         - LOG DATE
STRT.M        285                            : top_depth    - START DEPTH
STOP.M        535                            : bot_depth    - STOP DEPTH
STEP.M        0.25                           : increment    - STEP LENGTH
 NULL. -999.2500:NULL Value
~CURVE INFORMATION BLOCK
#MNEM UNIT       ERCB CURVE CODE    CURVE DESCRIPTION
#-----------   ------------------   ----------------------------------
DEPT.M        00 001 00 00         : DEPTH        - DEPTH
DPHI.V/V      00 890 00 00         : PHID         - DENSITY POROSITY (SANDSTONE)
NPHI.V/V      00 330 00 00         : PHIN         - NEUTRON POROSITY (SANDSTONE)
GR  .API      00 310 00 00         : GR           - GAMMA RAY
CALI.MM       00 280 01 00         : CAL          - CALIPER
ILD .OHMM     00 120 00 00         : RESD         - DEEP RESISTIVITY (DIL)
~PARAMETER INFORMATION
#MNEM.UNIT           DATA             DESCRIPTION OF MNEMONIC
#---------         -----------     ------------------------------
GL  .M        605                  : gl           - GROUND LEVEL ELEVATION
EREF.M        608.64               : kb           - ELEVATION OF DEPTH REFERENCE
DATM.M        608.64               : datum        - DATUM ELEVATION
TDD .M        555                  : tdd          - TOTAL DEPTH DRILLER
RUN .         ONE                  : Run          - RUN NUMBER
ENG .         GAIR                 : Engineer     - RECORDING ENGINEER
WIT .         STRONG               : Witness      - WITNESSED BY
BASE.         RED DEER             : Branch       - HOME BASE OF LOGGING UNIT
MUD .         GEL CHEM             : Mud_type     - MUD TYPE
MATR.         SANDSTONE            : Logunit      - NEUTRON MATRIX
TMAX.C        37                   : BHT          - MAXIMUM RECORDED TEMPERATURE
BHTD.M        554.9                : BHTDEP       - MAXIMUM RECORDED TEMPERATURE
RMT .C        19                   : MDTP         - TEMPERATURE OF MUD
MUDD.KG/M     1140                 : MWT          - MUD DENSITY
NEUT.         1                    : NEUTRON      - NEUTRON TYPE
RESI.         0                    : RESIST       - RESISTIVITY TYPE
RM  .OHMM     4.1                  : RM           - RESISTIVITY OF MUD
RMC .OHMM     2.8                  : RMC          - RESISTIVITY OF MUD CAKE
RMF .OHMM     4.3                  : RMF          - RESISTIVITY OF MUD FILTRATE
SUFT.C        5                    : SUFT         - SURFACE TEMPERATURE
~A  DEPTH     PHID     PHIN       GR      CAL     RESD
# ...
  394.500    0.258    0.404   80.344  157.909   12.850
  394.750    0.262    0.425   75.768  157.152   12.269
  395.000    0.269    0.433   72.508  156.895   11.797
  395.250    0.275    0.429   74.480  157.387   10.996
  395.500    0.272    0.424   77.634  158.180   10.395
  395.750    0.268    0.418   76.615  159.696    9.673
  396.000    0.258    0.411   79.151  160.912    9.526
  396.250    0.242    0.405   85.610  163.261    9.545
  396.500    0.228    0.397   91.758  163.330    9.602
  396.750    0.238    0.411   90.864  161.002    9.894
  397.000    0.251    0.420   83.176  158.998   10.290
  397.250    0.274    0.428   81.221  157.602   10.902
  397.500    0.284    0.432   78.705  157.047   11.554
  397.750    0.295    0.424   75.877  156.808   12.011
  398.000    0.301    0.407   70.991  156.354   12.727
  398.250    0.286    0.397   66.980  156.416   13.514
  398.500    0.277    0.395   65.771  156.168   14.158
  398.750    0.284    0.403   66.430  156.237   15.008
  399.000    0.296    0.410   67.348  156.308   15.370
  399.250    0.292    0.421   68.260  156.687   15.838
  399.500    0.275    0.429   68.987  157.169   15.987
  399.750    0.279    0.442   70.960  157.862   16.022
  400.000    0.286    0.433   68.942  158.339   15.846
  400.250    0.289    0.417   67.357  158.826   15.876
  400.500    0.289    0.414   68.149  159.205   16.204
  400.750    0.287    0.419   70.620  159.991   16.728
  401.000    0.282    0.415   71.846  160.371   17.663
  401.250    0.272    0.404   69.079  160.649   18.535
  401.500    0.249    0.392   67.685  160.302   19.788
  401.750    0.207    0.380   67.538  158.078   21.163
  402.000    0.222    0.371   70.755  154.926   22.840
  402.250    0.248    0.378   70.921  152.810   24.342
  402.500    0.268    0.394   68.342  152.256   23.984
  402.750    0.274    0.408   66.576  152.738   21.528
  403.000    0.277    0.424   68.236  154.046   18.869
  403.250    0.285    0.436   70.460  152.870   17.064
  403.500    0.281    0.436   70.185  151.068   15.753
  403.750    0.275    0.426   69.978  153.732   14.842
  404.000    0.282    0.412   70.827  155.981   14.037
  404.250    0.286    0.400   71.243  156.566   13.252
  404.500    0.287    0.392   73.213  156.009   12.674
  404.750    0.289    0.398   73.067  156.181   12.302
  405.000    0.289    0.405   74.976  157.183   12.076
  405.250    0.282    0.416   77.388  158.599   12.099
  405.500    0.270    0.420   77.173  156.274   13.112
  405.750    0.256    0.415   74.535  152.597   13.740
  406.000    0.243    0.403   69.776  152.358   13.070
  406.250    0.229    0.399   69.192  157.818   11.925
  406.500    0.218    0.412   74.034  158.927   10.411
  406.750    0.221    0.411   79.062  159.519    9.560
  407.000    0.235    0.398   78.911  159.894    8.960
  407.250    0.251    0.391   78.205  160.267    8.583
  407.500    0.260    0.408   79.552  160.341    8.072
  407.750    0.255    0.423   81.645  160.616    7.539
  408.000    0.239    0.440   84.243  160.785    7.245
  408.250    0.231    0.451   86.906  161.055    6.983
  408.500    0.223    0.439   90.811  161.015    6.792
  408.750    0.215    0.439   90.164  160.676    6.742
  409.000    0.210    0.441   83.721  160.220    6.681
  409.250    0.215    0.434   81.015  159.865    6.634
  409.500    0.224    0.418   81.870  159.835    6.623
  409.750    0.222    0.427   83.901  161.040    6.656
  410.000    0.217    0.442   86.809  162.254    6.732
  410.250    0.221    0.439   87.412  163.357    6.809
  410.500    0.212    0.428   87.142  163.835    6.850
  410.750    0.212    0.421   91.172  164.325    6.824
  411.000    0.221    0.422   87.531  165.424    6.674
  411.250    0.214    0.424   86.885  166.219    6.478
  411.500    0.202    0.424   88.486  166.707    6.373
  411.750    0.197    0.421   92.392  167.288    6.395
  412.000    0.210    0.418   95.543  167.981    6.506
  412.250    0.213    0.413   96.519  168.146    6.602
  412.500    0.208    0.417   97.994  167.901    6.948
  412.750    0.204    0.413   97.538  167.553    7.331
  413.000    0.199    0.402   96.017  167.100    8.004
  413.250    0.210    0.399   96.806  165.820    8.705
  413.500    0.229    0.396   97.345  163.287    9.589
  413.750    0.238    0.391   89.154  163.039   11.728
  414.000    0.223    0.387   80.281  164.771   13.564
  414.250    0.213    0.379   74.462  165.046   15.110
  414.500    0.208    0.379   74.123  165.005   17.186
  414.750    0.185    0.357   78.657  164.658   18.517
  415.000    0.152    0.338   75.203  164.621   19.190
  415.250    0.104    0.326   72.317  164.586   18.909
  415.500    0.137    0.331   69.550  164.860   18.252
  415.750    0.157    0.347   69.715  165.029   16.538
  416.000    0.176    0.365   72.748  165.193   14.168
  416.250    0.193    0.375   81.764  165.159   12.322
  416.500    0.208    0.387   84.172  165.542   11.103
  416.750    0.220    0.393   85.896  165.912   10.327
  417.000    0.226    0.399   90.114  165.774   10.640
  417.250    0.217    0.411   85.660  165.737   11.190
  417.500    0.217    0.422   78.285  165.292   10.763
  417.750    0.239    0.434   77.454  163.900    9.863
  418.000    0.237    0.422   83.165  163.026    9.417
  418.250    0.220    0.408   87.817  162.271    9.380
  418.500    0.206    0.406   91.413  159.843    9.647
  418.750    0.199    0.404   88.461  159.384   10.398
  419.000    0.190    0.399   84.075  160.286   10.836
  419.250    0.174    0.388   82.120  161.810   11.143
  419.500    0.178    0.373   83.531  162.709   10.998
  419.750    0.204    0.402   85.499  160.386   10.616
  420.000    0.218    0.412   85.917  160.343   10.249
  420.250    0.219    0.411   87.890  163.841   10.064
  420.500    0.199    0.402   90.299  165.984   10.101
  420.750    0.188    0.396   87.346  166.359   10.195
  421.000    0.181    0.403   85.391  166.428   10.290
  421.250    0.185    0.411   86.180  166.493   10.312
  421.500    0.186    0.413   87.654  166.869   10.254
  421.750    0.183    0.412   86.940  166.736   10.009
  422.000    0.181    0.403   86.048  166.489    9.415
  422.250    0.178    0.396   84.906  166.452    8.873
  422.500    0.182    0.398   83.200  166.305    8.423
  422.750    0.195    0.409   84.611  166.370    8.144
  423.000    0.195    0.410   86.209  166.443    7.910
  423.250    0.188    0.410   87.245  166.608    7.692
  423.500    0.185    0.415   88.906  166.254    7.508
  423.750    0.183    0.420   92.004  166.331    7.423
  424.000    0.188    0.419   94.660  166.385    7.512
  424.250    0.201    0.427   95.446  166.459    7.666
  424.500    0.200    0.425   95.052  166.006    8.079
  424.750    0.186    0.415   94.593  165.763    8.401
  425.000    0.176    0.410   93.637  165.521    8.419
  425.250    0.163    0.435   93.113  165.071    8.293
  425.500    0.169    0.445   92.780  164.615    7.859
  425.750    0.183    0.434   92.135  164.055    7.434
  426.000    0.190    0.451   92.237  165.578    7.323
  426.250    0.195    0.457   95.083  167.413    7.561
  426.500    0.194    0.440   98.426  167.371    8.071
  426.750    0.184    0.419   91.109  166.196    8.742
  427.000    0.184    0.436   88.782  164.384   10.017
  427.250    0.204    0.445   89.191  162.788   11.121
  427.500    0.225    0.427   90.608  161.199   12.137
  427.750    0.216    0.402   90.957  159.711   14.436
  428.000    0.207    0.395   87.632  158.218   16.177
  428.250    0.223    0.404   83.183  156.933   17.927
  428.500    0.236    0.399   76.864  157.411   19.861
  428.750    0.240    0.388   74.784  158.720   21.553
  429.000    0.237    0.381   79.751  159.315   22.930
  429.250    0.231    0.401   79.852  160.827   23.707
  429.500    0.238    0.432   76.278  161.937   24.749
  429.750    0.254    0.430   71.387  162.939   25.976
  430.000    0.246    0.381   67.314  163.117   28.944
  430.250    0.110    0.318   64.366  162.866   32.920
  430.500    0.094    0.297   60.786  162.307   31.372
  430.750    0.087    0.289   57.899  161.650   23.726
