~VERSION INFORMATION
 VERS.                 2.0:   CWLS LOG ASCII STANDARD -VERSION 2.0
 WRAP.                  NO:   ONE LINE PER DEPTH STEP
~WELL INFORMATION BLOCK
#MNEM.UNIT           DATA                    DESCRIPTION OF MNEMONIC
#---------    -------------------            -------------------------------
# Generated from Intellog Unique Number	CW_82_90/WELL/3442
WELL.         SHERRITT LIEGE 10-25           : Well_name    - WELL
LOC .         00/10-25-089-20W4/0            : Location     - LOCATION
UWI .         00/10-25-089-20W4/0            : Uwi          - UNIQUE WELL ID
ENTR.         JJ                             : Entered      - ENTERED BY
SRVC.         WESTERN ATLAS                  : Scn          - SERVICE COMPANY
DATE.         10 FEB 89                      : Date         - LOG DATE
STRT.M        100                            : top_depth    - START DEPTH
STOP.M        260                            : bot_depth    - STOP DEPTH
STEP.M        0.25                           : increment    - STEP LENGTH
 NULL. -999.2500:NULL Value
~CURVE INFORMATION BLOCK
#MNEM UNIT       ERCB CURVE CODE    CURVE DESCRIPTION
#-----------   ------------------   ----------------------------------
DEPT.M        00 001 00 00         : DEPTH        - DEPTH
DPHI.V/V      00 890 00 00         : PHID         - DENSITY POROSITY (SANDSTONE)
NPHI.V/V      00 330 00 00         : PHIN         - NEUTRON POROSITY (SANDSTONE)
GR  .API      00 310 00 00         : GR           - GAMMA RAY
CALI.MM       00 280 01 00         : CAL          - CALIPER
ILD .OHMM     00 120 00 00         : RESD         - DEEP RESISTIVITY (DIL)
~PARAMETER INFORMATION
#MNEM.UNIT           DATA             DESCRIPTION OF MNEMONIC
#---------         -----------     ------------------------------
GL  .M        514.3                : gl           - GROUND LEVEL ELEVATION
EREF.M        518.4                : kb           - ELEVATION OF DEPTH REFERENCE
DATM.M        518.4                : datum        - DATUM ELEVATION
TDD .M        262.6                : tdd          - TOTAL DEPTH DRILLER
RUN .         ONE                  : Run          - RUN NUMBER
ENG .         SMYTHE/CHAPMAN       : Engineer     - RECORDING ENGINEER
WIT .         WILLIAMS             : Witness      - WITNESSED BY
BASE.         MED. HAT             : Branch       - HOME BASE OF LOGGING UNIT
MUD .         GEL CAUSTIC          : Mud_type     - MUD TYPE
MATR.         SANDSTONE            : Logunit      - NEUTRON MATRIX
TMAX.C        20                   : BHT          - MAXIMUM RECORDED TEMPERATURE
BHTD.M        262.5                : BHTDEP       - MAXIMUM RECORDED TEMPERATURE
RMT .C        18                   : MDTP         - TEMPERATURE OF MUD
MUDD.KG/M     1150                 : MWT          - MUD DENSITY
NEUT.         1                    : NEUTRON      - NEUTRON TYPE
RESI.         0                    : RESIST       - RESISTIVITY TYPE
RM  .OHMM     5.3                  : RM           - RESISTIVITY OF MUD
RMC .OHMM     4.7                  : RMC          - RESISTIVITY OF MUD CAKE
RMF .OHMM     5                    : RMF          - RESISTIVITY OF MUD FILTRATE
SUFT.C        5                    : SUFT         - SURFACE TEMPERATURE
~A  DEPTH     PHID     PHIN       GR      CAL     RESD
# ...
  173.000    0.276    0.383   78.241  163.380    9.718
  173.250    0.303    0.393   68.581  159.771   10.718
  173.500    0.314    0.405   65.982  156.469   11.843
  173.750    0.324    0.393   61.196  154.875   12.930
  174.000    0.325    0.382   55.308  152.994   14.175
  174.250    0.298    0.394   57.952  151.413   15.758
  174.500    0.265    0.416   54.447  150.837   17.448
  174.750    0.261    0.415   54.227  150.065   18.449
  175.000    0.312    0.407   57.298  149.391   19.119
  175.250    0.350    0.398   61.405  149.231   19.268
  175.500    0.344    0.388   64.722  149.371   19.109
  175.750    0.341    0.365   64.071  149.614   19.372
  176.000    0.344    0.374   59.164  149.666   20.649
  176.250    0.338    0.382   51.388  150.114   22.410
  176.500    0.314    0.379   50.072  150.346   23.133
  176.750    0.309    0.377   54.666  150.591   22.532
  177.000    0.319    0.375   60.297  150.633   21.989
  177.250    0.328    0.376   57.274  151.083   21.764
  177.500    0.332    0.368   56.692  151.736   22.828
  177.750    0.312    0.313   56.961  151.784   26.469
  178.000    0.145    0.283   54.850  151.813   30.081
  178.250    0.100    0.279   52.196  151.867   33.306
  178.500    0.146    0.294   47.709  151.907   35.786
  178.750    0.224    0.289   48.345  152.349   37.841
  179.000    0.240    0.264   50.136  153.203   39.218
  179.250    0.081    0.247   51.017  154.458   39.206
  179.500    0.095    0.238   52.317  156.322   36.394
  179.750    0.139    0.250   58.313  159.734   30.932
  180.000    0.229    0.288   77.165  159.048   23.737
  180.250    0.189    0.331   70.309  158.380   22.752
  180.500    0.110    0.325   67.468  164.209   20.494
  180.750    0.233    0.358   78.457  169.026   18.572
  181.000    0.252    0.377   77.511  170.990   16.430
  181.250    0.247    0.378   78.933  171.949   15.467
  181.500    0.240    0.381   89.497  172.395   14.415
  181.750    0.249    0.391   88.914  171.727   13.462
  182.000    0.253    0.383   82.056  169.838   13.165
  182.250    0.230    0.407   79.579  168.351   13.535
  182.500    0.230    0.417   74.608  171.238   14.311
  182.750    0.241    0.386   79.451  173.716   14.922
  183.000    0.206    0.361   84.893  175.890   15.280
  183.250    0.228    0.382   93.204  180.499   15.460
  183.500    0.249    0.372   90.980  176.480   15.362
  183.750    0.258    0.377   83.382  171.139   15.607
  184.000    0.266    0.374   72.627  164.482   16.337
  184.250    0.278    0.335   72.225  161.065   17.274
  184.500    0.246    0.297   73.099  159.083   18.673
  184.750    0.153    0.295   74.647  158.720   20.225
  185.000    0.182    0.314   77.230  158.751   21.818
  185.250    0.226    0.333   77.622  158.903   23.678
  185.500    0.255    0.358   77.280  159.446   24.639
  185.750    0.261    0.364   82.971  159.900   24.581
  186.000    0.267    0.370   84.337  159.940   23.609
  186.250    0.280    0.375   80.951  160.078   22.404
  186.500    0.285    0.372   80.610  160.124   19.901
  186.750    0.277    0.353   82.644  160.865   18.179
  187.000    0.263    0.354   83.154  162.026   17.425
  187.250    0.260    0.350   85.739  166.333   16.802
  187.500    0.269    0.337   85.339  170.842   16.564
  187.750    0.260    0.328   87.497  171.602   16.327
  188.000    0.242    0.334   87.822  170.926   16.421
  188.250    0.237    0.370   85.293  168.426   16.648
  188.500    0.200    0.407   81.904  164.910   17.358
  188.750    0.139    0.425   74.069  160.792   18.502
  189.000    0.251    0.384   76.347  158.497   19.022
  189.250    0.257    0.362   82.097  157.625   18.902
  189.500    0.255    0.377   85.537  157.764   18.117
  189.750    0.254    0.380   90.921  159.335   16.419
  190.000    0.262    0.374   92.103  157.343   14.642
  190.250    0.266    0.354   85.669  157.178   13.403
  190.500    0.260    0.359   81.368  157.523   12.516
  190.750    0.259    0.366   86.083  157.568   12.289
  191.000    0.272    0.356   82.882  157.708   13.020
  191.250    0.280    0.346   75.287  158.262   14.445
  191.500    0.153    0.327   65.504  159.210   15.930
  191.750    0.084    0.324   61.630  161.891   17.924
  192.000    0.238    0.302   77.738  174.830   14.317
  192.250    0.262    0.346   90.803  175.584   10.161
  192.500    0.282    0.399  101.063  165.368    6.394
  192.750    0.274    0.446   99.200  159.314    4.829
  193.000    0.260    0.416   96.116  158.643    4.341
  193.250    0.267    0.395   90.111  158.888    5.885
  193.500    0.276    0.384   82.153  158.833    8.237
  193.750    0.245    0.363   75.961  158.465   11.646
  194.000    0.071    0.392   69.771  157.995   15.045
  194.250    0.130    0.378   68.944  157.426   17.030
  194.500    0.209    0.354   87.003  152.500   17.899
  194.750    0.236    0.390   92.755  149.895   17.786
  195.000    0.244    0.404   88.027  150.756   16.744
  195.250    0.237    0.401   83.299  152.210   15.235
  195.500    0.218    0.380   85.948  154.491   13.397
  195.750    0.215    0.390   88.160  157.170   12.213
  196.000    0.240    0.417   89.471  159.643   11.872
  196.250    0.268    0.379   89.367  160.599   11.892
  196.500    0.301    0.367   88.175  155.258   12.959
  196.750    0.274    0.356   84.728  152.455   14.609
  197.000    0.258    0.348   75.917  152.916   16.338
  197.250    0.257    0.344   69.663  153.566   18.055
  197.500    0.255    0.333   76.696  154.310   20.642
  197.750    0.227    0.311   66.730  154.866   23.838
  198.000    0.156    0.288   68.763  154.802   26.027
  198.250    0.311    0.346   73.117  154.435   27.246
  198.500    0.338    0.367   76.428  153.961   26.116
  198.750    0.330    0.380   72.371  153.807   23.243
  199.000    0.319    0.395   67.096  154.553   21.190
  199.250    0.312    0.397   68.033  155.711   20.109
  199.500    0.319    0.382   66.479  157.172   20.591
  199.750    0.324    0.348   63.027  158.344   22.213
  200.000    0.311    0.334   57.812  158.378   25.144
  200.250    0.289    0.319   57.228  158.718   28.290
  200.500    0.226    0.284   57.924  158.767   31.450
  200.750    0.144    0.259   59.898  158.291   34.406
  201.000    0.106    0.240   61.690  156.411   36.894
  201.250    0.136    0.249   61.286  155.235   39.010
  201.500    0.132    0.272   61.008  154.866   38.923
  201.750    0.159    0.289   62.492  155.310   33.214
  202.000    0.228    0.305   67.334  155.663   29.442
  202.250    0.232    0.322   73.081  157.733   29.611
  202.500    0.163    0.266   65.430  159.297   32.330
  202.750    0.091    0.263   56.071  158.830   36.743
  203.000    0.110    0.310   58.959  158.465   37.776
  203.250    0.173    0.369   69.770  157.387   34.577
  203.500    0.237    0.390   75.525  159.253   31.335
  203.750    0.275    0.402   76.099  160.415   26.209
  204.000    0.294    0.394   75.635  159.332   21.747
  204.250    0.289    0.374   74.379  158.681   21.395
  204.500    0.248    0.338   72.024  159.123   26.930
  204.750    0.105    0.283   65.901  159.467   35.997
  205.000    0.052    0.252   61.171  159.603   44.411
  205.250    0.038    0.227   55.952  159.850   49.869
  205.500    0.086    0.221   55.368  159.991   54.448
  205.750    0.143    0.274   60.509  159.427   56.093
  206.000    0.146    0.325   65.837  158.952   41.603
  206.250    0.126    0.346   63.485  158.896   31.105
  206.500    0.180    0.330   61.925  160.768   26.016
  206.750    0.252    0.346   71.149  162.122   22.201
  207.000    0.262    0.364   78.489  163.279   19.174
  207.250    0.255    0.374   88.746  163.217   17.586
  207.500    0.231    0.392   85.541  161.027   16.857
  207.750    0.204    0.361   80.875  159.038   18.220
  208.000    0.189    0.339   82.489  157.555   19.498
  208.250    0.148    0.319   80.864  156.891   20.951
  208.500    0.091    0.306   72.601  157.941   23.573
  208.750    0.206    0.336   65.682  159.609   27.168
  209.000    0.233    0.379   76.733  161.678   24.769
  209.250    0.207    0.363   86.269  162.433   21.694
