~VERSION INFORMATION
 VERS.                 2.0:   CWLS LOG ASCII STANDARD -VERSION 2.0
 WRAP.                  NO:   ONE LINE PER DEPTH STEP
~WELL INFORMATION BLOCK
#MNEM.UNIT           DATA                    DESCRIPTION OF MNEMONIC
#---------    -------------------            -------------------------------
# Generated from Intellog Unique Number	CS_77_79/WELL/958
WELL.         AMOCO CANADA PETROLEUM         : Well_name    - WELL
LOC .         00/10-22-077-09W4/0            : Location     - LOCATION
UWI .         00/10-22-077-09W4/0            : Uwi          - UNIQUE WELL ID
ENTR.         SP                             : Entered      - ENTERED BY
SRVC.         SCHLUMBERGER                   : Scn          - SERVICE COMPANY
STRT.M        158.496                        : top_depth    - START DEPTH
STOP.M        383.746                        : bot_depth    - STOP DEPTH
STEP.M        0.25                           : increment    - STEP LENGTH
 NULL. -999.2500:NULL Value
~CURVE INFORMATION BLOCK
#MNEM UNIT       ERCB CURVE CODE    CURVE DESCRIPTION
#-----------   ------------------   ----------------------------------
DEPT.M        00 001 00 00         : DEPTH        - DEPTH
GR  .API      00 310 00 00         : GR           - GAMMA RAY
DPHI.V/V      00 890 00 00         : PHID         - DENSITY POROSITY (SANDSTONE)
NPHI.V/V      00 330 00 00         : PHIN         - NEUTRON POROSITY (SANDSTONE)
ILD .OHMM     00 120 00 00         : RESD         - DEEP RESISTIVITY (DIL)
~PARAMETER INFORMATION
#MNEM.UNIT           DATA             DESCRIPTION OF MNEMONIC
#---------         -----------     ------------------------------
GL  .M        583.387              : gl           - GROUND LEVEL ELEVATION
EREF.M        586.13               : kb           - ELEVATION OF DEPTH REFERENCE
DATM.M        583.387              : datum        - DATUM ELEVATION
TDD .M        393.192              : tdd          - TOTAL DEPTH DRILLER
RUN .         ONE                  : Run          - RUN NUMBER
ENG .         BILL                 : Engineer     - RECORDING ENGINEER
WIT .         JIM                  : Witness      - WITNESSED BY
MUD .         GEL                  : Mud_type     - MUD TYPE
MATR.         SANDSTONE            : Logunit      - NEUTRON MATRIX
TMAX.C        17.7778              : BHT          - MAXIMUM RECORDED TEMPERATURE
BHTD.M        393.192              : BHTDEP       - MAXIMUM RECORDED TEMPERATURE
MATR.         1                    : LOGUNIT      - NEUTRON MATRIX
RMT .C        25                   : MDTP         - TEMPERATURE OF MUD
NEUT.         1                    : NEUTRON      - NEUTRON TYPE
RESI.         0                    : RESIST       - RESISTIVITY TYPE
RMC .OHMM     0.25                 : RMC          - RESISTIVITY OF MUD CAKE
RMF .OHMM     0.25                 : RMF          - RESISTIVITY OF MUD FILTRATE
SUFT.C        15                   : SUFT         - SURFACE TEMPERATURE
~A  DEPTH       GR     PHID     PHIN     RESD
# ...
  332.496   86.619    0.203    0.383   14.992
  332.746   87.763    0.204    0.373   14.931
  332.996   88.165    0.208    0.384   15.207
  333.246   86.095    0.210    0.382   16.218
  333.496   78.995    0.225    0.400   19.019
  333.746   70.226    0.261    0.396   21.760
  333.996   61.981    0.293    0.379   24.440
  334.246   64.723    0.292    0.377   25.470
  334.496   68.652    0.278    0.375   25.080
  334.746   80.101    0.259    0.368   24.324
  334.996   84.829    0.245    0.388   24.171
  335.246   78.219    0.272    0.385   27.046
  335.496   71.746    0.294    0.362   35.120
  335.746   68.924    0.312    0.339   44.200
  335.996   67.079    0.324    0.330   46.531
  336.246   74.871    0.287    0.357   44.163
  336.496   80.057    0.274    0.383   41.191
  336.746   83.083    0.266    0.403   36.419
  336.996   85.746    0.273    0.413   34.196
  337.246   87.775    0.292    0.411   30.262
  337.496   88.958    0.281    0.411   27.607
  337.746   91.637    0.284    0.406   25.689
  337.996   93.986    0.273    0.394   23.115
  338.246   96.824    0.264    0.390   19.883
  338.496   97.367    0.263    0.388   17.923
  338.746  102.918    0.270    0.387   16.294
  338.996  110.872    0.264    0.394   15.358
  339.246  118.102    0.230    0.405   14.743
  339.496  123.650    0.206    0.420   14.892
  339.746  121.668    0.205    0.429   15.867
  339.996  109.625    0.215    0.436   17.872
  340.246   96.374    0.239    0.421   21.550
  340.496   84.966    0.268    0.384   26.123
  340.746   75.768    0.260    0.342   29.375
  340.996   72.674    0.253    0.356   30.999
  341.246   72.918    0.250    0.362   31.866
  341.496   75.226    0.246    0.363   30.851
  341.746   80.947    0.240    0.359   29.797
  341.996   82.294    0.235    0.370   28.016
  342.246   83.837    0.233    0.376   26.993
  342.496   83.138    0.231    0.373   27.044
  342.746   77.630    0.226    0.381   30.564
  342.996   70.851    0.243    0.401   38.254
  343.246   71.282    0.277    0.428   43.574
  343.496   73.632    0.306    0.427   47.597
  343.746   76.933    0.303    0.418   47.606
  343.996   78.761    0.285    0.408   43.321
  344.246   80.654    0.282    0.397   34.968
  344.496   81.825    0.272    0.390   29.215
  344.746   79.697    0.258    0.387   25.019
  344.996   78.888    0.247    0.398   21.948
  345.246   77.893    0.239    0.398   19.751
  345.496   77.883    0.242    0.394   18.462
  345.746   82.142    0.237    0.383   17.178
  345.996   92.157    0.215    0.365   16.091
  346.246  100.864    0.189    0.350   15.135
  346.496  102.831    0.178    0.382   14.694
  346.746   97.895    0.180    0.397   14.316
  346.996   94.037    0.198    0.398   14.766
  347.246   91.346    0.206    0.388   15.441
  347.496   91.751    0.227    0.374   15.393
  347.746   97.914    0.235    0.369   15.424
  347.996   99.866    0.198    0.383   15.106
  348.246   99.138    0.201    0.385   14.833
  348.496   98.689    0.195    0.383   14.560
  348.746   92.651    0.212    0.389   14.506
  348.996   81.541    0.225    0.418   14.319
  349.246   71.898    0.265    0.411   14.265
  349.496   69.834    0.288    0.400   14.916
  349.746   86.799    0.267    0.377   14.850
  349.996   96.702    0.223    0.389   15.301
  350.246  101.879    0.214    0.388   15.794
  350.496  103.995    0.216    0.380   16.739
  350.746  101.587    0.192    0.390   18.684
  350.996  105.988    0.214    0.383   20.401
  351.246  110.583    0.209    0.410   22.976
  351.496  108.394    0.208    0.418   25.332
  351.746  107.285    0.247    0.411   28.290
  351.996  106.192    0.259    0.400   31.783
  352.246  101.371    0.256    0.410   34.525
  352.496   97.795    0.272    0.418   37.801
  352.746   96.496    0.294    0.411   37.897
  352.996   94.062    0.270    0.398   36.360
  353.246   99.887    0.257    0.385   34.265
  353.496  105.238    0.246    0.369   30.914
  353.746  110.378    0.234    0.362   29.213
  353.996  111.399    0.221    0.370   28.337
  354.246  110.623    0.223    0.379   27.810
  354.496  108.341    0.236    0.384   27.317
  354.746  113.191    0.253    0.397   27.816
  354.996  115.933    0.257    0.377   28.407
  355.246  109.553    0.242    0.414   28.348
  355.496  100.870    0.238    0.422   28.214
  355.746   97.681    0.253    0.407   30.338
  355.996   99.179    0.259    0.399   32.864
  356.246   97.864    0.263    0.401   47.242
  356.496   89.195    0.271    0.407   53.813
  356.746   84.457    0.277    0.399   60.919
  356.996   82.819    0.284    0.387   66.000
  357.246   93.802    0.274    0.387   69.953
  357.496  100.556    0.260    0.388   73.274
  357.746  107.671    0.262    0.384   74.657
  357.996  108.643    0.264    0.388   73.673
  358.246  105.409    0.271    0.398   74.625
  358.496  106.556    0.256    0.390   75.203
  358.746  104.833    0.264    0.401   80.430
  358.996   98.020    0.269    0.409   85.549
  359.246   88.232    0.285    0.413   86.228
  359.496   83.618    0.294    0.399  191.605
  359.746   77.991    0.302    0.396  243.075
  359.996   74.484    0.302    0.399  269.835
  360.246   70.026    0.312    0.394  222.762
  360.496   75.740    0.311    0.392  201.056
  360.746   82.617    0.294    0.398  191.106
  360.996   84.089    0.294    0.401  198.796
  361.246   76.640    0.299    0.408  191.883
  361.496   78.039    0.307    0.397  184.709
  361.746   83.043    0.291    0.398  186.637
  361.996   87.183    0.283    0.400  192.441
  362.246   84.353    0.283    0.404  182.282
  362.496   80.457    0.299    0.404  175.864
  362.746   82.794    0.313    0.401  158.758
  362.996   90.847    0.304    0.410  184.665
  363.246   95.894    0.306    0.414  305.490
  363.496   86.519    0.312    0.405  347.122
  363.746   80.888    0.308    0.394  298.029
  363.996   85.620    0.299    0.402  243.991
  364.246   85.682    0.296    0.408  217.881
  364.496   82.451    0.293    0.409  186.438
  364.746   74.350    0.300    0.409  173.442
  364.996   71.426    0.311    0.408  165.918
  365.246   71.151    0.307    0.405  162.462
  365.496   70.659    0.298    0.414  160.537
  365.746   65.364    0.316    0.409  152.947
  365.996   62.479    0.302    0.405  149.175
  366.246   64.436    0.290    0.397  132.709
  366.496   67.792    0.299    0.400  123.289
  366.746   67.255    0.308    0.384  112.329
  366.996   63.478    0.297    0.390   99.584
  367.246   63.604    0.290    0.392   84.243
  367.496   66.459    0.300    0.390   63.529
  367.746   66.458    0.301    0.383   42.520
  367.996   68.104    0.303    0.376   26.233
  368.246   71.058    0.297    0.376   18.387
  368.496   73.994    0.290    0.382   14.087
  368.746   75.683    0.289    0.390   11.196
  368.996   75.639    0.287    0.390    8.954
  369.246   73.183    0.287    0.393    7.817
  369.496   69.775    0.299    0.400    7.293
  369.746   59.455    0.312    0.391    6.654
  369.996   49.428    0.312    0.381    6.380
  370.246   44.379    0.307    0.369    5.927
  370.496   46.761    0.315    0.376    5.776
  370.746   49.435    0.313    0.382    5.605
  370.996   51.209    0.295    0.382    5.433
  371.246   55.965    0.290    0.393    5.374
  371.496   58.974    0.288    0.392    5.278
  371.746   58.959    0.292    0.378    5.178
  371.996   59.939    0.288    0.403    5.016
  372.246   50.282    0.300    0.395    4.852
  372.496   47.020    0.310    0.387    4.807
  372.746   52.609    0.309    0.388    4.658
  372.996   60.770    0.307    0.397    4.523
  373.246   59.660    0.293    0.393    4.392
  373.496   51.198    0.302    0.393    4.333
  373.746   46.521    0.308    0.386    4.290
  373.996   45.839    0.318    0.379    4.236
  374.246   45.271    0.312    0.386    4.101
  374.496   44.630    0.308    0.394    4.066
  374.746   43.494    0.319    0.390    4.012
  374.996   43.693    0.327    0.403    3.939
  375.246   45.516    0.331    0.413    3.863
  375.496   47.947    0.287    0.397    3.806
  375.746   49.377    0.305    0.405    3.799
