~VERSION INFORMATION
 VERS.                 2.0:   CWLS LOG ASCII STANDARD -VERSION 2.0
 WRAP.                  NO:   ONE LINE PER DEPTH STEP
~WELL INFORMATION BLOCK
#MNEM.UNIT           DATA                    DESCRIPTION OF MNEMONIC
#---------    -------------------            -------------------------------
# Generated from Intellog Unique Number	CW_79_81/WELL/2489
WELL.         13-26-080-22W4                 : Well_name    - WELL
LOC .         00/13-26-080-22W4/0            : Location     - LOCATION
UWI .         00/13-26-080-22W4/0            : Uwi          - UNIQUE WELL ID
ENTR.         MAX                            : Entered      - ENTERED BY
SRVC.         SCHLUMBERGER                   : Scn          - SERVICE COMPANY
STRT.M        185                            : top_depth    - START DEPTH
STOP.M        440                            : bot_depth    - STOP DEPTH
STEP.M        0.25                           : increment    - STEP LENGTH
 NULL. -999.2500:NULL Value
~CURVE INFORMATION BLOCK
#MNEM UNIT       ERCB CURVE CODE    CURVE DESCRIPTION
#-----------   ------------------   ----------------------------------
DEPT.M        00 001 00 00         : DEPTH        - DEPTH
ILD .OHMM     00 120 00 00         : RESD         - DEEP RESISTIVITY (DIL)
NPHI.V/V      00 330 00 00         : PHIN         - NEUTRON POROSITY (SANDSTONE)
DPHI.V/V      00 890 00 00         : PHID         - DENSITY POROSITY (SANDSTONE)
GR  .API      00 310 00 00         : GR           - GAMMA RAY
CALI.MM       00 280 01 00         : CAL          - CALIPER
~PARAMETER INFORMATION
#MNEM.UNIT           DATA             DESCRIPTION OF MNEMONIC
#---------         -----------     ------------------------------
GL  .M        595.95               : gl           - GROUND LEVEL ELEVATION
EREF.M        600.6                : kb           - ELEVATION OF DEPTH REFERENCE
DATM.M        595.95               : datum        - DATUM ELEVATION
TDD .M        449                  : tdd          - TOTAL DEPTH DRILLER
RUN .         ONE                  : Run          - RUN NUMBER
ENG .         BILL                 : Engineer     - RECORDING ENGINEER
WIT .         JIM                  : Witness      - WITNESSED BY
MUD .         GEL                  : Mud_type     - MUD TYPE
MATR.         SANDSTONE            : Logunit      - NEUTRON MATRIX
TMAX.C        36                   : BHT          - MAXIMUM RECORDED TEMPERATURE
BHTD.M        449                  : BHTDEP       - MAXIMUM RECORDED TEMPERATURE
MATR.         1                    : LOGUNIT      - NEUTRON MATRIX
RMT .C        17                   : MDTP         - TEMPERATURE OF MUD
NEUT.         1                    : NEUTRON      - NEUTRON TYPE
RESI.         0                    : RESIST       - RESISTIVITY TYPE
RMC .OHMM     4.46                 : RMC          - RESISTIVITY OF MUD CAKE
RMF .OHMM     4.55                 : RMF          - RESISTIVITY OF MUD FILTRATE
SUFT.C        -20                  : SUFT         - SURFACE TEMPERATURE
~A  DEPTH     RESD     PHIN     PHID       GR      CAL
# ...
  294.500   11.422    0.454    0.326   63.849  218.032
  294.750   11.153    0.447    0.326   63.569  217.962
  295.000   11.144    0.442    0.324   64.000  217.893
  295.250   11.216    0.445    0.323   63.960  218.219
  295.500   11.306    0.451    0.323   63.330  218.845
  295.750   11.496    0.443    0.325   63.041  219.164
  296.000   11.659    0.433    0.323   62.998  219.092
  296.250   11.735    0.442    0.318   63.666  219.022
  296.500   11.743    0.441    0.314   64.343  219.255
  296.750   11.729    0.436    0.313   65.021  219.387
  297.000   11.715    0.429    0.312   65.339  219.218
  297.250   11.691    0.424    0.315   64.176  218.656
  297.500   11.688    0.418    0.321   62.141  218.177
  297.750   11.675    0.420    0.330   62.099  217.711
  298.000   11.661    0.425    0.329   62.596  217.531
  298.250   11.735    0.430    0.327   62.679  217.461
  298.500   11.854    0.430    0.322   61.692  217.404
  298.750   11.873    0.414    0.296   58.866  217.409
  299.000   12.042    0.402    0.281   56.839  217.749
  299.250   12.211    0.421    0.291   56.084  218.876
  299.500   12.379    0.451    0.314   56.574  219.998
  299.750   12.596    0.476    0.335   58.197  221.118
  300.000   12.911    0.491    0.346   60.421  222.041
  300.250   13.505    0.496    0.344   62.033  222.357
  300.500   14.128    0.513    0.331   60.741  222.270
  300.750   14.861    0.502    0.305   61.183  221.817
  301.000   15.634    0.381    0.200   64.834  220.754
  301.250   16.682    0.332    0.182   65.389  219.495
  301.500   17.991    0.389    0.259   59.459  218.243
  301.750   19.331    0.436    0.286   45.366  216.890
  302.000   20.704    0.435    0.308   39.374  216.390
  302.250   21.151    0.447    0.315   37.663  216.334
  302.500   21.246    0.443    0.317   37.031  216.273
  302.750   21.219    0.435    0.313   36.874  216.206
  303.000   21.155    0.430    0.309   37.129  216.036
  303.250   20.944    0.433    0.307   38.611  215.546
  303.500   20.759    0.435    0.307   40.307  215.466
  303.750   20.735    0.431    0.304   40.979  215.417
  304.000   20.707    0.418    0.299   41.832  215.342
  304.250   20.837    0.410    0.296   41.914  215.269
  304.500   21.169    0.416    0.293   41.041  215.304
  304.750   21.843    0.438    0.272   39.450  215.617
  305.000   23.029    0.431    0.239   37.671  215.552
  305.250   23.524    0.399    0.202   35.250  215.092
  305.500   23.633    0.347    0.217   35.145  214.920
  305.750   23.431    0.338    0.247   36.178  214.850
  306.000   23.061    0.372    0.272   37.692  214.984
  306.250   22.404    0.390    0.291   39.645  215.859
  306.500   21.038    0.418    0.297   40.102  216.620
  306.750   20.099    0.435    0.295   41.483  216.550
  307.000   18.768    0.439    0.292   46.975  216.783
  307.250   17.201    0.440    0.293   52.529  216.908
  307.500   15.546    0.441    0.293   56.952  216.829
  307.750   13.409    0.448    0.280   61.456  216.917
  308.000   11.337    0.500    0.296   59.182  217.671
  308.250    9.812    0.534    0.307   61.047  218.004
  308.500    8.858    0.510    0.307   65.408  218.630
  308.750    8.476    0.482    0.294   70.722  219.559
  309.000    8.560    0.470    0.272   75.858  220.788
  309.250    9.032    0.460    0.247   79.693  222.374
  309.500    9.526    0.480    0.235   77.667  222.722
  309.750   10.020    0.477    0.235   77.867  222.652
  310.000   10.312    0.464    0.236   79.138  221.987
  310.250   10.417    0.448    0.232   81.354  220.926
  310.500   10.367    0.435    0.225   83.806  219.767
  310.750   10.169    0.432    0.221   85.142  218.732
  311.000   10.003    0.441    0.222   84.851  217.833
  311.250    9.915    0.437    0.216   82.901  217.763
  311.500    9.666    0.463    0.215   83.638  217.698
  311.750    9.445    0.475    0.217   84.552  217.625
  312.000    9.332    0.465    0.223   84.629  217.647
  312.250    9.276    0.463    0.233   84.439  218.056
  312.500    9.054    0.467    0.232   84.891  218.396
  312.750    8.910    0.441    0.227   86.523  219.120
  313.000    8.867    0.422    0.225   87.792  219.551
  313.250    8.888    0.418    0.226   86.323  219.881
  313.500    8.927    0.428    0.229   83.781  220.307
  313.750    8.917    0.445    0.227   86.365  221.100
  314.000    8.908    0.443    0.225   88.809  221.447
  314.250    8.898    0.432    0.226   86.146  222.171
  314.500    8.886    0.433    0.225   83.310  222.596
  314.750    8.909    0.443    0.225   81.720  222.927
  315.000    8.982    0.454    0.226   81.733  223.257
  315.250    9.131    0.455    0.229   83.089  223.646
  315.500    9.265    0.445    0.218   85.276  223.994
  315.750    9.324    0.448    0.222   84.049  223.513
  316.000    9.486    0.450    0.229   81.751  222.464
  316.250    9.652    0.444    0.238   81.354  221.612
  316.500    9.730    0.437    0.244   82.917  221.245
  316.750    9.631    0.448    0.240   83.328  220.992
  317.000    9.545    0.450    0.241   82.045  220.079
  317.250    9.466    0.454    0.238   83.673  219.627
  317.500    9.438    0.448    0.235   84.941  219.471
  317.750    9.498    0.438    0.239   84.187  219.405
  318.000    9.540    0.428    0.245   82.423  219.330
  318.250    9.259    0.416    0.231   83.523  219.246
  318.500    8.966    0.424    0.229   84.476  219.173
  318.750    8.891    0.438    0.229   84.667  219.507
  319.000    8.962    0.445    0.217   83.798  219.543
  319.250    9.152    0.447    0.212   82.448  219.866
  319.500    9.401    0.445    0.224   81.509  220.482
  319.750    9.631    0.441    0.256   82.627  220.885
  320.000    9.771    0.442    0.252   84.814  221.232
  320.250    9.760    0.449    0.265   88.341  221.963
  320.500    9.531    0.454    0.264   91.511  222.390
  320.750    9.101    0.460    0.256   93.255  222.919
  321.000    8.588    0.466    0.246   92.921  223.647
  321.250    8.133    0.467    0.236   90.256  224.520
  321.500    8.059    0.464    0.230   90.208  225.266
  321.750    8.050    0.451    0.221   91.364  225.203
  322.000    8.042    0.435    0.221   89.837  224.540
  322.250    8.063    0.426    0.231   85.869  223.284
  322.500    8.188    0.433    0.242   79.879  221.338
  322.750    8.615    0.456    0.251   71.853  218.154
  323.000    8.944    0.447    0.276   68.836  216.429
  323.250    9.272    0.458    0.272   67.366  216.352
  323.500    9.662    0.446    0.269   68.933  216.286
  323.750    9.982    0.433    0.266   71.154  216.216
  324.000   10.140    0.432    0.265   72.362  216.141
  324.250   10.109    0.448    0.272   71.700  215.976
  324.500   10.019    0.452    0.294   72.148  215.497
  324.750   10.156    0.454    0.286   72.590  215.045
  325.000   10.153    0.459    0.279   70.319  214.762
  325.250   10.168    0.452    0.269   68.852  214.652
  325.500   10.169    0.430    0.257   69.155  214.659
  325.750    9.870    0.408    0.254   70.137  214.668
  326.000    9.499    0.409    0.247   72.631  214.676
  326.250    8.619    0.430    0.237   79.090  214.684
  326.500    7.688    0.454    0.238   84.473  214.691
  326.750    6.939    0.475    0.247   89.020  214.299
  327.000    6.503    0.489    0.252   91.355  214.207
  327.250    6.582    0.480    0.217   85.404  216.623
  327.500    7.005    0.380    0.173   69.969  218.705
  327.750    8.815    0.292    0.056   62.085  219.908
  328.000   11.085    0.240    0.010   59.579  220.512
  328.250   13.339    0.248    0.009   62.333  220.320
  328.500   14.596    0.312    0.041   68.313  219.630
  328.750   13.325    0.402    0.116   74.474  219.075
  329.000   10.252    0.445    0.148   78.961  218.252
  329.250    9.092    0.457    0.177   81.356  217.463
  329.500    8.550    0.446    0.215   83.392  217.272
  329.750    8.211    0.437    0.237   84.353  217.478
  330.000    7.944    0.440    0.238   83.879  217.684
  330.250    7.760    0.451    0.232   81.823  217.545
  330.500    7.701    0.446    0.234   81.081  218.796
  330.750    7.533    0.432    0.238   80.845  219.999
