~VERSION INFORMATION
 VERS.                 2.0:   CWLS LOG ASCII STANDARD -VERSION 2.0
 WRAP.                  NO:   ONE LINE PER DEPTH STEP
~WELL INFORMATION BLOCK
#MNEM.UNIT           DATA                    DESCRIPTION OF MNEMONIC
#---------    -------------------            -------------------------------
# Generated from Intellog Unique Number	CS_67_68/WELL/853
WELL.         CHIEFTAIN DEVELOPMENT          : Well_name    - WELL
LOC .         00/13-09-068-11W4/0            : Location     - LOCATION
UWI .         00/13-09-068-11W4/0            : Uwi          - UNIQUE WELL ID
ENTR.         SP                             : Entered      - ENTERED BY
SRVC.         SCHLUMBERGER                   : Scn          - SERVICE COMPANY
STRT.M        255                            : top_depth    - START DEPTH
STOP.M        485                            : bot_depth    - STOP DEPTH
STEP.M        0.25                           : increment    - STEP LENGTH
 NULL. -999.2500:NULL Value
~CURVE INFORMATION BLOCK
#MNEM UNIT       ERCB CURVE CODE    CURVE DESCRIPTION
#-----------   ------------------   ----------------------------------
DEPT.M        00 001 00 00         : DEPTH        - DEPTH
ILD .OHMM     00 120 00 00         : RESD         - DEEP RESISTIVITY (DIL)
DPHI.V/V      00 890 00 00         : PHID         - DENSITY POROSITY (LIMESTONE)
NPHI.V/V      00 330 00 00         : PHIN         - NEUTRON POROSITY (LIMESTONE)
GR  .API      00 310 00 00         : GR           - GAMMA RAY
~PARAMETER INFORMATION
#MNEM.UNIT           DATA             DESCRIPTION OF MNEMONIC
#---------         -----------     ------------------------------
GL  .M        599                  : gl           - GROUND LEVEL ELEVATION
EREF.M        602                  : kb           - ELEVATION OF DEPTH REFERENCE
DATM.M        599                  : datum        - DATUM ELEVATION
TDD .M        494                  : tdd          - TOTAL DEPTH DRILLER
RUN .         ONE                  : Run          - RUN NUMBER
ENG .         BILL                 : Engineer     - RECORDING ENGINEER
WIT .         JIM                  : Witness      - WITNESSED BY
MUD .         GEL                  : Mud_type     - MUD TYPE
MATR.         LIMESTONE            : Logunit      - NEUTRON MATRIX
TMAX.C        22                   : BHT          - MAXIMUM RECORDED TEMPERATURE
BHTD.M        494                  : BHTDEP       - MAXIMUM RECORDED TEMPERATURE
MATR.         1                    : LOGUNIT      - NEUTRON MATRIX
RMT .C        25                   : MDTP         - TEMPERATURE OF MUD
NEUT.         1                    : NEUTRON      - NEUTRON TYPE
RESI.         0                    : RESIST       - RESISTIVITY TYPE
RMC .OHMM     0.25                 : RMC          - RESISTIVITY OF MUD CAKE
RMF .OHMM     0.25                 : RMF          - RESISTIVITY OF MUD FILTRATE
SUFT.C        15                   : SUFT         - SURFACE TEMPERATURE
~A  DEPTH     RESD     PHID     PHIN       GR
# ...
  429.000    3.242    0.163    0.391  100.481
  429.250    3.177    0.157    0.388  103.252
  429.500    3.125    0.171    0.385  104.566
  429.750    3.091    0.186    0.381  104.363
  430.000    3.085    0.190    0.382  103.431
  430.250    3.086    0.175    0.382  101.831
  430.500    3.103    0.160    0.375  101.749
  430.750    3.121    0.146    0.367  103.123
  431.000    3.121    0.169    0.361  104.499
  431.250    3.110    0.210    0.370  105.268
  431.500    3.088    0.197    0.380  105.730
  431.750    3.065    0.170    0.383  105.531
  432.000    3.043    0.144    0.384  104.234
  432.250    3.032    0.122    0.378  100.025
  432.500    2.999    0.136    0.369   98.426
  432.750    2.972    0.174    0.365  100.585
  433.000    2.950    0.189    0.369  102.389
  433.250    2.934    0.208    0.358  104.372
  433.500    2.929    0.177    0.350  105.625
  433.750    2.929    0.139    0.357  106.029
  434.000    2.946    0.163    0.353  105.037
  434.250    3.007    0.181    0.343  104.044
  434.500    3.133    0.198    0.346  100.625
  434.750    3.465    0.159    0.309   95.504
  435.000    3.976    0.128    0.296   91.841
  435.250    4.339    0.161    0.355   93.884
  435.500    4.571    0.205    0.379   97.378
  435.750    4.260    0.214    0.368   99.181
  436.000    3.826    0.191    0.388   99.951
  436.250    3.435    0.196    0.404   99.321
  436.500    3.085    0.204    0.403   98.271
  436.750    2.843    0.211    0.404   98.067
  437.000    2.709    0.216    0.392   98.226
  437.250    2.592    0.206    0.384   95.414
  437.500    2.573    0.176    0.378   91.507
  437.750    2.554    0.158    0.371   91.545
  438.000    2.545    0.161    0.400   95.105
  438.250    2.503    0.186    0.418   97.758
  438.500    2.439    0.202    0.435  100.346
  438.750    2.320    0.212    0.459  100.812
  439.000    2.154    0.212    0.482  100.608
  439.250    1.978    0.214    0.461  102.833
  439.500    1.813    0.224    0.452  104.634
  439.750    1.662    0.241    0.461  106.131
  440.000    1.604    0.235    0.476  107.928
  440.250    1.631    0.221    0.463  109.425
  440.500    1.693    0.214    0.455  111.103
  440.750    1.771    0.210    0.453  112.479
  441.000    1.838    0.215    0.463  113.552
  441.250    1.901    0.218    0.447  114.624
  441.500    1.951    0.218    0.474  114.722
  441.750    1.988    0.215    0.481  113.428
  442.000    2.052    0.212    0.453  110.794
  442.250    2.130    0.210    0.427  109.010
  442.500    2.312    0.217    0.406  107.960
  442.750    2.436    0.229    0.416  106.667
  443.000    2.610    0.230    0.416  104.580
  443.250    2.765    0.161    0.389  102.192
  443.500    2.854    0.091    0.367   98.408
  443.750    2.892    0.062    0.375   95.596
  444.000    2.844    0.103    0.386   98.183
  444.250    2.587    0.141    0.402  101.866
  444.500    2.466    0.165    0.424  105.728
  444.750    2.420    0.179    0.426  107.468
  445.000    2.443    0.167    0.419  107.267
  445.250    2.513    0.159    0.428  106.881
  445.500    2.794    0.149    0.408  105.463
  445.750    3.124    0.027    0.365   99.006
  446.000    3.390    0.024    0.334   95.103
  446.250    3.612    0.044    0.322   93.866
  446.500    3.777    0.061    0.355   97.182
  446.750    3.785    0.080    0.368  100.442
  447.000    3.097    0.101    0.375  104.609
  447.250    2.745    0.120    0.390  108.897
  447.500    2.420    0.132    0.403  113.368
  447.750    2.222    0.140    0.407  115.957
  448.000    2.137    0.125    0.417  116.298
  448.250    2.014    0.102    0.446  115.913
  448.500    1.974    0.084    0.443  115.287
  448.750    1.966    0.098    0.420  113.081
  449.000    1.978    0.143    0.440  117.002
  449.250    2.008    0.174    0.453  118.624
  449.500    2.049    0.192    0.434  118.299
  449.750    2.096    0.183    0.432  115.363
  450.000    2.163    0.177    0.420  112.367
  450.250    2.242    0.175    0.412  109.797
  450.500    2.348    0.181    0.418  107.773
  450.750    2.506    0.183    0.397  105.263
  451.000    2.829    0.164    0.368  101.419
  451.250    3.093    0.142    0.344   92.474
  451.500    3.517    0.126    0.323   87.233
  451.750    3.895    0.154    0.324   87.454
  452.000    4.388    0.174    0.320   85.247
  452.250    4.798    0.152    0.293   80.735
  452.500    5.178    0.051    0.260   75.674
  452.750    5.466    0.007    0.243   72.134
  453.000    5.954    0.027    0.230   68.956
  453.250    6.732    0.111    0.238   68.630
  453.500    7.654    0.148    0.304   71.039
  453.750    7.784    0.146    0.317   74.659
  454.000    6.912    0.149    0.313   79.249
  454.250    6.478    0.160    0.306   84.146
  454.500    6.082    0.172    0.305   90.015
  454.750    5.743    0.162    0.316   95.639
  455.000    5.462    0.152    0.322  101.262
  455.250    5.215    0.147    0.327  106.461
  455.500    4.933    0.145    0.330  103.102
  455.750    4.701    0.146    0.332   96.162
  456.000    4.480    0.148    0.335   92.680
  456.250    4.277    0.180    0.338   88.956
  456.500    4.215    0.275    0.344   76.673
  456.750    4.215    0.310    0.349   67.243
  457.000    4.295    0.307    0.347   63.763
  457.250    4.384    0.306    0.342   62.526
  457.500    4.509    0.305    0.338   62.445
  457.750    4.637    0.300    0.336   66.552
  458.000    4.804    0.290    0.335   72.420
  458.250    4.832    0.289    0.332   78.711
  458.500    4.486    0.301    0.329   84.517
  458.750    4.204    0.310    0.331   90.811
  459.000    3.962    0.299    0.338   97.952
  459.250    3.776    0.281    0.342  105.578
  459.500    3.605    0.252    0.350  110.717
  459.750    3.461    0.230    0.363  111.850
  460.000    3.354    0.204    0.353  105.572
  460.250    3.250    0.186    0.361  100.211
  460.500    3.209    0.157    0.368   96.915
  460.750    3.185    0.143    0.344   97.258
  461.000    3.204    0.126    0.327  101.183
  461.250    3.313    0.144    0.327  105.896
  461.500    3.503    0.159    0.333  108.789
  461.750    3.788    0.172    0.333  111.071
  462.000    4.355    0.184    0.329  111.721
  462.250    4.780    0.196    0.325  108.786
  462.500    5.275    0.215    0.333  101.359
  462.750    5.527    0.221    0.327   95.390
  463.000    5.716    0.136    0.322   93.972
  463.250    5.781    0.160    0.320   95.100
  463.500    5.803    0.183    0.320   96.177
  463.750    5.676    0.177    0.320   99.127
  464.000    5.125    0.157    0.328  101.112
  464.250    4.619    0.173    0.322   94.838
  464.500    4.179    0.219    0.311   87.290
  464.750    3.895    0.267    0.313   83.141
  465.000    3.643    0.298    0.331   81.662
  465.250    3.478    0.281    0.327   81.823
  465.500    3.364    0.250    0.317   83.504
  465.750    3.297    0.210    0.312   85.121
  466.000    3.309    0.186    0.307   84.918
  466.250    3.366    0.199    0.304   82.100
  466.500    3.372    0.219    0.310   80.323
  466.750    3.317    0.234    0.314   78.417
  467.000    3.190    0.229    0.317   77.668
  467.250    3.103    0.216    0.321   77.102
  467.500    3.047    0.205    0.320   77.931
  467.750    3.047    0.205    0.329   80.459
  468.000    3.070    0.210    0.327   83.475
  468.250    3.111    0.215    0.322   89.824
  468.500    3.193    0.219    0.313   94.479
  468.750    3.259    0.209    0.304   99.375
  469.000    3.383    0.202    0.295  104.634
  469.250    3.512    0.190    0.303  108.560
  469.500    3.659    0.095    0.334  112.787
  469.750    3.791    0.056    0.364  115.802
  470.000    3.891    0.026    0.375  117.603
  470.250    3.928    0.011    0.395  115.578
  470.500    3.878    0.026    0.425  111.247
  470.750    3.765    0.169    0.399  109.891
  471.000    3.717    0.202    0.376  106.835
  471.250    3.704    0.226    0.362   85.568
  471.500    3.732    0.253    0.347   80.508
  471.750    3.760    0.272    0.327   83.037
  472.000    3.824    0.274    0.335   95.156
  472.250    3.925    0.245    0.330  104.057
