~VERSION INFORMATION
 VERS.                 2.0:   CWLS LOG ASCII STANDARD -VERSION 2.0
 WRAP.                  NO:   ONE LINE PER DEPTH STEP
~WELL INFORMATION BLOCK
#MNEM.UNIT           DATA                    DESCRIPTION OF MNEMONIC
#---------    -------------------            -------------------------------
# Generated from Intellog Unique Number	CS_71_72/WELL/873
WELL.         BVX ET AL BRETT                : Well_name    - WELL
LOC .         00/10-30-071-12W4/0            : Location     - LOCATION
UWI .         00/10-30-071-12W4/0            : Uwi          - UNIQUE WELL ID
ENTR.         SP                             : Entered      - ENTERED BY
SRVC.         SCHLUMBERGER                   : Scn          - SERVICE COMPANY
STRT.M        310                            : top_depth    - START DEPTH
STOP.M        540                            : bot_depth    - STOP DEPTH
STEP.M        0.25                           : increment    - STEP LENGTH
 NULL. -999.2500:NULL Value
~CURVE INFORMATION BLOCK
#MNEM UNIT       ERCB CURVE CODE    CURVE DESCRIPTION
#-----------   ------------------   ----------------------------------
DEPT.M        00 001 00 00         : DEPTH        - DEPTH
GR  .API      00 310 00 00         : GR           - GAMMA RAY
NPHI.V/V      00 330 00 00         : PHIN         - NEUTRON POROSITY (LIMESTONE)
DPHI.V/V      00 890 00 00         : PHID         - DENSITY POROSITY (LIMESTONE)
ILD .OHMM     00 120 00 00         : RESD         - DEEP RESISTIVITY (DIL)
~PARAMETER INFORMATION
#MNEM.UNIT           DATA             DESCRIPTION OF MNEMONIC
#---------         -----------     ------------------------------
GL  .M        643.76               : gl           - GROUND LEVEL ELEVATION
EREF.M        646.5                : kb           - ELEVATION OF DEPTH REFERENCE
DATM.M        643.76               : datum        - DATUM ELEVATION
TDD .M        542                  : tdd          - TOTAL DEPTH DRILLER
RUN .         ONE                  : Run          - RUN NUMBER
ENG .         BILL                 : Engineer     - RECORDING ENGINEER
WIT .         JIM                  : Witness      - WITNESSED BY
MUD .         GEL                  : Mud_type     - MUD TYPE
MATR.         LIMESTONE            : Logunit      - NEUTRON MATRIX
TMAX.C        20                   : BHT          - MAXIMUM RECORDED TEMPERATURE
BHTD.M        542                  : BHTDEP       - MAXIMUM RECORDED TEMPERATURE
MATR.         1                    : LOGUNIT      - NEUTRON MATRIX
RMT .C        25                   : MDTP         - TEMPERATURE OF MUD
NEUT.         1                    : NEUTRON      - NEUTRON TYPE
RESI.         0                    : RESIST       - RESISTIVITY TYPE
RMC .OHMM     0.25                 : RMC          - RESISTIVITY OF MUD CAKE
RMF .OHMM     0.25                 : RMF          - RESISTIVITY OF MUD FILTRATE
SUFT.C        15                   : SUFT         - SURFACE TEMPERATURE
~A  DEPTH       GR     PHIN     PHID     RESD
# ...
  353.500   77.925    0.380    0.231    4.823
  353.750   81.438    0.360    0.222    4.725
  354.000   80.329    0.357    0.215    4.664
  354.250   78.735    0.364    0.214    4.552
  354.500   77.200    0.366    0.230    4.352
  354.750   82.115    0.360    0.247    4.162
  355.000   78.450    0.357    0.255    4.002
  355.250   86.284    0.356    0.265    3.950
  355.500   89.923    0.361    0.268    3.979
  355.750   84.251    0.367    0.273    4.184
  356.000   80.707    0.369    0.285    4.359
  356.250   78.442    0.352    0.287    4.533
  356.500   75.508    0.332    0.282    4.626
  356.750   79.023    0.319    0.301    4.793
  357.000   81.444    0.341    0.317    4.919
  357.250   76.197    0.372    0.336    5.077
  357.500   68.090    0.369    0.339    5.153
  357.750   59.131    0.361    0.342    5.201
  358.000   53.032    0.350    0.328    5.240
  358.250   51.254    0.347    0.318    5.279
  358.500   60.974    0.373    0.325    5.288
  358.750   65.221    0.397    0.338    5.219
  359.000   70.137    0.412    0.348    5.151
  359.250   68.724    0.400    0.351    5.228
  359.500   64.937    0.388    0.344    5.396
  359.750   61.760    0.379    0.328    5.653
  360.000   55.722    0.381    0.315    5.759
  360.250   62.095    0.389    0.304    5.966
  360.500   65.734    0.389    0.302    6.297
  360.750   62.069    0.375    0.300    6.560
  361.000   55.971    0.363    0.295    6.809
  361.250   54.375    0.357    0.288    7.041
  361.500   53.874    0.355    0.282    7.227
  361.750   51.061    0.353    0.277    7.376
  362.000   54.455    0.351    0.279    7.458
  362.250   57.970    0.346    0.293    7.556
  362.500   53.333    0.342    0.303    7.626
  362.750   50.581    0.342    0.301    7.711
  363.000   45.759    0.343    0.296    7.754
  363.250   52.317    0.359    0.293    7.739
  363.500   55.833    0.373    0.292    7.610
  363.750   52.898    0.372    0.291    7.511
  364.000   50.755    0.353    0.292    7.413
  364.250   53.722    0.348    0.296    7.358
  364.500   59.854    0.347    0.299    7.316
  364.750   62.882    0.346    0.298    7.289
  365.000   58.732    0.343    0.297    7.302
  365.250   59.813    0.347    0.300    7.315
  365.500   57.730    0.364    0.306    7.314
  365.750   52.301    0.359    0.308    7.314
  366.000   48.454    0.352    0.308    7.286
  366.250   51.179    0.353    0.300    7.259
  366.500   54.755    0.359    0.297    7.218
  366.750   50.847    0.361    0.297    7.218
  367.000   54.543    0.363    0.291    7.217
  367.250   59.275    0.369    0.286    7.163
  367.500   62.366    0.358    0.287    7.149
  367.750   63.753    0.353    0.295    7.083
  368.000   59.844    0.348    0.301    7.056
  368.250   58.735    0.359    0.296    7.121
  368.500   58.111    0.382    0.301    7.337
  368.750   57.978    0.412    0.265    7.629
  369.000   55.651    0.280    0.094    7.816
  369.250   51.925    0.164    0.102    7.815
  369.500   48.200    0.189    0.182    7.628
  369.750   44.232    0.254    0.211    7.348
  370.000   54.866    0.341    0.221    6.922
  370.250   68.300    0.375    0.227    6.201
  370.500   78.205    0.365    0.230    5.963
  370.750   77.400    0.364    0.228    5.670
  371.000   74.709    0.378    0.224    5.483
  371.250   72.566    0.369    0.218    5.301
  371.500   77.542    0.362    0.221    5.281
  371.750   76.676    0.387    0.241    5.331
  372.000   81.773    0.374    0.273    5.471
  372.250   84.011    0.350    0.283    5.626
  372.500   75.781    0.341    0.273    5.763
  372.750   64.512    0.336    0.257    5.720
  373.000   74.233    0.332    0.239    5.667
  373.250   79.513    0.331    0.239    5.593
  373.500   75.301    0.331    0.249    5.531
  373.750   70.116    0.336    0.257    5.479
  374.000   75.396    0.349    0.258    5.418
  374.250   81.283    0.355    0.246    5.377
  374.500   86.500    0.350    0.236    5.327
  374.750   88.922    0.346    0.250    5.277
  375.000   90.127    0.346    0.258    5.267
  375.250   87.070    0.339    0.271    5.267
  375.500   84.380    0.339    0.268    5.257
  375.750   80.409    0.348    0.265    5.237
  376.000   75.218    0.366    0.284    5.266
  376.250   73.079    0.375    0.313    5.305
  376.500   68.803    0.382    0.327    5.496
  376.750   65.873    0.374    0.314    5.547
  377.000   59.775    0.368    0.312    5.588
  377.250   53.190    0.359    0.320    5.619
  377.500   55.366    0.351    0.309    5.650
  377.750   55.109    0.353    0.286    5.650
  378.000   56.494    0.358    0.269    5.660
  378.250   63.840    0.348    0.254    5.681
  378.500   66.749    0.336    0.245    5.723
  378.750   67.528    0.335    0.235    5.776
  379.000   64.898    0.360    0.274    5.896
  379.250   66.101    0.359    0.305    6.006
  379.500   69.799    0.348    0.316    6.085
  379.750   66.195    0.355    0.323    6.118
  380.000   60.218    0.360    0.326    6.129
  380.250   52.902    0.342    0.323    6.095
  380.500   48.264    0.363    0.319    6.004
  380.750   47.092    0.373    0.309    5.838
  381.000   51.704    0.358    0.289    5.688
  381.250   56.863    0.342    0.271    5.593
  381.500   63.297    0.355    0.267    5.428
  381.750   68.093    0.373    0.263    5.378
  382.000   71.545    0.364    0.258    5.327
  382.250   71.777    0.345    0.244    5.287
  382.500   73.711    0.328    0.232    5.258
  382.750   76.435    0.314    0.222    5.238
  383.000   79.218    0.306    0.241    5.199
  383.250   81.578    0.335    0.258    5.169
  383.500   83.513    0.335    0.255    5.121
  383.750   81.063    0.329    0.235    5.140
  384.000   78.010    0.338    0.242    5.188
  384.250   80.611    0.350    0.247    5.334
  384.500   85.709    0.333    0.247    5.455
  384.750   83.566    0.317    0.244    5.609
  385.000   76.190    0.312    0.241    5.789
  385.250   64.796    0.325    0.256    5.843
  385.500   60.888    0.342    0.274    5.843
  385.750   62.334    0.357    0.309    5.703
  386.000   61.774    0.355    0.319    5.649
  386.250   52.996    0.354    0.307    5.576
  386.500   47.568    0.361    0.305    5.544
  386.750   42.808    0.363    0.309    5.513
  387.000   45.107    0.357    0.312    5.575
  387.250   47.953    0.359    0.318    5.648
  387.500   50.009    0.370    0.324    5.829
  387.750   51.941    0.360    0.326    5.961
  388.000   53.267    0.346    0.316    6.050
  388.250   47.958    0.350    0.307    6.106
  388.500   45.753    0.370    0.313    6.083
  388.750   44.827    0.370    0.307    6.015
  389.000   44.201    0.357    0.309    5.992
  389.250   43.705    0.351    0.316    5.992
  389.500   42.596    0.353    0.323    5.991
  389.750   41.305    0.353    0.330    6.070
  390.000   42.507    0.353    0.337    6.172
  390.250   46.993    0.352    0.344    6.323
  390.500   49.903    0.352    0.333    6.417
  390.750   50.134    0.357    0.336    6.489
  391.000   47.321    0.368    0.340    6.501
  391.250   45.177    0.377    0.343    6.476
  391.500   44.007    0.384    0.345    6.416
  391.750   46.001    0.392    0.343    6.356
  392.000   49.577    0.391    0.344    6.356
  392.250   47.069    0.381    0.347    6.355
  392.500   42.979    0.378    0.351    6.343
  392.750   45.217    0.383    0.347    6.319
  393.000   41.610    0.379    0.348    6.156
  393.250   39.651    0.382    0.351    6.110
  393.500   45.843    0.387    0.352    6.109
  393.750   45.648    0.373    0.344    6.098
  394.000   41.253    0.375    0.339    6.120
  394.250   44.706    0.377    0.339    6.131
  394.500   49.623    0.390    0.346    6.177
  394.750   45.289    0.401    0.350    6.211
  395.000   41.868    0.389    0.349    6.234
  395.250   44.470    0.377    0.346    6.257
  395.500   45.735    0.364    0.342    6.245
  395.750   43.164    0.355    0.334    6.210
  396.000   40.413    0.355    0.338    6.163
  396.250   42.529    0.366    0.348    6.117
  396.500   49.269    0.371    0.352    6.105
  396.750   51.203    0.360    0.344    6.059
