~VERSION INFORMATION
 VERS.                 2.0:   CWLS LOG ASCII STANDARD -VERSION 2.0
 WRAP.                  NO:   ONE LINE PER DEPTH STEP
~WELL INFORMATION BLOCK
#MNEM.UNIT           DATA                    DESCRIPTION OF MNEMONIC
#---------    -------------------            -------------------------------
# Generated from Intellog Unique Number	CW_70_72/WELL/1049
NULL.         -999.25                        : NULL_VALUE
WELL.         HOME CDN SUP MITSUE 10-34      : Well_name    - WELL              
LOC .         10-34-071-03W5                 : Location     - LOCATION          
UWI .         00/10-34-071-03W5/0            : Uwi          - UNIQUE WELL ID    
ENTR.         JAYE                           : Entered      - ENTERED BY        
SRVC.         COMPUTALOG                     : Scn          - SERVICE COMPANY   
DATE.         7 SEPT 84                      : Date         - LOG DATE          
STRT.M        420                            : top_depth    - START DEPTH       
STOP.M        625                            : bot_depth    - STOP DEPTH        
STEP.M        0.25                           : increment    - STEP LENGTH       
~CURVE INFORMATION BLOCK
#MNEM UNIT       ERCB CURVE CODE    CURVE DESCRIPTION
#-----------   ------------------   ----------------------------------
DEPT.M        00 001 00 00         : DEPTH        - DEPTH                       
DPHI.V/V      00 890 00 00         : PHID         - DENSITY POROSITY (SANDSTONE)
NPHI.V/V      00 330 00 00         : PHIN         - NEUTRON POROSITY (SANDSTONE)
GR  .API      00 310 00 00         : GR           - GAMMA RAY                   
CALI.MM       00 280 01 00         : CAL          - CALIPER                     
ILD .OHMM     00 120 00 00         : RESD         - DEEP RESISTIVITY (DIL)      
~PARAMETER INFORMATION       
#MNEM.UNIT           DATA             DESCRIPTION OF MNEMONIC
#---------         -----------     ------------------------------
GL  .M        625.4                : gl           - GROUND LEVEL ELEVATION      
EREF.M        628.3                : kb           - ELEVATION OF DEPTH REFERENCE
DATM.M        625.4                : datum        - DATUM ELEVATION             
TDD .M        643                  : tdd          - TOTAL DEPTH DRILLER         
RUN .         ONE                  : Run          - RUN NUMBER                  
ENG .         MACLEAN              : Engineer     - RECORDING ENGINEER          
WIT .         COOK/YARDLEY         : Witness      - WITNESSED BY                
BASE.         EDM                  : Branch       - HOME BASE OF LOGGING UNIT   
MUD .         GEL CHEM             : Mud_type     - MUD TYPE                    
MATR.         SANDSTONE            : Logunit      - NEUTRON MATRIX              
TMAX.C        22                   : BHT          - MAXIMUM RECORDED TEMPERATURE
BHTD.M        632.5                : BHTDEP       - MAXIMUM RECORDED TEMPERATURE
RMT .C        17                   : MDTP         - TEMPERATURE OF MUD          
MUDD.KG/M     1120                 : MWT          - MUD DENSITY                 
NEUT.         1                    : NEUTRON      - NEUTRON TYPE                
RESI.         0                    : RESIST       - RESISTIVITY TYPE            
RM  .OHMM     4                    : RM           - RESISTIVITY OF MUD          
RMC .OHMM     3.2                  : RMC          - RESISTIVITY OF MUD CAKE     
RMF .OHMM     3.8                  : RMF          - RESISTIVITY OF MUD FILTRATE 
SUFT.C        0                    : SUFT         - SURFACE TEMPERATURE         
~A  DEPTH     PHID     PHIN       GR      CAL     RESD
# ...
  566.000    0.223    0.395   44.103  200.687    5.733
  566.250    0.190    0.399   43.801  201.016    6.014
  566.500    0.155    0.399   43.500  201.767    6.159
  566.750    0.174    0.399   43.137  202.303    6.296
  567.000    0.215    0.386   42.527  199.827    6.618
  567.250    0.231    0.371   41.912  197.245    7.126
  567.500    0.223    0.375   41.486  196.640    7.217
  567.750    0.205    0.372   41.561  196.660    6.861
  568.000    0.188    0.380   42.382  197.927    5.717
  568.250    0.160    0.398   44.703  200.129    4.649
  568.500    0.146    0.424   48.522  202.020    4.013
  568.750    0.148    0.442   48.845  202.767    3.635
  569.000    0.158    0.440   47.483  202.788    3.495
  569.250    0.166    0.427   46.621  202.703    3.626
  569.500    0.169    0.417   48.255  202.515    3.882
  569.750    0.172    0.414   51.136  202.428    4.173
  570.000    0.174    0.413   51.646  202.134    4.419
  570.250    0.177    0.412   51.285  201.948    4.602
  570.500    0.183    0.407   49.986  201.862    4.686
  570.750    0.197    0.398   48.498  201.673    4.685
  571.000    0.203    0.396   46.763  201.483    4.666
  571.250    0.198    0.407   48.959  201.396    4.570
  571.500    0.189    0.439   52.277  201.626    4.344
  571.750    0.181    0.428   55.034  201.958    4.161
  572.000    0.176    0.411   50.615  202.285    3.891
  572.250    0.173    0.418   47.008  202.309    3.699
  572.500    0.174    0.433   44.711  202.324    3.684
  572.750    0.177    0.431   47.654  202.342    3.696
  573.000    0.190    0.425   50.098  202.571    3.736
  573.250    0.191    0.423   51.109  202.797    3.898
  573.500    0.186    0.409   52.681  203.232    4.182
  573.750    0.178    0.394   53.377  203.149    4.614
  574.000    0.211    0.373   50.893  203.165    5.204
  574.250    0.292    0.350   44.415  200.481    5.859
  574.500    0.309    0.297   39.123  194.261    6.585
  574.750    0.318    0.286   34.454  190.952    7.957
  575.000    0.326    0.294   31.907  191.804    8.926
  575.250    0.335    0.300   31.607  192.965    8.693
  575.500    0.339    0.304   32.741  194.026    8.389
  575.750    0.343    0.313   33.813  194.771    8.263
  576.000    0.342    0.318   34.950  195.624    8.137
  576.250    0.332    0.322   35.271  195.955    7.956
  576.500    0.324    0.316   35.346  195.972    7.763
  576.750    0.316    0.307   35.233  195.477    7.617
  577.000    0.317    0.296   34.806  194.873    7.572
  577.250    0.326    0.311   34.569  194.787    7.527
  577.500    0.334    0.322   35.642  194.697    7.511
  577.750    0.328    0.327   35.716  194.931    7.425
  578.000    0.321    0.325   35.415  194.946    7.478
  578.250    0.313    0.320   34.740  195.172    7.643
  578.500    0.301    0.314   33.816  195.396    8.110
  578.750    0.224    0.296   32.641  195.417    9.354
  579.000    0.114    0.269   30.967  195.226   10.512
  579.250    0.055    0.222   28.921  195.142   11.858
  579.500    0.040    0.158   27.058  195.056   13.806
  579.750    0.030    0.146   24.075  194.975   16.498
  580.000    0.024    0.146   22.027  194.886   17.277
  580.250    0.023    0.148   21.477  194.700   16.273
  580.500    0.042    0.164   22.361  194.718   12.704
  580.750    0.108    0.197   26.555  194.946    9.242
  581.000    0.236    0.255   30.372  195.071    7.530
  581.250    0.273    0.292   32.755  195.086    5.933
  581.500    0.270    0.337   34.388  195.002    4.737
  581.750    0.266    0.360   35.149  195.128    4.021
  582.000    0.266    0.378   35.411  195.248    3.615
  582.250    0.269    0.369   35.547  195.265    3.482
  582.500    0.274    0.369   35.619  195.288    3.494
  582.750    0.277    0.380   35.258  195.306    3.545
  583.000    0.275    0.374   34.083  195.323    3.610
  583.250    0.268    0.361   33.469  195.659    3.697
  583.500    0.262    0.376   34.417  195.779    3.779
  583.750    0.255    0.391   35.738  195.800    3.848
  584.000    0.251    0.412   35.500  195.816    3.883
  584.250    0.253    0.427   32.205  195.939    3.839
  584.500    0.265    0.422   34.088  196.165    3.781
  584.750    0.267    0.425   36.409  196.497    3.724
  585.000    0.273    0.418   37.605  196.620    3.667
  585.250    0.285    0.411   35.994  196.535    3.639
  585.500    0.298    0.414   34.820  196.345    3.638
  585.750    0.293    0.410   36.954  192.110    3.670
  586.000    0.288    0.394   39.211  192.121    3.759
  586.250    0.283    0.366   35.729  191.514    3.907
  586.500    0.276    0.366   33.057  190.286    4.024
  586.750    0.271    0.382   32.069  189.784    4.090
  587.000    0.263    0.397   33.391  189.180    4.142
  587.250    0.260    0.415   36.147  189.197    4.133
  587.500    0.265    0.429   38.343  189.736    4.154
  587.750    0.276    0.436   38.606  190.796    4.138
  588.000    0.276    0.418   37.741  191.750    4.106
  588.250    0.273    0.395   36.755  192.811    4.066
  588.500    0.273    0.379   36.579  193.871    4.012
  588.750    0.269    0.373   36.466  194.410    3.981
  589.000    0.267    0.390   36.914  194.739    3.972
  589.250    0.267    0.396   36.489  195.382    3.986
  589.500    0.276    0.393   35.938  196.338    4.097
  589.750    0.253    0.404   35.701  196.983    4.267
  590.000    0.226    0.404   36.024  197.105    4.485
  590.250    0.191    0.295   37.657  197.019    4.920
  590.500    0.128    0.275   36.171  196.935    5.288
  590.750    0.113    0.291   35.934  196.747    5.652
  591.000    0.169    0.327   37.442  197.077    5.897
  591.250    0.226    0.385   39.450  197.615    5.585
  591.500    0.246    0.406   41.022  197.843    4.976
  591.750    0.253    0.408   39.035  198.071    4.541
  592.000    0.255    0.398   36.616  197.984    4.230
  592.250    0.252    0.382   36.813  197.899    4.127
  592.500    0.247    0.380   38.571  197.606    4.072
  592.750    0.243    0.379   39.457  197.211    4.071
  593.000    0.238    0.374   39.468  196.915    4.092
  593.250    0.231    0.366   39.230  196.519    4.199
  593.500    0.215    0.357   39.366  196.230    4.348
  593.750    0.203    0.357   39.564  196.036    4.520
  594.000    0.194    0.356   39.950  195.745    4.724
  594.250    0.178    0.351   40.149  195.451    5.059
  594.500    0.170    0.341   40.472  195.573    5.437
  594.750    0.166    0.334   41.044  195.696    5.769
  595.000    0.158    0.324   41.618  195.612    6.030
  595.250    0.150    0.323   42.255  195.839    6.050
  595.500    0.148    0.346   43.575  196.273    5.959
  595.750    0.163    0.373   46.395  196.812    5.613
  596.000    0.171    0.400   50.025  197.455    5.170
  596.250    0.168    0.392   52.658  197.786    5.035
  596.500    0.160    0.370   54.103  197.493    5.138
  596.750    0.144    0.341   51.371  196.785    5.420
  597.000    0.124    0.317   45.141  195.971    5.991
  597.250    0.110    0.307   40.099  196.304    6.745
  597.500    0.118    0.318   39.986  197.469    7.441
  597.750    0.128    0.321   40.870  198.004    7.342
  598.000    0.140    0.338   42.193  198.337    6.738
  598.250    0.153    0.362   42.580  198.360    5.969
  598.500    0.162    0.390   42.651  198.686    5.407
  598.750    0.158    0.409   43.163  198.915    5.122
  599.000    0.152    0.433   43.612  199.246    5.007
  599.250    0.148    0.411   44.371  199.888    5.005
  599.500    0.147    0.397   45.505  200.425    5.040
  599.750    0.154    0.389   46.516  200.964    5.048
  600.000    0.155    0.381   46.777  201.089    5.084
  600.250    0.149    0.363   46.288  200.898    5.226
  600.500    0.143    0.366   45.113  200.605    5.503
  600.750    0.151    0.335   42.567  199.688    5.893
  601.000    0.167    0.315   40.083  198.564    6.381
  601.250    0.179    0.328   39.347  198.272    6.621
  601.500    0.166    0.346   39.669  197.875    6.743
  601.750    0.157    0.369   39.992  197.477    6.555
  602.000    0.152    0.376   40.627  197.495    6.220
  602.250    0.150    0.376   41.949  198.347    5.859
