~VERSION INFORMATION
 VERS.                 2.0:   CWLS LOG ASCII STANDARD -VERSION 2.0
 WRAP.                  NO:   ONE LINE PER DEPTH STEP
~WELL INFORMATION BLOCK
#MNEM.UNIT           DATA                    DESCRIPTION OF MNEMONIC
#---------    -------------------            -------------------------------
# Generated from Intellog Unique Number	CW_79_81/WELL/2491
WELL.         14-17-081-24W4                 : Well_name    - WELL
LOC .         00/14-17-081-24W4/0            : Location     - LOCATION
UWI .         00/14-17-081-24W4/0            : Uwi          - UNIQUE WELL ID
ENTR.         MAX                            : Entered      - ENTERED BY
SRVC.         WESTERN ATLAS                  : Scn          - SERVICE COMPANY
STRT.M        215                            : top_depth    - START DEPTH
STOP.M        459.75                         : bot_depth    - STOP DEPTH
STEP.M        0.25                           : increment    - STEP LENGTH
 NULL. -999.2500:NULL Value
~CURVE INFORMATION BLOCK
#MNEM UNIT       ERCB CURVE CODE    CURVE DESCRIPTION
#-----------   ------------------   ----------------------------------
DEPT.M        00 001 00 00         : DEPTH        - DEPTH
ILD .OHMM     00 120 00 00         : RESD         - DEEP RESISTIVITY (DIL)
NPHI.V/V      00 330 00 00         : PHIN         - NEUTRON POROSITY (SANDSTONE)
DPHI.V/V      00 890 00 00         : PHID         - DENSITY POROSITY (SANDSTONE)
GR  .API      00 310 00 00         : GR           - GAMMA RAY
CALI.MM       00 280 01 00         : CAL          - CALIPER
~PARAMETER INFORMATION
#MNEM.UNIT           DATA             DESCRIPTION OF MNEMONIC
#---------         -----------     ------------------------------
GL  .M        602.08               : gl           - GROUND LEVEL ELEVATION
EREF.M        605.78               : kb           - ELEVATION OF DEPTH REFERENCE
DATM.M        602.08               : datum        - DATUM ELEVATION
TDD .M        462                  : tdd          - TOTAL DEPTH DRILLER
RUN .         ONE                  : Run          - RUN NUMBER
ENG .         BILL                 : Engineer     - RECORDING ENGINEER
WIT .         JIM                  : Witness      - WITNESSED BY
MUD .         GEL                  : Mud_type     - MUD TYPE
MATR.         SANDSTONE            : Logunit      - NEUTRON MATRIX
TMAX.C        22                   : BHT          - MAXIMUM RECORDED TEMPERATURE
BHTD.M        462                  : BHTDEP       - MAXIMUM RECORDED TEMPERATURE
MATR.         1                    : LOGUNIT      - NEUTRON MATRIX
RMT .C        13                   : MDTP         - TEMPERATURE OF MUD
NEUT.         1                    : NEUTRON      - NEUTRON TYPE
RESI.         0                    : RESIST       - RESISTIVITY TYPE
RMC .OHMM     4.2                  : RMC          - RESISTIVITY OF MUD CAKE
RMF .OHMM     2.5                  : RMF          - RESISTIVITY OF MUD FILTRATE
SUFT.C        -20                  : SUFT         - SURFACE TEMPERATURE
~A  DEPTH     RESD     PHIN     PHID       GR      CAL
  215.000    3.724    0.402    0.252  118.674  222.720
  215.250    3.724    0.399    0.248  115.053  221.531
  215.500    3.703    0.400    0.251  113.466  220.727
  215.750    3.689    0.404    0.253  112.898  220.360
  216.000    3.696    0.407    0.253  113.029  220.383
  216.250    3.722    0.405    0.258  114.091  220.491
  216.500    3.722    0.407    0.262  117.012  220.921
  216.750    3.749    0.409    0.265  115.631  221.719
  217.000    3.900    0.403    0.263  113.898  221.643
  217.250    4.191    0.387    0.253  109.489  221.276
  217.500    4.775    0.364    0.240   99.554  220.814
  217.750    6.654    0.340    0.234   76.215  220.065
  218.000    9.703    0.330    0.257   53.686  220.086
  218.250   14.273    0.328    0.254   47.417  220.111
  218.500   18.801    0.335    0.277   40.276  219.841
  218.750   23.098    0.344    0.308   34.238  219.670
  219.000   27.858    0.350    0.334   30.179  219.597
  219.250   32.686    0.345    0.349   27.773  219.075
  219.500   36.115    0.333    0.344   27.301  218.288
  219.750   36.377    0.339    0.336   28.477  217.535
  220.000   36.639    0.340    0.331   28.258  219.106
  220.250   36.636    0.340    0.326   28.040  221.067
  220.500   36.500    0.341    0.321   28.403  221.672
  220.750   36.875    0.337    0.314   29.017  219.293
  221.000   37.438    0.336    0.307   28.547  218.913
  221.250   38.261    0.335    0.311   29.259  219.709
  221.500   38.893    0.332    0.308   31.542  220.508
  221.750   39.604    0.327    0.304   36.674  221.112
  222.000   40.479    0.321    0.302   42.446  221.424
  222.250   41.926    0.315    0.302   42.676  221.450
  222.500   44.913    0.316    0.305   40.265  221.471
  222.750   47.250    0.325    0.309   34.928  221.496
  223.000   49.716    0.338    0.313   31.857  220.937
  223.250   51.582    0.346    0.321   30.473  219.794
  223.500   52.815    0.348    0.329   30.486  218.456
  223.750   54.869    0.344    0.321   32.820  217.547
  224.000   57.438    0.330    0.309   37.439  216.767
  224.250   59.992    0.322    0.316   34.894  216.009
  224.500   63.340    0.324    0.310   32.173  215.548
  224.750   66.439    0.332    0.306   29.859  214.989
  225.000   68.295    0.342    0.305   28.884  214.431
  225.250   67.868    0.349    0.294   30.529  214.459
  225.500   65.833    0.352    0.286   30.543  214.478
  225.750   62.989    0.344    0.293   31.951  214.498
  226.000   59.939    0.337    0.301   31.964  215.685
  226.250   57.162    0.338    0.304   31.280  217.453
  226.500   55.125    0.344    0.304   31.235  218.346
  226.750   55.123    0.348    0.313   33.423  215.642
  227.000   59.510    0.345    0.332   31.498  213.646
  227.250   57.785    0.349    0.349   31.744  221.039
  227.500   57.995    0.353    0.335   31.642  222.904
  227.750   61.156    0.361    0.323   31.772  223.507
  228.000   66.249    0.366    0.321   32.599  225.661
  228.250   69.317    0.353    0.317   34.330  230.568
  228.500   75.414    0.351    0.319   33.617  229.781
  228.750   63.530    0.347    0.325   33.166  227.089
  229.000   52.968    0.341    0.329   34.111  223.815
  229.250   45.941    0.331    0.322   35.170  222.286
  229.500   41.201    0.318    0.309   35.706  222.599
  229.750   37.255    0.316    0.303   35.624  222.869
  230.000   38.702    0.340    0.297   35.153  224.104
  230.250   41.901    0.323    0.290   34.005  225.288
  230.500   42.549    0.319    0.286   31.459  224.439
  230.750   42.080    0.328    0.287   30.193  222.135
  231.000   41.389    0.340    0.290   31.020  219.541
  231.250   40.366    0.335    0.294   32.703  218.325
  231.500   39.754    0.325    0.298   31.749  217.940
  231.750   39.461    0.322    0.304   30.830  218.348
  232.000   39.170    0.312    0.302   30.261  220.793
  232.250   38.882    0.310    0.299   30.041  221.979
  232.500   38.524    0.317    0.299   29.822  220.838
  232.750   37.728    0.316    0.298   29.006  218.135
  233.000   36.597    0.312    0.291   29.505  216.138
  233.250   36.594    0.316    0.290   30.215  214.997
  233.500   36.591    0.320    0.292   33.196  217.057
  233.750   36.320    0.316    0.295   34.838  219.214
  234.000   35.590    0.309    0.298   33.861  220.205
  234.250   34.264    0.311    0.298   31.026  220.535
  234.500   34.000    0.324    0.296   29.585  220.154
  234.750   33.997    0.329    0.285   30.064  219.401
  235.000   34.742    0.316    0.282   29.846  218.068
  235.250   36.405    0.304    0.280   30.558  216.927
  235.500   38.411    0.302    0.276   31.909  216.366
  235.750   38.974    0.305    0.275   31.351  216.554
  236.000   38.970    0.308    0.279   29.668  217.386
  236.250   38.967    0.308    0.281   30.614  219.347
  236.500   38.963    0.305    0.280   30.337  221.307
  236.750   39.949    0.303    0.279   29.186  223.850
  237.000   41.678    0.303    0.272   28.268  226.589
  237.250   42.289    0.302    0.240   29.690  227.683
  237.500   42.285    0.301    0.197   30.916  225.285
  237.750   41.059    0.307    0.202   30.695  225.305
  238.000   35.960    0.316    0.229   31.524  227.072
  238.250   31.740    0.325    0.266   34.330  228.452
  238.500   29.220    0.329    0.298   36.670  228.183
  238.750   27.511    0.324    0.318   32.778  226.121
  239.000   26.287    0.336    0.350   33.036  227.356
  239.250   21.480    0.374    0.343   38.865  229.318
  239.500   16.041    0.382    0.323   45.742  233.026
  239.750   11.791    0.376    0.284   53.202  233.824
  240.000    9.032    0.366    0.239   63.337  229.773
  240.250    7.237    0.359    0.215   81.678  221.981
  240.500    6.322    0.359    0.218   86.058  223.616
  240.750    5.326    0.385    0.220   88.163  223.643
  241.000    4.574    0.396    0.224   90.096  223.374
  241.250    4.048    0.399    0.229   90.692  223.200
  241.500    3.707    0.398    0.236   90.589  223.221
  241.750    3.485    0.396    0.249   92.233  223.090
  242.000    3.304    0.409    0.244   92.247  222.307
  242.250    3.232    0.427    0.247   90.167  221.550
  242.500    3.179    0.425    0.247   90.004  220.797
  242.750    3.145    0.422    0.246   90.832  220.626
  243.000    3.138    0.424    0.239   92.126  221.131
  243.250    3.189    0.421    0.223   93.918  221.931
  243.500    3.213    0.426    0.219   94.659  221.955
  243.750    3.237    0.420    0.232   94.904  222.365
  244.000    3.278    0.419    0.239   95.500  221.613
  244.250    3.314    0.421    0.241   97.025  220.086
  244.500    3.332    0.419    0.240   99.364  218.944
  244.750    3.326    0.411    0.243   99.961  220.292
  245.000    3.301    0.419    0.243   91.248  221.125
  245.250    3.300    0.430    0.241   89.867  220.760
  245.500    3.282    0.418    0.235   90.403  220.686
  245.750    3.234    0.411    0.235   91.580  220.903
  246.000    3.152    0.420    0.242   92.699  221.315
  246.250    3.015    0.437    0.250   93.792  221.727
  246.500    2.903    0.443    0.257   94.534  221.748
  246.750    2.757    0.428    0.257   95.710  221.770
  247.000    2.604    0.425    0.258   96.537  221.793
  247.250    2.456    0.433    0.263   96.550  221.815
  247.500    2.335    0.447    0.271   95.749  221.838
  247.750    2.250    0.458    0.280   94.262  221.946
  248.000    2.166    0.465    0.288   92.582  222.376
  248.250    2.198    0.463    0.287   93.523  222.782
  248.500    2.267    0.443    0.277   92.025  222.902
  248.750    2.359    0.431    0.268   90.759  223.119
  249.000    2.460    0.435    0.263   90.947  223.431
  249.250    2.564    0.441    0.264   92.744  223.293
  249.500    2.623    0.440    0.262   94.697  222.511
  249.750    2.661    0.439    0.260   96.341  221.757
  250.000    2.700    0.422    0.256   97.984  221.295
  250.250    2.739    0.411    0.252   98.462  220.929
  250.500    2.784    0.410    0.249   97.252  220.562
  250.750    2.855    0.407    0.244   94.719  220.203
  251.000    2.898    0.405    0.245   95.945  220.224
  251.250    2.898    0.399    0.249   98.518  220.245
