~VERSION INFORMATION
 VERS.                 2.0:   CWLS LOG ASCII STANDARD -VERSION 2.0
 WRAP.                  NO:   ONE LINE PER DEPTH STEP
~WELL INFORMATION BLOCK
#MNEM.UNIT           DATA                    DESCRIPTION OF MNEMONIC
#---------    -------------------            -------------------------------
# Generated from Intellog Unique Number	CS_69_70/WELL/880
NULL.         -999.25                        : NULL_VALUE
WELL.         HUSKY OIL OPERATION LTD.       : Well_name    - WELL              
LOC .         00/10-33-070-06W4/0            : Location     - LOCATION          
UWI .         00/10-33-070-06W4/0            : Uwi          - UNIQUE WELL ID    
ENTR.         SP                             : Entered      - ENTERED BY        
SRVC.         SCHLUMBERGER                   : Scn          - SERVICE COMPANY   
STRT.M        275                            : top_depth    - START DEPTH       
STOP.M        500                            : bot_depth    - STOP DEPTH        
STEP.M        0.25                           : increment    - STEP LENGTH       
~CURVE INFORMATION BLOCK
#MNEM UNIT       ERCB CURVE CODE    CURVE DESCRIPTION
#-----------   ------------------   ----------------------------------
DEPT.M        00 001 00 00         : DEPTH        - DEPTH                       
ILD .OHMM     00 120 00 00         : RESD         - DEEP RESISTIVITY (DIL)      
DPHI.V/V      00 890 00 00         : PHID         - DENSITY POROSITY (LIMESTONE)
NPHI.V/V      00 330 00 00         : PHIN         - NEUTRON POROSITY (LIMESTONE)
GR  .API      00 310 00 00         : GR           - GAMMA RAY                   
~PARAMETER INFORMATION       
#MNEM.UNIT           DATA             DESCRIPTION OF MNEMONIC
#---------         -----------     ------------------------------
GL  .M        638.1                : gl           - GROUND LEVEL ELEVATION      
EREF.M        641.8                : kb           - ELEVATION OF DEPTH REFERENCE
DATM.M        638.1                : datum        - DATUM ELEVATION             
TDD .M        503                  : tdd          - TOTAL DEPTH DRILLER         
RUN .         ONE                  : Run          - RUN NUMBER                  
ENG .         BILL                 : Engineer     - RECORDING ENGINEER          
WIT .         JIM                  : Witness      - WITNESSED BY                
MUD .         GEL                  : Mud_type     - MUD TYPE                    
MATR.         LIMESTONE            : Logunit      - NEUTRON MATRIX              
TMAX.C        26                   : BHT          - MAXIMUM RECORDED TEMPERATURE
BHTD.M        503                  : BHTDEP       - MAXIMUM RECORDED TEMPERATURE
MATR.         1                    : LOGUNIT      - NEUTRON MATRIX              
RMT .C        25                   : MDTP         - TEMPERATURE OF MUD          
NEUT.         1                    : NEUTRON      - NEUTRON TYPE                
RESI.         0                    : RESIST       - RESISTIVITY TYPE            
RMC .OHMM     0.25                 : RMC          - RESISTIVITY OF MUD CAKE     
RMF .OHMM     0.25                 : RMF          - RESISTIVITY OF MUD FILTRATE 
SUFT.C        15                   : SUFT         - SURFACE TEMPERATURE         
~A  DEPTH     RESD     PHID     PHIN       GR
# ...
  362.000    6.627    0.312    0.448   65.326
  362.250    6.630    0.306    0.463   66.525
  362.500    6.510    0.323    0.474   67.123
  362.750    6.511    0.324    0.481   66.514
  363.000    6.637    0.321    0.484   61.084
  363.250    6.763    0.321    0.479   59.273
  363.500    6.893    0.322    0.468   55.652
  363.750    6.895    0.316    0.459   61.670
  364.000    6.898    0.316    0.453   70.096
  364.250    6.525    0.321    0.448   73.706
  364.500    6.059    0.323    0.486   78.517
  364.750    5.421    0.318    0.518   80.320
  365.000    4.940    0.314    0.526   82.724
  365.250    4.503    0.306    0.508   83.921
  365.500    4.181    0.286    0.495   85.723
  365.750    3.956    0.283    0.508   83.306
  366.000    3.884    0.288    0.508   82.097
  366.250    3.813    0.293    0.495   87.511
  366.500    3.815    0.281    0.507   82.684
  366.750    3.816    0.282    0.515   79.065
  367.000    3.818    0.294    0.490   73.638
  367.250    3.749    0.306    0.458   82.062
  367.500    3.613    0.298    0.464   85.071
  367.750    3.547    0.284    0.497   88.679
  368.000    3.683    0.271    0.521   86.863
  368.250    4.044    0.286    0.523   86.860
  368.500    4.609    0.293    0.492   83.842
  368.750    4.967    0.289    0.479   80.222
  369.000    5.254    0.287    0.470   78.408
  369.250    5.354    0.286    0.461   77.800
  369.500    5.356    0.286    0.456   80.202
  369.750    4.882    0.303    0.472   83.207
  370.000    4.367    0.306    0.469   90.429
  370.250    3.494    0.302    0.474   97.051
  370.500    3.126    0.287    0.538  101.865
  370.750    2.796    0.276    0.560  106.074
  371.000    2.597    0.291    0.572  103.057
  371.250    2.696    0.297    0.582   95.822
  371.500    3.016    0.274    0.592   86.779
  371.750    3.437    0.259    0.486   81.353
  372.000    3.990    0.252    0.472   79.539
  372.250    4.900    0.277    0.475   78.329
  372.500    5.279    0.293    0.478   75.311
  372.750    5.797    0.304    0.464   71.689
  373.000    6.019    0.306    0.445   71.682
  373.250    6.251    0.298    0.438   73.485
  373.500    6.137    0.293    0.446   76.489
  373.750    6.138    0.287    0.464   77.086
  374.000    6.027    0.298    0.473   75.874
  374.250    6.030    0.303    0.478   77.072
  374.500    6.145    0.302    0.486   78.874
  374.750    6.263    0.291    0.462   78.868
  375.000    6.265    0.285    0.445   80.067
  375.250    6.267    0.272    0.436   83.676
  375.500    6.269    0.263    0.435   87.283
  375.750    6.042    0.264    0.455   82.458
  376.000    5.823    0.286    0.470   85.462
  376.250    5.407    0.274    0.470   88.470
  376.500    5.116    0.259    0.466   89.667
  376.750    5.213    0.247    0.475   87.854
  377.000    5.313    0.238    0.464   88.452
  377.250    5.621    0.224    0.475   88.444
  377.500    5.946    0.236    0.479   87.234
  377.750    6.174    0.240    0.466   87.227
  378.000    6.292    0.239    0.455   87.223
  378.250    6.413    0.230    0.452   88.420
  378.500    6.415    0.225    0.464   89.016
  378.750    6.417    0.231    0.461   89.613
  379.000    6.420    0.236    0.450   89.606
  379.250    6.304    0.240    0.441   88.997
  379.500    6.189    0.231    0.447   89.593
  379.750    6.076    0.235    0.454   90.192
  380.000    5.436    0.239    0.467   91.992
  380.250    4.774    0.242    0.461   93.794
  380.500    4.432    0.247    0.484   96.195
  380.750    4.040    0.237    0.503   97.394
  381.000    3.682    0.236    0.532   98.593
  381.250    3.233    0.231    0.517   96.780
  381.500    3.116    0.226    0.512   96.774
  381.750    2.894    0.224    0.507   97.368
  382.000    2.841    0.228    0.518   96.763
  382.250    2.842    0.230    0.548   94.949
  382.500    2.843    0.223    0.577   94.341
  382.750    3.008    0.220    0.560   95.540
  383.000    3.065    0.219    0.533  100.350
  383.250    3.066    0.225    0.505  102.154
  383.500    3.067    0.234    0.505  104.557
  383.750    2.956    0.240    0.511  107.562
  384.000    2.903    0.250    0.519  105.146
  384.250    2.904    0.257    0.519   99.719
  384.500    3.071    0.264    0.525   94.290
  384.750    3.633    0.264    0.539   92.478
  385.000    3.843    0.258    0.471   89.459
  385.250    4.219    0.253    0.451   86.440
  385.500    4.381    0.246    0.468   84.629
  385.750    4.549    0.240    0.479   87.633
  386.000    4.551    0.234    0.492   90.639
  386.250    4.552    0.237    0.488   87.020
  386.500    4.470    0.235    0.482   87.616
  386.750    4.555    0.240    0.483   91.224
  387.000    4.730    0.270    0.491   86.398
  387.250    4.911    0.286    0.496   79.766
  387.500    5.196    0.312    0.450   73.134
  387.750    5.294    0.329    0.416   69.514
  388.000    5.498    0.341    0.389   73.723
  388.250    5.603    0.314    0.422   78.535
  388.500    5.710    0.273    0.449   80.338
  388.750    5.712    0.270    0.467   77.320
  389.000    5.609    0.288    0.483   72.495
  389.250    5.306    0.313    0.495   68.874
  389.500    5.113    0.330    0.490   69.470
  389.750    4.661    0.340    0.472   69.463
  390.000    4.662    0.341    0.459   68.856
  390.250    4.579    0.338    0.462   69.452
  390.500    4.580    0.340    0.478   70.649
  390.750    4.668    0.340    0.473   71.247
  391.000    4.670    0.333    0.461   67.021
  391.250    4.500    0.330    0.467   66.414
  391.500    4.501    0.330    0.477   65.806
  391.750    4.503    0.330    0.479   65.198
  392.000    4.504    0.331    0.482   65.794
  392.250    4.591    0.333    0.483   68.198
  392.500    4.592    0.337    0.477   73.010
  392.750    4.681    0.333    0.487   76.014
  393.000    4.682    0.323    0.501   77.817
  393.250    4.772    0.313    0.495   77.210
  393.500    4.863    0.307    0.478   73.587
  393.750    4.956    0.302    0.471   72.378
  394.000    4.867    0.301    0.463   76.589
  394.250    4.868    0.298    0.448   83.207
  394.500    4.961    0.289    0.438   86.816
  394.750    5.056    0.272    0.438   91.628
  395.000    5.349    0.262    0.432   86.801
  395.250    5.554    0.252    0.440   84.990
  395.500    5.660    0.250    0.445   85.588
  395.750    5.662    0.252    0.437   92.206
  396.000    5.664    0.263    0.431   97.019
  396.250    5.561    0.274    0.444   96.411
  396.500    5.164    0.280    0.472   89.778
  396.750    4.885    0.289    0.491   86.761
  397.000    4.211    0.293    0.511   85.550
  397.250    3.910    0.289    0.502   85.544
  397.500    3.498    0.280    0.488   84.936
  397.750    3.309    0.283    0.482   86.736
  398.000    2.960    0.283    0.490   90.944
  398.250    2.698    0.280    0.498   92.747
  398.500    2.369    0.269    0.515   93.345
  398.750    2.241    0.267    0.533   90.325
  399.000    2.160    0.275    0.552   92.729
  399.250    2.082    0.281    0.569   95.133
  399.500    2.044    0.296    0.578   96.934
  399.750    2.045    0.281    0.579   94.519
  400.000    2.046    0.272    0.547   89.091
  400.250    2.085    0.268    0.524   87.879
  400.500    2.086    0.280    0.515   93.293
  400.750    2.125    0.300    0.538   95.700
  401.000    2.166    0.313    0.575   92.680
  401.250    2.208    0.324    0.587   90.265
  401.500    2.336    0.307    0.572   91.461
  401.750    2.425    0.295    0.547   91.457
  402.000    2.471    0.283    0.538   92.054
  402.250    2.614    0.280    0.536   88.431
  402.500    2.817    0.289    0.575   86.620
  402.750    2.980    0.289    0.550   83.602
  403.000    3.211    0.284    0.499   83.596
  403.250    3.592    0.286    0.488   81.783
  403.500    4.578    0.289    0.506   75.148
  403.750    5.315    0.275    0.477   69.722
  404.000    6.772    0.278    0.320   64.295
  404.250    8.958    0.315    0.281   60.072
  404.500   10.596    0.346    0.300   60.667
  404.750   10.799    0.364    0.339   58.852
  405.000    9.484    0.356    0.390   58.246
  405.250    8.971    0.340    0.433   56.432
