~VERSION INFORMATION
 VERS.                 2.0:   CWLS LOG ASCII STANDARD -VERSION 2.0
 WRAP.                  NO:   ONE LINE PER DEPTH STEP
~WELL INFORMATION BLOCK
#MNEM.UNIT           DATA                    DESCRIPTION OF MNEMONIC
#---------    -------------------            -------------------------------
# Generated from Intellog Unique Number	CS_77_79/WELL/989
WELL.         PARAMOUNT RESOURCES LTD.       : Well_name    - WELL
LOC .         00/11-06-077-09W4/0            : Location     - LOCATION
UWI .         00/11-06-077-09W4/0            : Uwi          - UNIQUE WELL ID
ENTR.         SP                             : Entered      - ENTERED BY
SRVC.         SCHLUMBERGER                   : Scn          - SERVICE COMPANY
STRT.M        210                            : top_depth    - START DEPTH
STOP.M        425                            : bot_depth    - STOP DEPTH
STEP.M        0.25                           : increment    - STEP LENGTH
 NULL. -999.2500:NULL Value
~CURVE INFORMATION BLOCK
#MNEM UNIT       ERCB CURVE CODE    CURVE DESCRIPTION
#-----------   ------------------   ----------------------------------
DEPT.M        00 001 00 00         : DEPTH        - DEPTH
ILD .OHMM     00 120 00 00         : RESD         - DEEP RESISTIVITY (DIL)
GR  .API      00 310 00 00         : GR           - GAMMA RAY
NPHI.V/V      00 330 00 00         : PHIN         - NEUTRON POROSITY (LIMESTONE)
DPHI.V/V      00 890 00 00         : PHID         - DENSITY POROSITY (LIMESTONE)
~PARAMETER INFORMATION
#MNEM.UNIT           DATA             DESCRIPTION OF MNEMONIC
#---------         -----------     ------------------------------
GL  .M        627.96               : gl           - GROUND LEVEL ELEVATION
EREF.M        631                  : kb           - ELEVATION OF DEPTH REFERENCE
DATM.M        627.96               : datum        - DATUM ELEVATION
TDD .M        431                  : tdd          - TOTAL DEPTH DRILLER
RUN .         ONE                  : Run          - RUN NUMBER
ENG .         BILL                 : Engineer     - RECORDING ENGINEER
WIT .         JIM                  : Witness      - WITNESSED BY
MUD .         GEL                  : Mud_type     - MUD TYPE
MATR.         LIMESTONE            : Logunit      - NEUTRON MATRIX
TMAX.C        21                   : BHT          - MAXIMUM RECORDED TEMPERATURE
BHTD.M        431                  : BHTDEP       - MAXIMUM RECORDED TEMPERATURE
MATR.         1                    : LOGUNIT      - NEUTRON MATRIX
RMT .C        25                   : MDTP         - TEMPERATURE OF MUD
NEUT.         1                    : NEUTRON      - NEUTRON TYPE
RESI.         0                    : RESIST       - RESISTIVITY TYPE
RMC .OHMM     0.25                 : RMC          - RESISTIVITY OF MUD CAKE
RMF .OHMM     0.25                 : RMF          - RESISTIVITY OF MUD FILTRATE
SUFT.C        15                   : SUFT         - SURFACE TEMPERATURE
~A  DEPTH     RESD       GR     PHIN     PHID
# ...
  340.500    7.703   66.583    0.411    0.318
  340.750    7.706   65.979    0.404    0.323
  341.000    7.790   64.162    0.401    0.315
  341.250    7.792   62.950    0.409    0.312
  341.500    7.797   65.384    0.416    0.317
  341.750    7.800   66.603    0.406    0.321
  342.000    7.884   67.822    0.401    0.323
  342.250    7.969   68.434    0.406    0.323
  342.500    8.051   69.652    0.411    0.320
  342.750    7.975   70.871    0.413    0.315
  343.000    7.738   67.232    0.418    0.312
  343.250    7.581   66.021    0.424    0.319
  343.500    7.424   67.241    0.425    0.322
  343.750    7.188   67.245    0.430    0.326
  344.000    7.110   66.641    0.431    0.317
  344.250    6.951   65.431    0.434    0.334
  344.500    6.955   65.435    0.434    0.332
  344.750    6.879   67.261    0.419    0.316
  345.000    6.883   68.481    0.418    0.320
  345.250    6.966   69.092    0.432    0.305
  345.500    7.131   69.095    0.434    0.303
  345.750    7.294   67.886    0.431    0.310
  346.000    7.700   67.282    0.419    0.316
  346.250    8.104   64.858    0.408    0.172
  346.500    8.750   62.432    0.400    0.101
  346.750    8.995   58.792    0.238    0.103
  347.000    8.918   53.332    0.235    0.166
  347.250    8.440   53.335    0.358    0.220
  347.500    7.721   60.021    0.407    0.270
  347.750    7.241   61.846    0.439    0.327
  348.000    6.763   63.672    0.449    0.335
  348.250    6.446   64.283    0.449    0.325
  348.500    6.371   65.503    0.436    0.316
  348.750    6.373   67.937    0.439    0.325
  349.000    6.376   69.762    0.443    0.334
  349.250    6.462   70.373    0.432    0.342
  349.500    6.464   69.164    0.432    0.350
  349.750    6.627   69.167    0.442    0.346
  350.000    7.193   69.779    0.443    0.267
  350.250    8.241   69.176    0.437    0.222
  350.500    9.289   67.359    0.422    0.114
  350.750   11.862   63.719    0.364    0.045
  351.000   13.393   60.079    0.164    0.018
  351.250   13.637   56.440    0.182    0.028
  351.500   13.078   57.051    0.220    0.047
  351.750   11.877   60.093    0.263    0.074
  352.000    9.390   60.703    0.375    0.142
  352.250    7.787   63.744    0.415    0.251
  352.500    6.666   66.178    0.450    0.307
  352.750    6.027   66.790    0.453    0.332
  353.000    6.031   67.402    0.447    0.325
  353.250    6.196   68.013    0.455    0.330
  353.500    6.280   68.017    0.447    0.316
  353.750    6.364   67.413    0.442    0.314
  354.000    6.447   67.417    0.433    0.322
  354.250    6.450   67.422    0.435    0.332
  354.500    6.535   67.426    0.430    0.320
  354.750    6.457   69.252    0.420    0.314
  355.000    6.460   70.472    0.423    0.315
  355.250    6.465   69.261    0.419    0.328
  355.500    6.387   68.658    0.414    0.328
  355.750    6.311   68.054    0.420    0.338
  356.000    6.155   69.273    0.426    0.344
  356.250    6.078   70.493    0.437    0.348
  356.500    6.001   71.105    0.443    0.351
  356.750    5.924   70.501    0.424    0.331
  357.000    5.848   69.898    0.440    0.329
  357.250    5.851   69.295    0.450    0.339
  357.500    5.855   69.907    0.446    0.338
  357.750    5.778   71.125    0.438    0.334
  358.000    5.780   74.166    0.447    0.323
  358.250    5.865   74.777    0.458    0.330
  358.500    5.868   75.388    0.466    0.334
  358.750    5.871   76.000    0.466    0.323
  359.000    5.874   79.649    0.451    0.321
  359.250    5.879   81.474    0.453    0.313
  359.500    5.882   83.300    0.457    0.308
  359.750    5.804   86.342    0.461    0.288
  360.000    5.729   89.382    0.467    0.260
  360.250    5.651   92.422    0.463    0.266
  360.500    5.656   88.783    0.461    0.283
  360.750    5.739   84.536    0.459    0.286
  361.000    5.822   83.326    0.463    0.274
  361.250    5.905   82.722    0.454    0.266
  361.500    6.151   81.512    0.427    0.246
  361.750    6.316   80.301    0.414    0.234
  362.000    6.399   79.699    0.409    0.216
  362.250    6.403   80.310    0.423    0.263
  362.500    6.326   82.136    0.433    0.278
  362.750    6.170   82.140    0.435    0.280
  363.000    6.091   83.359    0.432    0.280
  363.250    6.095   83.364    0.435    0.279
  363.500    6.178   79.725    0.444    0.285
  363.750    6.424   77.907    0.438    0.284
  364.000    6.588   77.912    0.434    0.268
  364.250    6.752   77.308    0.433    0.258
  364.500    6.755   76.704    0.429    0.234
  364.750    6.759   76.709    0.439    0.252
  365.000    6.681   80.965    0.442    0.258
  365.250    6.605   84.005    0.426    0.237
  365.500    6.449   85.224    0.430    0.240
  365.750    6.371   88.873    0.443    0.252
  366.000    6.135   93.128    0.432    0.232
  366.250    6.057   96.169    0.420    0.222
  366.500    5.820   97.386    0.413    0.221
  366.750    5.584   97.999    0.432    0.214
  367.000    5.425   98.610    0.448    0.215
  367.250    5.107   99.221    0.432    0.254
  367.500    4.869   99.832    0.432    0.236
  367.750    4.551  101.659    0.455    0.241
  368.000    4.315  102.877    0.475    0.229
  368.250    4.397  104.098    0.499    0.246
  368.500    4.723  104.100    0.487    0.256
  368.750    5.127  104.712    0.473    0.252
  369.000    5.774  105.323    0.460    0.241
  369.250    6.260  105.935    0.439    0.241
  369.500    6.424  107.761    0.431    0.225
  369.750    6.347  108.373    0.424    0.220
  370.000    6.270  108.985    0.420    0.205
  370.250    5.792  109.596    0.419    0.203
  370.500    5.474  108.386    0.419    0.197
  370.750    4.997  104.139    0.429    0.199
  371.000    4.757  101.106    0.455    0.209
  371.250    4.359   99.288    0.468    0.214
  371.500    3.641   97.471    0.466    0.226
  371.750    3.242   98.082    0.463    0.209
  372.000    2.844   98.087    0.462    0.227
  372.250    2.526   97.484    0.502    0.271
  372.500    2.290   95.666    0.529    0.303
  372.750    2.213   93.848    0.553    0.293
  373.000    2.215   93.246    0.560    0.286
  373.250    2.222   95.073    0.548    0.269
  373.500    2.785   95.075    0.535    0.263
  373.750    2.386   94.472    0.509    0.270
  374.000    2.470   92.655    0.521    0.285
  374.250    2.636   90.837    0.543    0.286
  374.500    2.638   89.627    0.559    0.271
  374.750    2.641   91.453    0.562    0.267
  375.000    2.566   94.494    0.570    0.258
  375.250    2.568   97.534    0.572    0.263
  375.500    2.733  101.790    0.555    0.266
  375.750    2.977  104.831    0.534    0.254
  376.000    3.382  105.442    0.498    0.240
  376.250    3.707  103.017    0.479    0.231
  376.500    4.274  101.807    0.472    0.211
  376.750    4.678  104.240    0.468    0.201
  377.000    5.324  106.674    0.478    0.190
  377.250    5.649  106.071    0.480    0.187
  377.500    5.893  103.645    0.452    0.173
  377.750    5.978   97.577    0.421    0.144
  378.000    5.740   94.544    0.387    0.150
  378.250    5.182  100.015    0.389    0.195
  378.500    4.703  103.055    0.402    0.189
  378.750    4.304  106.704    0.408    0.197
  379.000    4.067  108.530    0.413    0.204
  379.250    3.991  109.140    0.432    0.207
  379.500    3.916  110.968    0.449    0.196
  379.750    3.999  113.400    0.462    0.204
  380.000    4.002  117.655    0.465    0.209
  380.250    4.006  119.482    0.465    0.204
  380.500    4.009  118.272    0.470    0.196
  380.750    4.012  116.453    0.480    0.205
  381.000    4.016  114.029    0.491    0.215
  381.250    4.019  113.425    0.500    0.210
  381.500    3.942  116.467    0.505    0.203
  381.750    3.785  119.507    0.503    0.195
  382.000    3.709  119.511    0.494    0.187
  382.250    3.631  116.479    0.507    0.182
  382.500    3.555  114.054    0.511    0.182
  382.750    3.557  111.629    0.492    0.207
  383.000    3.562  113.456    0.483    0.212
  383.250    3.646  114.675    0.497    0.215
  383.500    3.810  115.893    0.495    0.216
  383.750    4.135  114.683    0.499    0.218
