~VERSION INFORMATION
 VERS.                 2.0:   CWLS LOG ASCII STANDARD -VERSION 2.0
 WRAP.                  NO:   ONE LINE PER DEPTH STEP
~WELL INFORMATION BLOCK
#MNEM.UNIT           DATA                    DESCRIPTION OF MNEMONIC
#---------    -------------------            -------------------------------
# Generated from Intellog Unique Number	CW_70_72/WELL/1050
NULL.         -999.25                        : NULL_VALUE
WELL.         GULF FRANS 10-34               : Well_name    - WELL              
LOC .         10-34-071-21W4                 : Location     - LOCATION          
UWI .         00/10-34-071-21W4/0            : Uwi          - UNIQUE WELL ID    
ENTR.         JAYE                           : Entered      - ENTERED BY        
SRVC.         SCHLUMBERGER                   : Scn          - SERVICE COMPANY   
DATE.         7 MAR 86                       : Date         - LOG DATE          
STRT.M        320                            : top_depth    - START DEPTH       
STOP.M        505                            : bot_depth    - STOP DEPTH        
STEP.M        0.25                           : increment    - STEP LENGTH       
~CURVE INFORMATION BLOCK
#MNEM UNIT       ERCB CURVE CODE    CURVE DESCRIPTION
#-----------   ------------------   ----------------------------------
DEPT.M        00 001 00 00         : DEPTH        - DEPTH                       
DPHI.V/V      00 890 00 00         : PHID         - DENSITY POROSITY (SANDSTONE)
NPHI.V/V      00 330 00 00         : PHIN         - NEUTRON POROSITY (SANDSTONE)
GR  .API      00 310 00 00         : GR           - GAMMA RAY                   
CALI.MM       00 280 01 00         : CAL          - CALIPER                     
ILD .OHMM     00 120 00 00         : RESD         - DEEP RESISTIVITY (DIL)      
~PARAMETER INFORMATION       
#MNEM.UNIT           DATA             DESCRIPTION OF MNEMONIC
#---------         -----------     ------------------------------
GL  .M        593                  : gl           - GROUND LEVEL ELEVATION      
EREF.M        597.3                : kb           - ELEVATION OF DEPTH REFERENCE
DATM.M        593                  : datum        - DATUM ELEVATION             
TDD .M        524                  : tdd          - TOTAL DEPTH DRILLER         
RUN .         ONE                  : Run          - RUN NUMBER                  
ENG .         GEORGE               : Engineer     - RECORDING ENGINEER          
WIT .         CLAPHAM              : Witness      - WITNESSED BY                
BASE.         SL                   : Branch       - HOME BASE OF LOGGING UNIT   
MUD .         GEL CHEM             : Mud_type     - MUD TYPE                    
MATR.         SANDSTONE            : Logunit      - NEUTRON MATRIX              
TMAX.C        22                   : BHT          - MAXIMUM RECORDED TEMPERATURE
BHTD.M        525                  : BHTDEP       - MAXIMUM RECORDED TEMPERATURE
RMT .C        12.8                 : MDTP         - TEMPERATURE OF MUD          
MUDD.KG/M     1120                 : MWT          - MUD DENSITY                 
NEUT.         1                    : NEUTRON      - NEUTRON TYPE                
RESI.         0                    : RESIST       - RESISTIVITY TYPE            
RM  .OHMM     3.15                 : RM           - RESISTIVITY OF MUD          
RMC .OHMM     0                    : RMC          - RESISTIVITY OF MUD CAKE     
RMF .OHMM     3.2                  : RMF          - RESISTIVITY OF MUD FILTRATE 
SUFT.C        0                    : SUFT         - SURFACE TEMPERATURE         
~A  DEPTH     PHID     PHIN       GR      CAL     RESD
# ...
  356.500    0.295    0.449   73.889  195.861    5.090
  356.750    0.274    0.433   79.388  196.503    5.084
  357.000    0.255    0.441   80.648  196.726    5.067
  357.250    0.251    0.454   78.973  195.394    5.033
  357.500    0.263    0.454   77.550  192.604    5.036
  357.750    0.271    0.452   76.627  192.933    4.991
  358.000    0.277    0.453   76.448  196.070    4.882
  358.250    0.282    0.465   76.958  198.166    4.775
  358.500    0.278    0.482   77.593  198.707    4.592
  358.750    0.285    0.478   76.915  197.163    4.466
  359.000    0.299    0.464   74.680  193.542    4.443
  359.250    0.305    0.450   73.507  185.762    4.514
  359.500    0.289    0.432   73.766  183.600    4.718
  359.750    0.266    0.435   74.900  185.485    4.922
  360.000    0.247    0.438   77.031  188.518    5.184
  360.250    0.209    0.442   82.156  193.526    5.378
  360.500    0.217    0.458   88.466  201.027    5.526
  360.750    0.212    0.445   86.044  205.722    5.572
  361.000    0.203    0.448   86.803  208.444    5.317
  361.250    0.194    0.455   90.618  209.915    5.055
  361.500    0.180    0.444   94.620  210.663    5.058
  361.750    0.198    0.422   79.536  210.054    5.228
  362.000    0.224    0.384   66.386  207.474    5.331
  362.250    0.241    0.372   56.230  198.552    5.426
  362.500    0.256    0.388   49.941  194.098    5.543
  362.750    0.273    0.403   50.887  196.300    5.643
  363.000    0.289    0.415   50.837  200.061    5.689
  363.250    0.303    0.406   50.597  203.195    5.726
  363.500    0.307    0.388   50.608  197.393    5.773
  363.750    0.308    0.389   50.680  195.543    5.776
  364.000    0.308    0.399   49.755  195.452    5.780
  364.250    0.311    0.395   48.456  196.819    5.794
  364.500    0.320    0.397   47.531  198.605    5.809
  364.750    0.305    0.391   47.105  199.662    5.913
  365.000    0.266    0.368   48.363  200.513    6.030
  365.250    0.227    0.339   49.621  201.465    6.114
  365.500    0.228    0.340   51.877  202.317    6.212
  365.750    0.232    0.352   52.761  202.954    6.298
  366.000    0.239    0.369   52.584  203.598    6.326
  366.250    0.253    0.385   51.473  204.030    6.259
  366.500    0.256    0.394   49.299  204.359    6.146
  366.750    0.251    0.383   45.130  203.857    6.091
  367.000    0.247    0.358   44.081  202.938    5.981
  367.250    0.250    0.369   44.279  202.230    5.850
  367.500    0.246    0.376   44.852  201.210    5.734
  367.750    0.244    0.382   45.048  200.710    5.682
  368.000    0.253    0.389   45.059  201.033    5.589
  368.250    0.262    0.394   45.381  201.262    5.467
  368.500    0.272    0.370   45.828  201.068    5.398
  368.750    0.275    0.350   48.333  201.297    5.341
  369.000    0.274    0.354   52.523  201.831    5.294
  369.250    0.277    0.369   55.465  202.581    5.247
  369.500    0.283    0.380   51.048  202.802    5.210
  369.750    0.286    0.380   48.127  203.133    5.165
  370.000    0.285    0.377   49.509  203.255    5.158
  370.250    0.288    0.384   50.891  203.479    5.171
  370.500    0.292    0.390   49.842  203.290    5.194
  370.750    0.294    0.389   49.915  202.891    5.227
  371.000    0.296    0.393   50.799  201.349    5.201
  371.250    0.298    0.400   52.056  200.534    5.145
  371.500    0.300    0.395   51.943  200.241    5.051
  371.750    0.301    0.365   51.205  199.844    4.978
  372.000    0.303    0.381   50.217  199.756    4.889
  372.250    0.304    0.397   48.668  199.774    4.827
  372.500    0.306    0.396   47.432  200.006    4.757
  372.750    0.306    0.400   47.879  200.329    4.627
  373.000    0.307    0.406   48.575  200.554    4.482
  373.250    0.314    0.399   51.331  200.779    4.343
  373.500    0.322    0.393   53.524  201.213    4.216
  373.750    0.319    0.389   52.224  202.688    4.155
  374.000    0.315    0.385   47.744  204.368    4.111
  374.250    0.321    0.379   48.690  205.734    4.090
  374.500    0.325    0.377   51.509  207.003    4.069
  374.750    0.328    0.387   53.016  207.329    4.026
  375.000    0.329    0.388   53.525  207.450    3.998
  375.250    0.329    0.398   53.161  207.053    3.955
  375.500    0.330    0.413   51.986  205.719    3.913
  375.750    0.333    0.419   49.752  203.661    3.893
  376.000    0.335    0.395   49.014  202.844    3.851
  376.250    0.334    0.397   51.394  202.134    3.818
  376.500    0.331    0.401   52.091  201.631    3.798
  376.750    0.332    0.396   50.292  201.336    3.801
  377.000    0.333    0.407   50.118  201.045    3.825
  377.250    0.334    0.407   51.000  201.060    3.827
  377.500    0.343    0.393   52.070  201.493    3.859
  377.750    0.347    0.386   53.391  202.861    3.928
  378.000    0.344    0.381   55.709  204.855    3.952
  378.250    0.337    0.396   61.208  206.643    3.970
  378.500    0.334    0.413   61.408  207.804    3.973
  378.750    0.340    0.429   56.053  208.547    4.028
  379.000    0.322    0.370   50.138  208.979    4.139
  379.250    0.195    0.306   46.593  209.412    4.368
  379.500    0.121    0.225   46.667  209.746    4.706
  379.750    0.110    0.240   47.113  209.761    4.817
  380.000    0.190    0.331   48.372  209.569    4.606
  380.250    0.237    0.376   48.693  209.482    4.420
  380.500    0.310    0.392   47.582  208.773    4.186
  380.750    0.330    0.399   47.343  207.543    3.788
  381.000    0.347    0.411   47.166  206.419    3.422
  381.250    0.348    0.419   46.927  205.810    3.266
  381.500    0.346    0.419   47.499  205.413    3.206
  381.750    0.344    0.412   49.006  205.227    3.178
  382.000    0.347    0.414   50.328  205.347    3.174
  382.250    0.348    0.436   50.399  205.467    3.176
  382.500    0.345    0.451   50.287  205.690    3.166
  382.750    0.343    0.450   50.170  205.917    3.162
  383.000    0.344    0.444   49.683  206.249    3.170
  383.250    0.352    0.438   49.132  206.679    3.172
  383.500    0.345    0.432   48.458  207.008    3.192
  383.750    0.345    0.429   48.280  207.443    3.218
  384.000    0.348    0.426   48.103  207.875    3.245
  384.250    0.351    0.426   47.927  208.206    3.254
  384.500    0.351    0.440   47.687  208.223    3.243
  384.750    0.350    0.441   47.760  208.239    3.220
  385.000    0.349    0.432   47.959  208.152    3.253
  385.250    0.347    0.429   47.845  208.066    3.274
  385.500    0.345    0.439   47.980  208.187    3.269
  385.750    0.343    0.453   48.614  207.998    3.278
  386.000    0.342    0.442   49.186  207.288    3.280
  386.250    0.339    0.419   50.256  206.473    3.307
  386.500    0.335    0.422   52.450  205.972    3.347
  386.750    0.332    0.433   55.455  205.781    3.375
  387.000    0.334    0.443   58.770  205.799    3.415
  387.250    0.336    0.425   57.222  205.610    3.463
  387.500    0.338    0.402   55.236  205.314    3.518
  387.750    0.341    0.410   54.124  204.603    3.561
  388.000    0.340    0.429   54.322  203.894    3.583
  388.250    0.328    0.421   56.204  203.600    3.627
  388.500    0.317    0.413   58.397  203.100    3.685
  388.750    0.312    0.431   61.588  203.012    3.786
  389.000    0.312    0.449   65.154  202.820    3.839
  389.250    0.299    0.458   64.291  202.629    3.893
  389.500    0.291    0.449   60.622  202.336    3.895
  389.750    0.302    0.451   60.259  202.251    3.905
  390.000    0.315    0.456   61.142  202.370    3.945
  390.250    0.318    0.448   62.275  202.493    3.992
  390.500    0.314    0.432   65.279  202.718    4.010
  390.750    0.311    0.412   67.098  203.049    4.044
  391.000    0.303    0.423   65.363  203.273    4.046
  391.250    0.316    0.435   62.879  203.604    4.095
  391.500    0.335    0.450   60.644  204.244    4.248
  391.750    0.344    0.446   60.280  204.784    4.542
  392.000    0.334    0.433   63.098  205.214    5.112
  392.250    0.281    0.401   58.991  205.438    5.732
  392.500    0.159    0.303   57.754  205.773    6.294
  392.750    0.194    0.360   62.007  205.893    5.893
