~VERSION INFORMATION
 VERS.                 2.0:   CWLS LOG ASCII STANDARD -VERSION 2.0
 WRAP.                  NO:   ONE LINE PER DEPTH STEP
~WELL INFORMATION BLOCK
#MNEM.UNIT           DATA                    DESCRIPTION OF MNEMONIC
#---------    -------------------            -------------------------------
# Generated from Intellog Unique Number	CS_67_68/WELL/2211
WELL.         12-08-067-01W4                 : Well_name    - WELL
LOC .         00/12-08-067-01W4/0            : Location     - LOCATION
UWI .         00/12-08-067-01W4/0            : Uwi          - UNIQUE WELL ID
ENTR.         SP                             : Entered      - ENTERED BY
SRVC.         SCHLUMBERGER                   : Scn          - SERVICE COMPANY
STRT.M        315                            : top_depth    - START DEPTH
STOP.M        570                            : bot_depth    - STOP DEPTH
STEP.M        0.25                           : increment    - STEP LENGTH
 NULL. -999.2500:NULL Value
~CURVE INFORMATION BLOCK
#MNEM UNIT       ERCB CURVE CODE    CURVE DESCRIPTION
#-----------   ------------------   ----------------------------------
DEPT.M        00 001 00 00         : DEPTH        - DEPTH
ILD .OHMM     00 120 00 00         : RESD         - DEEP RESISTIVITY (DIL)
DPHI.V/V      00 890 00 00         : PHID         - DENSITY POROSITY (LIMESTONE)
NPHI.V/V      00 330 00 00         : PHIN         - NEUTRON POROSITY (LIMESTONE)
GR  .API      00 310 00 00         : GR           - GAMMA RAY
CALI.MM       00 280 01 00         : CAL          - CALIPER
~PARAMETER INFORMATION
#MNEM.UNIT           DATA             DESCRIPTION OF MNEMONIC
#---------         -----------     ------------------------------
GL  .M        609.53               : gl           - GROUND LEVEL ELEVATION
EREF.M        613.4                : kb           - ELEVATION OF DEPTH REFERENCE
DATM.M        613.4                : datum        - DATUM ELEVATION
TDD .M        576                  : tdd          - TOTAL DEPTH DRILLER
RUN .         ONE                  : Run          - RUN NUMBER
ENG .         BILL                 : Engineer     - RECORDING ENGINEER
WIT .         JIM                  : Witness      - WITNESSED BY
MUD .         GEL                  : Mud_type     - MUD TYPE
MATR.         LIMESTONE            : Logunit      - NEUTRON MATRIX
TMAX.C        25                   : BHT          - MAXIMUM RECORDED TEMPERATURE
BHTD.M        575                  : BHTDEP       - MAXIMUM RECORDED TEMPERATURE
MATR.         1                    : LOGUNIT      - NEUTRON MATRIX
RMT .C        25                   : MDTP         - TEMPERATURE OF MUD
NEUT.         1                    : NEUTRON      - NEUTRON TYPE
RESI.         0                    : RESIST       - RESISTIVITY TYPE
RMC .OHMM     0.25                 : RMC          - RESISTIVITY OF MUD CAKE
RMF .OHMM     0.25                 : RMF          - RESISTIVITY OF MUD FILTRATE
SUFT.C        15                   : SUFT         - SURFACE TEMPERATURE
~A  DEPTH     RESD     PHID     PHIN       GR      CAL
# ...
  461.000    9.939    0.050    0.490   59.576  151.370
  461.250   10.314    0.046    0.215   52.975  152.384
  461.500   10.312    0.160    0.233   55.927  152.680
  461.750    9.678    0.222    0.330   64.116  152.773
  462.000    8.557    0.274    0.383   67.622  152.249
  462.250    7.824    0.312    0.418   68.909  151.210
  462.500    7.140    0.306    0.453   69.457  150.788
  462.750    6.943    0.302    0.434   69.635  150.467
  463.000    6.776    0.306    0.453   69.628  150.455
  463.250    6.813    0.309    0.470   67.094  150.137
  463.500    7.203    0.311    0.485   62.034  149.918
  463.750    7.730    0.288    0.435   58.145  150.215
  464.000    8.219    0.230    0.392   62.143  150.719
  464.250    8.593    0.262    0.408   65.896  151.014
  464.500    8.155    0.295    0.446   65.765  151.207
  464.750    7.611    0.306    0.482   63.724  151.608
  465.000    7.264    0.305    0.474   63.471  152.008
  465.250    7.089    0.298    0.464   66.484  152.407
  465.500    6.892    0.286    0.452   69.559  152.498
  465.750    6.827    0.280    0.449   70.970  152.691
  466.000    6.851    0.280    0.450   71.148  152.578
  466.250    6.991    0.276    0.442   70.217  152.361
  466.500    7.082    0.274    0.437   69.101  152.040
  466.750    7.174    0.279    0.433   68.662  151.824
  467.000    7.214    0.287    0.434   68.655  151.711
  467.250    7.348    0.296    0.436   69.388  151.493
  467.500    7.429    0.306    0.442   68.949  151.482
  467.750    7.512    0.290    0.433   67.834  151.369
  468.000    7.638    0.239    0.415   65.669  151.149
  468.250    7.766    0.202    0.399   68.128  151.139
  468.500    7.764    0.225    0.402   71.325  151.129
  468.750    7.677    0.265    0.424   74.585  150.910
  469.000    7.409    0.287    0.441   75.934  150.796
  469.250    7.177    0.281    0.456   74.632  150.580
  469.500    6.965    0.285    0.454   72.839  150.466
  469.750    6.785    0.293    0.454   71.414  150.248
  470.000    6.758    0.290    0.463   71.038  150.238
  470.250    6.884    0.292    0.454   75.283  149.919
  470.500    7.013    0.292    0.446   82.178  149.597
  470.750    7.223    0.281    0.455   82.972  149.280
  471.000    7.496    0.269    0.453   76.987  148.753
  471.250    8.030    0.273    0.452   69.585  148.743
  471.500    8.698    0.288    0.470   63.108  148.423
  471.750    9.510    0.274    0.390   56.999  148.204
  472.000    9.999    0.187    0.362   59.643  148.195
  472.250    9.886    0.220    0.384   65.182  148.181
  472.500    9.452    0.250    0.405   67.826  148.583
  472.750    9.242    0.285    0.416   61.717  149.084
  473.000    9.003    0.303    0.435   58.815  149.585
  473.250    8.819    0.313    0.427   57.267  149.781
  473.500    8.093    0.315    0.439   57.568  149.974
  473.750    7.090    0.315    0.444   60.581  150.272
  474.000    6.073    0.295    0.420   65.812  150.568
  474.250    5.350    0.268    0.414   70.921  150.761
  474.500    4.802    0.266    0.448   67.092  151.057
  474.750    4.574    0.287    0.477   60.553  151.253
  475.000    5.448    0.304    0.473   53.891  151.343
  475.250    6.850    0.317    0.404   54.562  151.431
  475.500    8.008    0.326    0.395   55.664  151.424
  475.750    9.071    0.324    0.397   58.246  151.307
  476.000    9.899    0.323    0.404   60.211  151.296
  476.250   10.486    0.322    0.413   62.731  151.286
  476.500   10.984    0.322    0.411   66.543  151.275
  476.750   11.188    0.332    0.420   68.325  151.365
  477.000   11.271    0.329    0.421   70.106  151.455
  477.250   11.332    0.317    0.413   66.956  151.442
  477.500   11.267    0.310    0.404   72.680  151.433
  477.750   11.265    0.315    0.403   77.727  151.320
  478.000   11.369    0.323    0.414   77.596  151.103
  478.250   11.494    0.314    0.408   72.290  151.091
  478.500   11.730    0.308    0.394   71.358  150.873
  478.750   11.883    0.305    0.386   71.598  150.863
  479.000   12.037    0.303    0.389   72.945  150.749
  479.250   12.080    0.295    0.401   73.741  150.942
  479.500   11.944    0.267    0.364   75.582  151.650
  479.750   10.739    0.230    0.345   81.122  152.563
  480.000    9.217    0.204    0.343   87.648  153.886
  480.250    8.134    0.174    0.368   93.126  155.621
  480.500    7.327    0.193    0.391   91.393  157.356
  480.750    6.877    0.198    0.404   97.179  158.372
  481.000    6.587    0.191    0.402  109.374  158.668
  481.250    6.660    0.192    0.395  118.920  158.759
  481.500    7.002    0.194    0.398  123.534  158.748
  481.750    7.349    0.192    0.397  116.441  158.224
  482.000    7.945    0.193    0.380  109.717  157.286
  482.250    8.338    0.207    0.368  108.724  156.557
  482.500    8.800    0.216    0.357  101.691  155.724
  482.750    9.269    0.220    0.351   85.785  154.787
  483.000    9.837    0.226    0.347   58.047  154.365
  483.250   10.635    0.241    0.360   37.579  154.252
  483.500   11.162    0.267    0.342   42.934  154.343
  483.750   11.626    0.286    0.327   55.067  155.153
  484.000   11.668    0.222    0.321   70.159  155.757
  484.250   11.601    0.218    0.330   80.691  156.362
  484.500   11.556    0.218    0.338   89.558  156.454
  484.750   11.468    0.228    0.348   94.789  156.132
  485.000   11.360    0.240    0.346   73.397  156.226
  485.250   11.211    0.241    0.335   51.021  156.214
  485.500   11.085    0.226    0.327   66.543  156.306
  485.750   10.778    0.212    0.336   70.666  156.191
  486.000   10.538    0.227    0.342   62.154  155.871
  486.250   10.208    0.237    0.343   67.262  155.756
  486.500   10.074    0.215    0.345   74.403  155.642
  486.750   10.054    0.191    0.372   78.526  155.938
  487.000   10.034    0.213    0.374   67.303  155.823
  487.250   10.107    0.227    0.357   58.176  155.608
  487.500   10.295    0.213    0.345   63.037  155.596
  487.750   10.487    0.199    0.352   64.448  155.585
  488.000   10.683    0.228    0.360   49.589  155.164
  488.250   10.943    0.249    0.367   36.949  154.227
  488.500   11.272    0.279    0.359   28.006  153.702
  488.750   11.525    0.306    0.354   27.137  153.280
  489.000   11.652    0.307    0.351   27.622  152.959
  489.250   11.892    0.302    0.343   26.692  152.640
  489.500   12.271    0.298    0.336   31.121  152.218
  489.750   12.270    0.288    0.326   36.846  151.591
  490.000   12.177    0.273    0.321   41.584  151.371
  490.250   12.108    0.263    0.328   38.988  151.363
  490.500   12.105    0.276    0.343   34.052  151.248
  490.750   12.194    0.283    0.352   32.504  151.029
  491.000   12.260    0.280    0.351   31.512  151.019
  491.250   12.100    0.290    0.346   29.101  151.005
  491.500   11.941    0.299    0.344   26.383  150.996
  491.750   11.895    0.297    0.348   28.718  150.985
  492.000   11.915    0.293    0.358   32.100  151.180
  492.250   11.935    0.290    0.355   39.304  151.064
  492.500   11.978    0.286    0.338   43.918  151.054
  492.750   12.065    0.286    0.328   42.494  151.042
  493.000   12.040    0.295    0.344   39.283  151.133
  493.250   12.039    0.284    0.341   40.446  151.224
  493.500   11.971    0.276    0.336   43.706  151.419
  493.750   12.013    0.250    0.327   49.677  152.126
  494.000   12.079    0.226    0.318   54.169  152.628
  494.250   12.190    0.233    0.331   51.635  152.823
  494.500   12.302    0.246    0.342   47.623  153.015
  494.750   12.392    0.275    0.346   44.103  153.210
  495.000   12.413    0.297    0.338   40.953  152.993
  495.250   12.388    0.302    0.335   37.680  153.390
  495.500   12.340    0.300    0.335   35.455  153.586
  495.750   12.384    0.297    0.331   39.391  154.088
  496.000   12.382    0.272    0.324   44.315  154.692
  496.250   12.310    0.256    0.324   51.209  155.091
  496.500   12.332    0.247    0.335   52.929  155.492
  496.750   12.216    0.239    0.342   57.175  155.788
  497.000   12.214    0.234    0.340   59.755  155.879
  497.250   12.098    0.252    0.352   51.183  155.969
