~VERSION INFORMATION
 VERS.                 2.0:   CWLS LOG ASCII STANDARD -VERSION 2.0
 WRAP.                  NO:   ONE LINE PER DEPTH STEP
~WELL INFORMATION BLOCK
#MNEM.UNIT           DATA                    DESCRIPTION OF MNEMONIC
#---------    -------------------            -------------------------------
# Generated from Intellog Unique Number	CW_70_72/WELL/1038
NULL.         -999.25                        : NULL_VALUE
WELL.         LANDBANK ET AL SPURFIELD 10-15 : Well_name    - WELL              
LOC .         10-15-072-02W5                 : Location     - LOCATION          
UWI .         00/10-15-072-02W5/0            : Uwi          - UNIQUE WELL ID    
ENTR.         JAYE                           : Entered      - ENTERED BY        
SRVC.         SCHLUMBERGER                   : Scn          - SERVICE COMPANY   
DATE.         6 MAR 83                       : Date         - LOG DATE          
STRT.M        375                            : top_depth    - START DEPTH       
STOP.M        590                            : bot_depth    - STOP DEPTH        
STEP.M        0.25                           : increment    - STEP LENGTH       
~CURVE INFORMATION BLOCK
#MNEM UNIT       ERCB CURVE CODE    CURVE DESCRIPTION
#-----------   ------------------   ----------------------------------
DEPT.M        00 001 00 00         : DEPTH        - DEPTH                       
DPHI.V/V      00 890 00 00         : PHID         - DENSITY POROSITY (SANDSTONE)
NPHI.V/V      00 330 00 00         : PHIN         - NEUTRON POROSITY (SANDSTONE)
GR  .API      00 310 00 00         : GR           - GAMMA RAY                   
CALI.MM       00 280 01 00         : CAL          - CALIPER                     
ILD .OHMM     00 120 00 00         : RESD         - DEEP RESISTIVITY (DIL)      
~PARAMETER INFORMATION       
#MNEM.UNIT           DATA             DESCRIPTION OF MNEMONIC
#---------         -----------     ------------------------------
GL  .M        589.3                : gl           - GROUND LEVEL ELEVATION      
EREF.M        593                  : kb           - ELEVATION OF DEPTH REFERENCE
DATM.M        589.3                : datum        - DATUM ELEVATION             
TDD .M        622                  : tdd          - TOTAL DEPTH DRILLER         
RUN .         ONE                  : Run          - RUN NUMBER                  
ENG .         DUNLOP               : Engineer     - RECORDING ENGINEER          
WIT .         SMITH                : Witness      - WITNESSED BY                
BASE.         EDM                  : Branch       - HOME BASE OF LOGGING UNIT   
MUD .         CHEM GEL             : Mud_type     - MUD TYPE                    
MATR.         SANDSTONE            : Logunit      - NEUTRON MATRIX              
TMAX.C        35.6                 : BHT          - MAXIMUM RECORDED TEMPERATURE
BHTD.M        622.2                : BHTDEP       - MAXIMUM RECORDED TEMPERATURE
RMT .C        21.1                 : MDTP         - TEMPERATURE OF MUD          
MUDD.KG/M     1140                 : MWT          - MUD DENSITY                 
NEUT.         1                    : NEUTRON      - NEUTRON TYPE                
RESI.         0                    : RESIST       - RESISTIVITY TYPE            
RM  .OHMM     5.6                  : RM           - RESISTIVITY OF MUD          
RMC .OHMM     0                    : RMC          - RESISTIVITY OF MUD CAKE     
RMF .OHMM     6.48                 : RMF          - RESISTIVITY OF MUD FILTRATE 
SUFT.C        32                   : SUFT         - SURFACE TEMPERATURE         
~A  DEPTH     PHID     PHIN       GR      CAL     RESD
# ...
  448.000    0.246    0.347   58.262  168.330    4.189
  448.250    0.213    0.317   56.671  170.378    5.358
  448.500    0.195    0.297   54.892  172.837    5.860
  448.750    0.196    0.291   53.177  174.679    6.778
  449.000    0.205    0.287   50.962  174.748    7.957
  449.250    0.220    0.308   52.565  173.349    8.719
  449.500    0.255    0.358   55.612  173.618    7.639
  449.750    0.290    0.399   57.532  176.610    7.485
  450.000    0.259    0.339   54.751  175.106    7.640
  450.250    0.198    0.299   56.794  172.875    7.991
  450.500    0.170    0.280   61.720  172.310    8.578
  450.750    0.162    0.277   59.502  172.375    9.295
  451.000    0.165    0.292   59.229  172.440   10.281
  451.250    0.204    0.332   61.083  172.504    9.650
  451.500    0.237    0.366   63.692  171.941    8.407
  451.750    0.267    0.383   64.230  171.484    7.176
  452.000    0.277    0.393   60.574  171.552    6.513
  452.250    0.266    0.389   58.357  171.294    5.879
  452.500    0.265    0.383   57.518  171.469    5.356
  452.750    0.266    0.379   57.680  171.536    5.009
  453.000    0.272    0.386   58.221  171.696    4.737
  453.250    0.282    0.383   58.322  171.970    4.538
  453.500    0.282    0.388   58.923  172.143    4.406
  453.750    0.273    0.397   58.964  172.524    4.349
  454.000    0.263    0.395   58.187  172.692    4.382
  454.250    0.250    0.404   57.098  172.647    4.431
  454.500    0.238    0.409   56.699  172.400    4.575
  454.750    0.257    0.397   56.423  172.359    4.758
  455.000    0.267    0.382   56.336  172.316    5.004
  455.250    0.257    0.382   56.251  171.756    5.243
  455.500    0.263    0.393   56.540  171.513    5.273
  455.750    0.270    0.391   57.642  171.050    5.254
  456.000    0.269    0.381   60.502  171.218    5.138
  456.250    0.260    0.372   67.806  171.704    5.072
  456.500    0.247    0.371   72.294  172.390    4.960
  456.750    0.216    0.366   78.095  172.873    4.860
  457.000    0.188    0.367   83.273  173.569    4.744
  457.250    0.178    0.385   87.886  173.421    4.648
  457.500    0.187    0.398   91.683  172.237    4.563
  457.750    0.206    0.402   81.260  169.272    4.437
  458.000    0.249    0.433   74.469  167.036    4.291
  458.250    0.288    0.437   68.302  166.162    3.968
  458.500    0.308    0.401   63.331  165.704    3.542
  458.750    0.319    0.390   58.546  165.142    3.057
  459.000    0.316    0.406   63.221  164.687    2.739
  459.250    0.319    0.393   66.767  164.745    2.500
  459.500    0.318    0.376   67.808  165.118    2.373
  459.750    0.310    0.384   64.214  165.502    2.269
  460.000    0.301    0.400   58.864  165.881    2.195
  460.250    0.302    0.412   58.089  166.151    2.224
  460.500    0.302    0.411   59.880  166.530    2.249
  460.750    0.310    0.408   61.297  167.329    2.291
  461.000    0.318    0.397   65.845  168.021    2.322
  461.250    0.313    0.386   68.454  168.811    2.357
  461.500    0.300    0.376   74.007  169.607    2.375
  461.750    0.288    0.399   81.062  170.089    2.388
  462.000    0.270    0.417   85.362  170.469    2.411
  462.250    0.249    0.435   81.266  170.844    2.425
  462.500    0.257    0.447   76.605  171.117    2.461
  462.750    0.266    0.445   75.078  171.289    2.527
  463.000    0.280    0.423   75.868  171.874    2.594
  463.250    0.290    0.418   73.399  172.150    2.663
  463.500    0.284    0.428   69.428  172.210    2.698
  463.750    0.287    0.414   69.401  171.548    2.744
  464.000    0.296    0.409   72.514  170.459    2.759
  464.250    0.304    0.403   78.127  170.108    2.791
  464.500    0.303    0.396   84.745  170.798    2.812
  464.750    0.265    0.390   90.423  172.221    2.807
  465.000    0.238    0.403   96.664  174.582    2.807
  465.250    0.205    0.427  100.149  177.257    2.807
  465.500    0.181    0.448   96.301  180.347    2.813
  465.750    0.191    0.429   93.018  182.607    2.882
  466.000    0.185    0.410   91.493  184.448    2.975
  466.250    0.174    0.413   92.783  186.601    3.106
  466.500    0.166    0.406   94.952  188.230    3.279
  466.750    0.167    0.410   98.436  189.966    3.480
  467.000    0.185    0.423   99.730  190.554    3.674
  467.250    0.196    0.430   95.006  191.132    3.814
  467.500    0.189    0.422   91.099  191.830    3.937
  467.750    0.192    0.415   93.831  192.623    4.027
  468.000    0.188    0.421   95.875  193.004    4.088
  468.250    0.169    0.428   93.781  193.796    4.157
  468.500    0.159    0.419   91.190  194.064    4.173
  468.750    0.154    0.408   90.350  194.338    4.220
  469.000    0.145    0.411   90.578  194.612    4.252
  469.250    0.167    0.432   91.179  194.679    4.253
  469.500    0.178    0.431   91.783  194.639    4.229
  469.750    0.171    0.390   88.188  194.181    4.167
  470.000    0.162    0.377   83.277  193.932    3.970
  470.250    0.165    0.387   85.571  193.164    3.748
  470.500    0.192    0.393   87.490  191.971    3.518
  470.750    0.194    0.391   85.147  190.683    3.479
  471.000    0.176    0.399   83.931  188.451    3.578
  471.250    0.201    0.399   85.661  186.004    3.707
  471.500    0.229    0.408   85.012  183.773    3.870
  471.750    0.271    0.403   78.473  181.439    4.003
  472.000    0.290    0.416   77.819  179.101    4.078
  472.250    0.296    0.429   76.858  176.865    4.071
  472.500    0.296    0.415   73.262  175.152    4.034
  472.750    0.290    0.409   68.037  173.862    3.915
  473.000    0.292    0.417   66.761  172.883    3.662
  473.250    0.299    0.413   66.236  171.588    3.262
  473.500    0.296    0.415   65.083  170.820    3.045
  473.750    0.289    0.422   64.810  170.775    2.939
  474.000    0.296    0.416   64.156  170.733    2.896
  474.250    0.302    0.405   63.884  170.909    2.875
  474.500    0.305    0.405   63.420  171.078    2.929
  474.750    0.305    0.410   64.087  171.033    3.018
  475.000    0.299    0.401   63.436  170.678    3.198
  475.250    0.292    0.401   63.099  170.640    3.376
  475.500    0.286    0.400   64.013  170.706    3.537
  475.750    0.298    0.404   63.051  171.607    3.658
  476.000    0.304    0.404   62.463  172.717    3.686
  476.250    0.302    0.392   63.566  173.715    3.673
  476.500    0.299    0.377   65.357  174.720    3.619
  476.750    0.311    0.390   67.716  175.411    3.559
  477.000    0.312    0.410   68.317  176.000    3.592
  477.250    0.305    0.419   67.539  176.902    3.757
  477.500    0.298    0.410   66.702  178.316    4.109
  477.750    0.293    0.398   65.363  178.902    4.469
  478.000    0.293    0.383   62.583  179.079    4.622
  478.250    0.293    0.378   61.370  179.350    4.606
  478.500    0.290    0.390   61.721  180.137    4.364
  478.750    0.290    0.398   62.700  180.312    4.088
  479.000    0.295    0.410   65.933  180.901    3.830
  479.250    0.294    0.419   66.661  181.069    3.739
  479.500    0.293    0.412   62.626  181.439    3.718
  479.750    0.288    0.398   61.913  181.613    3.740
  480.000    0.282    0.386   64.020  182.203    3.761
  480.250    0.288    0.383   65.247  182.474    3.761
  480.500    0.295    0.394   62.906  183.164    3.762
  480.750    0.293    0.401   61.249  183.123    3.748
  481.000    0.291    0.401   60.729  183.295    3.728
  481.250    0.296    0.393   61.643  182.938    3.707
  481.500    0.299    0.385   62.497  182.588    3.659
  481.750    0.297    0.396   63.725  181.714    3.572
  482.000    0.302    0.406   64.517  180.419    3.448
  482.250    0.311    0.406   64.807  179.126    3.322
  482.500    0.319    0.399   63.217  178.254    3.225
  482.750    0.313    0.390   60.935  177.372    3.148
  483.000    0.306    0.387   59.346  176.399    3.125
  483.250    0.299    0.385   58.757  175.519    3.148
  483.500    0.285    0.393   61.237  174.543    3.226
  483.750    0.272    0.411   62.720  173.661    3.318
  484.000    0.292    0.420   58.310  173.099    3.431
  484.250    0.292    0.387   60.227  173.064    3.542
