~VERSION INFORMATION
 VERS.                 2.0:   CWLS LOG ASCII STANDARD -VERSION 2.0
 WRAP.                  NO:   ONE LINE PER DEPTH STEP
~WELL INFORMATION BLOCK
#MNEM.UNIT           DATA                    DESCRIPTION OF MNEMONIC
#---------    -------------------            -------------------------------
# Generated from Intellog Unique Number	CN_91_93/WELL/3146
WELL.         10-25-092-18W4                 : Well_name    - WELL
LOC .         00/10-25-092-18W4/0            : Location     - LOCATION
UWI .         00/10-25-092-18W400            : Uwi          - UNIQUE WELL ID
ENTR.         JOETTE                         : Entered      - ENTERED BY
SRVC.         SCHLUMBERGER                   : Scn          - SERVICE COMPANY
DATE.         04/12/92                       : Date         - LOG DATE
STRT.M        100                            : top_depth    - START DEPTH
STOP.M        266                            : bot_depth    - STOP DEPTH
STEP.M        0.25                           : increment    - STEP LENGTH
 NULL. -999.2500:NULL Value
~CURVE INFORMATION BLOCK
#MNEM UNIT       ERCB CURVE CODE    CURVE DESCRIPTION
#-----------   ------------------   ----------------------------------
DEPT.M        00 001 00 00         : DEPTH        - DEPTH
CALI.MM       00 280 01 00         : CAL          - CALIPER
GR  .API      00 310 00 00         : GR           - GAMMA RAY
NPHI.V/V      00 330 00 00         : PHIN         - NEUTRON POROSITY (SANDSTONE)
DPHI.V/V      00 890 00 00         : PHID         - DENSITY POROSITY (SANDSTONE)
ILD .OHMM     00 120 00 00         : RESD         - DEEP RESISTIVITY (DIL)
~PARAMETER INFORMATION
#MNEM.UNIT           DATA             DESCRIPTION OF MNEMONIC
#---------         -----------     ------------------------------
GL  .M        520.54               : gl           - GROUND LEVEL ELEVATION
EREF.M        523.54               : kb           - ELEVATION OF DEPTH REFERENCE
DATM.M        523.54               : datum        - DATUM ELEVATION
TDD .M        268.5                : tdd          - TOTAL DEPTH DRILLER
RUN .         ONE                  : Run          - RUN NUMBER
ENG .         BILL                 : Engineer     - RECORDING ENGINEER
WIT .         JIM                  : Witness      - WITNESSED BY
MUD .         GEL                  : Mud_type     - MUD TYPE
MATR.         SANDSTONE            : Logunit      - NEUTRON MATRIX
TMAX.C        25                   : BHT          - MAXIMUM RECORDED TEMPERATURE
BHTD.M        268.5                : BHTDEP       - MAXIMUM RECORDED TEMPERATURE
RMT .C        17                   : MDTP         - TEMPERATURE OF MUD
MUDD.KG/M     1135                 : MWT          - MUD DENSITY
NEUT.         1                    : NEUTRON      - NEUTRON TYPE
RESI.         0                    : RESIST       - RESISTIVITY TYPE
RM  .OHMM     6.25                 : RM           - RESISTIVITY OF MUD
RMC .OHMM     6.25                 : RMC          - RESISTIVITY OF MUD CAKE
RMF .OHMM     5.21                 : RMF          - RESISTIVITY OF MUD FILTRATE
SUFT.C        4                    : SUFT         - SURFACE TEMPERATURE
~A  DEPTH      CAL       GR     PHIN     PHID     RESD
# ...
  246.000  192.273   71.450    0.435    0.232   13.551
  246.250  191.250   66.482    0.433    0.232   11.564
  246.500  190.235   56.546    0.457    0.237   10.265
  246.750  189.212   52.826    0.449    0.238   10.061
  247.000  187.166   53.458    0.435    0.239   12.017
  247.250  186.143   55.955    0.420    0.249   14.350
  247.500  183.056   62.182    0.426    0.244   15.224
  247.750  182.033   58.463    0.440    0.248   15.832
  248.000  177.910   52.256    0.417    0.268   16.140
  248.250  176.887   56.618    0.397    0.271   16.137
  248.500  175.868   59.118    0.424    0.266   16.782
  248.750  174.850   59.129    0.434    0.271   17.452
  249.000  174.863   64.113    0.434    0.274   17.444
  249.250  173.857   62.880    0.430    0.269   17.096
  249.500  173.870   57.917    0.425    0.264   16.105
  249.750  172.847   51.710    0.417    0.260   17.424
  250.000  172.864   45.507    0.402    0.274   24.866
  250.250  171.845   39.919    0.372    0.332   26.906
  250.500  171.867   33.715    0.350    0.339   39.942
  250.750  171.880   31.858    0.377    0.326   44.082
  251.000  171.902   31.247    0.396    0.310   52.651
  251.250  171.915   29.392    0.398    0.294   65.423
  251.500  172.968   28.159    0.393    0.272   95.229
  251.750  175.062   31.902    0.370    0.248  118.329
  252.000  177.152   34.400    0.321    0.293  138.563
  252.250  178.206   35.032    0.327    0.311  144.100
  252.500  179.263   35.042    0.356    0.320  146.923
  252.750  181.344   35.053    0.379    0.329  146.868
  253.000  182.402   35.063    0.397    0.331  146.786
  253.250  182.415   36.317    0.398    0.334  146.744
  253.500  182.441   37.571    0.396    0.335  146.675
  253.750  181.418   37.578    0.418    0.341  149.563
  254.000  181.431   33.240    0.435    0.342  155.540
  254.250  179.385   28.274    0.426    0.320  164.986
  254.500  177.330   22.068    0.407    0.302  178.485
  254.750  176.307   25.186    0.355    0.295  196.983
  255.000  174.261   33.903    0.338    0.289  286.728
  255.250  174.270   43.239    0.314    0.265   61.279
  255.500  173.255   55.683    0.345    0.213   51.267
  255.750  172.241   73.722    0.359    0.192   26.157
  256.000  172.249   99.843    0.365    0.174   22.769
  256.250  171.231   97.369    0.360    0.175   18.674
  256.500  170.216   93.652    0.359    0.178   17.247
  256.750  169.198   92.417    0.355    0.183   15.928
  257.000  168.179   95.533    0.346    0.179   15.610
  257.250  168.192  100.520    0.355    0.170   15.604
  257.500  166.137  103.017    0.348    0.165   16.226
  257.750  165.118  104.273    0.343    0.175   16.876
  258.000  163.068  104.281    0.356    0.189   17.901
  258.250  162.045  103.672    0.370    0.194   18.616
  258.500  165.175  103.058    0.371    0.178   18.247
  258.750  168.296  101.206    0.365    0.141   16.851
  259.000  169.354   98.106    0.355    0.124   15.258
  259.250  169.367   90.656    0.346    0.137   13.546
  259.500  167.316   83.206    0.362    0.165   12.762
  259.750  166.293   77.622    0.371    0.184   14.083
  260.000  164.252   75.770    0.380    0.217   15.852
  260.250  163.224   78.886    0.382    0.232   17.493
  260.500  163.250   81.386    0.373    0.175   16.805
  260.750  163.263   82.015    0.362    0.123   15.834
  261.000  163.276   82.647    0.337    0.129   13.779
  261.250  163.298   80.793    0.310    0.138   13.774
  261.500  163.315   75.832    0.286    0.146   14.610
  261.750  164.364   73.356    0.273    0.151   16.121
  262.000  164.364   75.231    0.281    0.157   16.769
  262.250  163.376   75.861    0.289    0.172   18.141
  262.500  163.376   74.006    0.290    0.182   19.627
  262.750  167.547   70.287    0.287    0.189   20.411
  263.000  167.560   62.215    0.281    0.198   20.811
  263.250  167.577   56.630    0.272    0.195   18.475
  263.500  167.599   53.532    0.265    0.166   15.154
  263.750  167.621   51.056    0.259    0.118   13.455
  264.000  168.665   47.961    0.264    0.005   12.425
  264.250  168.683   46.109    0.264   -0.014   12.669
  264.500  168.700   43.632    0.256   -0.014   14.261
  264.750  167.686   42.397    0.251   -0.007   18.804
  265.000  167.699   39.921    0.249    0.003   30.819
  265.250  166.684   38.688    0.249    0.011   37.545
  265.500  165.666   38.079    0.249    0.025  500.778
  265.750  165.683   37.465    0.249    0.034  686.938
  266.000  164.673   36.856    0.247    0.047  788.647
