~VERSION INFORMATION
 VERS.                 2.0:   CWLS LOG ASCII STANDARD -VERSION 2.0
 WRAP.                  NO:   ONE LINE PER DEPTH STEP
~WELL INFORMATION BLOCK
#MNEM.UNIT           DATA                    DESCRIPTION OF MNEMONIC
#---------    -------------------            -------------------------------
# Generated from Intellog Unique Number	CS_71_72/WELL/886
WELL.         SULPETRO LIMITED               : Well_name    - WELL
LOC .         00/11-05-071-10W4/0            : Location     - LOCATION
UWI .         00/11-05-071-10W4/0            : Uwi          - UNIQUE WELL ID
ENTR.         SP                             : Entered      - ENTERED BY
SRVC.         SCHLUMBERGER                   : Scn          - SERVICE COMPANY
STRT.M        300                            : top_depth    - START DEPTH
STOP.M        535                            : bot_depth    - STOP DEPTH
STEP.M        0.25                           : increment    - STEP LENGTH
 NULL. -999.2500:NULL Value
~CURVE INFORMATION BLOCK
#MNEM UNIT       ERCB CURVE CODE    CURVE DESCRIPTION
#-----------   ------------------   ----------------------------------
DEPT.M        00 001 00 00         : DEPTH        - DEPTH
ILD .OHMM     00 120 00 00         : RESD         - DEEP RESISTIVITY (DIL)
DPHI.V/V      00 890 00 00         : PHID         - DENSITY POROSITY (LIMESTONE)
NPHI.V/V      00 330 00 00         : PHIN         - NEUTRON POROSITY (LIMESTONE)
GR  .API      00 310 00 00         : GR           - GAMMA RAY
~PARAMETER INFORMATION
#MNEM.UNIT           DATA             DESCRIPTION OF MNEMONIC
#---------         -----------     ------------------------------
GL  .M        651.97               : gl           - GROUND LEVEL ELEVATION
EREF.M        654.8                : kb           - ELEVATION OF DEPTH REFERENCE
DATM.M        651.97               : datum        - DATUM ELEVATION
TDD .M        539                  : tdd          - TOTAL DEPTH DRILLER
RUN .         ONE                  : Run          - RUN NUMBER
ENG .         BILL                 : Engineer     - RECORDING ENGINEER
WIT .         JIM                  : Witness      - WITNESSED BY
MUD .         GEL                  : Mud_type     - MUD TYPE
MATR.         LIMESTONE            : Logunit      - NEUTRON MATRIX
TMAX.C        25                   : BHT          - MAXIMUM RECORDED TEMPERATURE
BHTD.M        539                  : BHTDEP       - MAXIMUM RECORDED TEMPERATURE
MATR.         1                    : LOGUNIT      - NEUTRON MATRIX
RMT .C        25                   : MDTP         - TEMPERATURE OF MUD
NEUT.         1                    : NEUTRON      - NEUTRON TYPE
RESI.         0                    : RESIST       - RESISTIVITY TYPE
RMC .OHMM     0.25                 : RMC          - RESISTIVITY OF MUD CAKE
RMF .OHMM     0.25                 : RMF          - RESISTIVITY OF MUD FILTRATE
SUFT.C        15                   : SUFT         - SURFACE TEMPERATURE
~A  DEPTH     RESD     PHID     PHIN       GR
# ...
  387.000   13.890    0.338    0.424   66.616
  387.250   13.863    0.328    0.415   64.542
  387.500   13.836    0.328    0.404   62.529
  387.750   13.809    0.334    0.408   61.251
  388.000   13.808    0.338    0.425   60.217
  388.250   13.832    0.340    0.422   59.124
  388.500   13.883    0.339    0.423   58.028
  388.750   13.986    0.337    0.422   60.301
  389.000   14.090    0.338    0.438   63.371
  389.250   14.115    0.341    0.433   65.521
  389.500   14.167    0.341    0.424   64.550
  389.750   14.113    0.339    0.418   63.516
  390.000   14.059    0.335    0.408   64.871
  390.250   13.979    0.331    0.404   66.961
  390.500   13.952    0.330    0.396   67.519
  390.750   13.899    0.335    0.406   66.792
  391.000   13.872    0.339    0.396   65.882
  391.250   13.871    0.338    0.384   64.603
  391.500   13.844    0.338    0.371   63.877
  391.750   13.817    0.341    0.367   64.497
  392.000   13.816    0.335    0.377   65.361
  392.250   13.815    0.329    0.384   66.410
  392.500   13.814    0.325    0.381   64.826
  392.750   13.787    0.329    0.389   61.713
  393.000   13.760    0.335    0.407   60.005
  393.250   13.682    0.338    0.422   65.706
  393.500   13.630    0.336    0.397   66.999
  393.750   13.502    0.331    0.373   63.824
  394.000   13.376    0.330    0.362   65.852
  394.250   13.300    0.329    0.370   72.105
  394.500   13.151    0.329    0.382   74.623
  394.750   13.076    0.329    0.374   70.651
  395.000   13.051    0.328    0.389   67.658
  395.250   13.123    0.327    0.405   67.727
  395.500   13.147    0.328    0.407   65.715
  395.750   13.146    0.330    0.402   63.703
  396.000   13.145    0.339    0.427   63.221
  396.250   13.046    0.342    0.442   63.656
  396.500   12.972    0.339    0.404   64.217
  396.750   12.899    0.331    0.383   64.591
  397.000   12.778    0.320    0.369   65.150
  397.250   12.753    0.313    0.383   65.646
  397.500   12.704    0.307    0.393   65.287
  397.750   12.704    0.311    0.405   63.152
  398.000   12.726    0.325    0.421   61.812
  398.250   12.773    0.320    0.437   63.902
  398.500   12.844    0.312    0.440   66.420
  398.750   12.915    0.315    0.387   67.652
  399.000   12.962    0.330    0.367   63.987
  399.250   12.985    0.330    0.356   62.096
  399.500   12.936    0.325    0.355   61.308
  399.750   12.911    0.325    0.367   59.173
  400.000   12.910    0.326    0.390   56.610
  400.250   12.909    0.320    0.425   59.556
  400.500   12.908    0.314    0.434   66.482
  400.750   12.858    0.323    0.407   67.102
  401.000   12.363    0.332    0.389   63.069
  401.250   12.454    0.338    0.411   61.239
  401.500   12.547    0.335    0.425   61.493
  401.750   12.950    0.327    0.400   63.643
  402.000   13.219    0.317    0.375   64.447
  402.250   15.176    0.312    0.430   63.782
  402.500   17.619    0.315    0.382   62.564
  402.750   19.414    0.271    0.276   56.879
  403.000   20.492    0.138    0.127   52.539
  403.250   20.490    0.019    0.092   52.424
  403.500   19.337   -0.004    0.083   61.066
  403.750   17.062   -0.019    0.317   64.256
  404.000   15.054    0.140    0.385   65.917
  404.250   14.180    0.262    0.410   66.476
  404.500   13.382    0.310    0.383   68.259
  404.750   12.890    0.297    0.372   70.043
  405.000   12.675    0.289    0.381   69.683
  405.250   12.509    0.282    0.363   64.242
  405.500   12.438    0.289    0.348   61.188
  405.750   12.368    0.298    0.347   62.727
  406.000   12.252    0.306    0.395   65.122
  406.250   12.092    0.315    0.424   68.745
  406.500   12.001    0.317    0.441   70.341
  406.750   11.888    0.319    0.404   72.369
  407.000   11.843    0.323    0.400   70.479
  407.250   11.798    0.327    0.451   66.323
  407.500   11.819    0.331    0.471   63.760
  407.750   11.796    0.335    0.443   61.380
  408.000   11.751    0.330    0.426   60.469
  408.250   11.447    0.323    0.416   65.620
  408.500   10.863    0.333    0.393   77.383
  408.750    9.693    0.323    0.365   87.432
  409.000    8.569    0.282    0.349   93.990
  409.250    7.675    0.230    0.357   96.998
  409.500    7.029    0.213    0.371   97.068
  409.750    6.572    0.216    0.369   96.953
  410.000    6.319    0.224    0.355   98.675
  410.250    6.342    0.232    0.345  100.335
  410.500    6.485    0.240    0.338  100.710
  410.750    6.719    0.246    0.341   98.330
  411.000    6.896    0.257    0.357   96.746
  411.250    7.078    0.249    0.378   99.815
  411.500    7.224    0.220    0.389  100.068
  411.750    7.319    0.230    0.384   96.158
  412.000    7.414    0.247    0.370   93.838
  412.250    7.442    0.250    0.364   92.377
  412.500    7.469    0.232    0.372   93.302
  412.750    7.468    0.230    0.380   95.332
  413.000    7.454    0.244    0.385   97.053
  413.250    7.425    0.245    0.386   99.387
  413.500    7.411    0.234    0.393  101.599
  413.750    7.410    0.229    0.384  100.872
  414.000    7.410    0.237    0.350  100.145
  414.250    7.382    0.248    0.326  101.806
  414.500    7.367    0.249    0.310  101.263
  414.750    7.339    0.230    0.333  101.576
  415.000    7.284    0.215    0.358  103.911
  415.250    7.243    0.216    0.383  102.389
  415.500    7.215    0.219    0.400  100.988
  415.750    7.161    0.221    0.403   97.812
  416.000    7.107    0.219    0.416   96.534
  416.250    7.014    0.214    0.445   96.297
  416.500    7.001    0.213    0.424   96.549
  416.750    6.935    0.216    0.400   97.353
  417.000    6.857    0.216    0.386  100.055
  417.250    6.780    0.214    0.388  102.083
  417.500    6.692    0.209    0.403  103.560
  417.750    6.604    0.203    0.437  102.222
  418.000    6.494    0.204    0.459  100.454
  418.250    6.338    0.213    0.419   98.563
  418.500    6.139    0.218    0.370   98.632
  418.750    5.783    0.215    0.351  106.231
  419.000    5.447    0.211    0.346  112.055
  419.250    4.897    0.208    0.376  108.573
  419.500    4.070    0.215    0.407  104.479
  419.750    3.345    0.230    0.380  101.731
  420.000    2.849    0.240    0.359  105.657
  420.250    2.528    0.245    0.372  112.155
  420.500    2.289    0.240    0.392  109.714
  420.750    2.272    0.241    0.394  110.456
  421.000    2.476    0.245    0.413  110.464
  421.250    2.890    0.235    0.437  106.492
  421.500    3.215    0.221    0.434  104.969
  421.750    3.643    0.210    0.380  104.120
  422.000    4.074    0.220    0.341  100.944
  422.250    4.423    0.239    0.336   97.033
  422.500    4.704    0.236    0.359   93.797
  422.750    4.928    0.225    0.379   97.110
  423.000    5.105    0.219    0.398  101.282
  423.250    5.221    0.212    0.435  103.432
  423.500    5.319    0.246    0.468   98.236
  423.750    5.368    0.271    0.467   90.408
  424.000    5.398    0.287    0.384   83.864
  424.250    5.438    0.284    0.349   81.911
  424.500    5.509    0.277    0.332   84.490
  424.750    5.633    0.284    0.328   87.928
  425.000    5.771    0.251    0.367   91.547
  425.250    5.891    0.234    0.410   95.044
  425.500    6.001    0.241    0.427   94.808
  425.750    6.114    0.260    0.406   89.366
  426.000    6.228    0.280    0.377   84.843
  426.250    6.334    0.295    0.378   82.402
  426.500    6.476    0.301    0.390   85.716
  426.750    6.586    0.301    0.409   87.683
  427.000    6.709    0.299    0.379   88.732
  427.250    6.746    0.288    0.369   86.597
  427.500    6.746    0.279    0.374   84.584
  427.750    6.708    0.295    0.399   83.674
  428.000    6.657    0.308    0.402   83.253
  428.250    6.632    0.296    0.379   81.669
  428.500    6.631    0.285    0.388   75.676
  428.750    6.606    0.282    0.403   69.438
  429.000    6.593    0.289    0.413   70.059
  429.250    6.581    0.295    0.328   76.251
  429.500    6.543    0.272    0.312   80.973
  429.750    6.482    0.250    0.308   87.226
  430.000    6.397    0.231    0.316   91.151
  430.250    6.255    0.221    0.323   93.240
