~VERSION INFORMATION
 VERS.                 2.0:   CWLS LOG ASCII STANDARD -VERSION 2.0
 WRAP.                  NO:   ONE LINE PER DEPTH STEP
~WELL INFORMATION BLOCK
#MNEM.UNIT           DATA                    DESCRIPTION OF MNEMONIC
#---------    -------------------            -------------------------------
# Generated from Intellog Unique Number	CS_71_72/WELL/926
WELL.         CAVALIER ET AL NIXON           : Well_name    - WELL
LOC .         00/15-17-072-14W4/0            : Location     - LOCATION
UWI .         00/15-17-072-14W4/0            : Uwi          - UNIQUE WELL ID
ENTR.         SP                             : Entered      - ENTERED BY
SRVC.         SCHLUMBERGER                   : Scn          - SERVICE COMPANY
STRT.M        285                            : top_depth    - START DEPTH
STOP.M        485                            : bot_depth    - STOP DEPTH
STEP.M        0.25                           : increment    - STEP LENGTH
 NULL. -999.2500:NULL Value
~CURVE INFORMATION BLOCK
#MNEM UNIT       ERCB CURVE CODE    CURVE DESCRIPTION
#-----------   ------------------   ----------------------------------
DEPT.M        00 001 00 00         : DEPTH        - DEPTH
ILD .OHMM     00 120 00 00         : RESD         - DEEP RESISTIVITY (DIL)
DPHI.V/V      00 890 00 00         : PHID         - DENSITY POROSITY (LIMESTONE)
NPHI.V/V      00 330 00 00         : PHIN         - NEUTRON POROSITY (LIMESTONE)
GR  .API      00 310 00 00         : GR           - GAMMA RAY
~PARAMETER INFORMATION
#MNEM.UNIT           DATA             DESCRIPTION OF MNEMONIC
#---------         -----------     ------------------------------
GL  .M        614.5                : gl           - GROUND LEVEL ELEVATION
EREF.M        618                  : kb           - ELEVATION OF DEPTH REFERENCE
DATM.M        614.5                : datum        - DATUM ELEVATION
TDD .M        491                  : tdd          - TOTAL DEPTH DRILLER
RUN .         ONE                  : Run          - RUN NUMBER
ENG .         BILL                 : Engineer     - RECORDING ENGINEER
WIT .         JIM                  : Witness      - WITNESSED BY
MUD .         GEL                  : Mud_type     - MUD TYPE
MATR.         LIMESTONE            : Logunit      - NEUTRON MATRIX
TMAX.C        20                   : BHT          - MAXIMUM RECORDED TEMPERATURE
BHTD.M        491                  : BHTDEP       - MAXIMUM RECORDED TEMPERATURE
MATR.         1                    : LOGUNIT      - NEUTRON MATRIX
RMT .C        25                   : MDTP         - TEMPERATURE OF MUD
NEUT.         1                    : NEUTRON      - NEUTRON TYPE
RESI.         0                    : RESIST       - RESISTIVITY TYPE
RMC .OHMM     0.25                 : RMC          - RESISTIVITY OF MUD CAKE
RMF .OHMM     0.25                 : RMF          - RESISTIVITY OF MUD FILTRATE
SUFT.C        15                   : SUFT         - SURFACE TEMPERATURE
~A  DEPTH     RESD     PHID     PHIN       GR
  285.000    2.543    0.283    0.575   89.731
  285.250    2.543    0.313    0.575   90.947
  285.500    2.543    0.303    0.589   89.692
  285.750    2.543    0.316    0.508   91.512
  286.000    2.590    0.307    0.516   92.725
  286.250    2.590    0.300    0.509   95.766
  286.500    2.639    0.303    0.504   96.370
  286.750    2.688    0.292    0.497   98.189
  287.000    2.738    0.287    0.502   96.328
  287.250    2.790    0.280    0.514   92.612
  287.500    2.790    0.273    0.523   93.824
  287.750    2.789    0.265    0.532   98.714
  288.000    2.789    0.260    0.559  101.771
  288.250    2.737    0.256    0.599  104.208
  288.500    2.788    0.254    0.526  103.571
  288.750    2.894    0.242    0.490  102.938
  289.000    2.894    0.238    0.491  102.298
  289.250    3.004    0.249    0.507  101.664
  289.500    3.060    0.255    0.532   99.795
  289.750    3.118    0.277    0.552   96.694
  290.000    3.236    0.284    0.566   94.221
  290.250    3.297    0.295    0.561   92.975
  290.500    3.358    0.284    0.547   91.724
  290.750    3.358    0.273    0.539   92.932
  291.000    3.296    0.267    0.535   99.667
  291.250    3.234    0.262    0.566  101.493
  291.500    3.174    0.266    0.574  101.476
  291.750    3.174    0.285    0.539   95.911
  292.000    3.057    0.296    0.550   94.665
  292.250    3.057    0.299    0.576   96.483
  292.500    3.000    0.301    0.579   97.083
  292.750    3.056    0.279    0.560   97.062
  293.000    3.172    0.297    0.577   93.968
  293.250    3.232    0.303    0.549   90.259
  293.500    3.292    0.281    0.480   85.929
  293.750    3.354    0.269    0.456   84.685
  294.000    3.354    0.261    0.441   86.504
  294.250    3.292    0.269    0.514   88.330
  294.500    3.230    0.322    0.565   89.533
  294.750    3.170    0.272    0.604   85.212
  295.000    3.416    0.213    0.432   78.431
  295.250    3.680    0.192    0.403   69.805
  295.500    4.040    0.177    0.381   65.482
  295.750    4.435    0.200    0.390   72.835
  296.000    4.603    0.248    0.398   75.881
  296.250    4.868    0.291    0.389   77.710
  296.500    4.868    0.290    0.386   75.843
  296.750    4.959    0.286    0.394   69.671
  297.000    4.959    0.277    0.398   67.808
  297.250    4.958    0.267    0.408   67.787
  297.500    5.051    0.261    0.400   69.603
  297.750    5.146    0.249    0.393   72.658
  298.000    5.242    0.240    0.386   74.485
  298.250    5.340    0.248    0.384   76.915
  298.500    5.440    0.252    0.381   77.518
  298.750    5.542    0.261    0.375   78.725
  299.000    5.646    0.268    0.373   79.309
  299.250    5.646    0.276    0.380   79.909
  299.500    5.645    0.273    0.387   81.722
  299.750    5.645    0.267    0.396   81.710
  300.000    5.644    0.260    0.417   79.843
  300.250    5.644    0.256    0.418   78.596
  300.500    5.750    0.256    0.411   79.797
  300.750    5.643    0.248    0.406   81.618
  301.000    5.642    0.248    0.405   82.217
  301.250    5.642    0.250    0.400   82.813
  301.500    5.641    0.254    0.397   84.013
  301.750    5.641    0.259    0.394   86.451
  302.000    5.640    0.251    0.394   88.894
  302.250    5.640    0.246    0.395   89.482
  302.500    5.745    0.243    0.399   88.846
  302.750    5.745    0.235    0.400   90.663
  303.000    5.853    0.230    0.384   92.484
  303.250    5.852    0.227    0.384   93.083
  303.500    5.851    0.225    0.389   94.297
  303.750    5.851    0.225    0.387   94.275
  304.000    5.850    0.225    0.387   93.022
  304.250    5.742    0.228    0.388   91.775
  304.500    5.741    0.232    0.389   90.523
  304.750    5.740    0.234    0.399   89.876
  305.000    5.740    0.228    0.414   89.247
  305.250    5.633    0.232    0.422   89.230
  305.500    5.633    0.235    0.409   87.972
  305.750    5.632    0.244    0.386   87.340
  306.000    5.632    0.254    0.375   84.858
  306.250    5.737    0.254    0.369   80.539
  306.500    5.845    0.276    0.385   72.528
  306.750    5.955    0.276    0.373   62.054
  307.000    6.297    0.272    0.367   66.940
  307.250    6.415    0.259    0.363   70.001
  307.500    6.415    0.241    0.363   74.282
  307.750    6.414    0.219    0.363   76.718
  308.000    6.413    0.213    0.366   79.155
  308.250    6.294    0.226    0.369   80.366
  308.500    6.177    0.237    0.384   82.184
  308.750    5.950    0.233    0.395   82.168
  309.000    5.521    0.221    0.404   74.771
  309.250    5.319    0.238    0.401   57.538
  309.500    5.028    0.254    0.394   53.831
  309.750    4.666    0.279    0.390   51.964
  310.000    4.753    0.308    0.393   53.167
  310.250    4.753    0.316    0.383   58.678
  310.500    4.842    0.290    0.381   64.807
  310.750    4.933    0.269    0.384   75.227
  311.000    5.026    0.252    0.394   81.351
  311.250    5.025    0.236    0.400   86.252
  311.500    5.025    0.233    0.422   91.150
  311.750    4.931    0.250    0.470   95.432
  312.000    4.839    0.285    0.489   99.710
  312.250    4.750    0.278    0.498  103.377
  312.500    4.661    0.260    0.516  107.041
  312.750    4.575    0.271    0.535  108.256
  313.000    4.407    0.273    0.561  107.617
  313.250    4.166    0.278    0.521  111.884
  313.500    4.089    0.294    0.531  113.099
  313.750    3.939    0.296    0.567  113.088
  314.000    3.794    0.281    0.570  111.220
  314.250    3.654    0.264    0.526  111.200
  314.500    3.455    0.255    0.485  111.789
  314.750    3.328    0.249    0.528  113.002
  315.000    3.147    0.248    0.577  115.430
  315.250    3.088    0.284    0.587  116.026
  315.500    3.146    0.306    0.592  115.397
  315.750    3.390    0.318    0.580  111.678
  316.000    3.721    0.303    0.512  109.822
  316.250    4.162    0.289    0.462  105.487
  316.500    4.568    0.240    0.433  103.010
  316.750    5.015    0.248    0.428   99.914
  317.000    5.303    0.270    0.432   97.437
  317.250    5.505    0.285    0.429   92.490
  317.500    5.608    0.275    0.409   90.024
  317.750    5.713    0.257    0.393   83.853
  318.000    5.712    0.265    0.387   76.458
  318.250    5.712    0.270    0.389   70.900
  318.500    5.606    0.273    0.393   68.418
  318.750    5.399    0.274    0.394   65.945
  319.000    5.299    0.279    0.394   70.226
  319.250    5.105    0.289    0.392   92.943
  319.500    4.826    0.273    0.402   99.677
  319.750    4.649    0.222    0.432   99.659
  320.000    4.562    0.166    0.416   99.027
  320.250    4.648    0.149    0.392   99.618
  320.500    4.648    0.159    0.402  105.124
  320.750    4.915    0.212    0.438  108.789
  321.000    5.295    0.251    0.452  110.002
  321.250    5.600    0.305    0.460  111.210
  321.500    5.705    0.333    0.436  109.347
  321.750    5.921    0.317    0.420  103.787
  322.000    6.146    0.296    0.409   97.618
  322.250    6.379    0.283    0.406   94.533
  322.500    6.378    0.289    0.406   89.594
  322.750    6.378    0.293    0.394   85.269
  323.000    6.378    0.294    0.389   83.403
  323.250    6.377    0.278    0.395   87.685
  323.500    6.376    0.277    0.396   90.737
  323.750    6.376    0.297    0.394   94.399
  324.000    6.257    0.297    0.396   92.533
  324.250    6.141    0.303    0.402   90.058
  324.500    6.027    0.300    0.409   90.033
  324.750    5.915    0.313    0.409   95.539
  325.000    5.914    0.320    0.404  102.278
  325.250    5.804    0.293    0.403  107.177
  325.500    6.024    0.259    0.409  109.621
  325.750    6.138    0.247    0.422  106.516
  326.000    6.252    0.253    0.451   99.732
  326.250    6.370    0.258    0.468   96.030
  326.500    6.369    0.262    0.443   89.858
  326.750    6.368    0.263    0.414   86.153
  327.000    6.368    0.263    0.396   89.194
  327.250    6.487    0.258    0.386   91.637
  327.500    6.367    0.252    0.380   94.697
  327.750    6.366    0.244    0.376   98.975
  328.000    6.366    0.240    0.376  100.187
  328.250    6.365    0.233    0.382  102.007
