~VERSION INFORMATION
 VERS.                 2.0:   CWLS LOG ASCII STANDARD -VERSION 2.0
 WRAP.                  NO:   ONE LINE PER DEPTH STEP
~WELL INFORMATION BLOCK
#MNEM.UNIT           DATA                    DESCRIPTION OF MNEMONIC
#---------    -------------------            -------------------------------
# Generated from Intellog Unique Number	CW_76_78/WELL/1028
WELL.         11-27-077-23W4                 : Well_name    - WELL
LOC .         00/11-27-077-23W4/0            : Location     - LOCATION
UWI .         00/11-27-077-23W4/0            : Uwi          - UNIQUE WELL ID
ENTR.         jj                             : Entered      - ENTERED BY
SRVC.         WESTERN ATLAS                  : Scn          - SERVICE COMPANY
DATE.         12 MARCH 67                    : Date         - LOG DATE
STRT.M        472.578                        : top_depth    - START DEPTH
STOP.M        612.828                        : bot_depth    - STOP DEPTH
STEP.M        0.25                           : increment    - STEP LENGTH
 NULL. -999.2500:NULL Value
~CURVE INFORMATION BLOCK
#MNEM UNIT       ERCB CURVE CODE    CURVE DESCRIPTION
#-----------   ------------------   ----------------------------------
DEPT.M        00 001 00 00         : DEPTH        - DEPTH
GR  .API      00 310 00 00         : GR           - GAMMA RAY
DELT.US/F     00 520 00 00         : DELT         - SONIC TRAVEL TIME
ILD .OHMM     00 120 00 00         : RESD         - DEEP RESISTIVITY (DIL)
~PARAMETER INFORMATION
#MNEM.UNIT           DATA             DESCRIPTION OF MNEMONIC
#---------         -----------     ------------------------------
GL  .M        651.571              : gl           - GROUND LEVEL ELEVATION
EREF.M        655.93               : kb           - ELEVATION OF DEPTH REFERENCE
DATM.M        651.571              : datum        - DATUM ELEVATION
TDD .M        613.867              : tdd          - TOTAL DEPTH DRILLER
RUN .         ONE                  : Run          - RUN NUMBER
ENG .         MANLY                : Engineer     - RECORDING ENGINEER
WIT .         SAMIS                : Witness      - WITNESSED BY
MUD .         WATER GEL            : Mud_type     - MUD TYPE
MATR.         SANDSTONE            : Logunit      - NEUTRON MATRIX
TMAX.C        27.2222              : BHT          - MAXIMUM RECORDED TEMPERATURE
BHTD.M        612.648              : BHTDEP       - MAXIMUM RECORDED TEMPERATURE
RMT .C        15.5556              : MDTP         - TEMPERATURE OF MUD
MUDD.KG/M     1176                 : MWT          - MUD DENSITY
NEUT.         1                    : NEUTRON      - NEUTRON TYPE
RESI.         0                    : RESIST       - RESISTIVITY TYPE
RM  .OHMM     3                    : RM           - RESISTIVITY OF MUD
RMC .OHMM     3.32                 : RMC          - RESISTIVITY OF MUD CAKE
RMF .OHMM     2.72                 : RMF          - RESISTIVITY OF MUD FILTRATE
SUFT.C        4.5                  : SUFT         - SURFACE TEMPERATURE
~A  DEPTH       GR     DELT     RESD
# ...
  526.828   92.189  124.220    5.133
  527.078   92.165  127.455    4.941
  527.328   96.223  128.777    4.898
  527.578   95.464  129.495    4.904
  527.828   93.029  129.612    4.859
  528.078   89.146  129.524    4.868
  528.328   88.864  129.337    4.821
  528.578   90.997  129.351    4.631
  528.828   87.114  130.270    4.488
  529.078   86.359  131.087    4.345
  529.328   87.774  132.008    4.055
  529.578   86.053  133.531    4.405
  529.828   83.136  134.955    5.596
  530.078   75.639  134.966    8.960
  530.328   60.201  134.074   11.435
  530.578   51.982  132.479   14.008
  530.828   48.094  131.585   17.422
  531.078   44.688  129.686   19.551
  531.328   42.486  127.887   20.446
  531.578   41.258  125.084   20.848
  531.828   39.540  123.184   20.705
  532.078   41.188  122.496   20.414
  532.328   45.487  122.204   19.975
  532.578   48.827  121.815   19.042
  532.828   52.163  121.426   18.011
  533.078   54.778  121.341   16.931
  533.328   56.662  121.455   15.751
  533.578   56.152  121.671   14.669
  533.828   56.119  121.886   13.687
  534.078   55.360  122.198   12.460
  534.328   55.094  122.817   11.922
  534.578   58.912  124.041   10.544
  534.828   73.563  124.756    9.019
  535.078   80.028  125.173    7.641
  535.328   83.604  124.382    6.709
  535.578   85.982  122.079    5.974
  535.828   77.759  121.790    5.782
  536.078   69.063  125.125    6.923
  536.328   56.753  126.750    9.744
  536.578   53.592  127.468   12.663
  536.828   54.036  130.601   15.829
  537.078   53.040  130.314   16.922
  537.328   53.489  129.319   17.126
  537.578   53.697  127.521   17.180
  537.828   53.660  126.430   16.298
  538.078   56.274  125.537   15.218
  538.328   57.934  124.444   14.185
  538.578   58.619  123.449   12.116
  538.828   56.657  121.551   10.689
  539.078   53.500  120.559    9.413
  539.328   49.376  119.667    9.713
  539.578   46.932  119.477   10.509
  539.828   45.933  119.692   10.516
  540.078   47.103  120.512   10.423
  540.328   47.307  120.828   10.279
  540.578   46.560  121.041   10.088
  540.828   46.283  121.056    9.896
  541.078   46.009  121.068    9.803
  541.328   45.740  120.881    9.710
  541.578   47.387  120.793    9.568
  541.828   49.524  120.707    9.568
  542.078   51.653  120.518    9.529
  542.328   49.455  120.331    9.437
  542.578   49.662  120.142    9.639
  542.828   52.517  119.957    9.893
  543.078   55.136  119.868   10.195
  543.328   57.746  119.582   10.397
  543.578   55.062  119.193   10.945
  543.828   53.822  118.701   11.692
  544.078   51.872  117.002   12.883
  544.328   49.669  113.292   15.160
  544.578   49.155  108.775   15.758
  544.828   50.562  102.850   15.270
  545.078   53.666   96.421   13.399
  545.328   59.404   94.924   11.825
  545.578   59.857  104.300   10.547
  545.828   56.695  108.945    9.911
  546.078   60.754  109.964    9.521
  546.328   61.924  116.219    9.823
  546.578   61.651  118.046   10.322
  546.828   60.647  118.061   11.167
  547.078   60.377  117.772   13.247
  547.328   59.859  117.380   14.734
  547.578   58.383  116.387   16.173
  547.828   55.947  111.872   17.906
  548.078   53.989  107.254   16.827
  548.328   57.325  102.234   14.905
  548.578   62.106   98.323   11.997
  548.828   70.736   99.141    9.682
  549.078   78.408  105.295    7.614
  549.328   88.723  109.638    6.434
  549.578   95.669  115.188    6.194
  549.828   83.844  119.530    6.199
  550.078   75.144  119.242    7.290
  550.328   69.336  116.940    8.975
  550.578   64.245  115.543    9.672
  550.828   62.042  111.228    9.729
  551.078   62.976  107.014    9.338
  551.328   71.370  105.015    8.504
  551.578   82.407  106.840    7.819
  551.828   88.390  110.077    7.133
  552.078   78.732  111.397    6.743
  552.328   73.160  113.826    6.749
  552.578   63.742  118.470    7.249
  552.828   60.095  119.996    9.279
  553.078   56.693  121.216   10.471
  553.328   51.121  118.309   11.266
  553.578   41.218  113.492   12.753
  553.828   36.613  110.384   20.413
  554.078   31.281  104.660   23.234
  554.328   38.231   98.835   23.042
  554.578   50.957   96.334   18.554
  554.828   61.757   97.553   14.559
  555.078   73.757  103.305   11.256
  555.328   82.151  124.056    4.940
  555.578   96.561  135.243    3.761
  555.828   92.914  140.793    3.274
  556.078   92.396  141.913    3.180
  556.328   92.849  142.329    3.136
  556.578   94.737  142.646    3.290
  556.828   93.260  142.660    3.543
  557.078   88.900  142.371    3.943
  557.328   81.643  141.581    4.542
  557.578   74.628  140.786    5.092
  557.828   74.350  135.669    5.294
  558.078   81.545  133.767    5.398
  558.328   94.026  131.969    5.354
  558.578  100.976  131.882    5.065
  558.828  101.179  132.600    4.971
  559.078   94.168  134.326    5.272
  559.328   84.746  135.448    5.526
  559.578   77.493  135.158    6.370
  559.828   70.478  134.366    8.351
  560.078   62.254  133.073    9.789
  560.328   63.184  131.474   12.461
  560.578   67.010  130.079   14.690
  560.828   72.267  129.388   14.993
  561.078   73.919  128.595   15.047
  561.328   74.849  127.402   14.904
  561.578   74.820  126.407   14.713
  561.828   73.343  124.913   14.521
  562.078   56.934  124.121   15.465
  562.328   54.013  123.231   17.100
  562.578   51.097  122.536   18.834
  562.828   48.413  120.034   21.901
  563.078   44.529  115.014   23.883
  563.328   39.924  108.988   25.765
  563.578   35.556  103.666   27.549
  563.828   37.448   93.312   29.134
  564.078   41.266   81.749   30.918
  564.328   44.606   78.842   30.825
  564.578   48.905   81.273   27.422
  564.828   54.888   88.936   19.477
  565.078   59.183   96.096   14.149
  565.328   61.320  104.768    8.575
  565.578   64.415  109.714    7.346
  565.828   68.237  115.465    6.611
  566.078   71.573  121.518    6.123
  566.328   76.353  123.243    5.734
  566.578   82.337  125.774    5.443
  566.828   87.602  127.900    5.201
  567.078   81.308  129.324    4.812
  567.328   56.962  129.742    4.176
  567.578   45.859  129.051    4.035
  567.828   39.325  129.167    4.089
  568.078   39.292  129.278    4.095
  568.328   42.628  127.580    4.052
  568.578   48.852  127.090    4.056
  568.828   52.433  127.709    4.259
  569.078   68.042  128.325    4.561
  569.328   75.229  128.741    4.666
  569.578   77.366  128.857    4.622
  569.828   83.349  129.172    4.479
  570.078   99.925  129.689    3.893
  570.328  103.506  130.408    3.504
  570.578   99.860  131.227    3.163
  570.828   91.404  132.245    2.874
  571.078   79.575  134.170    3.027
  571.328   82.671  137.506    3.625
  571.578   78.543  138.828    4.470
  571.828   72.735  133.104    5.169
  572.078   70.772  129.393    5.173
  572.328   74.835  127.495    5.079
  572.578   79.856  126.603    4.838
  572.828   86.320  125.913    4.598
  573.078   88.694  125.422    4.455
  573.328   90.831  125.440    4.312
  573.578   97.296  125.952    4.269
  573.828   98.462  127.274    4.274
  574.078   90.247  129.402    4.231
  574.328   88.044  130.927    4.137
  574.578   84.642  127.819    3.995
  574.828   80.759  125.415    3.901
  575.078   76.394  121.906    3.858
  575.328   71.063  122.624    4.062
  575.578   67.898  123.144    4.363
  575.828   67.147  123.055    4.963
  576.078   73.608  122.866    5.066
  576.328   76.948  122.581    4.974
  576.578   81.010  122.192    4.731
  576.828   85.550  122.101    4.393
  577.078   92.496  122.017    4.393
  577.328  100.890  122.130    4.208
  577.578  102.060  122.847    3.914
  577.828   96.488  124.270    3.526
  578.078   92.120  126.600    3.383
  578.328   90.406  129.030    3.192
  578.578   86.996  130.249    3.099
  578.828   83.358  131.272    3.005
  579.078   75.139  131.184    3.012
  579.328   67.405  130.392    3.066
  579.578   63.037  126.680    3.121
  579.828   57.709  123.673    3.275
  580.078   48.047  121.776    3.329
  580.328   38.143  121.187    3.385
  580.578   38.832  121.400    3.341
  580.828   44.094  121.818    3.198
