~VERSION INFORMATION
 VERS.                 2.0:   CWLS LOG ASCII STANDARD -VERSION 2.0
 WRAP.                  NO:   ONE LINE PER DEPTH STEP
~WELL INFORMATION BLOCK
#MNEM.UNIT           DATA                    DESCRIPTION OF MNEMONIC
#---------    -------------------            -------------------------------
# Generated from Intellog Unique Number	CC_84_87/WELL/2308
NULL.         -999.25                        : NULL_VALUE
WELL.         SUNCOR CHEECHAM                : Well_name    - WELL              
LOC .         10-29-084-06W4                 : Location     - LOCATION          
UWI .         00/10-29-084-06W4/0            : Uwi          - UNIQUE WELL ID    
ENTR.         JHS                            : Entered      - ENTERED BY        
SRVC.         SCHLUMBERGER                   : Scn          - SERVICE COMPANY   
DATE.         16 FEB 81                      : Date         - LOG DATE
STRT.M        110                            : top_depth    - START DEPTH       
STOP.M        284.9                          : bot_depth    - STOP DEPTH        
STEP.M        0.3                            : increment    - STEP LENGTH       
~CURVE INFORMATION BLOCK
#MNEM UNIT       ERCB CURVE CODE    CURVE DESCRIPTION
#-----------   ------------------   ----------------------------------
DEPT.M        00 001 00 00         : DEPTH        - DEPTH                       
DPHI.V/V      00 890 00 00         : PHID         - DENSITY POROSITY (LIMESTONE)
NPHI.V/V      00 330 00 00         : PHIN         - NEUTRON POROSITY (LIMESTONE)
GR  .API      00 310 00 00         : GR           - GAMMA RAY                   
ILD .OHMM     00 120 00 00         : RESD         - DEEP RESISTIVITY (DIL)      
~PARAMETER INFORMATION       
#MNEM.UNIT           DATA             DESCRIPTION OF MNEMONIC
#---------         -----------     ------------------------------
GL  .M        491.2                : gl           - GROUND LEVEL ELEVATION      
EREF.M        494.9                : kb           - ELEVATION OF DEPTH REFERENCE
DATM.M        494.9                : datum        - DATUM ELEVATION             
TDD .M        289.5                : tdd          - TOTAL DEPTH DRILLER         
RUN .         ONE                  : Run          - RUN NUMBER                  
ENG .         BILL                 : Engineer     - RECORDING ENGINEER          
WIT .         JIM                  : Witness      - WITNESSED BY                
MUD .         GEL                  : Mud_type     - MUD TYPE                    
MATR.         LIMESTONE            : Logunit      - NEUTRON MATRIX              
TMAX.C        20                   : BHT          - MAXIMUM RECORDED TEMPERATURE
BHTD.M        289.5                : BHTDEP       - MAXIMUM RECORDED TEMPERATURE
MATR.         1                    : LOGUNIT      - NEUTRON MATRIX              
RMT .C        25                   : MDTP         - TEMPERATURE OF MUD          
NEUT.         1                    : NEUTRON      - NEUTRON TYPE                
RESI.         0                    : RESIST       - RESISTIVITY TYPE            
RMC .OHMM     0.25                 : RMC          - RESISTIVITY OF MUD CAKE     
RMF .OHMM     0.25                 : RMF          - RESISTIVITY OF MUD FILTRATE 
SUFT.C        15                   : SUFT         - SURFACE TEMPERATURE         
~A  DEPTH     PHID     PHIN       GR     RESD
# ...
  214.401    0.333    0.275   62.429   24.312
  214.701    0.325    0.259   54.506   28.807
  215.001    0.362    0.227   42.925   36.103
  215.301    0.380    0.213   39.880   39.707
  215.601    0.362    0.224   44.763   39.744
  215.901    0.346    0.233   49.035   41.321
  216.201    0.347    0.231   46.600   44.567
  216.501    0.362    0.230   43.556   55.852
  216.801    0.364    0.227   44.780   60.263
  217.101    0.357    0.232   42.954   59.224
  217.401    0.372    0.228   40.519   66.352
  217.701    0.368    0.217   41.133   65.177
  218.001    0.363    0.212   47.845   31.443
  218.301    0.345    0.233   53.337   23.772
  218.601    0.321    0.258   59.439   19.012
  218.901    0.315    0.277   67.980   14.646
  219.201    0.294    0.298   70.423    9.897
  219.501    0.290    0.348   77.744    9.025
  219.801    0.274    0.375   84.455    8.866
  220.101    0.248    0.368   77.143   10.705
  220.401    0.271    0.353   69.829   13.669
  220.701    0.330    0.332   59.468   15.897
  221.001    0.343    0.324   60.082   16.834
  221.301    0.331    0.329   68.013   17.497
  221.601    0.315    0.359   71.676   16.870
  221.901    0.307    0.385   68.021   17.209
  222.201    0.326    0.390   61.318   20.018
  222.501    0.336    0.385   58.883   20.801
  222.801    0.307    0.398   50.960   19.694
  223.101    0.310    0.397   46.087   17.949
  223.401    0.315    0.396   49.749   16.065
  223.701    0.327    0.407   49.144   15.493
  224.001    0.312    0.413   46.099   15.506
  224.301    0.330    0.416   40.615   18.375
  224.601    0.342    0.423   36.961   23.025
  224.901    0.327    0.433   38.795   22.631
  225.201    0.329    0.419   44.286   16.478
  225.501    0.329    0.422   46.730   11.135
  225.801    0.320    0.412   52.222    9.420
  226.101    0.311    0.402   58.933    8.272
  226.401    0.313    0.424   58.938    7.404
  226.701    0.326    0.412   67.478    7.007
  227.001    0.299    0.418   74.190    6.508
  227.301    0.293    0.413   73.584    6.277
  227.601    0.275    0.398   70.540    6.283
  227.901    0.293    0.400   66.275    7.038
  228.201    0.298    0.420   55.304    9.686
  228.501    0.336    0.433   45.552   12.605
  228.801    0.347    0.420   46.166   12.617
  229.101    0.315    0.417   53.487   10.875
  229.401    0.310    0.422   60.808    8.069
  229.701    0.286    0.412   62.642    6.217
  230.001    0.280    0.396   59.598    5.995
  230.301    0.278    0.387   53.504    6.232
  230.601    0.288    0.385   52.899    7.112
  230.901    0.282    0.398   49.854    9.789
  231.201    0.309    0.412   44.980   13.470
  231.501    0.317    0.419   38.886   19.980
  231.801    0.328    0.402   34.622   26.488
  232.101    0.326    0.387   32.797   25.547
  232.401    0.331    0.384   37.070   16.319
  232.701    0.322    0.387   43.171    9.493
  233.001    0.308    0.395   51.102    7.593
  233.301    0.298    0.388   65.741    7.054
  233.601    0.273    0.397   74.281    6.678
  233.901    0.272    0.415   70.018    6.811
  234.201    0.272    0.423   66.973    6.946
  234.501    0.256    0.425   66.978    7.495
  234.801    0.251    0.420   65.762    8.239
  235.101    0.267    0.418   60.278    9.404
  235.401    0.282    0.401   64.550    8.573
  235.701    0.263    0.405   71.262    7.531
  236.001    0.240    0.415   79.193    7.263
  236.301    0.271    0.393   83.466    7.271
  236.601    0.250    0.397   75.543    8.143
  236.901    0.241    0.407   64.571   10.017
  237.201    0.300    0.427   49.941   13.032
  237.501    0.323    0.424   36.531   17.602
  237.801    0.342    0.403   32.877   26.604
  238.101    0.341    0.404   34.100   34.619
  238.401    0.332    0.403   35.934   37.354
  238.701    0.323    0.400   36.547   38.098
  239.001    0.318    0.402   35.332   33.460
  239.301    0.328    0.392   35.946   27.781
  239.601    0.328    0.396   39.609   19.855
  239.901    0.323    0.405   47.540   14.461
  240.201    0.310    0.418   60.349   12.465
  240.501    0.288    0.420   68.281   10.544
  240.801    0.271    0.414   71.942    9.259
  241.101    0.245    0.411   78.655    9.447
  241.401    0.236    0.446   74.390   10.383
  241.701    0.279    0.465   61.590   13.261
  242.001    0.315    0.479   41.471   17.252
  242.301    0.338    0.449   33.549   25.114
  242.601    0.344    0.415   31.114   35.218
  242.901    0.354    0.415   33.557   39.456
  243.201    0.338    0.410   32.341   35.309
  243.501    0.348    0.417   32.346   36.015
  243.801    0.354    0.414   35.400   36.739
  244.101    0.339    0.411   35.403   34.123
  244.401    0.337    0.417   34.188   27.805
  244.701    0.337    0.419   34.802   24.877
  245.001    0.319    0.414   36.635   25.377
  245.301    0.302    0.404   42.127   19.550
  245.601    0.296    0.402   40.302   14.781
  245.901    0.285    0.386   45.184    8.762
  246.201    0.272    0.375   54.944    6.877
  246.501    0.223    0.393   72.022    5.710
  246.801    0.228    0.419   72.026    5.404
  247.101    0.262    0.414   67.153    5.021
  247.401    0.277    0.389   63.498    4.842
  247.701    0.255    0.392   65.332    4.670
  248.001    0.239    0.370   69.605    4.675
  248.301    0.221    0.404   70.218    4.767
  248.601    0.256    0.425   63.515    5.442
  248.901    0.292    0.454   53.153    6.820
  249.201    0.321    0.447   44.010    8.708
  249.501    0.346    0.416   40.356   14.186
  249.801    0.344    0.406   41.580   19.160
  250.101    0.335    0.414   41.585   21.463
  250.401    0.344    0.399   40.369   21.489
  250.701    0.329    0.414   36.715   19.962
  251.001    0.338    0.421   36.110   17.861
  251.301    0.350    0.416   38.552   15.686
  251.601    0.334    0.395   44.654   14.850
  251.901    0.335    0.436   48.317   14.587
  252.201    0.328    0.450   45.882   15.450
  252.501    0.345    0.434   42.837   17.306
  252.801    0.347    0.428   43.451   16.382
  253.101    0.336    0.433   46.504   13.855
  253.401    0.330    0.416   52.606   10.673
  253.701    0.314    0.420   58.708    6.947
  254.001    0.295    0.423   61.760    5.989
  254.301    0.275    0.442   55.667    5.562
  254.601    0.285    0.434   45.305    4.885
  254.901    0.291    0.412   48.358    4.453
  255.201    0.270    0.411   46.534    4.060
  255.501    0.249    0.398   39.830    3.844
  255.801    0.298    0.421   33.127    4.070
  256.101    0.327    0.411   23.375    4.474
  256.401    0.317    0.382   22.769    5.401
  256.701    0.324    0.375   23.993    6.520
  257.001    0.322    0.382   23.387    7.036
  257.301    0.338    0.390   25.221    6.916
  257.601    0.362    0.399   25.835    6.669
  257.901    0.346    0.412   27.668    6.430
  258.201    0.331    0.442   30.112    6.558
  258.501    0.318    0.460   28.896    7.079
  258.801    0.308    0.457   27.071    7.357
  259.101    0.342    0.440   27.075    7.502
  259.401    0.350    0.426   30.128    6.970
  259.701    0.329    0.404   32.571    5.787
  260.001    0.306    0.382   38.673    4.375
  260.301    0.244    0.363   54.531    2.498
  260.601    0.228    0.385   68.559    1.626
  260.901    0.257    0.433   89.296    1.375
  261.201    0.249    0.449   89.300    1.231
  261.501    0.247    0.437   88.695    1.122
  261.801    0.232    0.413   82.601    1.062
  262.101    0.272    0.404   69.800    0.968
  262.401    0.304    0.389   64.316    0.883
  262.701    0.283    0.405   64.930    0.835
  263.001    0.304    0.422   50.300    0.918
  263.301    0.320    0.419   52.134    1.048
  263.601    0.304    0.396   62.504    1.242
  263.901    0.274    0.410   66.776    1.586
  264.201    0.252    0.427   61.292    1.744
  264.501    0.247    0.421   68.614    1.779
  264.801    0.272    0.454   57.033    1.748
  265.101    0.274    0.465   55.207    1.686
  265.401    0.277    0.462   49.114    1.595
  265.701    0.301    0.435   31.435    1.350
  266.001    0.320    0.414   35.099    1.163
  266.301    0.350    0.424   34.492    0.966
