~VERSION INFORMATION
 VERS.                 2.0:   CWLS LOG ASCII STANDARD -VERSION 2.0
 WRAP.                  NO:   ONE LINE PER DEPTH STEP
~WELL INFORMATION BLOCK
#MNEM.UNIT           DATA                    DESCRIPTION OF MNEMONIC
#---------    -------------------            -------------------------------
# Generated from Intellog Unique Number	CS_77_79/WELL/976
WELL.         HOME OIL COMPANY               : Well_name    - WELL
LOC .         00/10-29-077-07W4/0            : Location     - LOCATION
UWI .         00/10-29-077-07W4/0            : Uwi          - UNIQUE WELL ID
ENTR.         SP                             : Entered      - ENTERED BY
SRVC.         SCHLUMBERGER                   : Scn          - SERVICE COMPANY
STRT.M        124.968                        : top_depth    - START DEPTH
STOP.M        350.218                        : bot_depth    - STOP DEPTH
STEP.M        0.25                           : increment    - STEP LENGTH
 NULL. -999.2500:NULL Value
~CURVE INFORMATION BLOCK
#MNEM UNIT       ERCB CURVE CODE    CURVE DESCRIPTION
#-----------   ------------------   ----------------------------------
DEPT.M        00 001 00 00         : DEPTH        - DEPTH
GR  .API      00 310 00 00         : GR           - GAMMA RAY
DPHI.V/V      00 890 00 00         : PHID         - DENSITY POROSITY (SANDSTONE)
NPHI.V/V      00 330 00 00         : PHIN         - NEUTRON POROSITY (SANDSTONE)
ILD .OHMM     00 120 00 00         : RESD         - DEEP RESISTIVITY (DIL)
~PARAMETER INFORMATION
#MNEM.UNIT           DATA             DESCRIPTION OF MNEMONIC
#---------         -----------     ------------------------------
GL  .M        552.054              : gl           - GROUND LEVEL ELEVATION
EREF.M        555.315              : kb           - ELEVATION OF DEPTH REFERENCE
DATM.M        552.054              : datum        - DATUM ELEVATION
TDD .M        377.038              : tdd          - TOTAL DEPTH DRILLER
RUN .         ONE                  : Run          - RUN NUMBER
ENG .         BILL                 : Engineer     - RECORDING ENGINEER
WIT .         JIM                  : Witness      - WITNESSED BY
MUD .         GEL                  : Mud_type     - MUD TYPE
MATR.         SANDSTONE            : Logunit      - NEUTRON MATRIX
TMAX.C        12.2222              : BHT          - MAXIMUM RECORDED TEMPERATURE
BHTD.M        377.038              : BHTDEP       - MAXIMUM RECORDED TEMPERATURE
MATR.         1                    : LOGUNIT      - NEUTRON MATRIX
RMT .C        25                   : MDTP         - TEMPERATURE OF MUD
NEUT.         1                    : NEUTRON      - NEUTRON TYPE
RESI.         0                    : RESIST       - RESISTIVITY TYPE
RMC .OHMM     0.25                 : RMC          - RESISTIVITY OF MUD CAKE
RMF .OHMM     0.25                 : RMF          - RESISTIVITY OF MUD FILTRATE
SUFT.C        15                   : SUFT         - SURFACE TEMPERATURE
~A  DEPTH       GR     PHID     PHIN     RESD
  124.968   87.085    0.329    0.573    0.981
  125.218   96.507    0.339    0.549    0.937
  125.468  103.267    0.313    0.539    1.208
  125.718  108.607    0.304    0.542    2.281
  125.968  110.992    0.299    0.559    3.419
  126.218  107.022    0.299    0.564    3.144
  126.468  105.212    0.304    0.556    3.154
  126.718  106.149    0.298    0.553    3.788
  126.968  108.706    0.280    0.552    3.845
  127.218  108.080    0.261    0.546    3.716
  127.468  106.722    0.267    0.519    3.769
  127.718  104.994    0.281    0.506    3.938
  127.968  102.256    0.288    0.509    3.891
  128.218  101.369    0.286    0.521    3.773
  128.468  104.332    0.297    0.533    3.658
  128.718  106.519    0.296    0.550    3.661
  128.968  110.007    0.283    0.564    3.675
  129.218  109.328    0.274    0.533    3.724
  129.468  106.936    0.284    0.516    3.930
  129.718  106.084    0.274    0.521    3.965
  129.968  108.849    0.280    0.533    4.166
  130.218  105.103    0.295    0.533    4.290
  130.468   99.807    0.296    0.517    4.526
  130.718   94.929    0.306    0.494    5.035
  130.968   87.427    0.328    0.475    6.215
  131.218   78.156    0.349    0.451    5.859
  131.468   73.357    0.363    0.472    5.727
  131.718   66.610    0.298    0.475    6.048
  131.968   69.632    0.262    0.444    6.318
  132.218   81.639    0.308    0.456    6.275
  132.468   74.731    0.353    0.457    5.944
  132.718   64.892    0.386    0.455    5.871
  132.968   59.296    0.443    0.476    5.877
  133.218   78.379    0.337    0.483    5.734
  133.468   97.698    0.280    0.471    5.223
  133.718  107.270    0.264    0.483    4.801
  133.968  109.403    0.267    0.491    4.432
  134.218  105.110    0.278    0.488    4.381
  134.468  102.474    0.275    0.474    5.233
  134.718  101.056    0.266    0.461    6.450
  134.968   94.563    0.245    0.456    7.721
  135.218   89.714    0.228    0.452    8.887
  135.468   89.364    0.270    0.455   10.071
  135.718  103.217    0.278    0.466   10.980
  135.968  105.432    0.285    0.472   11.396
  136.218  109.422    0.278    0.468   11.592
  136.468  110.483    0.247    0.470   11.170
  136.718  110.426    0.265    0.473   10.728
  136.968  107.375    0.282    0.463   10.541
  137.218  104.847    0.295    0.446   10.546
  137.468  105.011    0.300    0.440   10.764
  137.718  101.886    0.275    0.436   11.288
  137.968   97.671    0.264    0.430   12.266
  138.218   91.861    0.255    0.423   13.217
  138.468   88.920    0.230    0.429   13.241
  138.718   88.606    0.180    0.434   12.889
  138.968   85.375    0.159    0.436   12.314
  139.218   80.798    0.199    0.407   11.972
  139.468   85.842    0.240    0.399   11.364
  139.718   99.552    0.267    0.417   11.037
  139.968  103.188    0.268    0.430   10.638
  140.218   99.869    0.262    0.444   10.216
  140.468   94.795    0.259    0.444   11.105
  140.718   86.270    0.259    0.435   13.064
  140.968   74.688    0.283    0.423   14.840
  141.218   58.882    0.289    0.412   17.792
  141.468   40.543    0.306    0.405   20.616
  141.718   29.082    0.345    0.394   24.399
  141.968   22.242    0.345    0.386   29.464
  142.218   23.180    0.357    0.385   31.391
  142.468   24.034    0.367    0.378   29.396
  142.718   25.974    0.324    0.393   28.055
  142.968   28.631    0.338    0.417   28.150
  143.218   31.706    0.362    0.451   28.210
  143.468   38.958    0.356    0.475   27.552
  143.718   43.052    0.352    0.465   28.191
  143.968   52.248    0.347    0.449   28.181
  144.218   61.064    0.330    0.416   28.200
  144.468   60.031    0.311    0.387   28.212
  144.718   53.713    0.336    0.391   28.238
  144.968   48.822    0.349    0.406   28.335
  145.218   50.113    0.350    0.411   28.788
  145.468   50.717    0.336    0.406   28.770
  145.718   51.259    0.332    0.406   28.725
  145.968   51.779    0.321    0.403   28.280
  146.218   53.284    0.311    0.392   27.516
  146.468   54.250    0.303    0.384   26.713
  146.718   52.803    0.319    0.386   25.538
  146.968   57.069    0.331    0.386   24.527
  147.218   56.651    0.334    0.389   23.483
  147.468   56.794    0.326    0.396   23.033
  147.718   54.364    0.339    0.407   23.136
  147.968   52.529    0.344    0.397   23.930
  148.218   48.910    0.321    0.389   23.949
  148.468   48.289    0.281    0.382   23.960
  148.718   60.723    0.328    0.394   24.002
  148.968   70.028    0.341    0.404   23.357
  149.218   74.314    0.335    0.411   22.185
  149.468   73.348    0.348    0.415   21.512
  149.718   70.347    0.354    0.416   21.339
  149.968   70.405    0.358    0.412   20.657
  150.218   70.773    0.351    0.411   20.003
  150.468   77.670    0.339    0.411   19.872
  150.718   80.613    0.327    0.419   18.864
  150.968   79.585    0.314    0.436   18.083
  151.218   79.613    0.329    0.448   17.343
  151.468   81.126    0.343    0.441   15.438
  151.718   82.215    0.329    0.435   14.482
  151.968   83.691    0.312    0.430   12.033
  152.218   92.917    0.296    0.449    9.539
  152.468  108.976    0.286    0.465    7.653
  152.718  116.520    0.278    0.481    6.581
  152.968  119.159    0.261    0.485    5.707
  153.218  112.622    0.247    0.496    5.081
  153.468  111.288    0.235    0.515    4.733
  153.718  107.774    0.259    0.521    5.044
  153.968   95.654    0.307    0.527    5.599
  154.218   80.423    0.327    0.535    7.091
  154.468   71.259    0.343    0.512    8.813
  154.718   59.203    0.350    0.439   11.122
  154.968   58.720    0.328    0.408   13.887
  155.218   70.956    0.328    0.426   14.253
  155.468   82.247    0.306    0.450   12.870
  155.718   89.597    0.287    0.466   10.844
  155.968   94.832    0.271    0.453    9.850
  156.218   91.719    0.247    0.441   10.457
  156.468   85.178    0.227    0.435   11.576
  156.718   78.898    0.218    0.429   12.417
  156.968   73.676    0.280    0.429   13.551
  157.218   73.507    0.317    0.441   14.300
  157.468   73.341    0.335    0.450   14.410
  157.718   72.329    0.327    0.434   14.653
  157.968   73.184    0.319    0.431   14.214
  158.218   74.830    0.309    0.427   13.759
  158.468   76.622    0.299    0.416   12.130
  158.718   81.200    0.297    0.418   10.630
  158.968   85.754    0.307    0.418    9.092
  159.218   93.966    0.301    0.413    7.641
  159.468   99.625    0.286    0.426    7.014
  159.718  108.585    0.260    0.444    6.553
  159.968  120.847    0.227    0.455    5.997
  160.218  119.090    0.196    0.465    5.855
  160.468  115.855    0.191    0.491    5.870
  160.718  116.201    0.238    0.490    5.921
  160.968  117.932    0.259    0.484    6.286
  161.218  119.359    0.247    0.479    6.792
  161.468  125.710    0.240    0.478    7.218
  161.718  128.774    0.232    0.477    7.670
  161.968  124.202    0.251    0.473    8.518
  162.218  113.752    0.271    0.472    9.959
  162.468  105.650    0.294    0.480   11.377
  162.718  101.206    0.305    0.463   12.182
  162.968  101.403    0.307    0.446   12.156
  163.218  102.207    0.293    0.442   11.783
  163.468  103.616    0.283    0.437   11.317
  163.718  103.926    0.270    0.435   11.352
  163.968  104.537    0.264    0.451   11.344
  164.218  104.652    0.287    0.470   12.322
  164.468  103.131    0.304    0.480   13.021
  164.718   96.513    0.301    0.451   13.618
  164.968   80.590    0.294    0.431   14.093
  165.218   74.883    0.292    0.412   14.514
  165.468   77.454    0.284    0.398   14.718
  165.718   79.978    0.272    0.403   14.760
  165.968   76.596    0.294    0.411   15.079
  166.218   74.051    0.310    0.414   15.070
  166.468   71.544    0.327    0.414   15.028
  166.718   73.365    0.303    0.420   14.544
  166.968   79.295    0.305    0.404   14.438
  167.218   84.976    0.275    0.395   13.682
  167.468   92.951    0.257    0.392   13.069
  167.718   98.589    0.255    0.395   12.045
  167.968   99.453    0.260    0.396   11.345
  168.218   99.773    0.262    0.400   10.669
