~VERSION INFORMATION
 VERS.                 2.0:   CWLS LOG ASCII STANDARD -VERSION 2.0
 WRAP.                  NO:   ONE LINE PER DEPTH STEP
~WELL INFORMATION BLOCK
#MNEM.UNIT           DATA                    DESCRIPTION OF MNEMONIC
#---------    -------------------            -------------------------------
# Generated from Intellog Unique Number	CX_WELLS/WELL/3315
WELL.         PCL SURMONT                    : Well_name    - WELL
LOC .         00/11-24-084-06W4/0            : Location     - LOCATION
UWI .         00/11-24-084-06W4/0            : Uwi          - UNIQUE WELL ID
ENTR.         T                              : Entered      - ENTERED BY
SRVC.         SCHLUMBERGER                   : Scn          - SERVICE COMPANY
STRT.M        75                             : top_depth    - START DEPTH
STOP.M        260                            : bot_depth    - STOP DEPTH
STEP.M        0.25                           : increment    - STEP LENGTH
 NULL. -999.2500:NULL Value
~CURVE INFORMATION BLOCK
#MNEM UNIT       ERCB CURVE CODE    CURVE DESCRIPTION
#-----------   ------------------   ----------------------------------
DEPT.M        00 001 00 00         : DEPTH        - DEPTH
GR  .API      00 310 00 00         : GR           - GAMMA RAY
NPHI.V/V      00 330 00 00         : PHIN         - NEUTRON POROSITY (SANDSTONE)
DPHI.V/V      00 890 00 00         : PHID         - DENSITY POROSITY (SANDSTONE)
ILD .OHMM     00 120 00 00         : RESD         - DEEP RESISTIVITY (DIL)
~PARAMETER INFORMATION
#MNEM.UNIT           DATA             DESCRIPTION OF MNEMONIC
#---------         -----------     ------------------------------
GL  .M        465                  : gl           - GROUND LEVEL ELEVATION
EREF.M        469                  : kb           - ELEVATION OF DEPTH REFERENCE
DATM.M        469                  : datum        - DATUM ELEVATION
TDD .M        276                  : tdd          - TOTAL DEPTH DRILLER
RUN .         ONE                  : Run          - RUN NUMBER
ENG .         BILL                 : Engineer     - RECORDING ENGINEER
WIT .         JIM                  : Witness      - WITNESSED BY
MUD .         GEL                  : Mud_type     - MUD TYPE
MATR.         SANDSTONE            : Logunit      - NEUTRON MATRIX
TMAX.C        12                   : BHT          - MAXIMUM RECORDED TEMPERATURE
BHTD.M        276                  : BHTDEP       - MAXIMUM RECORDED TEMPERATURE
MATR.         1                    : LOGUNIT      - NEUTRON MATRIX
RMT .C        12                   : MDTP         - TEMPERATURE OF MUD
NEUT.         1                    : NEUTRON      - NEUTRON TYPE
RESI.         5                    : RESIST       - RESISTIVITY TYPE
RMC .OHMM     1.8                  : RMC          - RESISTIVITY OF MUD CAKE
RMF .OHMM     4.5                  : RMF          - RESISTIVITY OF MUD FILTRATE
SUFT.C        4                    : SUFT         - SURFACE TEMPERATURE
~A  DEPTH       GR     PHIN     PHID     RESD
# ...
  118.500   46.206    0.390    0.331   14.617
  118.750   47.538    0.392    0.327   14.697
  119.000   47.609    0.395    0.291   14.745
  119.250   43.934    0.403    0.276   14.826
  119.500   42.763    0.414    0.278   14.620
  119.750   45.320    0.407    0.296   14.416
  120.000   47.877    0.393    0.303   14.215
  120.250   48.569    0.388    0.306   14.277
  120.500   47.415    0.387    0.310   14.340
  120.750   47.487    0.385    0.313   14.960
  121.000   48.179    0.388    0.314   15.288
  121.250   48.890    0.395    0.314   15.624
  121.500   48.925    0.405    0.314   16.002
  121.750   48.393    0.409    0.313   16.072
  122.000   47.843    0.408    0.314   15.865
  122.250   47.914    0.402    0.315   15.661
  122.500   47.382    0.402    0.317   15.409
  122.750   44.968    0.409    0.317   15.494
  123.000   43.175    0.414    0.313   15.562
  123.250   43.228    0.411    0.312   15.647
  123.500   44.542    0.410    0.314   15.681
  123.750   48.360    0.406    0.313   16.061
  124.000   50.277    0.407    0.298   16.131
  124.250   50.970    0.401    0.293   16.220
  124.500   49.816    0.384    0.301   15.976
  124.750   49.284    0.389    0.306   16.029
  125.000   49.320    0.400    0.308   15.822
  125.250   50.012    0.411    0.312   15.909
  125.500   51.344    0.404    0.309   15.944
  125.750   52.658    0.400    0.308   16.330
  126.000   53.972    0.396    0.308   16.138
  126.250   55.286    0.390    0.307   16.173
  126.500   55.979    0.386    0.303   15.691
  126.750   54.186    0.383    0.298   15.725
  127.000   48.061    0.389    0.296   16.105
  127.250   48.132    0.398    0.299   16.477
  127.500   47.582    0.403    0.303   16.549
  127.750   46.428    0.396    0.306   16.640
  128.000   45.843    0.394    0.304   16.677
  128.250   46.553    0.400    0.299   16.750
  128.500   47.246    0.408    0.298   16.842
  128.750   48.560    0.397    0.298   16.607
  129.000   49.874    0.386    0.299   16.076
  129.250   49.945    0.383    0.297   15.580
  129.500   49.999    0.383    0.294   15.346
  129.750   48.827    0.381    0.292   14.856
  130.000   47.656    0.386    0.296   14.648
  130.250   47.727    0.394    0.302   14.697
  130.500   47.834    0.398    0.310   14.492
  130.750   48.544    0.393    0.308   14.555
  131.000   48.580    0.388    0.301   14.619
  131.250   49.912    0.387    0.293   14.716
  131.500   50.605    0.392    0.290   14.764
  131.750   51.297    0.390    0.296   14.574
  132.000   50.144    0.390    0.301   14.371
  132.250   49.558    0.394    0.300   14.418
  132.500   53.997    0.397    0.296   14.248
  132.750   54.068    0.397    0.294   14.019
  133.000   52.896    0.397    0.297   13.823
  133.250   51.707    0.393    0.300   12.898
  133.500   51.157    0.392    0.301   12.021
  133.750   51.885    0.388    0.296   11.853
  134.000   53.217    0.383    0.292   12.140
  134.250   53.874    0.379    0.291   12.447
  134.500   54.585    0.376    0.291   12.706
  134.750   54.674    0.374    0.291   12.762
  135.000   54.709    0.375    0.292   12.354
  135.250   53.556    0.380    0.298   11.960
  135.500   51.763    0.382    0.305   11.578
  135.750   49.987    0.384    0.309   11.208
  136.000   50.645    0.390    0.307   11.897
  136.250   51.373    0.400    0.305   12.411
  136.500   52.651    0.396    0.303   12.251
  136.750   53.965    0.391    0.303   12.278
  137.000   55.919    0.385    0.303   12.107
  137.250   57.233    0.392    0.302   12.174
  137.500   57.322    0.407    0.302   12.227
  137.750   57.393    0.409    0.300   12.281
  138.000   58.086    0.402    0.293   12.321
  138.250   58.157    0.389    0.276   12.647
  138.500   57.607    0.389    0.255   12.688
  138.750   54.571    0.408    0.254   12.730
  139.000   54.021    0.417    0.285   12.800
  139.250   54.092    0.415    0.307   12.842
  139.500   54.767    0.416    0.318   12.913
  139.750   55.478    0.412    0.329   12.733
  140.000   55.531    0.404    0.314   12.312
  140.250   54.981    0.392    0.309   11.084
  140.500   54.431    0.388    0.305   10.942
  140.750   55.745    0.395    0.307   10.966
  141.000   56.491    0.407    0.316   10.615
  141.250   56.527    0.417    0.323    9.536
  141.500   57.841    0.431    0.329    7.686
  141.750   60.415    0.437    0.293    6.662
  142.000   62.955    0.433    0.274    6.317
  142.250   66.754    0.434    0.264    5.577
  142.500   71.211    0.446    0.258    5.209
  142.750   73.147    0.436    0.258    5.131
  143.000   73.839    0.419    0.259    4.882
  143.250   73.893    0.416    0.259    4.819
  143.500   74.585    0.423    0.259    4.660
  143.750   77.782    0.432    0.257    4.511
  144.000   80.339    0.444    0.258    4.362
  144.250   81.013    0.448    0.258    4.150
  144.500   82.985    0.442    0.258    4.009
  144.750   83.056    0.434    0.258    3.885
  145.000   81.263    0.435    0.258    3.831
  145.250   79.470    0.446    0.256    3.852
  145.500   80.766    0.456    0.255    3.869
  145.750   84.566    0.461    0.256    3.681
  146.000   88.987    0.463    0.261    3.555
  146.250   89.076    0.480    0.265    3.375
  146.500   86.662    0.504    0.273    3.149
  146.750   87.994    0.534    0.273    2.996
  147.000   89.929    0.500    0.268    2.951
  147.250   90.604    0.498    0.264    3.023
  147.500   91.297    0.499    0.263    3.268
  147.750   91.368    0.494    0.261    3.599
  148.000   89.575    0.483    0.259    3.964
  148.250   86.539    0.459    0.254    4.375
  148.500   82.882    0.447    0.253    4.649
  148.750   81.107    0.437    0.274    4.746
  149.000   80.539    0.423    0.283    4.951
  149.250   78.160    0.414    0.278    5.353
  149.500   76.953    0.408    0.269    5.689
  149.750   73.935    0.413    0.259    5.922
  150.000   73.988    0.419    0.250    6.171
  150.250   73.456    0.411    0.254    6.438
  150.500   72.284    0.395    0.260    6.709
  150.750   72.356    0.391    0.262    6.864
  151.000   73.670    0.390    0.261    7.030
  151.250   74.984    0.397    0.262    7.192
  151.500   77.541    0.403    0.268    7.350
  151.750   78.837    0.403    0.273    7.390
  152.000   78.926    0.401    0.265    7.552
  152.250   76.512    0.399    0.255    7.585
  152.500   75.944    0.397    0.245    7.627
  152.750   81.626    0.392    0.240    7.948
  153.000   84.183    0.381    0.237    8.446
  153.250   84.875    0.370    0.228    8.801
  153.500   83.082    0.367    0.211    8.520
  153.750   79.443    0.364    0.191    8.248
  154.000   77.011    0.368    0.190    7.704
  154.250   74.614    0.379    0.223    7.442
  154.500   73.442    0.390    0.230    6.943
  154.750   74.739    0.399    0.245    6.721
  155.000   76.053    0.404    0.240    6.628
  155.250   77.988    0.406    0.235    6.664
  155.500   80.545    0.404    0.232    6.686
  155.750   82.481    0.398    0.227    6.975
  156.000   83.813    0.397    0.229    7.006
  156.250   86.370    0.394    0.236    7.029
  156.500   83.334    0.385    0.239    6.938
  156.750   80.298    0.382    0.240    6.976
  157.000   79.748    0.380    0.240    6.999
  157.250   79.837    0.382    0.241    6.894
  157.500   79.890    0.396    0.241    6.674
  157.750   80.583    0.419    0.237    6.227
  158.000   81.294    0.420    0.233    5.504
  158.250   82.608    0.424    0.232    5.225
  158.500   83.922    0.431    0.233    4.880
  158.750   83.372    0.434    0.234    4.891
  159.000   81.561    0.430    0.235    5.108
  159.250   80.389    0.421    0.238    5.529
  159.500   80.460    0.412    0.244    5.762
  159.750   81.810    0.401    0.250    5.888
  160.000   81.846    0.397    0.254    6.024
  160.250   80.053    0.391    0.261    5.725
  160.500   77.638    0.389    0.267    5.250
  160.750   75.242    0.388    0.276    4.893
  161.000   74.052    0.403    0.282    4.400
  161.250   71.638    0.429    0.280    4.259
  161.500   72.331    0.452    0.277    4.444
  161.750   76.148    0.458    0.280    4.541
