~VERSION INFORMATION
 VERS.                 2.0:   CWLS LOG ASCII STANDARD -VERSION 2.0
 WRAP.                  NO:   ONE LINE PER DEPTH STEP
~WELL INFORMATION BLOCK
#MNEM.UNIT           DATA                    DESCRIPTION OF MNEMONIC
#---------    -------------------            -------------------------------
# Generated from Intellog Unique Number	CS_69_70/WELL/904
NULL.         -999.25                        : NULL_VALUE
WELL.         MAYNARD EXPLORATION            : Well_name    - WELL              
LOC .         00/16-33-070-15W4/0            : Location     - LOCATION          
UWI .         00/16-33-070-15W4/0            : Uwi          - UNIQUE WELL ID    
ENTR.         SP                             : Entered      - ENTERED BY        
SRVC.         SCHLUMBERGER                   : Scn          - SERVICE COMPANY   
STRT.M        265                            : top_depth    - START DEPTH       
STOP.M        476                            : bot_depth    - STOP DEPTH        
STEP.M        0.25                           : increment    - STEP LENGTH       
~CURVE INFORMATION BLOCK
#MNEM UNIT       ERCB CURVE CODE    CURVE DESCRIPTION
#-----------   ------------------   ----------------------------------
DEPT.M        00 001 00 00         : DEPTH        - DEPTH                       
ILD .OHMM     00 120 00 00         : RESD         - DEEP RESISTIVITY (DIL)      
DPHI.V/V      00 890 00 00         : PHID         - DENSITY POROSITY (LIMESTONE)
NPHI.V/V      00 330 00 00         : PHIN         - NEUTRON POROSITY (LIMESTONE)
GR  .API      00 310 00 00         : GR           - GAMMA RAY                   
~PARAMETER INFORMATION       
#MNEM.UNIT           DATA             DESCRIPTION OF MNEMONIC
#---------         -----------     ------------------------------
GL  .M        570.01               : gl           - GROUND LEVEL ELEVATION      
EREF.M        573.21               : kb           - ELEVATION OF DEPTH REFERENCE
DATM.M        570.01               : datum        - DATUM ELEVATION             
TDD .M        486                  : tdd          - TOTAL DEPTH DRILLER         
RUN .         ONE                  : Run          - RUN NUMBER                  
ENG .         BILL                 : Engineer     - RECORDING ENGINEER          
WIT .         JIM                  : Witness      - WITNESSED BY                
MUD .         GEL                  : Mud_type     - MUD TYPE                    
MATR.         LIMESTONE            : Logunit      - NEUTRON MATRIX              
TMAX.C        21                   : BHT          - MAXIMUM RECORDED TEMPERATURE
BHTD.M        486                  : BHTDEP       - MAXIMUM RECORDED TEMPERATURE
MATR.         1                    : LOGUNIT      - NEUTRON MATRIX              
RMT .C        25                   : MDTP         - TEMPERATURE OF MUD          
NEUT.         1                    : NEUTRON      - NEUTRON TYPE                
RESI.         0                    : RESIST       - RESISTIVITY TYPE            
RMC .OHMM     0.25                 : RMC          - RESISTIVITY OF MUD CAKE     
RMF .OHMM     0.25                 : RMF          - RESISTIVITY OF MUD FILTRATE 
SUFT.C        15                   : SUFT         - SURFACE TEMPERATURE         
~A  DEPTH     RESD     PHID     PHIN       GR
# ...
  352.000    3.508    0.309    0.407   75.388
  352.250    3.509    0.309    0.418   76.421
  352.500    3.518    0.297    0.429   78.305
  352.750    3.511    0.298    0.423   79.581
  353.000    3.537    0.289    0.422   81.709
  353.250    3.538    0.270    0.428   85.234
  353.500    3.490    0.252    0.432   88.578
  353.750    3.435    0.246    0.442   91.617
  354.000    3.394    0.263    0.452   92.528
  354.250    3.314    0.284    0.461   91.251
  354.500    3.185    0.286    0.457   89.791
  354.750    3.072    0.269    0.452   90.520
  355.000    2.959    0.274    0.451   92.343
  355.250    2.878    0.296    0.467   92.342
  355.500    2.814    0.314    0.478   91.065
  355.750    2.799    0.326    0.487   92.280
  356.000    2.865    0.308    0.486   93.678
  356.250    2.948    0.286    0.478   93.860
  356.500    3.055    0.263    0.469   89.968
  356.750    3.154    0.264    0.450   85.346
  357.000    3.261    0.283    0.431   79.751
  357.250    3.319    0.305    0.420   75.981
  357.500    3.369    0.316    0.411   74.642
  357.750    3.411    0.314    0.405   74.763
  358.000    3.446    0.321    0.398   75.614
  358.250    3.447    0.323    0.395   78.410
  358.500    3.447    0.312    0.392   81.693
  358.750    3.449    0.299    0.403   82.786
  359.000    3.458    0.292    0.409   82.421
  359.250    3.491    0.297    0.410   81.022
  359.500    3.550    0.307    0.405   78.650
  359.750    3.625    0.320    0.401   77.676
  360.000    3.813    0.328    0.393   75.364
  360.250    3.847    0.335    0.385   75.121
  360.500    3.872    0.339    0.382   76.458
  360.750    3.889    0.342    0.382   77.187
  361.000    3.907    0.329    0.395   79.375
  361.250    3.924    0.308    0.416   83.083
  361.500    3.975    0.293    0.427   85.515
  361.750    4.066    0.278    0.425   89.892
  362.000    4.164    0.262    0.427   93.782
  362.250    4.345    0.244    0.438   96.457
  362.500    4.673    0.234    0.436   97.551
  362.750    4.241    0.234    0.417   92.747
  363.000    4.397    0.228    0.407   90.618
  363.250    4.504    0.217    0.402   89.523
  363.500    4.661    0.216    0.400   89.339
  363.750    4.735    0.227    0.401   89.339
  364.000    4.826    0.233    0.407   89.946
  364.250    4.843    0.242    0.417   91.283
  364.500    4.844    0.237    0.420   90.674
  364.750    4.674    0.220    0.420   90.674
  365.000    4.553    0.211    0.418   92.983
  365.250    4.399    0.208    0.414   95.597
  365.500    4.181    0.213    0.431   95.535
  365.750    4.157    0.218    0.443   93.467
  366.000    4.045    0.230    0.434   92.494
  366.250    4.020    0.249    0.424   90.669
  366.500    3.972    0.265    0.422   90.060
  366.750    3.925    0.253    0.429   90.424
  367.000    3.927    0.245    0.427   90.606
  367.250    3.960    0.240    0.419   89.450
  367.500    4.010    0.236    0.414   88.537
  367.750    4.076    0.233    0.421   90.969
  368.000    4.192    0.236    0.432   90.786
  368.250    4.217    0.246    0.438   89.387
  368.500    4.292    0.251    0.434   87.258
  368.750    4.317    0.258    0.429   86.588
  369.000    4.294    0.266    0.423   87.499
  369.250    4.295    0.270    0.417   87.985
  369.500    4.354    0.272    0.412   87.984
  369.750    4.395    0.261    0.409   87.315
  370.000    4.510    0.253    0.409   87.314
  370.250    4.691    0.247    0.421   86.584
  370.500    5.034    0.234    0.411   83.178
  370.750    5.435    0.216    0.389   79.651
  371.000    5.827    0.175    0.291   74.482
  371.250    6.236    0.076    0.267   74.299
  371.500    6.506    0.080    0.246   80.135
  371.750    6.671    0.121    0.282   85.485
  372.000    6.036    0.176    0.368   88.099
  372.250    5.491    0.200    0.405   90.773
  372.500    5.223    0.206    0.413   91.198
  372.750    4.995    0.204    0.412   91.502
  373.000    4.817    0.200    0.400   91.623
  373.250    4.664    0.206    0.395   93.081
  373.500    4.567    0.217    0.392   94.965
  373.750    4.551    0.233    0.411   94.721
  374.000    4.504    0.243    0.420   91.802
  374.250    4.432    0.249    0.424   90.038
  374.500    4.376    0.247    0.427   92.044
  374.750    4.304    0.244    0.440   93.806
  375.000    4.240    0.231    0.452   95.326
  375.250    4.200    0.215    0.441   96.237
  375.500    4.144    0.215    0.432   96.115
  375.750    4.121    0.221    0.429   94.776
  376.000    4.097    0.229    0.426   92.648
  376.250    4.074    0.237    0.423   89.911
  376.500    4.067    0.244    0.417   87.235
  376.750    4.027    0.252    0.409   83.647
  377.000    4.020    0.254    0.404   80.545
  377.250    4.005    0.253    0.401   80.240
  377.500    3.973    0.252    0.399   83.036
  377.750    3.926    0.252    0.402   83.218
  378.000    3.902    0.252    0.421   82.305
  378.250    3.879    0.252    0.429   81.514
  378.500    3.864    0.254    0.421   80.723
  378.750    3.857    0.253    0.416   83.823
  379.000    3.891    0.242    0.411   86.194
  379.250    3.908    0.235    0.409   87.713
  379.500    3.917    0.227    0.408   88.138
  379.750    3.918    0.223    0.414   88.989
  380.000    3.887    0.219    0.424   90.630
  380.250    3.774    0.224    0.423   92.635
  380.500    3.514    0.232    0.414   94.216
  380.750    3.181    0.242    0.437   96.160
  381.000    3.019    0.250    0.461   98.835
  381.250    2.474    0.262    0.488  101.206
  381.500    2.214    0.278    0.496   98.834
  381.750    1.816    0.299    0.502   96.826
  382.000    1.629    0.311    0.507   96.704
  382.250    1.566    0.326    0.511   94.454
  382.500    1.648    0.338    0.502   92.751
  382.750    1.771    0.338    0.482   92.142
  383.000    1.984    0.314    0.464   94.634
  383.250    2.279    0.293    0.451   95.302
  383.500    2.770    0.267    0.432   95.849
  383.750    3.097    0.253    0.423   97.246
  384.000    3.367    0.257    0.419   98.279
  384.250    3.547    0.260    0.416   98.765
  384.500    3.662    0.264    0.422   97.305
  384.750    3.729    0.253    0.429   94.021
  385.000    3.730    0.261    0.424   90.737
  385.250    3.511    0.266    0.419   89.885
  385.500    3.447    0.269    0.415   89.154
  385.750    3.448    0.268    0.414   88.606
  386.000    3.465    0.264    0.416   86.903
  386.250    3.581    0.259    0.415   84.045
  386.500    3.639    0.250    0.397   80.943
  386.750    3.763    0.162    0.378   79.422
  387.000    3.772    0.168    0.344   78.996
  387.250    3.716    0.262    0.408   79.847
  387.500    3.464    0.318    0.423   85.379
  387.750    3.147    0.316    0.414   88.540
  388.000    2.863    0.321    0.402   88.600
  388.250    2.619    0.334    0.401   83.553
  388.500    2.441    0.350    0.395   75.283
  388.750    2.288    0.351    0.389   70.296
  389.000    2.215    0.338    0.384   65.553
  389.250    2.160    0.346    0.386   62.269
  389.500    2.169    0.352    0.394   64.579
  389.750    2.243    0.350    0.399   62.511
  390.000    2.334    0.336    0.404   60.200
  390.250    2.474    0.318    0.394   59.165
  390.500    2.728    0.294    0.386   62.083
  390.750    3.022    0.271    0.381   66.582
  391.000    3.300    0.301    0.377   69.682
  391.250    3.538    0.312    0.373   69.012
  391.500    3.645    0.282    0.369   66.215
  391.750    3.614    0.272    0.372   65.606
  392.000    3.541    0.279    0.381   67.186
  392.250    3.257    0.287    0.390   71.198
  392.500    2.965    0.314    0.403   71.745
  392.750    2.656    0.346    0.407   68.947
  393.000    2.470    0.336    0.402   68.338
  393.250    2.406    0.332    0.392   69.128
  393.500    2.472    0.342    0.383   70.951
  393.750    2.604    0.340    0.382   73.018
  394.000    2.768    0.334    0.384   74.051
  394.250    2.908    0.325    0.386   75.023
  394.500    3.080    0.312    0.389   77.029
  394.750    3.171    0.279    0.399   79.217
  395.000    3.213    0.241    0.410   82.743
  395.250    3.230    0.231    0.421   86.390
