~VERSION INFORMATION
 VERS.                 2.0:   CWLS LOG ASCII STANDARD -VERSION 2.0
 WRAP.                  NO:   ONE LINE PER DEPTH STEP
~WELL INFORMATION BLOCK
#MNEM.UNIT           DATA                    DESCRIPTION OF MNEMONIC
#---------    -------------------            -------------------------------
# Generated from Intellog Unique Number	CW_76_78/WELL/993
WELL.         GULF POC DROWNED 11-03         : Well_name    - WELL
LOC .         00/11-03-077-21W4/0            : Location     - LOCATION
UWI .         00/11-03-077-21W4/0            : Uwi          - UNIQUE WELL ID
ENTR.         os                             : Entered      - ENTERED BY
SRVC.         SCHLUMBERGER                   : Scn          - SERVICE COMPANY
DATE.         FEB 1978                       : Date         - LOG DATE
STRT.M        417.576                        : top_depth    - START DEPTH
STOP.M        609.576                        : bot_depth    - STOP DEPTH
STEP.M        0.25                           : increment    - STEP LENGTH
 NULL. -999.2500:NULL Value
~CURVE INFORMATION BLOCK
#MNEM UNIT       ERCB CURVE CODE    CURVE DESCRIPTION
#-----------   ------------------   ----------------------------------
DEPT.M        00 001 00 00         : DEPTH        - DEPTH
ILD .OHMM     00 120 00 00         : RESD         - DEEP RESISTIVITY (DIL)
NPHI.V/V      00 330 00 00         : PHIN         - NEUTRON POROSITY (SANDSTONE)
DPHI.V/V      00 890 00 00         : PHID         - DENSITY POROSITY (SANDSTONE)
GR  .API      00 310 00 00         : GR           - GAMMA RAY
CALI.MM       00 280 01 00         : CAL          - CALIPER
~PARAMETER INFORMATION
#MNEM.UNIT           DATA             DESCRIPTION OF MNEMONIC
#---------         -----------     ------------------------------
GL  .M        745.541              : gl           - GROUND LEVEL ELEVATION
EREF.M        749.503              : kb           - ELEVATION OF DEPTH REFERENCE
DATM.M        749.503              : datum        - DATUM ELEVATION
TDD .M        622.706              : tdd          - TOTAL DEPTH DRILLER
RUN .         ONE                  : Run          - RUN NUMBER
ENG .         GUNN                 : Engineer     - RECORDING ENGINEER
WIT .         ROZENHART            : Witness      - WITNESSED BY
BASE.         EDMONTON             : Branch       - HOME BASE OF LOGGING UNIT
MUD .         GEL CHEM             : Mud_type     - MUD TYPE
MATR.         SANDSTONE            : Logunit      - NEUTRON MATRIX
TMAX.C        26.1111              : BHT          - MAXIMUM RECORDED TEMPERATURE
BHTD.M        623.011              : BHTDEP       - MAXIMUM RECORDED TEMPERATURE
RMT .C        20                   : MDTP         - TEMPERATURE OF MUD
MUDD.KG/M     1116                 : MWT          - MUD DENSITY
NEUT.         1                    : NEUTRON      - NEUTRON TYPE
RESI.         0                    : RESIST       - RESISTIVITY TYPE
RM  .OHMM     5.37                 : RM           - RESISTIVITY OF MUD
RMC .OHMM     0.25                 : RMC          - RESISTIVITY OF MUD CAKE
RMF .OHMM     0.25                 : RMF          - RESISTIVITY OF MUD FILTRATE
SUFT.C        4.5                  : SUFT         - SURFACE TEMPERATURE
~A  DEPTH     RESD     PHIN     PHID       GR      CAL
# ...
  490.576    6.771    0.335    0.173   50.295  157.664
  490.826    7.138    0.396    0.233   51.831  154.520
  491.076    6.944    0.481    0.297   51.243  151.477
  491.326    6.593    0.497    0.310   52.296  152.130
  491.576    6.065    0.499    0.322   54.257  152.167
  491.826    5.365    0.488    0.320   52.464  151.592
  492.076    5.267    0.489    0.281   52.360  152.447
  492.326    5.491    0.478    0.273   51.172  151.455
  492.576    5.744    0.436    0.226   50.892  152.008
  492.826    6.476    0.408    0.187   52.063  152.552
  493.076    7.621    0.443    0.189   53.600  151.872
  493.326    7.855    0.478    0.274   54.412  151.911
  493.576    7.375    0.465    0.272   56.428  151.847
  493.826    6.585    0.463    0.263   58.208  152.805
  494.076    6.149    0.462    0.247   59.566  154.788
  494.326    5.816    0.458    0.247   62.797  156.263
  494.576    5.078    0.466    0.210   69.608  157.427
  494.826    4.584    0.487    0.192   72.052  159.412
  495.076    3.885    0.487    0.201   70.197  161.398
  495.326    3.072    0.480    0.213   69.125  157.230
  495.576    2.944    0.477    0.212   67.818  156.857
  495.826    3.007    0.466    0.191   66.138  156.892
  496.076    3.223    0.464    0.197   64.039  158.773
  496.326    3.586    0.461    0.214   63.821  157.685
  496.576    3.990    0.471    0.232   65.780  158.026
  496.826    3.985    0.480    0.218   67.133  158.575
  497.076    3.672    0.479    0.209   64.914  159.947
  497.326    3.266    0.509    0.194   59.540  160.085
  497.576    2.999    0.530    0.218   57.500  157.865
  497.826    3.012    0.514    0.252   49.826  154.616
  498.076    3.414    0.493    0.273   51.064  150.651
  498.326    4.063    0.481    0.294   50.294  150.289
  498.576    5.123    0.505    0.309   48.921  150.726
  498.826    6.281    0.494    0.297   46.219  150.764
  499.076    7.377    0.482    0.301   44.660  150.190
  499.326    8.348    0.475    0.316   41.347  150.429
  499.576    7.897    0.472    0.299   40.461  151.291
  499.826    7.498    0.480    0.290   41.391  151.526
  500.076    7.268    0.483    0.292   44.324  151.251
  500.326    7.257    0.481    0.303   47.009  149.858
  500.576    6.878    0.485    0.297   51.213  149.372
  500.826    6.690    0.487    0.291   50.509  150.438
  501.076    6.412    0.471    0.284   46.044  150.269
  501.326    5.768    0.469    0.287   44.550  150.923
  501.576    5.518    0.470    0.304   45.546  150.443
  501.826    5.510    0.473    0.311   47.626  150.377
  502.076    5.553    0.472    0.300   49.953  150.111
  502.326    5.546    0.452    0.296   49.606  149.123
  502.576    5.466    0.466    0.298   46.539  149.876
  502.826    5.427    0.482    0.288   44.318  150.728
  503.076    5.340    0.480    0.296   45.672  150.562
  503.326    5.166    0.472    0.288   46.000  150.293
  503.576    5.006    0.481    0.279   47.836  150.332
  503.826    4.870    0.472    0.285   52.100  150.257
  504.076    4.685    0.491    0.299   51.272  150.190
  504.326    4.626    0.501    0.298   48.142  150.235
  504.576    4.628    0.496    0.304   45.679  150.576
  504.826    4.656    0.478    0.331   46.367  150.922
  505.076    4.650    0.466    0.312   46.813  151.670
  505.326    4.652    0.483    0.322   47.501  152.127
  505.576    4.662    0.464    0.297   50.008  152.051
  505.826    4.682    0.450    0.286   49.001  151.790
  506.076    4.701    0.455    0.286   48.717  151.820
  506.326    4.704    0.467    0.284   47.593  151.449
  506.576    4.671    0.482    0.277   50.216  151.479
  506.826    4.673    0.467    0.266   55.330  151.720
  507.076    4.666    0.450    0.254   58.925  151.568
  507.326    4.642    0.447    0.238   58.403  151.596
  507.576    4.558    0.459    0.242   60.667  151.635
  507.826    4.492    0.472    0.253   61.660  152.073
  508.076    4.379    0.463    0.244   61.860  153.238
  508.326    4.307    0.450    0.227   62.973  154.609
  508.576    4.175    0.456    0.243   66.632  156.392
  508.826    3.913    0.482    0.229   69.440  157.866
  509.076    3.757    0.490    0.213   69.037  158.411
  509.326    3.501    0.485    0.214   70.032  160.917
  509.576    3.287    0.511    0.220   70.597  163.110
  509.826    3.145    0.520    0.192   67.344  163.760
  510.076    3.128    0.513    0.194   61.911  163.286
  510.326    3.273    0.490    0.207   53.023  162.187
  510.576    3.588    0.463    0.237   41.165  155.146
  510.826    4.037    0.431    0.251   36.466  151.384
  511.076    5.158    0.208    0.091   38.543  153.473
  511.326    6.903    0.225    0.009   46.807  154.533
  511.576    9.974    0.369    0.058   54.767  153.957
  511.826    8.422    0.422    0.110   64.123  156.256
  512.076    6.463    0.468    0.238   68.509  158.234
  512.326    4.770    0.473    0.218   68.529  157.964
  512.576    4.243    0.488    0.239   70.311  157.703
  512.826    3.656    0.488    0.204   71.362  157.935
  513.076    3.597    0.470    0.208   68.778  157.459
  513.326    3.660    0.463    0.240   65.282  157.190
  513.576    3.836    0.457    0.231   65.851  157.737
  513.826    3.939    0.455    0.229   68.904  158.389
  514.076    3.978    0.447    0.230   70.197  158.124
  514.326    3.979    0.447    0.219   68.520  158.056
  514.576    4.019    0.440    0.199   67.087  158.403
  514.826    4.104    0.439    0.197   67.231  157.617
  515.076    4.222    0.464    0.211   69.615  158.270
  515.326    4.248    0.460    0.208   71.639  159.228
  515.576    4.233    0.461    0.197   70.204  159.568
  515.826    4.149    0.474    0.177   65.922  159.708
  516.076    3.962    0.488    0.190   64.671  159.848
  516.326    3.927    0.479    0.188   62.087  159.986
  516.576    3.943    0.488    0.211   61.564  159.404
  516.826    3.731    0.490    0.234   60.375  155.340
  517.076    3.711    0.491    0.258   62.877  153.117
  517.326    3.875    0.484    0.242   66.050  154.177
  517.576    4.337    0.489    0.240   64.865  155.756
  517.826    4.754    0.509    0.235   62.340  157.125
  518.076    5.077    0.466    0.239   59.873  155.723
  518.326    5.659    0.430    0.262   56.681  154.942
  518.576    6.537    0.391    0.209   53.129  155.905
  518.826    7.955    0.354    0.150   56.909  158.298
  519.076    8.918    0.402    0.089   66.020  157.923
  519.326    7.918    0.450    0.102   69.926  157.454
  519.576    6.926    0.464    0.198   71.887  157.383
  519.826    6.442    0.468    0.212   72.811  157.516
  520.076    5.752    0.475    0.187   73.626  157.764
  520.326    5.173    0.469    0.194   73.219  158.721
  520.576    4.714    0.468    0.215   73.363  159.683
  520.826    4.468    0.472    0.213   73.746  158.393
  521.076    4.371    0.476    0.213   73.526  157.393
  521.326    4.357    0.478    0.200   72.155  157.228
  521.576    4.392    0.479    0.194   69.326  157.475
  521.826    4.418    0.484    0.190   68.682  158.227
  522.076    4.486    0.489    0.200   71.255  158.881
  522.326    4.599    0.492    0.196   73.149  158.709
  522.576    4.687    0.479    0.206   74.325  157.929
  522.826    4.734    0.467    0.192   73.678  157.444
  523.076    4.727    0.460    0.188   72.909  157.283
  523.326    4.764    0.472    0.182   72.023  157.619
  523.576    4.784    0.480    0.168   72.832  158.577
  523.826    4.777    0.501    0.182   74.010  157.795
  524.076    4.621    0.500    0.193   74.030  157.420
  524.326    4.445    0.487    0.185   73.624  159.003
  524.576    4.245    0.483    0.204   74.014  159.339
  524.826    4.302    0.480    0.210   73.000  159.277
  525.076    4.377    0.487    0.183   67.934  157.879
  525.326    4.470    0.466    0.185   66.133  156.370
  525.576    4.556    0.450    0.183   65.610  157.237
  525.826    4.474    0.454    0.210   65.269  157.682
  526.076    4.443    0.476    0.207   66.140  157.511
  526.326    4.371    0.500    0.187   66.827  157.542
  526.576    4.364    0.496    0.193   65.218  155.734
  526.826    4.407    0.485    0.213   63.357  153.510
