~VERSION INFORMATION
 VERS.                 2.0:   CWLS LOG ASCII STANDARD -VERSION 2.0
 WRAP.                  NO:   ONE LINE PER DEPTH STEP
~WELL INFORMATION BLOCK
#MNEM.UNIT           DATA                    DESCRIPTION OF MNEMONIC
#---------    -------------------            -------------------------------
# Generated from Intellog Unique Number	CC_80_83/WELL/2387
NULL.         -999.25                        : NULL_VALUE
WELL.         KASISER DIVIDE                 : Well_name    - WELL
LOC .         10-29-082-13W4                 : Location     - LOCATION          
UWI .         00/10-29-082-13W400            : Uwi          - UNIQUE WELL ID    
ENTR.         DW                             : Entered      - ENTERED BY        
SRVC.         SCHLUMBERGER                   : Scn          - SERVICE COMPANY   
DATE.         24 MAR 80                      : Date         - LOG DATE
STRT.M        95                             : top_depth    - START DEPTH       
STOP.M        379.997                        : bot_depth    - STOP DEPTH        
STEP.M        0.3                            : increment    - STEP LENGTH       
~CURVE INFORMATION BLOCK
#MNEM UNIT       ERCB CURVE CODE    CURVE DESCRIPTION
#-----------   ------------------   ----------------------------------
DEPT.M        00 001 00 00         : DEPTH        - DEPTH                       
DPHI.V/V      00 890 00 00         : PHID         - DENSITY POROSITY (LIMESTONE)
NPHI.V/V      00 330 00 00         : PHIN         - NEUTRON POROSITY (LIMESTONE)
GR  .API      00 310 00 00         : GR           - GAMMA RAY                   
ILD .OHMM     00 120 00 00         : RESD         - DEEP RESISTIVITY (DIL)      
~PARAMETER INFORMATION       
#MNEM.UNIT           DATA             DESCRIPTION OF MNEMONIC
#---------         -----------     ------------------------------
GL  .M        592.4                : gl           - GROUND LEVEL ELEVATION      
EREF.M        596.75               : kb           - ELEVATION OF DEPTH REFERENCE
DATM.M        596.75               : datum        - DATUM ELEVATION             
TDD .M        420                  : tdd          - TOTAL DEPTH DRILLER         
RUN .         ONE                  : Run          - RUN NUMBER                  
ENG .         BILL                 : Engineer     - RECORDING ENGINEER          
MUD .         GEL                  : Mud_type     - MUD TYPE                    
MATR.         LIMESTONE            : Logunit      - NEUTRON MATRIX              
TMAX.C        22                   : BHT          - MAXIMUM RECORDED TEMPERATURE
BHTD.M        420                  : BHTDEP       - MAXIMUM RECORDED TEMPERATURE
MATR.         1                    : LOGUNIT      - NEUTRON MATRIX              
RMT .C        25                   : MDTP         - TEMPERATURE OF MUD          
NEUT.         1                    : NEUTRON      - NEUTRON TYPE                
RESI.         0                    : RESIST       - RESISTIVITY TYPE            
RMC .OHMM     0.25                 : RMC          - RESISTIVITY OF MUD CAKE     
RMF .OHMM     0.25                 : RMF          - RESISTIVITY OF MUD FILTRATE 
SUFT.C        15                   : SUFT         - SURFACE TEMPERATURE         
~A  DEPTH     PHID     PHIN       GR     RESD
# ...
  251.602    0.144    0.362   69.695   11.369
  251.902    0.218    0.375   72.198    9.414
  252.202    0.322    0.485   76.566    7.796
  252.502    0.338    0.503   82.175    5.245
  252.802    0.340    0.505   87.165    4.262
  253.102    0.322    0.507   90.290    3.399
  253.402    0.284    0.538   87.197    3.035
  253.702    0.279    0.560   85.349    2.869
  254.002    0.281    0.581   87.854    2.816
  254.302    0.284    0.603   87.870    2.816
  254.602    0.299    0.615   86.017    2.980
  254.902    0.295    0.565   81.682    4.778
  255.202    0.299    0.556   71.753    6.224
  255.502    0.317    0.530   65.554    8.262
  255.802    0.333    0.495   68.053    8.745
  256.102    0.325    0.479   73.045    8.583
  256.402    0.314    0.475   79.278    7.811
  256.702    0.285    0.477   86.131    7.109
  257.002    0.281    0.486   85.525    6.976
  257.302    0.276    0.507   84.919    6.349
  257.602    0.262    0.526   90.535    6.231
  257.902    0.248    0.504   89.928    5.889
  258.202    0.239    0.499   86.214    5.890
  258.502    0.257    0.505   83.743    6.117
  258.802    0.271    0.508   76.917    6.852
  259.102    0.284    0.498   68.231    7.531
  259.401    0.303    0.479   65.763    7.822
  259.701    0.317    0.499   73.239    7.119
  260.001    0.308    0.452   78.847    6.856
  260.301    0.305    0.438   78.243    6.728
  260.601    0.301    0.461   72.661    7.122
  260.901    0.295    0.495   68.330    7.537
  261.201    0.299    0.479   67.100    8.442
  261.501    0.301    0.480   64.630    9.279
  261.801    0.306    0.483   62.163    9.457
  262.101    0.322    0.479   63.420    9.458
  262.401    0.331    0.477   64.679    9.109
  262.701    0.331    0.468   65.318    9.284
  263.001    0.317    0.469   64.086    9.462
  263.301    0.317    0.484   67.837    9.644
  263.601    0.326    0.492   66.607   10.017
  263.901    0.330    0.497   64.135   10.403
  264.201    0.297    0.492   61.665   12.100
  264.501    0.257    0.475   60.438   15.762
  264.801    0.232    0.451   52.371   26.244
  265.101    0.166    0.383   40.577   27.258
  265.401    0.002    0.172   41.837   25.278
  265.701    0.006    0.173   46.203   17.999
  266.001    0.065    0.233   52.435   11.443
  266.301    0.121    0.296   63.645    9.476
  266.601    0.248    0.362   67.391    8.624
  266.901    0.294    0.418   68.026    8.790
  267.201    0.303    0.469   67.419    8.791
  267.501    0.305    0.486   66.819    8.628
  267.801    0.316    0.482   68.079    8.309
  268.101    0.313    0.458   68.096    8.155
  268.401    0.316    0.444   67.489    7.563
  268.701    0.308    0.440   68.744    7.283
  269.001    0.299    0.467   71.246    7.015
  269.301    0.294    0.485   79.967    6.629
  269.601    0.291    0.493   83.093    4.996
  269.901    0.292    0.491   83.108    4.811
  270.201    0.297    0.493   80.020    4.997
  270.501    0.299    0.549   80.653    5.704
  270.801    0.299    0.558   81.292    6.269
  271.101    0.295    0.548   80.062    6.762
  271.401    0.295    0.521   76.347    6.762
  271.701    0.305    0.501   70.149    6.271
  272.001    0.310    0.492   76.379    6.514
  272.301    0.298    0.479   83.237    6.765
  272.601    0.279    0.506   83.872    7.160
  272.901    0.267    0.487   81.401    7.723
  273.201    0.263    0.466   81.420    8.021
  273.501    0.269    0.451   80.813    8.331
  273.801    0.295    0.456   80.206    8.491
  274.101    0.294    0.462   80.222    8.177
  274.401    0.278    0.468   83.346    7.875
  274.701    0.265    0.473   88.336    7.585
  275.001    0.258    0.483   85.868    7.585
  275.301    0.242    0.467   82.778    7.445
  275.601    0.231    0.480   84.659    7.446
  275.901    0.222    0.489   85.918    7.447
  276.201    0.215    0.487   87.176    7.448
  276.501    0.226    0.476   88.433    7.173
  276.801    0.241    0.475   89.695    6.652
  277.101    0.244    0.479   89.085    6.287
  277.401    0.243    0.507   85.374    5.721
  277.701    0.238    0.525   86.010    5.306
  278.001    0.231    0.527   87.272    5.014
  278.301    0.245    0.523   86.042    5.015
  278.601    0.261    0.492   85.438    5.209
  278.901    0.269    0.499   84.209    6.059
  279.201    0.304    0.529   78.008    6.916
  279.501    0.314    0.535   76.162    7.601
  279.801    0.310    0.523   77.420    7.747
  280.101    0.310    0.465   81.165    7.748
  280.401    0.300    0.448   81.801    7.323
  280.701    0.289    0.461   78.089    7.323
  281.001    0.283    0.492   76.860    7.752
  281.301    0.297    0.518   78.121    7.900
  281.601    0.310    0.514   75.651    8.052
  281.901    0.287    0.499   78.780    8.363
  282.201    0.272    0.488   80.656    8.364
  282.501    0.277    0.466   77.562    8.686
  282.801    0.301    0.472   76.966    8.853
  283.101    0.292    0.472   77.594    9.023
  283.401    0.272    0.462   81.341    8.690
  283.701    0.271    0.450   86.332    8.059
  284.000    0.266    0.447   86.968    7.475
  284.300    0.275    0.452   84.496    7.335
  284.600    0.289    0.472   84.514    6.933
  284.900    0.288    0.485   83.908    7.066
  285.200    0.283    0.479   84.545    7.339
  285.500    0.286    0.472   85.807    7.480
  285.800    0.307    0.485   82.092    7.481
  286.100    0.312    0.499   82.730    7.481
  286.400    0.300    0.505   82.123    6.938
  286.700    0.310    0.486   82.762    6.196
  287.000    0.296    0.467   88.374    5.229
  287.300    0.280    0.465   90.255    4.670
  287.600    0.274    0.492   90.893    4.250
  287.900    0.271    0.514   92.772    4.171
  288.200    0.296    0.523   92.174    4.332
  288.500    0.290    0.501   91.561    4.585
  288.800    0.290    0.487   91.578    5.751
  289.100    0.303    0.495   89.105    7.214
  289.400    0.298    0.529   84.152    7.493
  289.700    0.295    0.520   84.786    7.494
  290.000    0.292    0.479   89.778    7.082
  290.300    0.276    0.463   90.415    6.568
  290.600    0.266    0.506   92.916    5.866
  290.900    0.262    0.520   99.152    5.338
  291.200    0.251    0.508  100.407    5.239
  291.500    0.242    0.506   97.937    5.142
  291.800    0.227    0.496   95.468    5.340
  292.100    0.232    0.515   97.972    5.443
  292.400    0.241    0.524   98.609    5.982
  292.700    0.245    0.513   99.244    7.091
  293.000    0.257    0.481   98.641    9.064
  293.300    0.244    0.443   98.034   10.346
  293.600    0.236    0.427   97.432   10.545
  293.900    0.235    0.434   99.310   10.546
  294.200    0.239    0.435  101.192   10.157
  294.500    0.249    0.434   96.854    9.968
  294.800    0.253    0.434   89.410    8.412
  295.100    0.257    0.439   89.428    7.512
  295.400    0.258    0.447   92.553    7.099
  295.700    0.257    0.461   97.540    6.461
  296.000    0.252    0.476  102.530    6.341
  296.300    0.261    0.479  100.687    6.342
  296.600    0.255    0.462  100.075    6.712
  296.900    0.242    0.474  100.092    7.378
  297.200    0.243    0.464   92.025    8.582
  297.500    0.261    0.455   82.096    9.432
  297.800    0.274    0.451   82.732   10.174
  298.100    0.294    0.440   87.728   10.369
  298.400    0.306    0.430   88.981    9.799
  298.700    0.280    0.424   90.243    8.751
  299.000    0.257    0.467   90.258    8.428
  299.300    0.242    0.495   87.787    8.754
  299.600    0.246    0.492   80.963    9.265
  299.900    0.123    0.274   78.099   11.209
  300.200    0.161    0.317   80.579   10.395
  300.500    0.290    0.386   81.198    9.460
  300.800    0.302    0.453   78.719    9.284
  301.100    0.260    0.454   73.760    9.112
  301.400    0.255    0.447   73.760    9.287
  301.700    0.254    0.432   81.818    9.465
  302.000    0.239    0.420   87.397    9.289
  302.300    0.226    0.418   84.297    9.290
  302.600    0.224    0.432   88.636    9.118
  302.900    0.234    0.426   91.116    8.781
  303.200    0.253    0.422   91.736    8.457
  303.500    0.264    0.439   89.256    8.458
