~VERSION INFORMATION
 VERS.                 2.0:   CWLS LOG ASCII STANDARD -VERSION 2.0
 WRAP.                  NO:   ONE LINE PER DEPTH STEP
~WELL INFORMATION BLOCK
#MNEM.UNIT           DATA                    DESCRIPTION OF MNEMONIC
#---------    -------------------            -------------------------------
# Generated from Intellog Unique Number	CW_70_72/WELL/3310
NULL.         -999.25                        : NULL_VALUE
WELL.         HOME ALMX SMITH                : Well_name    - WELL              
LOC .         10-33-072-26W4                 : Location     - LOCATION          
UWI .         00/10-33-072-26W4/0            : Uwi          - UNIQUE WELL ID    
ENTR.         CAMPBELL                       : Entered      - ENTERED BY        
SRVC.         SCHLUMBERGER                   : Scn          - SERVICE COMPANY   
DATE.         24 NOV 77                      : Date         - LOG DATE          
STRT.M        533.4                          : top_depth    - START DEPTH       
STOP.M        679.65                         : bot_depth    - STOP DEPTH        
STEP.M        0.25                           : increment    - STEP LENGTH       
~CURVE INFORMATION BLOCK
#MNEM UNIT       ERCB CURVE CODE    CURVE DESCRIPTION
#-----------   ------------------   ----------------------------------
DEPT.M        00 001 00 00         : DEPTH        - DEPTH                       
DELT.US/F     00 520 00 00         : DELT         - SONIC TRAVEL TIME           
CALI.MM       00 280 01 00         : CAL          - CALIPER                     
GR  .API      00 310 00 00         : GR           - GAMMA RAY                   
ILD .OHMM     00 120 00 00         : RESD         - DEEP RESISTIVITY (DIL)      
~PARAMETER INFORMATION       
#MNEM.UNIT           DATA             DESCRIPTION OF MNEMONIC
#---------         -----------     ------------------------------
GL  .M        652.272              : gl           - GROUND LEVEL ELEVATION      
EREF.M        656.082              : kb           - ELEVATION OF DEPTH REFERENCE
DATM.M        656.082              : datum        - DATUM ELEVATION             
TDD .M        722.986              : tdd          - TOTAL DEPTH DRILLER         
RUN .         ONE                  : Run          - RUN NUMBER                  
ENG .         PLUME                : Engineer     - RECORDING ENGINEER          
WIT .         WIGGINS              : Witness      - WITNESSED BY                
MUD .         GEL                  : Mud_type     - MUD TYPE                    
MATR.         SANDSTONE            : Logunit      - NEUTRON MATRIX              
TMAX.C        27.2222              : BHT          - MAXIMUM RECORDED TEMPERATURE
BHTD.M        722.986              : BHTDEP       - MAXIMUM RECORDED TEMPERATURE
RMT .C        25                   : MDTP         - TEMPERATURE OF MUD          
MUDD.KG/M     3800                 : MWT          - MUD DENSITY                 
NEUT.         1                    : NEUTRON      - NEUTRON TYPE                
RESI.         0                    : RESIST       - RESISTIVITY TYPE            
RM  .OHMM     2.66                 : RM           - RESISTIVITY OF MUD          
RMC .OHMM     3.01                 : RMC          - RESISTIVITY OF MUD CAKE     
RMF .OHMM     1.71                 : RMF          - RESISTIVITY OF MUD FILTRATE 
SUFT.C        10                   : SUFT         - SURFACE TEMPERATURE         
~A  DEPTH     DELT      CAL       GR     RESD
# ...
  576.900  353.034  258.404   65.300    6.889
  577.150  355.567  257.434   63.580    6.812
  577.400  353.932  256.467   65.629    6.735
  577.650  351.988  254.011   70.572    6.697
  577.900  353.557  252.541   71.460    6.659
  578.150  358.325  250.576   65.111    6.621
  578.400  359.571  248.120   61.948    6.505
  578.650  348.990  245.660   60.810    6.351
  578.900  315.380  244.187   59.388    6.274
  579.150  305.758  241.723   59.116    6.274
  579.400  304.767  239.762   60.873    6.313
  579.650  270.840  240.292   56.840    6.507
  579.900  241.711  242.324   52.517    6.740
  580.150  245.199  242.850   55.721    7.050
  580.400  261.473  243.388   61.540    6.818
  580.650  280.952  244.418   63.003    6.548
  580.900  329.213  244.948   67.079    6.471
  581.150  355.719  246.472   71.442    6.510
  581.400  353.775  248.508   74.647    6.627
  581.650  348.630  250.535   70.616    6.859
  581.900  338.046  252.563   68.320    7.092
  582.150  335.459  254.598   69.498    7.324
  582.400  337.984  255.619   70.387    7.518
  582.650  345.952  256.657   69.830    7.635
  582.900  352.314  257.179   70.142    7.713
  583.150  358.037  257.721   71.318    7.790
  583.400  357.692  258.244   71.343    7.907
  583.650  356.380  259.281   69.629    7.985
  583.900  355.068  259.807   69.357    8.179
  584.150  353.441  259.839   69.377    8.334
  584.400  352.776  260.876   71.136    8.605
  584.650  352.743  261.406   73.181    8.838
  584.900  354.632  262.436   71.174    9.186
  585.150  356.522  262.962   69.170    9.844
  585.400  358.411  263.999   70.059    9.032
  585.650  362.219  265.029   69.500    8.375
  585.900  364.744  265.559   69.522    7.912
  586.150  355.762  265.586   72.727    7.641
  586.400  343.903  265.622   77.382    7.487
  586.650  343.546  265.158   77.400    7.526
  586.900  354.392  264.191   75.978    7.604
  587.150  360.115  262.725   77.153    7.643
  587.400  361.369  261.259   78.621    7.373
  587.650  356.863  259.295   78.359    6.832
  587.900  349.796  256.340   76.347    6.793
  588.150  344.971  253.377   72.603    7.026
  588.400  339.499  250.909   70.020    7.220
  588.650  336.595  248.445   67.722    7.414
  588.900  332.726  246.979   63.111    7.530
  589.150  332.377  246.016   60.815    7.608
  589.400  329.790  245.549   71.259    7.609
  589.650  324.964  245.089   68.096    7.493
  589.900  319.173  244.114   66.095    7.377
  590.150  316.266  243.650   64.954    7.262
  590.400  314.958  242.680   63.527    7.107
  590.650  307.894  242.216   62.102    7.185
  590.900  297.310  241.748   60.964    7.341
  591.150  292.801  241.780   60.691    7.573
  591.400  299.810  241.815   58.977    7.767
  591.650  320.564  243.347   61.892    7.961
  591.900  339.084  244.876   67.703    7.845
  592.150  344.171  246.404   74.964    7.691
  592.400  337.424  246.938   71.510    7.808
  592.650  333.238  246.970   70.661    8.079
  592.900  337.046  247.001   68.655    8.814
  593.150  343.092  247.036   72.152    9.704
  593.400  348.491  246.572   74.488   10.517
  593.650  345.908  246.596   72.484   12.684
  593.900  343.640  247.130   72.215   13.690
  594.150  341.689  247.161   71.368   14.581
  594.400  341.973  247.699   70.230   15.509
  594.650  343.230  247.723   73.143   15.278
  594.900  342.881  248.257   78.091   14.118
  595.150  341.569  248.788   74.344   13.383
  595.400  343.778  248.819   71.469   12.726
  595.650  349.185  249.349   76.993   12.340
  595.900  355.231  249.381   75.855   11.953
  596.150  358.719  249.420   76.454   11.644
  596.400  358.687  248.948   75.895   11.568
  596.650  353.541  248.488   73.312   11.491
  596.900  339.763  248.016   72.176   11.800
  597.150  346.129  247.549   74.512   19.538
  597.400  352.172  246.582   75.401   21.086
  597.650  354.061  245.619   78.606   24.723
  597.900  337.401  244.149   81.234   27.160
  598.150  323.303  242.688   76.040   28.089
  598.400  320.069  239.733   71.430   28.438
  598.650  318.765  237.764   70.292   26.427
  598.900  314.256  236.298   69.154   23.719
  599.150  299.838  234.836   66.279   21.089
  599.400  262.711  233.374   63.698   17.530
  599.650  263.637  232.400   61.979   15.442
  599.900  266.809  231.437   61.422   13.315
  600.150  274.774  230.969   61.729   11.652
  600.400  288.814  230.501   61.175   10.608
  600.650  307.654  230.038   64.378   10.337
  600.900  310.499  230.069   67.872   10.260
  601.150  305.034  230.104   67.608   10.184
  601.400  304.045  230.132   70.521   10.107
  601.650  319.045  230.662   74.305   10.068
  601.900  327.968  230.198   77.512   10.146
  602.150  330.817  229.239   74.348   10.495
  602.400  310.001  228.272   68.867   11.230
  602.650  254.008  227.298   63.096   11.231
  602.900  213.684  225.836   53.851   11.463
  603.150  244.994  225.867   43.158   11.657
  603.400  255.196  225.902   45.210   11.696
  603.650  230.543  226.429   44.359   11.504
  603.900  219.639  227.466   48.432   11.233
  604.150  236.876  228.499   53.956   11.195
  604.400  248.362  229.022   54.271   11.311
  604.650  268.477  231.057   54.575   11.737
  604.900  292.433  233.089   62.126   12.434
  605.150  311.269  234.118   63.599   12.822
  605.400  316.036  234.640   64.195   12.242
  605.650  315.364  235.175   63.926   12.822
  605.900  311.814  235.210   65.394   12.475
  606.150  313.067  234.742   64.256   12.166
  606.400  318.474  234.282   69.490   11.934
  606.650  313.329  233.807   73.274   11.857
  606.900  304.982  232.840   68.082   11.819
  607.150  304.953  231.881   69.845   11.665
  607.400  305.240  231.413   66.101   11.936
  607.650  312.566  230.946   67.858   12.323
  607.900  311.897  230.482   65.849   11.937
  608.150  312.827  230.010   65.293   11.164
  608.400  313.757  230.045   65.894   10.739
  608.650  315.643  230.073   67.362   10.546
  608.900  319.131  230.104   69.701   10.236
  609.150  314.626  229.636   72.327    9.695
  609.400  307.555  228.677   74.371    9.232
  609.650  297.937  228.206   66.574    8.497
  609.900  286.070  226.740   66.020    7.569
  610.150  292.120  225.777   67.198    5.171
  610.400  313.198  224.319   70.403    4.127
  610.650  305.487  223.353   71.586    2.928
  610.900  305.778  222.378   73.918    3.122
  611.150  307.991  221.914   77.702    3.432
  611.400  312.438  220.951   75.118    3.626
  611.650  305.691  220.484   73.693    3.936
  611.900  291.589  220.515   70.816    4.169
  612.150  290.281  220.546   70.546    4.440
  612.400  294.409  221.077   74.912    5.330
  612.650  289.899  223.116   70.302    7.033
  612.900  292.744  224.632   70.609    8.503
  613.150  311.908  227.662   75.554    8.426
  613.400  308.354  229.689   78.469    8.079
  613.650  300.015  231.222   70.961    7.963
  613.900  296.785  232.251   71.273    7.925
  614.150  288.439  232.251   75.926    8.235
  614.400  283.613  232.329   71.314    9.318
  614.650  295.419  232.844   71.913   11.678
  614.900  316.173  233.382   79.466   13.536
  615.150  381.700  236.907   81.510   13.343
  615.400  449.145  240.427   81.822   11.873
  615.650  423.532  242.958   76.628   10.481
  615.900  408.152  241.496   69.994    9.592
  616.150  407.163  237.535   75.805    9.360
  616.400  409.049  235.071   78.718   10.212
  616.650  383.760  234.611   79.898   10.096
  616.900  340.557  234.635   72.391   10.213
  617.150  300.552  235.165   68.070   10.406
  617.400  316.191  235.699   69.535    9.943
  617.650  327.677  236.732   72.743    9.982
  617.900  338.519  238.261   76.819   11.375
  618.150  334.642  239.290   79.734   13.232
  618.400  333.021  241.322   75.412   14.084
  618.650  329.795  242.347   73.984   13.040
  618.900  312.815  240.386   69.082   10.951
  619.150  251.703  235.930   65.627    8.089
  619.400  273.421  234.464   61.017    7.316
  619.650  293.216  234.492   65.960    6.543
  619.900  332.200  234.523   68.588    5.267
  620.150  329.613  234.063   69.766    4.493
