~VERSION INFORMATION
 VERS.                 2.0:   CWLS LOG ASCII STANDARD -VERSION 2.0
 WRAP.                  NO:   ONE LINE PER DEPTH STEP
~WELL INFORMATION BLOCK
#MNEM.UNIT           DATA                    DESCRIPTION OF MNEMONIC
#---------    -------------------            -------------------------------
# Generated from Intellog Unique Number	CC_80_83/WELL/2402
NULL.         -999.25                        : NULL_VALUE
WELL.         PARA ET AL GRANOR              : Well_name    - WELL
LOC .         11-19-083-17W4                 : Location     - LOCATION          
UWI .         00/11-19-083-17W400            : Uwi          - UNIQUE WELL ID    
ENTR.         DW                             : Entered      - ENTERED BY        
SRVC.         COMPUTALOG                     : Scn          - SERVICE COMPANY   
DATE.         31 JAN 82                      : Date         - LOG DATE
STRT.M        100                            : top_depth    - START DEPTH       
STOP.M        300.1                          : bot_depth    - STOP DEPTH        
STEP.M        0.3                            : increment    - STEP LENGTH       
~CURVE INFORMATION BLOCK
#MNEM UNIT       ERCB CURVE CODE    CURVE DESCRIPTION
#-----------   ------------------   ----------------------------------
DEPT.M        00 001 00 00         : DEPTH        - DEPTH                       
ILD .OHMM     00 120 00 00         : RESD         - DEEP RESISTIVITY (DIL)      
GR  .API      00 310 00 00         : GR           - GAMMA RAY                   
NPHI.V/V      00 330 00 00         : PHIN         - NEUTRON POROSITY (LIMESTONE)
DPHI.V/V      00 890 00 00         : PHID         - DENSITY POROSITY (LIMESTONE)
~PARAMETER INFORMATION       
#MNEM.UNIT           DATA             DESCRIPTION OF MNEMONIC
#---------         -----------     ------------------------------
GL  .M        542.3                : gl           - GROUND LEVEL ELEVATION      
EREF.M        545.33               : kb           - ELEVATION OF DEPTH REFERENCE
DATM.M        545.33               : datum        - DATUM ELEVATION             
TDD .M        304                  : tdd          - TOTAL DEPTH DRILLER         
RUN .         ONE                  : Run          - RUN NUMBER                  
ENG .         BILL                 : Engineer     - RECORDING ENGINEER          
WIT .         JIM                  : Witness      - WITNESSED BY                
MUD .         GEL                  : Mud_type     - MUD TYPE                    
MATR.         LIMESTONE            : Logunit      - NEUTRON MATRIX              
TMAX.C        22                   : BHT          - MAXIMUM RECORDED TEMPERATURE
BHTD.M        304                  : BHTDEP       - MAXIMUM RECORDED TEMPERATURE
MATR.         1                    : LOGUNIT      - NEUTRON MATRIX              
RMT .C        25                   : MDTP         - TEMPERATURE OF MUD          
NEUT.         1                    : NEUTRON      - NEUTRON TYPE                
RESI.         0                    : RESIST       - RESISTIVITY TYPE            
RMC .OHMM     0.25                 : RMC          - RESISTIVITY OF MUD CAKE     
RMF .OHMM     0.25                 : RMF          - RESISTIVITY OF MUD FILTRATE 
SUFT.C        15                   : SUFT         - SURFACE TEMPERATURE         
~A  DEPTH     RESD       GR     PHIN     PHID
# ...
  256.602   54.786   66.968    0.123    0.000
  256.902   45.297   69.446    0.142    0.005
  257.202   30.977   73.172    0.201    0.071
  257.502   23.295   80.010    0.239    0.142
  257.802   16.863   88.713    0.334    0.193
  258.102   15.328   91.193    0.355    0.229
  258.401   14.752   88.693    0.347    0.235
  258.701   13.927   84.321    0.363    0.234
  259.001   13.923   83.065    0.367    0.239
  259.301   13.914   86.167    0.360    0.239
  259.601   14.171   91.761    0.379    0.224
  259.901   14.436   97.353    0.431    0.215
  260.201   15.274   98.587    0.457    0.225
  260.501   16.472   94.841    0.450    0.203
  260.801   17.101   89.226    0.231    0.121
  261.101   16.146   96.686    0.226    0.113
  261.401   14.957  106.012    0.293    0.149
  261.701   14.122  106.000    0.343    0.184
  262.001   13.590   99.765    0.426    0.209
  262.301   12.830   79.208    0.445    0.246
  262.601   12.824   70.481    0.363    0.245
  262.901   12.578   79.809    0.436    0.229
  263.201   12.332  101.587    0.418    0.207
  263.501   12.328  108.424    0.378    0.183
  263.801   12.091  105.924    0.356    0.171
  264.101   11.418  100.307    0.373    0.171
  264.401   10.987  101.542    0.458    0.182
  264.701   10.571  107.134    0.432    0.188
  265.001   10.566  105.255    0.443    0.192
  265.301   10.560   99.640    0.418    0.187
  265.601   10.557   98.384    0.378    0.182
  265.901    9.778  112.692    0.373    0.182
  266.201    9.234  122.020    0.474    0.187
  266.501    8.394  118.895    0.491    0.178
  266.801    7.208  110.791    0.425    0.157
  267.101    6.552  108.290    0.399    0.146
  267.401    6.306  116.371    0.376    0.161
  267.701    5.842  122.585    0.362    0.180
  268.001    5.728  126.934    0.360    0.173
  268.301    5.947  133.770    0.370    0.168
  268.601    6.174  135.626    0.414    0.171
  268.901    7.183  132.502    0.397    0.172
  269.201    8.516  125.020    0.375    0.172
  269.501   11.314  118.160    0.395    0.168
  269.801   15.612  108.188    0.339    0.090
  270.101   24.600   88.877    0.248    0.050
  270.401   24.125   86.999    0.250    0.087
  270.701   20.715  113.133    0.330    0.182
  271.001   19.936  119.345    0.382    0.180
  271.301   19.548  120.582    0.370    0.171
  271.601   19.914  120.572    0.386    0.164
  271.901   20.288  115.579    0.417    0.147
  272.201   22.719  106.854    0.400    0.138
  272.501   26.427   98.126    0.360    0.187
  272.801   27.968   90.643    0.257    0.225
  273.101   34.435   76.314    0.239    0.252
  273.401   42.406   61.982    0.307    0.273
  273.701   58.518   52.010    0.321    0.288
  274.001   60.752   48.885    0.329    0.283
  274.301   58.458   48.250    0.361    0.259
  274.601   52.141   50.107    0.359    0.253
  274.901   45.634   51.965    0.359    0.276
  275.201   40.706   55.066    0.407    0.281
  275.501   31.794   58.167    0.382    0.262
  275.801   26.287   61.267    0.374    0.255
  276.101   21.323   63.747    0.400    0.277
  276.401   18.312   66.227    0.412    0.264
  276.701   15.723   69.330    0.406    0.248
  277.001   14.296   77.412    0.378    0.248
  277.301   12.045   92.343    0.359    0.237
  277.601   10.149  112.254    0.343    0.205
  277.901    8.552  117.847    0.383    0.165
  278.201    7.071  110.986    0.354    0.128
  278.501    6.188  109.729    0.338    0.153
  278.801    5.733  114.076    0.335    0.173
  279.101    5.211  119.045    0.390    0.210
  279.401    5.015  122.770    0.421    0.216
  279.701    4.826  123.380    0.439    0.211
  280.001    5.010  119.634    0.434    0.199
  280.301    5.719  100.946    0.475    0.165
  280.601    7.042   98.445    0.434    0.137
  280.901    7.311  104.659    0.302    0.157
  281.201    6.161  122.702    0.410    0.188
  281.501    4.293  130.785    0.426    0.191
  281.801    4.132  136.377    0.441    0.210
  282.101    4.052  138.234    0.450    0.221
  282.401    4.625  128.262    0.442    0.192
  282.701    6.629  103.970    0.418    0.158
  283.000    9.323   92.751    0.374    0.122
  283.300   15.551   92.118    0.334    0.108
  283.600   16.452  111.406    0.316    0.156
  283.900   17.408  110.773    0.310    0.175
  284.200   22.265   77.142    0.373    0.187
  284.500   27.945   60.322    0.443    0.228
  284.800   48.417   54.083    0.419    0.276
  285.100   53.201   54.693    0.371    0.294
  285.400   48.365   59.041    0.408    0.292
  285.700   31.848   67.124    0.387    0.281
  286.000   19.439   78.320    0.373    0.248
  286.300   12.559   98.854    0.373    0.202
  286.600    8.427  116.275    0.374    0.187
  286.900    7.100  116.886    0.379    0.168
  287.200    6.962   87.613    0.461    0.146
  287.500    7.368   88.846    0.464    0.130
  287.800   10.362  103.779    0.360    0.141
  288.100   16.641  112.481    0.322    0.158
  288.400   17.942  111.845    0.345    0.170
  288.700   18.981  111.215    0.326    0.163
  289.000   19.710  111.826    0.333    0.165
  289.300   22.074  109.948    0.374    0.168
  289.600   23.803  102.465    0.376    0.168
  289.900   25.178   93.738    0.325    0.171
  290.200   25.172   96.839    0.312    0.181
  290.500   24.223  102.432    0.316    0.217
  290.800   21.198  106.154    0.360    0.188
  291.100   18.201  111.124    0.365    0.156
  291.400   17.519  115.470    0.308    0.134
  291.700   16.855  116.084    0.305    0.111
  292.000   17.168  102.375    0.345    0.086
  292.300   18.167  100.497    0.392    0.094
  292.600   20.346  114.183    0.336    0.115
  292.900   23.224  112.925    0.365    0.154
  293.200   28.599   81.785    0.364    0.152
  293.500   37.281   65.586    0.285    0.165
  293.800   49.530   58.106    0.279    0.246
  294.100   92.582   54.356    0.331    0.283
  294.400  103.683   48.121    0.380    0.282
  294.700   85.725   43.129    0.388    0.285
  295.000   64.465   46.854    0.339    0.288
  295.300   46.667   73.613    0.313    0.264
  295.600   39.326   93.525    0.360    0.225
  295.900   33.769  101.606    0.410    0.206
  296.200   31.284  107.822    0.365    0.208
  296.500   29.539  117.772    0.410    0.216
  296.800   28.427  115.892    0.376    0.204
  297.100   26.332  114.013    0.320    0.201
  297.400   25.826  115.245    0.324    0.222
  297.700   24.848  113.988    0.350    0.221
  298.000   24.370  112.109    0.363    0.202
  298.300   23.904  112.723    0.339    0.176
  298.600   23.000  116.445    0.322    0.159
  298.900   22.135  118.924    0.312    0.146
  299.200   22.123  120.159    0.304    0.142
  299.500   21.693  118.903    0.304    0.178
  299.800   21.685  118.891    0.302    0.180
  300.100   21.267  121.369    0.301    0.147
