~Version Information
VERS.                2.00:
WRAP.                  NO:
~Well Information Block
#MNEM.UNIT       Data Type    Information
#---------    -------------   -------------------
FLD.   :FIELD
FLD.   :FIELD
FLD.   :FIELD
FLD.   :FIELD
STRT.M          1950.0000:
STOP.M          4060.0000:
STEP.M             0.8202:
NULL.           -999.2500:
COMP.  MUTUAL EXPLORATION FUNDS:COMPANY
WELL.  MUTES IOE SEAFORTH:WELL
FLD.   :FIELD
LOC.   15-20-095-20W4:LOCATION
CTRY.  CANADA:COUNTRY
PROV.  ALBERTA:PROVINCE
SRVC.  SCHLUMBERGER:SERVICE COMPANY
DATE.  01 MAR 69:LOG DATE
UWI.   00/15-20-095-20W4/0:UNIQUE WELL ID
~Curve Information Block
#MNEM.UNIT        API CODE    Curve Description
#---------    ------------    -----
DEPT.M                    :   DEPTH
CALI.in                   :   CALI
GR  .API                  :   GR
SNP .V/V                  :   SNP
~A  Depth           CALI          GR         SNP
# ...
3295.1280        14.3605     13.2811      0.1339
3295.9482        14.5708     12.8530      0.1046
3296.7684        14.5409     13.5116      0.0736
3297.5886        14.5011     14.4502      0.0504
3298.4088        14.5010     14.4319      0.0531
3299.2290        14.5018     14.4361      0.0720
3300.0492        14.4623     14.4433      0.1015
3300.8694        14.4954     14.4509      0.1129
3301.6896        14.5027     14.7395      0.1242
3302.5098        14.5048     14.8499      0.1622
3303.3300        14.4730     13.7615      0.2115
3304.1502        13.4715     12.3608      0.1556
3304.9704        12.2566     12.7860      0.1284
3305.7906        11.7139     13.1974      0.0874
3306.6108        11.1713     13.6065      0.0770
3307.4310        10.8722     14.9983      0.1302
3308.2512        10.6159     16.2445      0.1726
3309.0714        11.4735     16.4870      0.1811
3309.8916        11.8927     15.3429      0.1747
3310.7118        11.9126     14.1529      0.1689
3311.5320        11.7168     13.3572      0.1905
3312.3522        11.9465     13.3493      0.1876
3313.1724        12.0889     13.3566      0.2057
3313.9926        12.4453     13.3643      0.2240
3314.8128        12.9927     13.0619      0.2240
3315.6330        12.1402     13.7466      0.1954
3316.4532        12.0274     15.3153      0.1875
3317.2734        12.8447     13.8948      0.1979
3318.0936        13.6153     13.0638      0.1559
3318.9138        13.5902     13.3255      0.1091
3319.7340        13.5510     14.5248      0.0852
3320.5542        13.9642     16.1077      0.0645
3321.3744        14.3621     17.3506      0.0462
3322.1946        14.5096     18.1975      0.0626
3323.0148        14.5245     17.9689      0.0787
3323.8350        14.5266     17.9146      0.0954
3324.6552        14.5276     17.5425      0.0898
3325.4754        14.5658     17.1523      0.1074
3326.2956        14.6070     16.7602      0.1346
3327.1158        14.6110     15.6656      0.1724
3327.9360        14.6120     15.1838      0.1897
3328.7562        14.5747     14.7796      0.1855
3329.5764        14.5348     14.3856      0.1695
3330.3966        14.1354     13.6517      0.0972
3331.2168        12.7072     13.8867      0.0989
3332.0370        12.2724     14.2682      0.1021
3332.8572        12.8249     14.3357      0.0749
3333.6774        13.8136     14.3533      0.0585
3334.4976        14.3315     14.6954      0.0441
3335.3178        14.4561     15.0924      0.0392
3336.1380        14.4581     14.8403      0.0353
3336.9582        14.4589     14.8004      0.0326
3337.7784        14.4598     14.7992      0.0375
3338.5986        14.4606     14.8051      0.0504
3339.4188        14.4888     14.8124      0.0498
3340.2390        14.4986     14.8201      0.0429
3341.0592        14.5360     14.4312      0.0364
3341.8794        14.5436     14.4324      0.0415
3342.6996        14.5121     14.8315      0.0491
3343.5198        14.5073     14.4619      0.0666
3344.3400        14.5073     14.0704      0.0842
3345.1602        14.5079     13.2962      0.1004
3345.9804        14.5087     13.2635      0.1238
3346.8006        14.5095     13.8810      0.1657
3347.6208        14.5103     14.6448      0.2011
3348.4410        14.5111     14.5055      0.1891
3349.2612        14.5120     14.1316      0.1544
3350.0814        14.4071     13.7408      0.0830
3350.9016        12.8966     12.9839      0.1062
3351.7218        11.0486     12.1956      0.1073
3352.5420        10.5456     12.1226      0.1151
3353.3622        10.2751     12.1217      0.1584
3354.1824        10.3344     13.1976      0.1386
3355.0026        13.8071     13.6832      0.1096
3355.8228        14.3725     13.3962      0.0859
3356.6430        14.4682     13.0171      0.0666
3357.4632        14.5152     13.6699      0.0925
3358.2834        14.5198     15.5034      0.1620
3359.1036        14.5218     16.8015      0.1993
3359.9238        14.5529     15.9590      0.1730
3360.7440        14.5633     12.7933      0.0938
3361.5642        12.4108     11.2903      0.0656
3362.3844        10.3671     11.6439      0.0281
3363.2046         9.8136     12.1151      0.0198
3364.0248         9.6504     12.8664      0.0235
3364.8450         9.6851     14.0800      0.0377
3365.6652         9.7664     15.0189      0.0582
3366.4854         9.7121     16.0433      0.0985
3367.3056         9.6698     17.5494      0.1702
3368.1258         9.6641     18.8758      0.1633
3368.9460         9.6928     20.7051      0.1477
3369.7662         9.7036     23.6720      0.1375
3370.5864         9.7058     27.8473      0.1581
3371.4066         9.7645     32.5875      0.1818
3372.2268         9.8557     43.5414      0.1887
3373.0470         9.9389     35.2728      0.1662
3373.8672         9.9861     25.0008      0.1290
3374.6874        10.0284     19.3972      0.0958
3375.5076        10.1051     16.5154      0.1035
3376.3278        10.1432     14.1098      0.1175
3377.1480         9.8679     12.4716      0.1005
3377.9682         9.6913     10.8805      0.0847
3378.7884         9.6754     11.1268      0.0548
3379.6086         9.6748     11.5213      0.0321
3380.4288         9.7058     13.0258      0.0437
3381.2490         9.7904     12.8102      0.0710
3382.0692        10.8964     12.7957      0.1980
3382.8894        12.4999     13.1596      0.2823
3383.7096        14.0534     13.9206      0.2678
3384.5298        14.2361     13.3055      0.2570
3385.3500        14.2857     13.5902      0.2659
3386.1702        14.3035     14.3344      0.2809
3386.9904        14.2708     14.4372      0.2156
3387.8106        11.2362     13.8862      0.2411
3388.6308        10.5572     14.5813      0.2704
3389.4510        12.0307     14.8350      0.2921
3390.2712        12.9191     14.5388      0.2590
3391.0914        12.8913     14.1613      0.2192
3391.9116        11.7254     13.4360      0.1597
3392.7318        12.4806     12.9882      0.1397
3393.5520        11.7788     12.5864      0.0625
3394.3722        10.3074     12.1924      0.0343
3395.1924        10.1729     12.7822      0.0288
3396.0126        10.1780     12.8981      0.0257
3396.8328        10.2430     12.9264      0.0262
3397.6530        10.3403     12.5360      0.0300
3398.4732        10.4225     13.7483      0.0348
3399.2934        10.4885     14.5601      0.0426
3400.1136        10.5861     14.5750      0.0604
3400.9338        12.2996     14.2667      0.0898
3401.7540        13.3182     14.1899      0.1776
3402.5742        14.1438     14.9735      0.1622
3403.3944        14.5488     15.0079      0.1585
3404.2146        14.5670     14.6330      0.1486
3405.0348        14.6077     14.3182      0.1587
3405.8550        14.6099     13.8540      0.1970
3406.6752        14.6108     13.5340      0.2308
3407.4954        14.6116     13.0704      0.2648
3408.3156        14.5723     13.0423      0.2529
3409.1358        12.9801     12.6798      0.2342
3409.9560        12.5455     11.9261      0.1905
3410.7762        12.2419     11.4992      0.1087
3411.5964        12.6316     11.4624      0.0978
3412.4166        13.5993     12.3444      0.1071
3413.2368        14.3342     13.3573      0.1558
3414.0570        14.4680     13.8352      0.1694
3414.8772        14.5259     14.1782      0.2121
3415.6974        14.5367     14.6521      0.1887
3416.5176        14.5393     15.0690      0.1736
3417.3378        14.5403     15.1311      0.1533
3418.1580        14.5412     15.1463      0.1036
3418.9782        14.5421     15.1550      0.0757
3419.7984        14.5429     15.5042      0.0777
3420.6186        14.5438     15.5640      0.0787
3421.4388        14.5446     15.9176      0.0775
3422.2590        14.5454     15.6457      0.0773
3423.0792        14.5463     15.2735      0.0787
3423.8994        14.5471     15.5471      0.0816
3424.7196        14.5479     15.6018      0.0813
3425.5398        14.5488     15.6166      0.0827
3426.3600        14.5496     15.3013      0.0738
3427.1802        14.5209     15.2472      0.0662
3428.0004        14.5119     14.9210      0.0737
3428.8206        14.5116     14.0468      0.0640
