~VERSION INFORMATION
 VERS.                 2.0:   CWLS LOG ASCII STANDARD -VERSION 2.0
 WRAP.                  NO:   ONE LINE PER DEPTH STEP
~WELL INFORMATION BLOCK
#MNEM.UNIT           DATA                    DESCRIPTION OF MNEMONIC
#---------    -------------------            -------------------------------
# Generated from Intellog Unique Number	CS_73_76/WELL/2204
WELL.         CANADA CITIES SERVICE LTD      : Well_name    - WELL
LOC .         00/11-29-074-01W4/0            : Location     - LOCATION
UWI .         00/11-29-074-01W4/0            : Uwi          - UNIQUE WELL ID
ENTR.         SP                             : Entered      - ENTERED BY
SRVC.         SCHLUMBERGER                   : Scn          - SERVICE COMPANY
STRT.M        325                            : top_depth    - START DEPTH
STOP.M        575                            : bot_depth    - STOP DEPTH
STEP.M        0.25                           : increment    - STEP LENGTH
 NULL. -999.2500:NULL Value
~CURVE INFORMATION BLOCK
#MNEM UNIT       ERCB CURVE CODE    CURVE DESCRIPTION
#-----------   ------------------   ----------------------------------
DEPT.M        00 001 00 00         : DEPTH        - DEPTH
ILD .OHMM     00 120 00 00         : RESD         - DEEP RESISTIVITY (DIL)
DPHI.V/V      00 890 00 00         : PHID         - DENSITY POROSITY (LIMESTONE)
NPHI.V/V      00 330 00 00         : PHIN         - NEUTRON POROSITY (LIMESTONE)
GR  .API      00 310 00 00         : GR           - GAMMA RAY
~PARAMETER INFORMATION
#MNEM.UNIT           DATA             DESCRIPTION OF MNEMONIC
#---------         -----------     ------------------------------
GL  .M        693.6                : gl           - GROUND LEVEL ELEVATION
EREF.M        597                  : kb           - ELEVATION OF DEPTH REFERENCE
DATM.M        693.6                : datum        - DATUM ELEVATION
TDD .M        582                  : tdd          - TOTAL DEPTH DRILLER
RUN .         ONE                  : Run          - RUN NUMBER
ENG .         BILL                 : Engineer     - RECORDING ENGINEER
WIT .         JIM                  : Witness      - WITNESSED BY
MUD .         GEL                  : Mud_type     - MUD TYPE
MATR.         LIMESTONE            : Logunit      - NEUTRON MATRIX
TMAX.C        18.5                 : BHT          - MAXIMUM RECORDED TEMPERATURE
BHTD.M        582                  : BHTDEP       - MAXIMUM RECORDED TEMPERATURE
MATR.         1                    : LOGUNIT      - NEUTRON MATRIX
RMT .C        25                   : MDTP         - TEMPERATURE OF MUD
NEUT.         1                    : NEUTRON      - NEUTRON TYPE
RESI.         0                    : RESIST       - RESISTIVITY TYPE
RMC .OHMM     0.25                 : RMC          - RESISTIVITY OF MUD CAKE
RMF .OHMM     0.25                 : RMF          - RESISTIVITY OF MUD FILTRATE
SUFT.C        15                   : SUFT         - SURFACE TEMPERATURE
~A  DEPTH     RESD     PHID     PHIN       GR
# ...
  368.500   14.339    0.306    0.403   52.179
  368.750   14.338    0.310    0.408   47.279
  369.000   14.069    0.311    0.419   48.501
  369.250   13.298    0.315    0.432   58.293
  369.500   13.050    0.312    0.442   66.862
  369.750   12.106    0.288    0.437   72.370
  370.000   11.230    0.260    0.421   80.326
  370.250   10.615    0.258    0.412   88.282
  370.500   10.416    0.270    0.424   94.402
  370.750   10.611    0.277    0.419   98.072
  371.000   10.809    0.262    0.418   98.682
  371.250   10.807    0.262    0.430   99.904
  371.500   11.010    0.254    0.451  100.513
  371.750   11.008    0.266    0.460   97.450
  372.000   10.802    0.270    0.456   92.549
  372.250   10.209    0.254    0.460   91.322
  372.500    9.832    0.253    0.467   93.156
  372.750    9.470    0.262    0.474   95.602
  373.000    8.785    0.251    0.480   96.211
  373.250    7.999    0.245    0.485   93.760
  373.500    7.703    0.245    0.482   96.818
  373.750    7.702    0.244    0.483   96.815
  374.000    7.845    0.245    0.499   99.260
  374.250    8.297    0.250    0.467   99.871
  374.500    8.452    0.259    0.456  102.317
  374.750    8.773    0.265    0.445  104.152
  375.000    9.631    0.269    0.446  102.312
  375.250    9.812    0.280    0.431   96.186
  375.500    9.996    0.291    0.440   93.123
  375.750   10.183    0.302    0.435   89.447
  376.000   10.373    0.307    0.443   87.608
  376.250   10.179    0.298    0.447   86.380
  376.500   10.176    0.295    0.457   86.378
  376.750   10.175    0.273    0.455   85.150
  377.000   10.366    0.263    0.437   86.371
  377.250   10.758    0.223    0.441   87.594
  377.500   10.960    0.181    0.438   88.815
  377.750   10.959    0.173    0.432   90.037
  378.000   11.163    0.203    0.443   91.871
  378.250   11.372    0.236    0.466   93.093
  378.500   11.370    0.264    0.466   93.703
  378.750   11.368    0.291    0.458   91.251
  379.000   11.580    0.295    0.450   87.575
  379.250   11.578    0.299    0.464   83.898
  379.500   11.576    0.291    0.459   84.508
  379.750   11.359    0.278    0.465   84.505
  380.000   10.940    0.274    0.469   84.503
  380.250   10.149    0.280    0.468   85.724
  380.500    9.414    0.269    0.473   86.334
  380.750    9.239    0.254    0.461   86.943
  381.000    9.589    0.250    0.452   88.165
  381.250   10.527    0.234    0.457   88.163
  381.500   11.134    0.224    0.440   82.037
  381.750   11.775    0.207    0.423   78.974
  382.000   12.453    0.188    0.388   74.073
  382.250   12.686    0.160    0.319   68.560
  382.500   12.449    0.140    0.285   66.721
  382.750   11.334    0.167    0.304   70.392
  383.000   10.713    0.211    0.338   76.511
  383.250    9.938    0.231    0.360   80.182
  383.500    9.571    0.197    0.346   80.791
  383.750    9.046    0.198    0.349   80.177
  384.000    8.877    0.207    0.349   79.561
  384.250    8.711    0.195    0.362   78.947
  384.500    8.710    0.203    0.373   82.005
  384.750    8.708    0.202    0.381   79.553
  385.000    8.870    0.214    0.378   78.326
  385.250    8.869    0.209    0.383   77.711
  385.500    8.868    0.225    0.375   77.709
  385.750    8.866    0.210    0.381   82.604
  386.000    9.031    0.189    0.397   88.724
  386.250    9.030    0.196    0.397   96.068
  386.500    9.028    0.190    0.397   91.166
  386.750    9.197    0.189    0.381   88.715
  387.000    9.195    0.191    0.375   85.039
  387.250    9.193    0.184    0.386   85.036
  387.500    9.192    0.182    0.389   85.033
  387.750    9.364    0.191    0.393   83.806
  388.000    9.539    0.195    0.392   83.191
  388.250    9.901    0.196    0.387   82.576
  388.500   10.277    0.197    0.387   81.350
  388.750   10.667    0.228    0.385   75.225
  389.000   10.867    0.249    0.381   67.262
  389.250   11.279    0.256    0.385   59.912
  389.500   11.277    0.270    0.376   55.624
  389.750   11.275    0.260    0.370   53.173
  390.000   11.273    0.249    0.370   56.231
  390.250   11.269    0.259    0.377   60.515
  390.500   11.920    0.279    0.392   58.675
  390.750   11.696    0.307    0.396   52.550
  391.000   11.477    0.300    0.374   48.874
  391.250   11.262    0.296    0.365   45.810
  391.500   10.846    0.300    0.377   50.093
  391.750   10.643    0.299    0.392   51.927
  392.000   10.444    0.286    0.411   51.924
  392.250   10.442    0.276    0.412   56.207
  392.500   10.440    0.280    0.414   59.266
  392.750   10.245    0.269    0.398   56.202
  393.000   10.242    0.279    0.399   56.811
  393.250   10.050    0.267    0.408   56.808
  393.500    9.862    0.245    0.410   57.418
  393.750    9.861    0.237    0.400   62.313
  394.000    9.676    0.244    0.400   66.596
  394.250    9.674    0.249    0.405   68.430
  394.500    9.493    0.231    0.394   69.040
  394.750    9.315    0.190    0.388   72.710
  395.000    9.313    0.203    0.405   75.769
  395.250    9.139    0.233    0.386   76.378
  395.500    9.138    0.251    0.373   75.763
  395.750    8.966    0.247    0.375   75.148
  396.000    8.475    0.261    0.406   73.309
  396.250    7.862    0.259    0.394   70.858
  396.500    7.293    0.249    0.381   78.201
  396.750    6.640    0.239    0.378   87.994
  397.000    6.277    0.234    0.407   93.502
  397.250    5.933    0.256    0.456   98.397
  397.500    6.274    0.263    0.468   95.945
  397.750    6.512    0.236    0.448   94.106
  398.000    6.760    0.223    0.436   94.716
  398.250    6.886    0.239    0.431   92.876
  398.500    6.757    0.242    0.424   92.261
  398.750    6.508    0.238    0.423   98.380
  399.000    6.267    0.246    0.445   99.602
  399.250    6.150    0.242    0.445  100.211
  399.500    6.149    0.240    0.445   99.597
  399.750    6.148    0.246    0.462   98.370
  400.000    6.263    0.236    0.454   97.142
  400.250    6.380    0.243    0.453   94.691
  400.500    6.621    0.246    0.469   89.790
  400.750    6.620    0.256    0.464   86.726
  401.000    6.620    0.258    0.433   85.499
  401.250    6.618    0.254    0.413   84.272
  401.500    6.374    0.248    0.416   83.657
  401.750    6.255    0.230    0.418   82.430
  402.000    6.024    0.225    0.419   82.427
  402.250    5.693    0.238    0.431   84.261
  402.500    5.587    0.254    0.435   88.543
  402.750    5.482    0.270    0.440   90.990
  403.000    5.585    0.249    0.452   92.824
  403.250    5.584    0.257    0.458   91.597
  403.500    5.688    0.259    0.448   86.696
  403.750    5.904    0.251    0.444   84.245
  404.000    6.014    0.242    0.435   83.630
  404.250    6.127    0.237    0.426   84.852
  404.500    6.360    0.248    0.421   83.012
  404.750    6.479    0.253    0.431   78.724
  405.000    6.725    0.258    0.424   75.660
  405.250    6.723    0.259    0.415   73.209
  405.500    6.849    0.271    0.420   71.369
  405.750    6.848    0.281    0.420   73.815
  406.000    6.719    0.272    0.418   79.323
  406.250    6.471    0.264    0.418   84.830
  406.500    6.233    0.255    0.429   88.500
  406.750    6.116    0.244    0.443   90.947
  407.000    6.114    0.248    0.456   92.781
  407.250    6.228    0.251    0.462   94.003
  407.500    6.227    0.259    0.466   90.939
  407.750    6.344    0.272    0.462   87.263
  408.000    6.462    0.274    0.466   83.586
  408.250    6.583    0.267    0.468   82.360
  408.500    6.707    0.287    0.468   77.458
  408.750    6.705    0.300    0.460   73.782
  409.000    6.831    0.293    0.450   71.331
  409.250    6.830    0.282    0.451   68.267
  409.500    6.829    0.296    0.465   70.713
  409.750    6.956    0.307    0.477   74.384
  410.000    6.955    0.309    0.477   68.259
  410.250    6.825    0.297    0.446   66.419
  410.500    6.573    0.295    0.442   69.478
  410.750    6.572    0.282    0.466   73.760
  411.000    6.570    0.283    0.496   75.595
  411.250    6.819    0.292    0.507   74.979
  411.500    7.078    0.309    0.509   70.078
  411.750    7.347    0.323    0.485   68.240
