~VERSION INFORMATION
 VERS.                 2.0:   CWLS LOG ASCII STANDARD -VERSION 2.0
 WRAP.                  NO:   ONE LINE PER DEPTH STEP
~WELL INFORMATION BLOCK
#MNEM.UNIT           DATA                    DESCRIPTION OF MNEMONIC
#---------    -------------------            -------------------------------
# Generated from Intellog Unique Number	CW_82_90/WELL/1034
WELL.         14-09-083-23W4                 : Well_name    - WELL
LOC .         00/14-09-083-23W4/0            : Location     - LOCATION
UWI .         00/14-09-083-23W4/0            : Uwi          - UNIQUE WELL ID
ENTR.         JAYE                           : Entered      - ENTERED BY
SRVC.         SCHLUMBERGER                   : Scn          - SERVICE COMPANY
DATE.         05 FEB 86                      : Date         - LOG DATE
STRT.M        225                            : top_depth    - START DEPTH
STOP.M        435                            : bot_depth    - STOP DEPTH
STEP.M        0.25                           : increment    - STEP LENGTH
 NULL. -999.2500:NULL Value
~CURVE INFORMATION BLOCK
#MNEM UNIT       ERCB CURVE CODE    CURVE DESCRIPTION
#-----------   ------------------   ----------------------------------
DEPT.M        00 001 00 00         : DEPTH        - DEPTH
CALI.MM       00 280 01 00         : CAL          - CALIPER
GR  .API      00 310 00 00         : GR           - GAMMA RAY
NPHI.V/V      00 330 00 00         : PHIN         - NEUTRON POROSITY (SANDSTONE)
DPHI.V/V      00 890 00 00         : PHID         - DENSITY POROSITY (SANDSTONE)
ILD .OHMM     00 120 00 00         : RESD         - DEEP RESISTIVITY (DIL)
~PARAMETER INFORMATION
#MNEM.UNIT           DATA             DESCRIPTION OF MNEMONIC
#---------         -----------     ------------------------------
GL  .M        597.8                : gl           - GROUND LEVEL ELEVATION
EREF.M        601.4                : kb           - ELEVATION OF DEPTH REFERENCE
DATM.M        597.8                : datum        - DATUM ELEVATION
TDD .M        437                  : tdd          - TOTAL DEPTH DRILLER
RUN .         ONE                  : Run          - RUN NUMBER
ENG .         PATTERSON            : Engineer     - RECORDING ENGINEER
WIT .         WHALLEY              : Witness      - WITNESSED BY
BASE.         RD                   : Branch       - HOME BASE OF LOGGING UNIT
MUD .         GEL CHEM             : Mud_type     - MUD TYPE
MATR.         SANDSTONE            : Logunit      - NEUTRON MATRIX
TMAX.C        20                   : BHT          - MAXIMUM RECORDED TEMPERATURE
BHTD.M        437                  : BHTDEP       - MAXIMUM RECORDED TEMPERATURE
RMT .C        12                   : MDTP         - TEMPERATURE OF MUD
MUDD.KG/M     1080                 : MWT          - MUD DENSITY
NEUT.         1                    : NEUTRON      - NEUTRON TYPE
RESI.         0                    : RESIST       - RESISTIVITY TYPE
RM  .OHMM     3.55                 : RM           - RESISTIVITY OF MUD
RMC .OHMM     0                    : RMC          - RESISTIVITY OF MUD CAKE
RMF .OHMM     3.19                 : RMF          - RESISTIVITY OF MUD FILTRATE
SUFT.C        0                    : SUFT         - SURFACE TEMPERATURE
~A  DEPTH      CAL       GR     PHIN     PHID     RESD
# ...
  407.500  256.134   75.340    0.339    0.032   11.380
  407.750  255.870   82.236    0.377    0.036   12.495
  408.000  256.635   87.710    0.384    0.063   12.511
  408.250  257.192   89.658    0.381    0.152   12.060
  408.500  254.445   87.142    0.406    0.155   11.285
  408.750  253.775   82.893    0.411    0.157   10.555
  409.000  255.254   83.475    0.404    0.163    9.563
  409.250  256.125   88.393    0.427    0.158    8.730
  409.500  256.887   91.017    0.419    0.150    9.008
  409.750  256.214   79.776    0.395    0.154   10.251
  410.000  255.732   70.701    0.376    0.164   11.533
  410.250  255.877   61.565    0.334    0.169   13.912
  410.500  256.438   68.031    0.312    0.121   15.920
  410.750  256.685   74.182    0.344    0.110   15.671
  411.000  256.004   83.185    0.439    0.126   14.687
  411.250  254.395   85.251    0.415    0.148   13.611
  411.500  252.167   73.019    0.374    0.166   13.448
  411.750  249.837   66.052    0.355    0.191   14.656
  412.000  247.919   61.932    0.359    0.223   16.586
  412.250  247.347   60.529    0.372    0.242   18.731
  412.500  247.900   59.755    0.372    0.230   20.643
  412.750  249.286   60.455    0.368    0.212   21.741
  413.000  250.257   61.352    0.374    0.208   21.808
  413.250  251.131   62.613    0.376    0.205   21.587
  413.500  251.786   64.493    0.383    0.194   21.368
  413.750  251.829   61.742    0.401    0.194   20.956
  414.000  250.631   59.657    0.403    0.208   20.629
  414.250  248.817   61.847    0.398    0.226   20.612
  414.500  249.584   71.157    0.406    0.207   20.713
  414.750  251.172   75.765    0.405    0.187   21.130
  415.000  252.036   71.951    0.398    0.177   21.562
  415.250  252.698   65.291    0.397    0.184   21.911
  415.500  253.051   65.505    0.401    0.193   22.352
  415.750  253.406   67.136    0.410    0.205   23.063
  416.000  254.181   69.700    0.408    0.208   23.839
  416.250  254.930   72.327    0.383    0.210   24.553
  416.500  255.494   71.173    0.364    0.215   25.234
  416.750  255.222   68.354    0.359    0.219   25.695
  417.000  255.266   64.352    0.356    0.228   25.919
  417.250  254.279   59.241    0.346    0.240   25.466
  417.500  253.388   56.233    0.344    0.249   24.137
  417.750  252.607   52.979    0.368    0.261   21.381
  418.000  252.234   50.897    0.384    0.259   18.764
  418.250  251.667   49.808    0.420    0.250   16.618
  418.500  252.319   50.638    0.422    0.237   14.257
  418.750  252.568   55.306    0.402    0.239   12.701
  419.000  251.374   61.274    0.379    0.223   11.124
  419.250  250.898   70.400    0.380    0.191    9.400
  419.500  250.850   77.483    0.436    0.184    8.549
  419.750  250.781   72.865    0.424    0.174    8.544
  420.000  250.717   66.392    0.383    0.159    8.898
  420.250  251.481   65.986    0.366    0.136    9.391
  420.500  252.244   70.775    0.379    0.141    9.295
  420.750  252.188   85.287    0.418    0.152    8.944
  421.000  253.064   91.136    0.421    0.158    8.416
  421.250  253.408   92.276    0.437    0.150    9.382
  421.500  254.065   84.620    0.439    0.148   10.416
  421.750  255.038   72.759    0.435    0.199   11.632
  422.000  255.184   68.947    0.440    0.247   12.068
  422.250  255.430   71.329    0.535    0.297   12.106
  422.500  255.683   70.927    0.567    0.362   11.825
  422.750  255.620   69.891    0.586    0.434   10.674
  423.000  255.866   70.843    0.574    0.410    9.140
  423.250  256.113   75.573    0.504    0.370    8.188
  423.500  255.744   78.570    0.525    0.269    7.462
  423.750  255.580   79.709    0.530    0.256    6.967
  424.000  255.208   82.151    0.507    0.210    6.604
  424.250  255.459   81.065    0.470    0.153    6.392
  424.500  256.118   82.324    0.431    0.133    6.315
  424.750  257.712   84.210    0.452    0.144    6.370
  425.000  258.375   83.800    0.464    0.172    6.499
  425.250  258.104   79.185    0.457    0.186    6.756
  425.500  256.186   78.776    0.454    0.167    7.036
  425.750  254.991   80.098    0.434    0.153    7.754
  426.000  254.211   81.432    0.421    0.162    8.562
  426.250  253.938   77.798    0.401    0.164    9.454
  426.500  253.885   74.790    0.388    0.181   10.281
  426.750  254.024   73.141    0.392    0.192   11.459
  427.000  254.067   73.292    0.405    0.194   12.534
  427.250  253.911   75.854    0.416    0.201   13.380
  427.500  254.057   77.430    0.417    0.200   13.778
  427.750  254.098   76.338    0.432    0.192   14.005
  428.000  254.027   74.570    0.449    0.193   14.072
  428.250  254.071   74.102    0.445    0.215   14.011
  428.500  254.218   77.591    0.416    0.200   13.920
  428.750  254.260   83.067    0.347    0.174   13.676
  429.000  254.098   84.639    0.320    0.163   13.438
  429.250  254.037   82.004    0.315    0.182   13.350
  429.500  253.769   80.113    0.326    0.159   13.240
  429.750  253.711   78.465    0.358    0.146   13.158
  430.000  253.443   75.145    0.353    0.151   13.097
  430.250  253.273   58.206    0.347    0.162   13.088
  430.500  253.214   46.099    0.343    0.173   13.030
  430.750  252.742   38.262    0.344    0.223   12.995
  431.000  252.370   39.216    0.341    0.295   12.888
  431.250  252.209   42.336    0.335    0.300   12.828
  431.500  252.247   44.219    0.332    0.304   12.773
  431.750  252.495   47.897    0.330    0.299   12.689
  432.000  252.640   51.761    0.329    0.287   12.563
  432.250  252.687   59.153    0.329    0.261   12.252
  432.500  252.621   65.491    0.329    0.256   11.921
  432.750  252.355   71.583    0.329    0.187   11.047
  433.000  251.158   76.934    0.330    0.166    9.767
  433.250  249.343   83.955    0.333    0.179    8.603
  433.500  247.222   93.017    0.336    0.201    7.737
  433.750  246.125  100.659    0.338    0.213    7.501
  434.000  244.833  110.960    0.342    0.224    7.553
  434.250  243.749  105.846    0.346    0.255    7.547
  434.500  242.958   85.569    0.351    0.275    7.414
  434.750  242.071   84.973    0.356    0.284    7.137
  435.000  241.287   84.134    0.363    0.291    6.945
