~VERSION INFORMATION
 VERS.                 2.0:   CWLS LOG ASCII STANDARD -VERSION 2.0
 WRAP.                  NO:   ONE LINE PER DEPTH STEP
~WELL INFORMATION BLOCK
#MNEM.UNIT           DATA                    DESCRIPTION OF MNEMONIC
#---------    -------------------            -------------------------------
# Generated from Intellog Unique Number	CW_70_72/WELL/1061
NULL.         -999.25                        : NULL_VALUE
WELL.         WINCAN ET AL GAMBLER 11-22     : Well_name    - WELL              
LOC .         11-22-071-21W4                 : Location     - LOCATION          
UWI .         00/11-22-071-21W4/0            : Uwi          - UNIQUE WELL ID    
ENTR.         JAYE                           : Entered      - ENTERED BY        
SRVC.         SCHLUMBERGER                   : Scn          - SERVICE COMPANY   
DATE.         19 MAR 83                      : Date         - LOG DATE          
STRT.M        335                            : top_depth    - START DEPTH       
STOP.M        518                            : bot_depth    - STOP DEPTH        
STEP.M        0.25                           : increment    - STEP LENGTH       
~CURVE INFORMATION BLOCK
#MNEM UNIT       ERCB CURVE CODE    CURVE DESCRIPTION
#-----------   ------------------   ----------------------------------
DEPT.M        00 001 00 00         : DEPTH        - DEPTH                       
DPHI.V/V      00 890 00 00         : PHID         - DENSITY POROSITY (SANDSTONE)
NPHI.V/V      00 330 00 00         : PHIN         - NEUTRON POROSITY (SANDSTONE)
GR  .API      00 310 00 00         : GR           - GAMMA RAY                   
CALI.MM       00 280 01 00         : CAL          - CALIPER                     
ILD .OHMM     00 120 00 00         : RESD         - DEEP RESISTIVITY (DIL)      
~PARAMETER INFORMATION       
#MNEM.UNIT           DATA             DESCRIPTION OF MNEMONIC
#---------         -----------     ------------------------------
GL  .M        600.05               : gl           - GROUND LEVEL ELEVATION      
EREF.M        603.25               : kb           - ELEVATION OF DEPTH REFERENCE
DATM.M        600.05               : datum        - DATUM ELEVATION             
TDD .M        518                  : tdd          - TOTAL DEPTH DRILLER         
RUN .         ONE                  : Run          - RUN NUMBER                  
ENG .         GAGGINO              : Engineer     - RECORDING ENGINEER          
WIT .         LYSZKIEWICZ          : Witness      - WITNESSED BY                
BASE.         EDM                  : Branch       - HOME BASE OF LOGGING UNIT   
MUD .         GEL CHEM             : Mud_type     - MUD TYPE                    
MATR.         SANDSTONE            : Logunit      - NEUTRON MATRIX              
TMAX.C        28.8                 : BHT          - MAXIMUM RECORDED TEMPERATURE
BHTD.M        517.7                : BHTDEP       - MAXIMUM RECORDED TEMPERATURE
RMT .C        16.6                 : MDTP         - TEMPERATURE OF MUD          
MUDD.KG/M     1240                 : MWT          - MUD DENSITY                 
NEUT.         1                    : NEUTRON      - NEUTRON TYPE                
RESI.         0                    : RESIST       - RESISTIVITY TYPE            
RM  .OHMM     4.02                 : RM           - RESISTIVITY OF MUD          
RMC .OHMM     0                    : RMC          - RESISTIVITY OF MUD CAKE     
RMF .OHMM     3.26                 : RMF          - RESISTIVITY OF MUD FILTRATE 
SUFT.C        0                    : SUFT         - SURFACE TEMPERATURE         
~A  DEPTH     PHID     PHIN       GR      CAL     RESD
  335.000    0.186    0.464   66.939  227.575    3.204
  335.250    0.196    0.480   65.950  228.544    3.319
  335.500    0.202    0.484   66.279  228.881    3.381
  335.750    0.197    0.464   68.176  228.802    3.418
  336.000    0.191    0.460   68.378  228.616    3.442
  336.250    0.186    0.470   68.144  228.537    3.460
  336.500    0.178    0.470   68.597  228.350    3.485
  336.750    0.172    0.464   70.117  228.794    3.484
  337.000    0.174    0.469   69.443  229.235    3.470
  337.250    0.192    0.476   64.814  229.889    3.423
  337.500    0.204    0.470   65.395  229.077    3.345
  337.750    0.206    0.475   66.287  227.220    3.306
  338.000    0.216    0.481   66.239  226.412    3.318
  338.250    0.215    0.482   66.254  226.956    3.336
  338.500    0.212    0.488   64.952  228.133    3.340
  338.750    0.210    0.470   61.392  228.050    3.332
  339.000    0.207    0.455   61.280  227.866    3.370
  339.250    0.198    0.456   66.126  227.265    3.438
  339.500    0.182    0.467   63.819  226.559    3.636
  339.750    0.135    0.477   55.616  226.163    3.882
  340.000    0.127    0.397   59.144  225.562    4.144
  340.250    0.179    0.403   63.550  224.964    4.342
  340.500    0.199    0.423   66.200  224.672    4.447
  340.750    0.187    0.429   63.204  224.904    4.512
  341.000    0.197    0.416   63.093  225.138    4.615
  341.250    0.219    0.412   61.979  224.958    4.717
  341.500    0.232    0.438   56.599  224.873    5.160
  341.750    0.226    0.469   47.203  224.481    5.687
  342.000    0.197    0.375   39.440  224.089    6.352
  342.250    0.190    0.347   37.637  223.904    6.963
  342.500    0.208    0.323   38.969  223.617    7.211
  342.750    0.210    0.363   41.429  223.326    6.789
  343.000    0.219    0.394   43.200  223.249    6.330
  343.250    0.223    0.390   43.593  223.376    5.837
  343.500    0.212    0.378   39.466  223.400    5.515
  343.750    0.197    0.359   38.477  223.428    5.011
  344.000    0.182    0.363   44.828  223.767    4.638
  344.250    0.207    0.386   50.365  223.789    4.317
  344.500    0.230    0.420   54.644  224.125    4.124
  344.750    0.221    0.442   56.667  224.780    3.933
  345.000    0.201    0.449   56.431  225.120    3.816
  345.250    0.183    0.460   58.832  225.249    3.737
  345.500    0.208    0.464   62.047  225.061    3.714
  345.750    0.231    0.418   64.945  225.301    3.734
  346.000    0.237    0.413   61.637  225.425    3.824
  346.250    0.230    0.407   59.329  225.453    4.007
  346.500    0.219    0.397   58.592  225.370    4.269
  346.750    0.212    0.377   60.300  225.186    4.565
  347.000    0.198    0.389   65.209  224.898    4.874
  347.250    0.187    0.409   69.364  224.712    5.155
  347.500    0.191    0.421   65.300  224.005    5.332
  347.750    0.213    0.405   61.300  222.463    5.430
  348.000    0.230    0.385   57.301  220.501    5.646
  348.250    0.241    0.402   49.913  219.270    6.016
  348.500    0.254    0.407   41.395  218.668    6.743
  348.750    0.268    0.395   32.816  218.694    7.431
  349.000    0.283    0.379   27.498  219.246    7.644
  349.250    0.293    0.365   25.819  219.581    7.595
  349.500    0.297    0.356   28.470  219.708    7.069
  349.750    0.295    0.341   31.935  220.047    6.185
  350.000    0.296    0.352   35.840  220.282    5.350
  350.250    0.297    0.379   36.544  220.306    4.770
  350.500    0.289    0.385   37.376  220.330    4.465
  350.750    0.278    0.388   38.770  220.672    4.388
  351.000    0.263    0.386   40.856  220.694    4.289
  351.250    0.247    0.367   43.316  220.721    4.278
  351.500    0.237    0.342   45.905  221.058    4.310
  351.750    0.225    0.324   48.117  221.405    4.349
  352.000    0.224    0.349   50.325  221.428    4.421
  352.250    0.225    0.355   52.034  221.448    4.529
  352.500    0.215    0.353   53.805  221.892    4.691
  352.750    0.203    0.363   57.147  222.129    4.952
  353.000    0.213    0.378   59.608  222.151    5.141
  353.250    0.228    0.389   61.378  222.277    5.244
  353.500    0.220    0.373   62.523  222.513    5.352
  353.750    0.214    0.386   62.097  222.641    5.320
  354.000    0.212    0.402   60.104  222.878    5.141
  354.250    0.215    0.401   59.116  222.901    4.767
  354.500    0.217    0.394   60.951  223.553    4.210
  354.750    0.215    0.390   68.870  224.726    3.514
  355.000    0.213    0.422   71.459  225.692    2.995
  355.250    0.208    0.489   73.166  226.449    2.867
  355.500    0.200    0.528   75.190  228.462    2.867
  355.750    0.186    0.532   77.964  232.462    2.897
  356.000    0.172    0.495   83.311  233.739    3.170
  356.250    0.193    0.515   81.884  231.358    3.507
  356.500    0.199    0.505   78.384  228.560    4.013
  356.750    0.189    0.452   73.570  227.646    4.524
  357.000    0.183    0.413   72.206  227.045    4.921
  357.250    0.186    0.389   74.414  226.338    5.333
  357.500    0.178    0.405   69.598  225.733    5.619
  357.750    0.169    0.427   61.897  224.924    5.920
  358.000    0.186    0.422   58.212  224.530    6.179
  358.250    0.206    0.415   55.844  224.451    6.485
  358.500    0.209    0.412   53.284  224.270    6.936
  358.750    0.220    0.419   50.790  223.873    7.660
  359.000    0.259    0.415   49.614  223.374    8.505
  359.250    0.258    0.421   48.939  222.875    9.606
  359.500    0.254    0.426   47.950  222.480   10.507
  359.750    0.253    0.412   46.083  222.505   11.411
  360.000    0.259    0.393   44.467  222.426   11.598
  360.250    0.264    0.409   43.727  222.032   10.596
  360.500    0.264    0.408   43.994  221.328    9.806
  360.750    0.252    0.397   45.263  221.248    8.942
  361.000    0.237    0.398   46.848  221.065    8.199
  361.250    0.225    0.411   47.677  221.190    7.489
  361.500    0.220    0.417   49.134  221.215    6.905
  361.750    0.215    0.413   51.284  221.243    6.610
  362.000    0.210    0.410   52.616  221.370    6.400
  362.250    0.204    0.410   53.257  222.022    6.376
  362.500    0.217    0.424   52.832  221.943    6.420
  362.750    0.224    0.434   50.150  221.552    6.552
  363.000    0.227    0.430   45.587  220.948    6.488
  363.250    0.209    0.406   41.774  220.448    6.131
  363.500    0.178    0.346   42.039  219.428    5.685
  363.750    0.156    0.372   45.505  219.035    5.233
  364.000    0.177    0.392   50.225  219.063    4.878
  364.250    0.209    0.430   51.745  218.878    4.601
  364.500    0.242    0.443   51.007  219.112    4.372
  364.750    0.260    0.419   52.779  219.447    4.186
  365.000    0.236    0.401   57.185  219.995    4.153
  365.250    0.215    0.414   66.799  220.228    4.312
  365.500    0.199    0.425   67.067  219.948    4.466
  365.750    0.189    0.421   66.201  219.969    4.651
  366.000    0.183    0.404   67.724  219.679    4.902
  366.250    0.199    0.395   69.117  219.807    5.116
  366.500    0.215    0.400   72.833  219.834    5.240
  366.750    0.211    0.416   78.997  219.542    5.209
  367.000    0.201    0.413   80.015  218.940    5.110
  367.250    0.208    0.396   62.840  218.547    5.013
  367.500    0.208    0.436   53.759  218.260    5.154
  367.750    0.200    0.439   51.327  217.968    5.712
  368.000    0.196    0.434   52.847  217.053    7.222
  368.250    0.192    0.421   49.537  216.454    8.758
  368.500    0.181    0.332   43.529  216.474   10.604
  368.750    0.149    0.276   38.087  216.504   12.815
  369.000    0.089    0.223   35.781  216.943   15.457
  369.250    0.058    0.191   36.924  217.177   17.005
  369.500    0.045    0.172   40.892  217.202   16.742
  369.750    0.125    0.303   45.800  216.913   10.524
  370.000    0.170    0.384   52.213  216.520    7.025
  370.250    0.232    0.420   52.605  216.234    5.734
  370.500    0.253    0.445   52.557  215.841    5.017
  370.750    0.252    0.465   53.450  215.656    4.857
  371.000    0.215    0.465   55.977  215.262    4.837
  371.250    0.193    0.456   57.496  215.075    4.845
