~VERSION INFORMATION
 VERS.                 2.0:   CWLS LOG ASCII STANDARD -VERSION 2.0
 WRAP.                  NO:   ONE LINE PER DEPTH STEP
~WELL INFORMATION BLOCK
#MNEM.UNIT           DATA                    DESCRIPTION OF MNEMONIC
#---------    -------------------            -------------------------------
# Generated from Intellog Unique Number	CW_73_75/WELL/1047
WELL.         ATCOR ET AL MARTEN H 11-33     : Well_name    - WELL
LOC .         00/11-33-074-23W4/0            : Location     - LOCATION
UWI .         00/11-33-074-23W4/0            : Uwi          - UNIQUE WELL ID
ENTR.         JAYE                           : Entered      - ENTERED BY
SRVC.         COMPUTALOG                     : Scn          - SERVICE COMPANY
DATE.         26 FEB 85                      : Date         - LOG DATE
STRT.M        450                            : top_depth    - START DEPTH
STOP.M        695                            : bot_depth    - STOP DEPTH
STEP.M        0.25                           : increment    - STEP LENGTH
 NULL. -999.2500:NULL Value
~CURVE INFORMATION BLOCK
#MNEM UNIT       ERCB CURVE CODE    CURVE DESCRIPTION
#-----------   ------------------   ----------------------------------
DEPT.M        00 001 00 00         : DEPTH        - DEPTH
ILD .OHMM     00 120 00 00         : RESD         - DEEP RESISTIVITY (DIL)
DPHI.V/V      00 890 00 00         : PHID         - DENSITY POROSITY (SANDSTONE)
NPHI.V/V      00 330 00 00         : PHIN         - NEUTRON POROSITY (SANDSTONE)
CALI.MM       00 280 01 00         : CAL          - CALIPER
GR  .API      00 310 00 00         : GR           - GAMMA RAY
~PARAMETER INFORMATION
#MNEM.UNIT           DATA             DESCRIPTION OF MNEMONIC
#---------         -----------     ------------------------------
GL  .M        708                  : gl           - GROUND LEVEL ELEVATION
EREF.M        711                  : kb           - ELEVATION OF DEPTH REFERENCE
DATM.M        708                  : datum        - DATUM ELEVATION
TDD .M        697                  : tdd          - TOTAL DEPTH DRILLER
RUN .         ONE                  : Run          - RUN NUMBER
ENG .         BERUDE               : Engineer     - RECORDING ENGINEER
WIT .         HICKS                : Witness      - WITNESSED BY
BASE.         EDM                  : Branch       - HOME BASE OF LOGGING UNIT
MUD .         GEL CHEM             : Mud_type     - MUD TYPE
MATR.         SANDSTONE            : Logunit      - NEUTRON MATRIX
TMAX.C        24                   : BHT          - MAXIMUM RECORDED TEMPERATURE
BHTD.M        695.6                : BHTDEP       - MAXIMUM RECORDED TEMPERATURE
RMT .C        24                   : MDTP         - TEMPERATURE OF MUD
MUDD.KG/M     1130                 : MWT          - MUD DENSITY
NEUT.         1                    : NEUTRON      - NEUTRON TYPE
RESI.         0                    : RESIST       - RESISTIVITY TYPE
RM  .OHMM     3.9                  : RM           - RESISTIVITY OF MUD
RMC .OHMM     0                    : RMC          - RESISTIVITY OF MUD CAKE
RMF .OHMM     4                    : RMF          - RESISTIVITY OF MUD FILTRATE
SUFT.C        0                    : SUFT         - SURFACE TEMPERATURE
~A  DEPTH     RESD     PHID     PHIN      CAL       GR
# ...
  486.500    3.198    0.256    0.485  225.577  127.384
  486.750    3.429    0.243    0.449  225.738  120.341
  487.000    3.726    0.236    0.438  225.683  125.178
  487.250    4.049    0.230    0.429  225.743  127.613
  487.500    4.382    0.241    0.418  225.904  122.275
  487.750    4.689    0.246    0.406  225.856  122.752
  488.000    4.905    0.244    0.398  225.918  125.124
  488.250    4.874    0.242    0.400  225.975  125.475
  488.500    4.926    0.237    0.415  226.342  127.025
  488.750    4.961    0.228    0.433  226.509  134.515
  489.000    5.015    0.233    0.463  226.459  140.046
  489.250    5.078    0.238    0.435  226.834  130.919
  489.500    5.123    0.229    0.416  227.203  120.844
  489.750    5.198    0.214    0.418  224.734  115.823
  490.000    5.315    0.234    0.409  224.161  119.774
  490.250    5.352    0.252    0.402  224.530  123.600
  490.500    5.308    0.280    0.407  224.489  111.756
  490.750    5.145    0.304    0.396  224.223  101.175
  491.000    4.903    0.323    0.389  224.179   92.048
  491.250    4.726    0.319    0.399  224.238   90.312
  491.500    4.643    0.280    0.421  223.975   88.135
  491.750    4.596    0.242    0.446  223.719   89.749
  492.000    4.567    0.239    0.453  223.456   96.544
  492.250    4.529    0.254    0.450  223.306   95.378
  492.500    4.595    0.267    0.433  223.676   91.242
  492.750    4.663    0.268    0.412  223.416   92.095
  493.000    4.642    0.269    0.398  223.054   94.028
  493.250    4.382    0.296    0.391  223.009   89.765
  493.500    4.208    0.325    0.379  223.905   83.292
  493.750    4.094    0.346    0.364  224.701   76.501
  494.000    3.939    0.342    0.346  224.752   75.399
  494.250    3.761    0.335    0.366  224.391   76.884
  494.500    3.597    0.323    0.381  224.550   80.775
  494.750    3.448    0.304    0.396  224.510   88.202
  495.000    3.336    0.283    0.423  224.246   96.070
  495.250    3.125    0.264    0.433  224.722  106.843
  495.500    3.006    0.271    0.434  225.416  109.217
  495.750    2.993    0.289    0.447  226.738  112.854
  496.000    3.136    0.298    0.456  228.586  115.478
  496.250    3.337    0.281    0.453  226.848  112.417
  496.500    3.654    0.256    0.437  225.854  112.828
  496.750    3.985    0.248    0.421  224.962  115.959
  497.000    4.413    0.248    0.405  224.392  116.816
  497.250    4.822    0.251    0.391  224.027  109.773
  497.500    5.083    0.244    0.375  223.975  100.330
  497.750    5.147    0.242    0.370  224.246   94.170
  498.000    5.057    0.250    0.387  225.143   91.362
  498.250    5.015    0.251    0.408  225.834   94.052
  498.500    4.992    0.242    0.409  226.731   99.077
  498.750    4.886    0.242    0.411  227.107   97.024
  499.000    4.764    0.249    0.425  227.161   95.101
  499.250    4.618    0.250    0.452  227.215   97.851
  499.500    4.494    0.246    0.456  227.384  101.930
  499.750    4.456    0.238    0.453  227.438  104.743
  500.000    4.462    0.236    0.445  227.707  106.294
  500.250    4.484    0.236    0.436  228.081  105.446
  500.500    4.481    0.233    0.427  228.029   93.031
  500.750    4.479    0.225    0.414  227.771   88.770
  501.000    4.501    0.219    0.413  227.830   91.774
  501.250    4.516    0.226    0.414  227.573   96.294
  501.500    4.539    0.238    0.410  227.312   95.887
  501.750    4.544    0.246    0.424  227.257   94.594
  502.000    4.558    0.240    0.439  227.210   91.910
  502.250    4.573    0.235    0.432  227.165   91.628
  502.500    4.561    0.235    0.413  227.115   94.822
  502.750    4.558    0.236    0.418  226.860   97.699
  503.000    4.546    0.236    0.423  226.495   99.440
  503.250    4.474    0.233    0.427  224.870   99.537
  503.500    4.438    0.228    0.424  224.501   99.762
  503.750    4.435    0.235    0.417  224.028   99.670
  504.000    4.432    0.249    0.412  223.565   98.441
  504.250    4.412    0.269    0.427  223.095   91.588
  504.500    4.376    0.308    0.445  222.733   82.397
  504.750    4.339    0.339    0.449  222.679   77.123
  505.000    4.296    0.328    0.446  222.528   80.064
  505.250    4.276    0.299    0.450  222.582   89.259
  505.500    4.314    0.268    0.451  223.061   96.749
  505.750    4.402    0.239    0.436  223.121  104.302
  506.000    4.562    0.225    0.436  224.023  113.119
  506.250    4.699    0.221    0.454  224.502  119.536
  506.500    4.823    0.224    0.464  224.452  117.988
  506.750    4.940    0.232    0.452  223.457  115.624
  507.000    5.013    0.238    0.436  222.143  114.773
  507.250    5.076    0.232    0.437  220.518  113.985
  507.500    5.160    0.219    0.427  217.521  112.440
  507.750    5.197    0.202    0.399  216.314  113.990
  508.000    5.203    0.185    0.394  215.318  113.394
  508.250    5.219    0.165    0.408  214.528  103.319
  508.500    5.226    0.178    0.418  214.169  104.869
  508.750    5.363    0.215    0.392  213.066  110.210
  509.000    5.674    0.257    0.378  211.121   89.457
  509.250    5.913    0.292    0.381  209.917   78.371
  509.500    6.046    0.321    0.391  207.971   72.213
  509.750    6.064    0.318    0.401  206.343   71.109
  510.000    5.991    0.313    0.417  205.138   73.988
  510.250    5.830    0.304    0.427  204.877   79.899
  510.500    5.662    0.294    0.425  205.884   84.861
  510.750    5.520    0.288    0.433  209.733   87.739
  511.000    5.382    0.286    0.442  210.947   88.152
  511.250    5.298    0.286    0.426  209.528   85.150
  511.500    5.304    0.298    0.404  209.584   84.996
  511.750    5.142    0.305    0.397  210.694   86.485
  512.000    5.041    0.307    0.401  212.335   89.297
  512.250    4.990    0.300    0.411  219.342   92.620
  512.500    4.949    0.302    0.436  225.294   93.410
  512.750    4.789    0.297    0.457  226.400   92.435
  513.000    4.512    0.272    0.469  226.458   92.468
  513.250    4.210    0.274    0.480  226.310   96.737
  513.500    3.826    0.289    0.486  226.257  101.636
  513.750    3.536    0.305    0.484  226.101  105.652
  514.000    3.409    0.323    0.470  225.847   98.609
  514.250    3.479    0.339    0.472  225.580   86.638
  514.500    3.730    0.350    0.476  225.745   77.764
  514.750    4.076    0.350    0.444  226.020   71.164
  515.000    4.437    0.295    0.376  226.285   70.314
  515.250    4.876    0.231    0.340  226.653   74.328
  515.500    5.431    0.156    0.291  226.923   71.961
  515.750    6.002    0.115    0.270  226.980   71.548
  516.000    6.559    0.138    0.290  227.357   75.820
  516.250    6.567    0.190    0.315  227.624   86.154
  516.500    6.093    0.236    0.422  227.993   96.486
  516.750    5.601    0.234    0.456  228.160  103.724
  517.000    5.207    0.235    0.465  227.162  105.716
  517.250    5.057    0.229    0.464  227.009  105.940
  517.500    4.997    0.227    0.447  227.279  107.618
  517.750    5.012    0.227    0.439  227.648  111.379
  518.000    5.047    0.222    0.440  227.288  108.635
  518.250    5.015    0.220    0.430  227.337  109.300
  518.500    5.022    0.221    0.431  227.292  112.999
  518.750    5.066    0.217    0.436  227.564  106.209
  519.000    5.131    0.209    0.422  227.721  101.379
  519.250    5.205    0.213    0.416  227.464  100.149
  519.500    5.292    0.231    0.420  226.889  103.406
  519.750    5.360    0.232    0.421  226.837  107.673
  520.000    5.376    0.217    0.418  226.689  104.928
  520.250    5.372    0.191    0.413  226.851  103.002
  520.500    5.379    0.199    0.419  226.903  102.404
  520.750    5.325    0.216    0.433  227.174  102.124
  521.000    5.211    0.216    0.429  227.973  105.949
  521.250    5.110    0.217    0.424  228.975  109.898
  521.500    5.020    0.224    0.422  228.922  109.240
  521.750    4.959    0.224    0.428  228.243  109.462
  522.000    4.909    0.209    0.443  227.773  111.392
  522.250    4.868    0.207    0.446  227.726  112.818
  522.500    4.829    0.207    0.435  227.256  112.281
  522.750    4.862    0.209    0.419  227.103  108.968
