~VERSION INFORMATION
 VERS.                 2.0:   CWLS LOG ASCII STANDARD -VERSION 2.0
 WRAP.                  NO:   ONE LINE PER DEPTH STEP
~WELL INFORMATION BLOCK
#MNEM.UNIT           DATA                    DESCRIPTION OF MNEMONIC
#---------    -------------------            -------------------------------
# Generated from Intellog Unique Number	CW_70_72/WELL/3308
NULL.         -999.25                        : NULL_VALUE
WELL.         IMP MITSUE                     : Well_name    - WELL              
LOC .         10-03-072-05W5                 : Location     - LOCATION          
UWI .         00/10-03-072-05W5/0            : Uwi          - UNIQUE WELL ID    
ENTR.         CAMPBELL                       : Entered      - ENTERED BY        
SRVC.         SCHLUMBERGER                   : Scn          - SERVICE COMPANY   
DATE.         15 DEC. 1965                   : Date         - LOG DATE          
STRT.M        588.264                        : top_depth    - START DEPTH       
STOP.M        731.514                        : bot_depth    - STOP DEPTH        
STEP.M        0.25                           : increment    - STEP LENGTH       
~CURVE INFORMATION BLOCK
#MNEM UNIT       ERCB CURVE CODE    CURVE DESCRIPTION
#-----------   ------------------   ----------------------------------
DEPT.M        00 001 00 00         : DEPTH        - DEPTH                       
ILD .OHMM     00 120 00 00         : RESD         - DEEP RESISTIVITY (DIL)      
DELT.US/F     00 520 00 00         : DELT         - SONIC TRAVEL TIME           
CALI.MM       00 280 01 00         : CAL          - CALIPER                     
GR  .API      00 310 00 00         : GR           - GAMMA RAY                   
~PARAMETER INFORMATION       
#MNEM.UNIT           DATA             DESCRIPTION OF MNEMONIC
#---------         -----------     ------------------------------
GL  .M        687.72               : gl           - GROUND LEVEL ELEVATION      
EREF.M        691.5                : kb           - ELEVATION OF DEPTH REFERENCE
DATM.M        691.5                : datum        - DATUM ELEVATION             
TDD .M        1817.22              : tdd          - TOTAL DEPTH DRILLER         
RUN .         ONE                  : Run          - RUN NUMBER                  
ENG .         DEMETRICK & WAGNER   : Engineer     - RECORDING ENGINEER          
WIT .         SEMELUK              : Witness      - WITNESSED BY                
MUD .         GEL                  : Mud_type     - MUD TYPE                    
MATR.         SANDSTONE            : Logunit      - NEUTRON MATRIX              
TMAX.C        46.6667              : BHT          - MAXIMUM RECORDED TEMPERATURE
BHTD.M        1817.22              : BHTDEP       - MAXIMUM RECORDED TEMPERATURE
RMT .C        23.3333              : MDTP         - TEMPERATURE OF MUD          
MUDD.KG/M     9700                 : MWT          - MUD DENSITY                 
NEUT.         1                    : NEUTRON      - NEUTRON TYPE                
RESI.         0                    : RESIST       - RESISTIVITY TYPE            
RM  .OHMM     1.56                 : RM           - RESISTIVITY OF MUD          
RMC .OHMM     2                    : RMC          - RESISTIVITY OF MUD CAKE     
RMF .OHMM     1.29                 : RMF          - RESISTIVITY OF MUD FILTRATE 
SUFT.C        -20                  : SUFT         - SURFACE TEMPERATURE         
~A  DEPTH     RESD     DELT      CAL       GR
  588.264    7.988  376.092  215.358   56.662
  588.514    8.483  380.884  215.398   57.394
  588.764    8.584  383.438  215.429   54.791
  589.014    8.388  384.702  215.971   54.331
  589.264    7.503  380.498  216.504   54.350
  589.514    6.617  375.659  218.552   56.268
  589.764    5.929  370.494  221.599   59.617
  590.014    5.536  366.296  225.148   63.443
  590.264    5.341  362.737  231.714   61.793
  590.514    5.244  360.461  237.275   61.096
  590.764    5.246  358.195  241.828   57.777
  591.014    5.149  351.745  243.876   57.318
  591.264    5.151  345.297  243.907   59.953
  591.514    5.054  350.095  242.939   65.208
  591.764    5.056  361.316  234.445   64.985
  592.014    5.058  364.186  236.990   64.051
  592.264    5.060  362.874  240.540   67.397
  592.514    5.062  358.681  240.073   65.510
  592.764    4.965  349.339  236.097   62.907
  593.014    4.967  340.963  235.133   64.591
  593.264    4.969  339.332  233.157   66.987
  593.514    4.971  339.953  230.185   68.671
  593.764    5.072  340.896  225.703   68.447
  594.014    5.073  359.188  222.224   72.512
  594.264    5.174  361.416  215.739   65.624
  594.514    5.965  354.323  210.750   62.545
  594.764    7.347  345.305  205.269   63.036
  595.014   10.307  335.320  203.296   55.910
  595.264   13.662  343.652  203.336   50.214
  595.514   15.538  354.233  203.372   47.375
  595.764   17.808  358.710  203.407   47.629
  596.014   18.796  353.547  203.443   52.166
  596.264   18.995  345.812  204.989   55.516
  596.514   19.096  339.043  205.024   50.771
  596.764   18.802  332.268  205.064   43.408
  597.014   18.212  332.571  205.100   44.374
  597.264   17.622  333.192  204.633   45.106
  597.514   17.230  335.416  203.163   42.741
  597.764   17.232  336.037  203.207   40.614
  598.014   17.628  337.622  203.238   41.820
  598.264   18.123  336.958  203.274   38.503
  598.514   18.026  338.861  203.318   39.949
  598.764   17.140  340.125  203.349   42.823
  599.014   15.663  336.566  203.389   47.124
  599.264   14.679  332.686  203.420   55.472
  599.514   13.596  329.454  203.456   60.965
  599.764   12.710  324.929  203.500   60.266
  600.014   13.304  329.408  203.025   51.712
  600.264   14.193  337.419  203.069   47.680
  600.514   15.083  343.502  204.113   46.746
  600.764   14.493  350.868  206.649   50.570
  601.014   13.410  354.059  211.709   50.826
  601.264   11.538  353.395  215.258   57.983
  601.514    9.962  353.052  218.812   62.046
  601.764    8.880  350.460  220.855   65.157
  602.014    8.487  345.935  219.886   68.507
  602.264    8.489  345.592  211.895   57.810
  602.514    9.181  349.429  209.421   55.921
  602.764    9.972  354.869  207.453   54.746
  603.014   11.256  360.952  206.480   50.715
  603.264   12.145  369.279  206.520   53.351
  603.514   11.851  372.470  206.560   47.892
  603.764   10.867  371.809  206.595   50.288
  604.014   10.475  370.175  206.635   54.116
  604.264   10.377  367.583  206.666   51.035
  604.514   10.478  365.958  207.208   47.006
  604.764   10.579  364.651  207.741   49.638
  605.014   10.680  365.588  208.279   54.895
  605.264   10.583  367.170  209.327   54.433
  605.514   10.387  368.760  210.366   54.925
  605.764   10.291  369.702  210.908   54.944
  606.014   10.292  369.673  211.437   50.911
  606.264   10.393  367.726  212.987   64.738
  606.514   10.395  364.173  215.026   65.466
  606.764    9.509  358.044  219.077   68.102
  607.014    8.722  357.055  225.647   70.024
  607.264    6.258  360.571  232.208   65.515
  607.514    5.176  366.970  236.259   59.579
  607.764    5.868  358.594  237.298   53.881
  608.014    6.954  322.586  236.334   50.090
  608.264    9.027  295.251  233.856   48.677
  608.514   11.495  269.201  228.374   44.645
  608.764   12.976  252.469  225.900   44.901
  609.014   12.584  248.270  226.939   48.248
  609.264   11.796  244.069  227.983   49.219
  609.514   10.417  255.293  233.540   51.614
  609.764    8.743  301.863  240.101   57.821
  610.014    7.167  332.047  245.161   65.454
  610.264    5.591  373.474  238.671   64.518
  610.514    4.902  368.632  233.189   63.583
  610.764    4.707  374.394  231.226   68.598
  611.014    4.709  367.944  230.253   62.662
  611.264    4.612  363.740  228.782   63.154
  611.514    4.516  363.402  227.814   71.028
  611.764    4.518  365.306  229.351   70.091
  612.014    4.519  368.497  233.908   70.349
  612.264    4.620  371.046  239.470   71.553
  612.514    4.622  369.739  240.012   67.998
  612.764    4.723  366.180  240.545   67.777
  613.014    4.823  361.660  235.561   66.844
  613.264    4.923  362.924  231.083   67.094
  613.514    4.926  362.576  235.139   66.396
  613.764    4.829  363.199  242.699   62.364
  614.014    4.436  366.712  251.268   65.241
  614.264    3.846  374.399  256.834   65.494
  614.514    3.158  382.412  259.876   65.748
  614.764    2.667  387.850  262.928   70.525
  615.014    2.175  386.541  256.940   75.064
  615.264    2.177  380.738  251.960   74.131
  615.514    2.377  368.826  248.478   72.956
  615.764    2.871  360.771  246.012   73.446
  616.014    3.366  366.852  245.546   75.842
  616.264    3.862  373.578  243.569   73.243
  616.514    4.258  377.090  242.605   71.114
  616.764    4.457  371.606  240.633   65.417
  617.014    4.557  368.048  238.167   64.004
  617.264    4.757  364.168  240.202   64.022
  617.514    4.758  372.821  242.245   61.895
  617.764    4.859  370.872  240.286   63.817
  618.014    5.157  371.493  238.811   66.687
  618.264    5.454  365.688  235.329   70.514
  618.514    5.851  358.273  226.831   71.243
  618.764    6.247  353.753  217.831   71.021
  619.014    7.136  353.410  210.844   68.182
  619.264   10.294  349.849  208.369   62.960
  619.514   12.762  349.506  207.401   63.928
  619.764   13.651  353.021  207.938   58.706
  620.014   12.568  356.853  208.480   56.103
  620.264   10.302  360.041  209.524   58.980
  620.514    8.331  361.950  210.061   61.612
  620.764    7.347  365.463  210.599   64.725
  621.014    7.250  368.652  211.638   61.883
  621.264    7.252  364.129  212.678   58.328
  621.514    7.254  362.501  214.219   62.867
  621.764    6.861  360.233  214.765   64.077
  622.014    6.568  323.898  215.303   63.616
  622.264    6.570  313.916  217.844   64.822
  622.514    6.571  310.676  219.900   68.171
  622.764    6.277  321.582  221.935   67.472
  623.014    5.885  355.621  226.492   63.679
  623.264    5.492  360.740  230.042   62.744
  623.514    5.001  362.320  234.097   63.236
  623.764    4.806  363.265  236.643   60.157
  624.014    4.709  362.922  238.686   60.889
  624.264    4.810  367.720  229.184   65.428
  624.514    5.008  377.658  213.659   66.634
  624.764    5.997  370.884  208.675   61.650
  625.014    7.774  372.147  208.217   57.380
  625.264   10.339  368.273  208.248   50.016
  625.514   13.103  374.675  207.782   50.272
  625.764   13.795  379.472  207.826   47.907
  626.014   13.698  378.805  207.862   46.256
  626.264   13.700  378.463  207.902   46.274
  626.514   13.505  380.687  207.928   50.577
  626.764   13.211  380.668  208.466   47.259
  627.014   13.015  381.287  208.514   53.224
  627.264   13.018  382.874  209.043   52.528
  627.514   12.921  384.454  209.092   48.020
  627.764   12.726  387.324  209.118   43.513
  628.014   12.136  390.197  209.163   46.385
  628.264   11.644  392.745  209.189   51.642
  628.514   11.450  386.935  209.731   49.992
  628.764   11.352  384.667  210.780   47.148
  629.014   11.354  381.111  211.815   47.166
  629.264   11.553  379.798  212.352   53.133
  629.514   12.048  373.996  213.400   51.244
  629.764   12.839  368.188  213.440   47.927
  630.014   13.532  363.347  213.467   46.042
  630.264   14.125  357.539  213.502   44.630
  630.514   14.718  356.875  213.538   44.645
  630.764   15.115  356.529  213.582   47.282
  631.014   15.117  355.868  214.111   50.628
  631.264   15.316  355.519  214.653   55.407
  631.514   15.318  356.783  215.195   51.377
