~VERSION INFORMATION
 VERS.                 2.0:   CWLS LOG ASCII STANDARD -VERSION 2.0
 WRAP.                  NO:   ONE LINE PER DEPTH STEP
~WELL INFORMATION BLOCK
#MNEM.UNIT           DATA                    DESCRIPTION OF MNEMONIC
#---------    -------------------            -------------------------------
# Generated from Intellog Unique Number	CS_71_72/WELL/858
WELL.         ALLIED ET AL WANDER            : Well_name    - WELL
LOC .         00/10-17-072-13W4/0            : Location     - LOCATION
UWI .         00/10-17-072-13W4/0            : Uwi          - UNIQUE WELL ID
ENTR.         SP                             : Entered      - ENTERED BY
SRVC.         SCHLUMBERGER                   : Scn          - SERVICE COMPANY
STRT.M        313.944                        : top_depth    - START DEPTH
STOP.M        536.194                        : bot_depth    - STOP DEPTH
STEP.M        0.25                           : increment    - STEP LENGTH
 NULL. -999.2500:NULL Value
~CURVE INFORMATION BLOCK
#MNEM UNIT       ERCB CURVE CODE    CURVE DESCRIPTION
#-----------   ------------------   ----------------------------------
DEPT.M        00 001 00 00         : DEPTH        - DEPTH
GR  .API      00 310 00 00         : GR           - GAMMA RAY
DPHI.V/V      00 890 00 00         : PHID         - DENSITY POROSITY (SANDSTONE)
NPHI.V/V      00 330 00 00         : PHIN         - NEUTRON POROSITY (SANDSTONE)
ILD .OHMM     00 120 00 00         : RESD         - DEEP RESISTIVITY (DIL)
~PARAMETER INFORMATION
#MNEM.UNIT           DATA             DESCRIPTION OF MNEMONIC
#---------         -----------     ------------------------------
GL  .M        642.671              : gl           - GROUND LEVEL ELEVATION
EREF.M        645.871              : kb           - ELEVATION OF DEPTH REFERENCE
DATM.M        642.671              : datum        - DATUM ELEVATION
TDD .M        548.64               : tdd          - TOTAL DEPTH DRILLER
RUN .         ONE                  : Run          - RUN NUMBER
ENG .         BILL                 : Engineer     - RECORDING ENGINEER
WIT .         JIM                  : Witness      - WITNESSED BY
MUD .         GEL                  : Mud_type     - MUD TYPE
MATR.         SANDSTONE            : Logunit      - NEUTRON MATRIX
TMAX.C        14.4444              : BHT          - MAXIMUM RECORDED TEMPERATURE
BHTD.M        548.64               : BHTDEP       - MAXIMUM RECORDED TEMPERATURE
MATR.         1                    : LOGUNIT      - NEUTRON MATRIX
RMT .C        25                   : MDTP         - TEMPERATURE OF MUD
NEUT.         1                    : NEUTRON      - NEUTRON TYPE
RESI.         0                    : RESIST       - RESISTIVITY TYPE
RMC .OHMM     0.25                 : RMC          - RESISTIVITY OF MUD CAKE
RMF .OHMM     0.25                 : RMF          - RESISTIVITY OF MUD FILTRATE
SUFT.C        15                   : SUFT         - SURFACE TEMPERATURE
~A  DEPTH       GR     PHID     PHIN     RESD
  313.944  101.780    0.211    0.604    3.267
  314.194  105.239    0.203    0.611    3.135
  314.444  106.494    0.214    0.621    3.003
  314.694  104.954    0.231    0.624    2.869
  314.944  102.409    0.224    0.629    2.912
  315.194   99.816    0.219    0.633    2.951
  315.444   97.970    0.211    0.627    3.083
  315.694   96.636    0.203    0.618    3.341
  315.944   99.218    0.206    0.632    3.498
  316.194  102.304    0.207    0.636    3.491
  316.444  102.726    0.216    0.639    3.467
  316.694  104.483    0.209    0.627    3.328
  316.944  105.746    0.203    0.620    3.187
  317.194  104.866    0.217    0.623    3.147
  317.444  103.923    0.228    0.632    3.087
  317.694  103.304    0.241    0.623    3.080
  317.944  103.463    0.233    0.606    3.186
  318.194  104.022    0.227    0.587    3.313
  318.444  101.599    0.230    0.569    3.414
  318.694   97.596    0.221    0.518    3.306
  318.944   98.709    0.214    0.523    3.176
  319.194   99.747    0.209    0.554    3.081
  319.444   97.413    0.204    0.585    2.998
  319.694   92.791    0.198    0.613    3.160
  319.944   85.253    0.208    0.573    3.818
  320.194   74.960    0.216    0.521    4.351
  320.444   67.835    0.257    0.464    5.132
  320.694   69.773    0.306    0.450    5.877
  320.944   71.423    0.326    0.480    6.473
  321.194   74.434    0.326    0.496    6.475
  321.444   75.659    0.320    0.478    6.394
  321.694   74.556    0.309    0.477    6.112
  321.944   75.464    0.315    0.478    6.016
  322.194   76.403    0.309    0.460    5.934
  322.444   76.507    0.305    0.460    5.999
  322.694   75.048    0.307    0.493    6.198
  322.944   72.178    0.302    0.509    6.495
  323.194   70.894    0.289    0.486    6.746
  323.444   74.577    0.276    0.463    6.965
  323.694   78.811    0.251    0.436    7.037
  323.944   84.781    0.221    0.405    6.957
  324.194   87.913    0.240    0.421    6.870
  324.444   93.490    0.269    0.443    6.803
  324.694   98.208    0.242    0.449    6.626
  324.944  101.357    0.220    0.452    6.450
  325.194  103.870    0.248    0.462    6.240
  325.444  104.829    0.238    0.470    6.035
  325.694  107.251    0.237    0.471    5.909
  325.944  110.224    0.217    0.469    5.771
  326.194  112.154    0.204    0.497    5.655
  326.444  109.494    0.208    0.481    5.748
  326.694  104.731    0.226    0.473    5.784
  326.944   98.956    0.245    0.477    6.023
  327.194   93.089    0.256    0.487    6.443
  327.444   85.853    0.271    0.482    6.884
  327.694   84.063    0.283    0.477    7.325
  327.944   84.680    0.270    0.478    7.705
  328.194   84.563    0.264    0.472    8.209
  328.444   76.651    0.256    0.385    8.716
  328.694   71.950    0.267    0.379    8.970
  328.944   66.518    0.257    0.380    9.089
  329.194   68.906    0.243    0.389    8.894
  329.444   73.877    0.224    0.397    8.252
  329.694   80.261    0.211    0.407    7.654
  329.944   85.986    0.195    0.418    6.691
  330.194   88.877    0.172    0.438    6.157
  330.444   93.510    0.145    0.488    5.728
  330.694   94.966    0.126    0.532    5.261
  330.944   93.693    0.103    0.559    5.114
  331.194   94.154    0.085    0.542    5.200
  331.444   91.744    0.160    0.524    5.602
  331.694   83.528    0.248    0.557    6.042
  331.944   78.306    0.289    0.566    6.291
  332.194   75.818    0.296    0.526    6.644
  332.444   73.968    0.292    0.506    6.784
  332.694   71.395    0.291    0.492    6.827
  332.944   70.041    0.304    0.485    6.637
  333.194   68.743    0.316    0.500    6.471
  333.444   67.365    0.319    0.492    6.118
  333.694   65.752    0.323    0.480    5.903
  333.944   64.828    0.331    0.488    5.668
  334.194   64.405    0.331    0.490    5.403
  334.444   64.434    0.339    0.503    5.268
  334.694   64.399    0.328    0.498    5.142
  334.944   63.903    0.327    0.503    5.085
  335.194   62.908    0.336    0.509    4.974
  335.444   60.291    0.343    0.533    4.976
  335.694   59.300    0.333    0.540    4.895
  335.944   60.074    0.335    0.536    4.898
  336.194   61.031    0.338    0.531    4.897
  336.444   62.995    0.337    0.527    4.897
  336.694   64.870    0.337    0.530    4.913
  336.944   65.825    0.342    0.552    4.975
  337.194   67.203    0.342    0.569    5.065
  337.444   67.663    0.324    0.564    5.149
  337.694   73.517    0.309    0.566    5.353
  337.944   78.575    0.299    0.571    5.603
  338.194   83.561    0.275    0.562    5.862
  338.444   82.472    0.255    0.548    6.112
  338.694   78.029    0.258    0.517    6.463
  338.944   74.380    0.266    0.488    6.804
  339.194   75.634    0.275    0.485    7.200
  339.444   79.860    0.285    0.501    7.480
  339.694   83.322    0.281    0.494    7.665
  339.944   85.264    0.258    0.455    7.940
  340.194   87.097    0.208    0.461    8.155
  340.444   87.032    0.176    0.454    8.232
  340.694   87.031    0.155    0.453    7.804
  340.944   88.813    0.202    0.473    6.860
  341.194   97.407    0.225    0.504    5.942
  341.444  103.680    0.204    0.542    5.262
  341.694  112.562    0.196    0.565    4.607
  341.944  116.077    0.194    0.568    4.349
  342.194  118.449    0.203    0.563    4.211
  342.444  120.553    0.191    0.555    4.464
  342.694  123.244    0.190    0.547    5.012
  342.944  124.337    0.196    0.554    5.617
  343.194  124.869    0.192    0.571    6.191
  343.444  122.585    0.167    0.547    6.565
  343.694  121.740    0.161    0.545    7.138
  343.944  120.737    0.212    0.539    7.377
  344.194  120.176    0.221    0.527    7.648
  344.444  118.765    0.216    0.516    7.709
  344.694  114.716    0.230    0.469    7.647
  344.944  111.724    0.246    0.454    7.407
  345.194  108.796    0.255    0.464    7.149
  345.444  103.949    0.265    0.482    6.757
  345.694   98.231    0.276    0.497    6.410
  345.944   92.995    0.294    0.507    6.124
  346.194   88.775    0.308    0.505    5.985
  346.444   84.894    0.314    0.496    5.953
  346.694   82.837    0.311    0.501    6.028
  346.944   86.672    0.297    0.484    6.059
  347.194   94.561    0.282    0.462    6.289
  347.444  103.165    0.259    0.472    6.412
  347.694  106.483    0.246    0.507    6.543
  347.944  109.818    0.251    0.519    6.672
  348.194  110.539    0.255    0.514    6.793
  348.444  107.709    0.257    0.523    7.021
  348.694  104.455    0.294    0.510    7.141
  348.944  102.653    0.275    0.451    7.309
  349.194  101.895    0.267    0.466    7.312
  349.444  102.124    0.258    0.471    7.451
  349.694  105.135    0.252    0.467    7.457
  349.944  107.890    0.243    0.456    7.351
  350.194  110.425    0.230    0.444    7.232
  350.444  112.300    0.221    0.446    6.879
  350.694  111.124    0.217    0.468    6.620
  350.944  109.467    0.222    0.483    6.278
  351.194  112.416    0.227    0.488    6.181
  351.444  111.839    0.224    0.510    6.502
  351.694  107.266    0.225    0.564    7.302
  351.944   99.727    0.230    0.582    8.733
  352.194   87.700    0.244    0.571    9.503
  352.444   82.837    0.234    0.573   10.296
  352.694   81.079    0.239    0.550   10.806
  352.944   82.632    0.241    0.527   10.713
  353.194   88.462    0.242    0.506   10.477
  353.444   94.400    0.251    0.523    9.807
  353.694   99.336    0.251    0.540    9.066
  353.944  101.910    0.244    0.555    7.827
  354.194  101.435    0.243    0.555    6.810
  354.444  104.940    0.236    0.539    5.974
  354.694  107.312    0.235    0.530    5.301
  354.944  108.047    0.229    0.562    4.952
  355.194  106.691    0.228    0.587    4.996
  355.444  104.421    0.243    0.528    5.260
  355.694  102.179    0.259    0.499    5.577
  355.944  102.500    0.266    0.484    5.834
  356.194  103.536    0.263    0.474    6.072
  356.444  104.575    0.257    0.492    6.065
  356.694  104.507    0.253    0.499    5.973
  356.944  102.151    0.250    0.501    5.987
  357.194  100.156    0.270    0.508    6.054
