~VERSION INFORMATION
 VERS.                 2.0:   CWLS LOG ASCII STANDARD -VERSION 2.0
 WRAP.                  NO:   ONE LINE PER DEPTH STEP
~WELL INFORMATION BLOCK
#MNEM.UNIT           DATA                    DESCRIPTION OF MNEMONIC
#---------    -------------------            -------------------------------
# Generated from Intellog Unique Number	CS_67_68/WELL/2208
WELL.         MANNVILLE ET AL ATMORE         : Well_name    - WELL
LOC .         00/11-22-067-15W4/0            : Location     - LOCATION
UWI .         00/11-22-067-15W4/0            : Uwi          - UNIQUE WELL ID
ENTR.         SP                             : Entered      - ENTERED BY
SRVC.         SCHLUMBERGER                   : Scn          - SERVICE COMPANY
STRT.M        330                            : top_depth    - START DEPTH
STOP.M        540                            : bot_depth    - STOP DEPTH
STEP.M        0.25                           : increment    - STEP LENGTH
 NULL. -999.2500:NULL Value
~CURVE INFORMATION BLOCK
#MNEM UNIT       ERCB CURVE CODE    CURVE DESCRIPTION
#-----------   ------------------   ----------------------------------
DEPT.M        00 001 00 00         : DEPTH        - DEPTH
ILD .OHMM     00 120 00 00         : RESD         - DEEP RESISTIVITY (DIL)
DPHI.V/V      00 890 00 00         : PHID         - DENSITY POROSITY (LIMESTONE)
NPHI.V/V      00 330 00 00         : PHIN         - NEUTRON POROSITY (LIMESTONE)
GR  .API      00 310 00 00         : GR           - GAMMA RAY
CALI.MM       00 280 01 00         : CAL          - CALIPER
~PARAMETER INFORMATION
#MNEM.UNIT           DATA             DESCRIPTION OF MNEMONIC
#---------         -----------     ------------------------------
GL  .M        580.3                : gl           - GROUND LEVEL ELEVATION
EREF.M        583.5                : kb           - ELEVATION OF DEPTH REFERENCE
DATM.M        583.5                : datum        - DATUM ELEVATION
TDD .M        542.5                : tdd          - TOTAL DEPTH DRILLER
RUN .         ONE                  : Run          - RUN NUMBER
ENG .         BILL                 : Engineer     - RECORDING ENGINEER
WIT .         JIM                  : Witness      - WITNESSED BY
MUD .         GEL                  : Mud_type     - MUD TYPE
MATR.         LIMESTONE            : Logunit      - NEUTRON MATRIX
TMAX.C        16.6                 : BHT          - MAXIMUM RECORDED TEMPERATURE
BHTD.M        540                  : BHTDEP       - MAXIMUM RECORDED TEMPERATURE
MATR.         1                    : LOGUNIT      - NEUTRON MATRIX
RMT .C        25                   : MDTP         - TEMPERATURE OF MUD
NEUT.         1                    : NEUTRON      - NEUTRON TYPE
RESI.         0                    : RESIST       - RESISTIVITY TYPE
RMC .OHMM     0.25                 : RMC          - RESISTIVITY OF MUD CAKE
RMF .OHMM     0.25                 : RMF          - RESISTIVITY OF MUD FILTRATE
SUFT.C        15                   : SUFT         - SURFACE TEMPERATURE
~A  DEPTH     RESD     PHID     PHIN       GR      CAL
# ...
  403.000    2.344    0.193    0.435   98.645  168.121
  403.250    2.485    0.221    0.429   93.459  158.158
  403.500    2.576    0.260    0.425   88.030  154.297
  403.750    2.567    0.278    0.422   81.808  151.048
  404.000    2.447    0.286    0.420   77.782  150.342
  404.250    2.406    0.280    0.419   75.405  151.775
  404.500    2.389    0.275    0.421   72.967  152.594
  404.750    2.368    0.273    0.427   71.445  153.620
  405.000    2.286    0.269    0.426   76.456  154.136
  405.250    2.249    0.286    0.417   78.901  154.346
  405.500    2.309    0.297    0.408   77.136  154.352
  405.750    2.477    0.239    0.403   74.575  154.562
  406.000    2.681    0.188    0.400   72.504  155.791
  406.250    2.848    0.165    0.405   70.249  157.629
  406.500    2.975    0.146    0.416   76.480  161.095
  406.750    3.032    0.133    0.422   93.090  164.968
  407.000    3.051    0.153    0.431  100.359  170.674
  407.250    3.035    0.160    0.443  102.439  174.955
  407.500    2.816    0.238    0.472  108.548  177.402
  407.750    2.480    0.262    0.477  107.514  164.996
  408.000    2.280    0.281    0.446  104.649  155.744
  408.250    2.136    0.299    0.432  100.746  150.459
  408.500    2.005    0.300    0.425   82.862  152.298
  408.750    1.939    0.293    0.418   77.311  155.663
  409.000    1.933    0.291    0.412   76.338  158.315
  409.250    1.967    0.293    0.415   80.494  159.237
  409.500    1.971    0.288    0.419   85.870  158.024
  409.750    2.040    0.279    0.426   91.064  156.708
  410.000    2.083    0.285    0.444   95.158  155.189
  410.250    2.147    0.288    0.454   97.055  154.381
  410.500    2.247    0.269    0.465   86.315  153.066
  410.750    2.369    0.256    0.445   77.955  151.953
  411.000    2.643    0.245    0.434   72.403  149.823
  411.250    3.009    0.220    0.427   72.896  146.879
  411.500    3.376    0.192    0.277   73.754  148.210
  411.750    3.844    0.161    0.258   73.331  150.861
  412.000    4.192    0.138    0.245   70.710  155.143
  412.250    4.249    0.108    0.241   69.982  157.590
  412.500    3.638    0.100    0.252   71.268  156.783
  412.750    2.922    0.227    0.327   71.821  153.435
  413.000    2.423    0.269    0.399   67.613  151.711
  413.250    2.106    0.299    0.419   64.382  150.904
  413.500    1.922    0.320    0.416   63.348  152.029
  413.750    1.923    0.280    0.421   63.474  152.342
  414.000    1.732    0.218    0.420   63.174  152.043
  414.250    1.726    0.192    0.418   63.056  151.135
  414.500    1.733    0.208    0.425   63.365  150.327
  414.750    1.751    0.255    0.432   63.674  150.232
  415.000    1.761    0.292    0.432   64.472  153.189
  415.250    1.772    0.317    0.424   65.392  155.536
  415.500    1.782    0.287    0.421   67.106  157.375
  415.750    1.797    0.255    0.416   69.002  156.059
  416.000    1.801    0.244    0.416   69.739  152.301
  416.250    1.812    0.244    0.422   64.859  149.357
  416.500    1.829    0.254    0.424   64.069  148.550
  416.750    1.840    0.275    0.421   65.905  148.863
  417.000    1.838    0.298    0.418   64.688  152.024
  417.250    1.818    0.312    0.422   62.494  156.101
  417.500    1.819    0.303    0.420   65.551  158.855
  417.750    1.806    0.296    0.417   64.334  156.318
  418.000    1.783    0.302    0.428   62.080  156.020
  418.250    1.774    0.306    0.437   62.816  157.960
  418.500    1.748    0.305    0.446   64.224  160.104
  418.750    1.739    0.310    0.447   64.046  161.230
  419.000    1.717    0.311    0.434   65.088  161.236
  419.250    1.702    0.296    0.428   65.824  159.717
  419.500    1.696    0.283    0.440   66.561  159.113
  419.750    1.678    0.299    0.449   67.603  159.935
  420.000    1.675    0.308    0.436   69.133  160.451
  420.250    1.689    0.291    0.431   66.940  159.847
  420.500    1.712    0.288    0.432   65.967  157.310
  420.750    1.732    0.304    0.439   69.023  154.061
  421.000    1.736    0.312    0.431   69.821  153.050
  421.250    1.783    0.304    0.420   69.398  152.344
  421.500    1.941    0.288    0.417   69.403  151.130
  421.750    2.038    0.272    0.439   69.712  152.561
  422.000    2.086    0.257    0.448   70.448  154.909
  422.250    2.029    0.274    0.440   70.025  156.647
  422.500    1.951    0.286    0.434   66.733  155.330
  422.750    1.894    0.291    0.449   67.653  151.572
  423.000    1.835    0.290    0.458   68.817  149.442
  423.250    1.812    0.285    0.458   68.088  151.281
  423.500    1.810    0.290    0.444   69.069  154.137
  423.750    1.897    0.295    0.422   74.324  156.993
  424.000    2.132    0.264    0.396   80.738  159.238
  424.250    2.410    0.228    0.398   87.274  161.076
  424.500    2.589    0.194    0.408   91.735  162.204
  424.750    2.781    0.171    0.416   94.792  162.921
  425.000    2.966    0.179    0.414   96.872  163.539
  425.250    3.110    0.190    0.407   95.655  163.953
  425.500    3.212    0.190    0.409   93.644  164.672
  425.750    3.243    0.192    0.419   97.495  164.882
  426.000    3.257    0.181    0.421  100.063  164.685
  426.250    3.240    0.181    0.417  102.143  164.285
  426.500    3.247    0.209    0.416   99.705  163.885
  426.750    3.255    0.215    0.421   95.130  159.822
  427.000    3.154    0.222    0.435   89.945  154.742
  427.250    2.949    0.234    0.452   86.713  153.120
  427.500    2.821    0.245    0.432   86.473  152.822
  427.750    2.780    0.251    0.418   90.447  154.966
  428.000    2.823    0.240    0.427   93.259  157.211
  428.250    2.943    0.216    0.442   93.812  159.253
  428.500    3.132    0.189    0.449   93.694  160.786
  428.750    3.340    0.167    0.455   93.210  161.201
  429.000    3.489    0.182    0.447   96.083  160.800
  429.250    3.610    0.200    0.415   99.201  160.502
  429.500    3.653    0.208    0.399   98.350  160.103
  429.750    3.613    0.198    0.408   97.927  160.312
  430.000    3.601    0.187    0.430   99.214  161.033
  430.250    3.576    0.185    0.432   99.828  161.751
  430.500    3.652    0.196    0.417  101.603  162.674
  430.750    3.695    0.190    0.412  103.926  163.494
  431.000    3.752    0.179    0.440  107.777  164.519
  431.250    3.754    0.168    0.457  110.712  164.728
  431.500    3.713    0.157    0.444  111.204  163.311
  431.750    3.722    0.166    0.429  102.844  159.554
  432.000    3.765    0.178    0.422   98.209  156.507
  432.250    3.831    0.187    0.417  100.899  153.462
  432.500    3.840    0.197    0.423  103.834  153.163
  432.750    3.870    0.190    0.430  103.166  155.714
  433.000    3.872    0.178    0.446  100.911  158.061
  433.250    3.838    0.167    0.441  101.587  159.187
  433.500    3.811    0.156    0.436  103.117  159.602
  433.750    3.769    0.173    0.429  103.671  160.220
  434.000    3.639    0.183    0.429  105.751  160.836
  434.250    3.506    0.173    0.445  108.197  161.658
  434.500    3.341    0.163    0.441  107.774  162.071
  434.750    3.324    0.162    0.435  105.336  162.078
  435.000    3.413    0.166    0.454  104.363  162.797
  435.250    3.552    0.214    0.477  106.565  164.534
  435.500    3.628    0.247    0.456  107.669  165.253
  435.750    3.712    0.222    0.428  105.292  164.954
  436.000    3.741    0.212    0.411  103.586  163.028
  436.250    3.743    0.206    0.404  106.215  160.390
  436.500    3.689    0.194    0.421  103.961  158.972
  436.750    3.608    0.185    0.432  100.547  155.214
  437.000    3.496    0.188    0.431   99.268  153.288
  437.250    3.394    0.191    0.425   98.967  155.432
  437.500    3.246    0.186    0.434   98.849  158.797
  437.750    2.985    0.178    0.452   97.632  160.431
  438.000    2.678    0.179    0.438   94.889  159.623
  438.250    2.490    0.201    0.432   88.972  155.968
  438.500    2.359    0.228    0.447   83.786  152.820
  438.750    2.227    0.256    0.444   77.624  148.655
  439.000    2.098    0.291    0.428   71.707  143.270
  439.250    2.010    0.288    0.419   67.560  142.565
