~VERSION INFORMATION
 VERS.                 2.0:   CWLS LOG ASCII STANDARD -VERSION 2.0
 WRAP.                  NO:   ONE LINE PER DEPTH STEP
~WELL INFORMATION BLOCK
#MNEM.UNIT           DATA                    DESCRIPTION OF MNEMONIC
#---------    -------------------            -------------------------------
# Generated from Intellog Unique Number	CW_70_72/WELL/3023
NULL.         -999.25                        : NULL_VALUE
WELL.         CHIEFCO POR ER AL RANCH 10-23  : Well_name    - WELL              
LOC .         10-23-070-26W4                 : Location     - LOCATION          
UWI .         00/10-23-070-26W4/0            : Uwi          - UNIQUE WELL ID    
ENTR.         J                              : Entered      - ENTERED BY        
SRVC.         WESTERN ATLAS                  : Scn          - SERVICE COMPANY   
DATE.         17 JUNE 75                     : Date         - LOG DATE          
STRT.M        454.152                        : top_depth    - START DEPTH       
STOP.M        670.652                        : bot_depth    - STOP DEPTH        
STEP.M        0.25                           : increment    - STEP LENGTH       
~CURVE INFORMATION BLOCK
#MNEM UNIT       ERCB CURVE CODE    CURVE DESCRIPTION
#-----------   ------------------   ----------------------------------
DEPT.M        00 001 00 00         : DEPTH        - DEPTH                       
ILD .OHMM     00 120 00 00         : RESD         - DEEP RESISTIVITY (DIL)      
CALI.MM       00 280 01 00         : CAL          - CALIPER                     
GR  .API      00 310 00 00         : GR           - GAMMA RAY                   
NPHI.V/V      00 330 00 00         : PHIN         - NEUTRON POROSITY (SANDSTONE)
DPHI.V/V      00 890 00 00         : PHID         - DENSITY POROSITY (SANDSTONE)
~PARAMETER INFORMATION       
#MNEM.UNIT           DATA             DESCRIPTION OF MNEMONIC
#---------         -----------     ------------------------------
GL  .M        633.191              : gl           - GROUND LEVEL ELEVATION      
EREF.M        635.813              : kb           - ELEVATION OF DEPTH REFERENCE
DATM.M        633.191              : datum        - DATUM ELEVATION             
TDD .M        688.543              : tdd          - TOTAL DEPTH DRILLER         
RUN .         ONE                  : Run          - RUN NUMBER                  
ENG .         GAU-ROBERGE          : Engineer     - RECORDING ENGINEER          
WIT .         COULSON              : Witness      - WITNESSED BY                
MUD .         MUD GEL              : Mud_type     - MUD TYPE                    
MATR.         SANDSTONE            : Logunit      - NEUTRON MATRIX              
TMAX.C        27.2222              : BHT          - MAXIMUM RECORDED TEMPERATURE
BHTD.M        687.629              : BHTDEP       - MAXIMUM RECORDED TEMPERATURE
RMT .C        15.5556              : MDTP         - TEMPERATURE OF MUD          
MUDD.KG/M     1140                 : MWT          - MUD DENSITY                 
NEUT.         1                    : NEUTRON      - NEUTRON TYPE                
RESI.         0                    : RESIST       - RESISTIVITY TYPE            
RM  .OHMM     2.9                  : RM           - RESISTIVITY OF MUD          
RMC .OHMM     0.25                 : RMC          - RESISTIVITY OF MUD CAKE     
RMF .OHMM     0.25                 : RMF          - RESISTIVITY OF MUD FILTRATE 
SUFT.C        -17.7778             : SUFT         - SURFACE TEMPERATURE         
~A  DEPTH     RESD      CAL       GR     PHIN     PHID
# ...
  563.652    4.712  165.488   57.862    0.225    0.110
  563.902    4.172  162.627   64.238    0.350    0.157
  564.152    3.580  158.521   75.988    0.385    0.192
  564.402    3.016  157.096   84.866    0.397    0.238
  564.652    2.715  156.832   86.715    0.402    0.259
  564.902    2.646  156.746   82.579    0.403    0.258
  565.152    2.706  156.789   80.459    0.375    0.256
  565.402    2.783  156.809   81.640    0.349    0.242
  565.652    2.799  156.642   83.309    0.339    0.224
  565.902    2.794  156.679   86.137    0.360    0.237
  566.152    2.759  156.903   90.555    0.382    0.249
  566.402    2.699  157.555   92.652    0.393    0.250
  566.652    2.650  158.632   89.247    0.401    0.244
  566.902    2.650  158.965   88.168    0.414    0.244
  567.152    2.725  158.477   89.959    0.401    0.245
  567.402    2.813  156.751   91.808    0.399    0.257
  567.652    2.898  158.026   91.521    0.405    0.258
  567.902    2.968  160.026   89.710    0.399    0.240
  568.152    3.036  160.572   88.931    0.372    0.215
  568.402    3.070  160.913   87.482    0.363    0.214
  568.652    3.088  161.045   90.499    0.384    0.226
  568.902    3.077  161.292   94.733    0.404    0.224
  569.152    3.066  161.626   95.911    0.406    0.220
  569.402    2.994  161.352   95.562    0.382    0.225
  569.652    2.962  161.069   95.400    0.395    0.233
  569.902    2.946  162.858   95.720    0.384    0.241
  570.152    2.919  164.026   97.577    0.364    0.233
  570.402    2.909  158.057   98.814    0.406    0.241
  570.652    2.910  157.572   99.383    0.406    0.251
  570.902    2.932  160.499   98.545    0.393    0.230
  571.152    2.960  164.567   98.201    0.387    0.218
  571.402    2.993  165.737   98.584    0.392    0.229
  571.652    3.044  161.318   98.173    0.409    0.246
  571.902    3.061  160.730   96.482    0.390    0.251
  572.152    3.113  165.108   91.369    0.398    0.232
  572.402    3.189  170.934   90.470    0.388    0.232
  572.652    3.208  171.903   92.565    0.360    0.207
  572.902    3.238  165.825   92.279    0.361    0.227
  573.152    3.251  160.575   93.334    0.371    0.228
  573.402    3.257  165.990   98.976    0.376    0.210
  573.652    3.228  166.329   97.404    0.379    0.211
  573.902    3.158  163.775   97.672    0.384    0.219
  574.152    3.078  162.046   99.702    0.385    0.225
  574.402    2.989  160.526   95.324    0.388    0.234
  574.652    2.918  159.113   93.204    0.395    0.233
  574.902    2.882  158.107   96.886    0.398    0.225
  575.152    2.909  158.040   95.560    0.389    0.229
  575.402    2.942  159.410   94.542    0.368    0.225
  575.652    2.970  165.345   93.887    0.357    0.213
  575.902    3.009  169.516   93.600    0.365    0.213
  576.152    3.071  170.480   89.586    0.380    0.211
  576.402    3.129  169.374   90.279    0.400    0.210
  576.652    3.176  167.848   91.762    0.402    0.208
  576.902    3.248  165.912   91.539    0.384    0.207
  577.152    3.328  162.012   89.782    0.391    0.211
  577.402    3.460  159.353   86.076    0.400    0.218
  577.652    3.671  158.349   85.299    0.409    0.218
  577.902    3.860  159.003   86.415    0.416    0.239
  578.152    4.020  161.410   81.121    0.424    0.239
  578.402    4.219  164.448   75.334    0.411    0.224
  578.652    4.419  161.162   67.591    0.399    0.226
  578.902    4.569  151.160   63.395    0.381    0.261
  579.152    4.596  153.473   64.453    0.374    0.297
  579.402    4.471  157.643   65.755    0.382    0.299
  579.652    4.254  158.921   66.691    0.382    0.305
  579.902    3.952  158.840   67.140    0.381    0.303
  580.152    3.803  158.158   67.397    0.386    0.297
  580.402    3.860  157.770   67.234    0.396    0.290
  580.652    3.991  157.175   66.763    0.408    0.278
  580.902    4.282  156.596   66.353    0.352    0.280
  581.152    4.663  156.101   66.127    0.312    0.276
  581.402    4.993  155.721   64.802    0.262    0.251
  581.652    5.269  156.159   63.598    0.242    0.211
  581.902    5.107  160.745   64.961    0.234    0.155
  582.152    4.472  165.331   67.736    0.245    0.191
  582.402    3.938  165.466   69.216    0.276    0.229
  582.652    3.565  162.290   71.497    0.395    0.260
  582.902    3.110  160.354   73.225    0.416    0.260
  583.152    3.003  160.694   73.851    0.391    0.251
  583.402    2.853  165.279   66.293    0.345    0.197
  583.652    2.760  161.585   68.759    0.300    0.166
  583.902    2.725  157.375   72.319    0.318    0.236
  584.152    2.700  161.028   75.516    0.355    0.263
  584.402    2.676  161.993   73.580    0.389    0.272
  584.652    2.672  161.813   71.213    0.395    0.273
  584.902    2.682  162.156   70.133    0.410    0.271
  585.152    2.708  162.186   69.051    0.394    0.271
  585.402    2.728  161.712   72.311    0.391    0.283
  585.652    2.764  161.224   75.813    0.371    0.286
  585.902    2.821  160.631   76.744    0.369    0.290
  586.152    2.901  160.561   77.618    0.374    0.252
  586.402    2.978  161.313   76.599    0.371    0.228
  586.652    3.023  164.138   83.889    0.361    0.184
  586.902    3.034  167.687   88.857    0.363    0.186
  587.152    3.013  168.441   93.029    0.387    0.199
  587.402    2.980  168.271   87.977    0.408    0.209
  587.652    3.047  167.782   86.895    0.406    0.211
  587.902    3.192  167.808   90.094    0.383    0.207
  588.152    3.356  167.435   91.518    0.379    0.198
  588.402    3.743  166.427   91.474    0.385    0.187
  588.652    4.300  164.902   88.743    0.403    0.213
  588.902    5.182  161.933   81.000    0.413    0.256
  589.152    5.844  159.172   69.714    0.415    0.279
  589.402    6.316  156.103   61.668    0.394    0.305
  589.652    6.555  154.374   59.610    0.419    0.325
  589.902    6.485  153.993   58.898    0.426    0.321
  590.152    5.914  154.229   58.611    0.406    0.312
  590.402    5.246  154.881   58.810    0.394    0.302
  590.652    4.577  156.672   58.770    0.371    0.296
  590.902    3.736  159.081   57.748    0.364    0.289
  591.152    3.320  164.078   57.520    0.388    0.299
  591.402    3.006  165.661   58.516    0.392    0.318
  591.652    2.726  158.245   60.186    0.382    0.314
  591.902    2.432  156.521   60.999    0.373    0.311
  592.152    2.177  158.517   61.322    0.364    0.307
  592.402    2.060  160.928   62.320    0.356    0.310
  592.652    1.939  163.960   62.768    0.378    0.319
  592.902    1.821  163.473   62.174    0.404    0.321
  593.152    1.772  159.262   59.989    0.402    0.321
  593.402    1.698  157.123   59.156    0.388    0.320
  593.652    1.628  155.502   60.149    0.398    0.318
  593.902    1.587  154.490   61.639    0.409    0.321
  594.152    1.567  155.143   62.269    0.409    0.321
  594.402    1.573  154.868   62.103    0.404    0.315
  594.652    1.617  152.725   61.450    0.398    0.312
  594.902    1.685  150.997   60.792    0.393    0.309
  595.152    1.755  153.310   60.199    0.386    0.306
  595.402    1.801  157.166   62.358    0.379    0.295
  595.652    1.835  160.509   61.948    0.364    0.279
  595.902    1.856  161.057   60.499    0.375    0.287
  596.152    1.863  159.021   60.886    0.393    0.307
  596.402    1.860  157.401   60.844    0.407    0.312
  596.652    1.823  157.010   61.044    0.417    0.313
  596.902    1.790  156.739   61.372    0.421    0.310
  597.152    1.741  156.459   61.939    0.428    0.300
  597.402    1.691  156.384   62.508    0.427    0.302
  597.652    1.654  155.699   62.465    0.422    0.311
  597.902    1.612  155.724   62.546    0.417    0.314
  598.152    1.574  155.861   62.377    0.412    0.314
  598.402    1.563  156.506   61.178    0.406    0.311
  598.652    1.558  156.956   59.847    0.381    0.313
  598.902    1.561  156.778   60.112    0.378    0.316
  599.152    1.635  155.467   60.864    0.387    0.320
  599.402    1.803  154.048   60.759    0.399    0.320
  599.652    2.099  153.973   59.557    0.411    0.293
  599.902    2.557  154.319   58.661    0.423    0.294
