~VERSION INFORMATION
 VERS.                 2.0:   CWLS LOG ASCII STANDARD -VERSION 2.0
 WRAP.                  NO:   ONE LINE PER DEPTH STEP
~WELL INFORMATION BLOCK
#MNEM.UNIT           DATA                    DESCRIPTION OF MNEMONIC
#---------    -------------------            -------------------------------
# Generated from Intellog Unique Number	CS_67_68/WELL/844
WELL.         DOME PETROLEUM LIMITED         : Well_name    - WELL
LOC .         00/11-29-068-02W4/0            : Location     - LOCATION
UWI .         00/11-29-068-02W4/0            : Uwi          - UNIQUE WELL ID
ENTR.         SP                             : Entered      - ENTERED BY
SRVC.         SCHLUMBERGER                   : Scn          - SERVICE COMPANY
STRT.M        390                            : top_depth    - START DEPTH
STOP.M        630                            : bot_depth    - STOP DEPTH
STEP.M        0.25                           : increment    - STEP LENGTH
 NULL. -999.2500:NULL Value
~CURVE INFORMATION BLOCK
#MNEM UNIT       ERCB CURVE CODE    CURVE DESCRIPTION
#-----------   ------------------   ----------------------------------
DEPT.M        00 001 00 00         : DEPTH        - DEPTH
ILD .OHMM     00 120 00 00         : RESD         - DEEP RESISTIVITY (DIL)
DPHI.V/V      00 890 00 00         : PHID         - DENSITY POROSITY (LIMESTONE)
NPHI.V/V      00 330 00 00         : PHIN         - NEUTRON POROSITY (LIMESTONE)
GR  .API      00 310 00 00         : GR           - GAMMA RAY
~PARAMETER INFORMATION
#MNEM.UNIT           DATA             DESCRIPTION OF MNEMONIC
#---------         -----------     ------------------------------
GL  .M        724.6                : gl           - GROUND LEVEL ELEVATION
EREF.M        729.1                : kb           - ELEVATION OF DEPTH REFERENCE
DATM.M        724.6                : datum        - DATUM ELEVATION
TDD .M        637                  : tdd          - TOTAL DEPTH DRILLER
RUN .         ONE                  : Run          - RUN NUMBER
ENG .         BILL                 : Engineer     - RECORDING ENGINEER
WIT .         JIM                  : Witness      - WITNESSED BY
MUD .         GEL                  : Mud_type     - MUD TYPE
MATR.         LIMESTONE            : Logunit      - NEUTRON MATRIX
TMAX.C        28.3                 : BHT          - MAXIMUM RECORDED TEMPERATURE
BHTD.M        6372                 : BHTDEP       - MAXIMUM RECORDED TEMPERATURE
MATR.         1                    : LOGUNIT      - NEUTRON MATRIX
RMT .C        25                   : MDTP         - TEMPERATURE OF MUD
NEUT.         1                    : NEUTRON      - NEUTRON TYPE
RESI.         0                    : RESIST       - RESISTIVITY TYPE
RMC .OHMM     0.25                 : RMC          - RESISTIVITY OF MUD CAKE
RMF .OHMM     0.25                 : RMF          - RESISTIVITY OF MUD FILTRATE
SUFT.C        15                   : SUFT         - SURFACE TEMPERATURE
~A  DEPTH     RESD     PHID     PHIN       GR
# ...
  433.500    9.564    0.293    0.402   73.879
  433.750    9.581    0.284    0.405   77.971
  434.000    9.579    0.276    0.418   77.912
  434.250    9.613    0.292    0.421   74.556
  434.500    9.648    0.301    0.413   71.567
  434.750    9.646    0.306    0.424   74.073
  435.000    9.644    0.301    0.435   77.799
  435.250    9.643    0.291    0.444   80.182
  435.500    9.677    0.283    0.447   78.902
  435.750    9.748    0.276    0.449   75.363
  436.000    9.967    0.278    0.460   73.595
  436.250   10.420    0.286    0.477   72.681
  436.500   10.438    0.288    0.415   75.553
  436.750   10.224    0.280    0.412   79.157
  437.000    9.794    0.277    0.426   77.266
  437.250    9.191    0.269    0.444   74.216
  437.500    8.886    0.254    0.456   78.553
  437.750    8.608    0.240    0.455   81.058
  438.000    8.322    0.245    0.462   83.319
  438.250    8.137    0.264    0.472   84.482
  438.500    8.090    0.266    0.478   82.652
  438.750    8.089    0.282    0.435   79.724
  439.000    8.087    0.302    0.408   78.016
  439.250    8.161    0.305    0.400   83.574
  439.500    8.190    0.308    0.416   88.888
  439.750    8.235    0.316    0.438   91.759
  440.000    8.249    0.325    0.474   94.570
  440.250    8.263    0.297    0.460   95.854
  440.500    8.262    0.272    0.440   96.528
  440.750    8.245    0.262    0.433   96.469
  441.000    8.213    0.263    0.424   92.686
  441.250    8.227    0.265    0.417   89.147
  441.500    8.317    0.274    0.425   86.341
  441.750    8.600    0.295    0.436   89.396
  442.000    8.958    0.300    0.431   92.755
  442.250    9.091    0.289    0.417   94.833
  442.500    9.158    0.283    0.419   87.204
  442.750    9.225    0.281    0.417   77.621
  443.000    9.257    0.289    0.412   80.493
  443.250    9.273    0.291    0.420   80.434
  443.500    9.271    0.285    0.435   78.482
  443.750    9.218    0.279    0.429   80.255
  444.000    9.165    0.270    0.415   85.141
  444.250    9.130    0.278    0.409   87.646
  444.500    9.094    0.261    0.420   84.413
  444.750    9.075    0.263    0.440   79.836
  445.000    8.956    0.281    0.441   81.487
  445.250    5.999    0.275    0.437   87.716
  445.500    6.695    0.262    0.455   91.686
  445.750    7.626    0.257    0.466   86.743
  446.000    8.590    0.254    0.454   78.015
  446.250    9.100    0.246    0.448   78.506
  446.500    9.585    0.268    0.451   78.813
  446.750    9.655    0.267    0.468   77.228
  447.000    9.476    0.226    0.444   74.605
  447.250    9.299    0.193    0.424   70.212
  447.500    9.402    0.228    0.431   64.109
  447.750    9.886    0.253    0.440   59.349
  448.000   10.394    0.277    0.430   55.200
  448.250   10.847    0.315    0.424   53.492
  448.500   11.194    0.335    0.430   51.724
  448.750   11.813    0.343    0.440   50.139
  449.000   11.967    0.346    0.431   49.103
  449.250   12.190    0.339    0.415   55.393
  449.500   12.302    0.338    0.402   63.332
  449.750   12.346    0.339    0.405   70.904
  450.000   12.251    0.345    0.415   77.012
  450.250   12.204    0.349    0.422   83.668
  450.500   12.248    0.348    0.422   89.165
  450.750   12.383    0.344    0.423   91.853
  451.000   12.590    0.342    0.417   97.839
  451.250   12.611    0.339    0.406  104.068
  451.500   12.492    0.327    0.398  109.748
  451.750   12.146    0.323    0.411   88.809
  452.000   11.853    0.331    0.418   67.261
  452.250   11.525    0.332    0.426   62.013
  452.500   11.101    0.321    0.419   62.015
  452.750   10.996    0.317    0.408   63.055
  453.000   11.014    0.320    0.396   63.545
  453.250   11.136    0.329    0.386   62.876
  453.500   11.197    0.329    0.400   62.023
  453.750   11.195    0.333    0.409   62.087
  454.000   11.172    0.337    0.414   63.188
  454.250   11.129    0.336    0.423   64.167
  454.500   11.044    0.333    0.435   63.314
  454.750   10.859    0.320    0.439   61.546
  455.000   10.756    0.296    0.412   60.937
  455.250   10.794    0.281    0.396   66.007
  455.500   10.853    0.280    0.385   72.297
  455.750   10.631    0.292    0.396   77.794
  456.000   10.511    0.304    0.406   78.895
  456.250   10.220    0.312    0.419   73.585
  456.500   10.067    0.316    0.426   73.344
  456.750    9.898    0.304    0.419   76.154
  457.000    9.605    0.288    0.413   77.011
  457.250    9.374    0.276    0.413   71.579
  457.500    9.216    0.296    0.420   65.355
  457.750    9.095    0.309    0.424   61.389
  458.000    8.876    0.310    0.424   68.594
  458.250    8.566    0.305    0.428   71.405
  458.500    8.023    0.300    0.435   68.415
  458.750    7.322    0.304    0.438   68.479
  459.000    6.620    0.310    0.438   72.999
  459.250    5.985    0.300    0.452   75.993
  459.500    5.321    0.288    0.465   79.291
  459.750    4.802    0.273    0.473   81.857
  460.000    4.739    0.270    0.473   87.232
  460.250    5.220    0.250    0.459   91.813
  460.500    6.300    0.236    0.452   94.563
  460.750    7.018    0.224    0.442   92.794
  461.000    8.069    0.287    0.439   72.283
  461.250    8.628    0.341    0.468   61.174
  461.500    9.242    0.384    0.513   52.202
  461.750    9.627    0.336    0.449   48.053
  462.000    9.917    0.326    0.408   47.688
  462.250    9.915    0.319    0.399   49.400
  462.500    9.640    0.331    0.393   51.844
  462.750    9.338    0.335    0.386   54.899
  463.000    8.895    0.327    0.386   58.869
  463.250    8.616    0.324    0.394   63.511
  463.500    8.471    0.319    0.404   67.115
  463.750    8.376    0.307    0.423   68.827
  464.000    8.343    0.319    0.438   68.157
  464.250    8.451    0.327    0.416   68.648
  464.500    8.434    0.332    0.393   70.421
  464.750    8.323    0.335    0.405   69.446
  465.000    8.107    0.333    0.415   64.625
  465.250    7.679    0.324    0.413   63.528
  465.500    7.425    0.319    0.420   66.218
  465.750    7.059    0.315    0.432   67.929
  466.000    6.762    0.312    0.438   68.724
  466.250    6.429    0.307    0.442   69.276
  466.500    6.344    0.303    0.444   68.179
  466.750    6.320    0.299    0.436   66.472
  467.000    6.307    0.311    0.423   63.971
  467.250    6.248    0.318    0.431   65.377
  467.500    6.120    0.319    0.446   69.287
  467.750    5.873    0.305    0.456   72.586
  468.000    5.710    0.288    0.438   75.335
  468.250    5.562    0.274    0.431   80.160
  468.500    5.489    0.267    0.434   84.741
  468.750    5.437    0.266    0.436   88.101
  469.000    5.247    0.297    0.449   83.463
  469.250    4.851    0.322    0.459   72.537
  469.500    4.621    0.340    0.448   67.960
  469.750    4.460    0.345    0.432   73.885
  470.000    4.385    0.330    0.417   76.512
  470.250    4.433    0.317    0.415   61.190
  470.500    4.635    0.305    0.469   53.195
  470.750    4.928    0.326    0.440   48.252
  471.000    5.220    0.353    0.414   45.140
  471.250    5.488    0.347    0.396   46.913
  471.500    5.570    0.338    0.403   49.480
  471.750    5.674    0.333    0.418   51.985
  472.000    5.673    0.332    0.413   53.025
  472.250    5.588    0.332    0.406   52.599
  472.500    5.443    0.327    0.400   53.823
  472.750    5.302    0.336    0.408   55.412
  473.000    5.194    0.350    0.422   56.391
  473.250    5.040    0.346    0.430   55.416
  473.500    4.956    0.340    0.432   53.465
  473.750    4.872    0.346    0.426   52.795
  474.000    4.808    0.353    0.424   56.583
  474.250    4.808    0.355    0.440   61.897
  474.500    4.789    0.355    0.450   63.364
  474.750    4.779    0.347    0.460   55.612
  475.000    4.761    0.334    0.448   53.417
  475.250    4.733    0.339    0.434   54.518
  475.500    4.475    0.347    0.416   54.642
  475.750    4.491    0.352    0.422   52.508
  476.000    4.600    0.344    0.437   52.326
  476.250    4.600    0.337    0.425   54.343
  476.500    4.625    0.327    0.410   54.895
  476.750    4.676    0.320    0.395   51.356
