~VERSION INFORMATION
 VERS.                 2.0:   CWLS LOG ASCII STANDARD -VERSION 2.0
 WRAP.                  NO:   ONE LINE PER DEPTH STEP
~WELL INFORMATION BLOCK
#MNEM.UNIT           DATA                    DESCRIPTION OF MNEMONIC
#---------    -------------------            -------------------------------
# Generated from Intellog Unique Number	CS_71_72/WELL/880
WELL.         AMOCO AEC IPIATIK              : Well_name    - WELL
LOC .         00/10-34-072-06W4/0            : Location     - LOCATION
UWI .         00/10-34-072-06W4/0            : Uwi          - UNIQUE WELL ID
ENTR.         SP                             : Entered      - ENTERED BY
SRVC.         SCHLUMBERGER                   : Scn          - SERVICE COMPANY
STRT.M        325                            : top_depth    - START DEPTH
STOP.M        575                            : bot_depth    - STOP DEPTH
STEP.M        0.25                           : increment    - STEP LENGTH
 NULL. -999.2500:NULL Value
~CURVE INFORMATION BLOCK
#MNEM UNIT       ERCB CURVE CODE    CURVE DESCRIPTION
#-----------   ------------------   ----------------------------------
DEPT.M        00 001 00 00         : DEPTH        - DEPTH
ILD .OHMM     00 120 00 00         : RESD         - DEEP RESISTIVITY (DIL)
DPHI.V/V      00 890 00 00         : PHID         - DENSITY POROSITY (LIMESTONE)
NPHI.V/V      00 330 00 00         : PHIN         - NEUTRON POROSITY (LIMESTONE)
GR  .API      00 310 00 00         : GR           - GAMMA RAY
~PARAMETER INFORMATION
#MNEM.UNIT           DATA             DESCRIPTION OF MNEMONIC
#---------         -----------     ------------------------------
GL  .M        709.8                : gl           - GROUND LEVEL ELEVATION
EREF.M        714                  : kb           - ELEVATION OF DEPTH REFERENCE
DATM.M        709.8                : datum        - DATUM ELEVATION
TDD .M        588.2                : tdd          - TOTAL DEPTH DRILLER
RUN .         ONE                  : Run          - RUN NUMBER
ENG .         BILL                 : Engineer     - RECORDING ENGINEER
WIT .         JIM                  : Witness      - WITNESSED BY
MUD .         GEL                  : Mud_type     - MUD TYPE
MATR.         LIMESTONE            : Logunit      - NEUTRON MATRIX
TMAX.C        11                   : BHT          - MAXIMUM RECORDED TEMPERATURE
BHTD.M        588.2                : BHTDEP       - MAXIMUM RECORDED TEMPERATURE
MATR.         1                    : LOGUNIT      - NEUTRON MATRIX
RMT .C        25                   : MDTP         - TEMPERATURE OF MUD
NEUT.         1                    : NEUTRON      - NEUTRON TYPE
RESI.         0                    : RESIST       - RESISTIVITY TYPE
RMC .OHMM     0.25                 : RMC          - RESISTIVITY OF MUD CAKE
RMF .OHMM     0.25                 : RMF          - RESISTIVITY OF MUD FILTRATE
SUFT.C        15                   : SUFT         - SURFACE TEMPERATURE
~A  DEPTH     RESD     PHID     PHIN       GR
  325.000    2.361    0.223    0.535  106.711
  325.250    2.360    0.229    0.539  107.938
  325.500    2.317    0.238    0.545  108.552
  325.750    2.232    0.244    0.552  108.558
  326.000    2.150    0.235    0.557  109.783
  326.250    2.110    0.237    0.546  112.228
  326.500    2.072    0.240    0.544  113.454
  326.750    2.111    0.246    0.546  112.851
  327.000    2.150    0.247    0.545  111.026
  327.250    2.232    0.245    0.551  110.424
  327.500    2.232    0.246    0.560  113.479
  327.750    2.317    0.262    0.564  110.436
  328.000    2.317    0.258    0.539  106.784
  328.250    2.361    0.271    0.543  104.350
  328.500    2.361    0.277    0.541  106.187
  328.750    2.361    0.271    0.540  107.411
  329.000    2.451    0.263    0.528  104.978
  329.250    2.497    0.241    0.506  102.545
  329.500    2.545    0.206    0.497  103.161
  329.750    2.451    0.184    0.503  106.826
  330.000    2.406    0.212    0.529  105.004
  330.250    2.406    0.250    0.550  100.741
  330.500    2.498    0.261    0.561   95.869
  330.750    2.900    0.255    0.475   91.607
  331.000    3.496    0.252    0.452   89.172
  331.250    4.456    0.264    0.455   91.619
  331.500    4.892    0.281    0.456   95.283
  331.750    5.680    0.290    0.419   97.727
  332.000    7.802    0.313    0.291   89.198
  332.250   10.717    0.376    0.217   80.666
  332.500   13.919    0.400    0.197   68.477
  332.750   15.862    0.409    0.225   59.946
  333.000   17.093    0.342    0.284   70.323
  333.250   14.449    0.311    0.325   75.814
  333.500    9.405    0.275    0.352   84.966
  333.750    7.108    0.257    0.389   91.679
  334.000    6.848    0.252    0.408   97.782
  334.250    6.977    0.261    0.391   98.398
  334.500    7.379    0.273    0.387   95.966
  334.750    7.660    0.285    0.380   97.191
  335.000    7.519    0.293    0.391   99.638
  335.250    7.380    0.282    0.408  100.254
  335.500    7.243    0.271    0.420  101.481
  335.750    7.244    0.264    0.403  100.874
  336.000    7.380    0.282    0.384   98.440
  336.250    7.661    0.323    0.367   97.838
  336.500    7.953    0.304    0.371   97.235
  336.750    7.953    0.292    0.384   96.630
  337.000    8.256    0.281    0.380   94.807
  337.250    8.732    0.291    0.375   92.984
  337.500    9.064    0.304    0.373   94.210
  337.750    9.587    0.301    0.370   92.998
  338.000   10.926    0.301    0.364   94.221
  338.250   11.555    0.314    0.333   97.887
  338.500   12.221    0.321    0.308  100.942
  338.750   13.169    0.340    0.297  102.166
  339.000   13.671    0.355    0.294   99.123
  339.250   14.731    0.370    0.286   91.812
  339.500   15.009    0.355    0.280   87.550
  339.750   15.580    0.340    0.268   83.898
  340.000   15.293    0.326    0.294   75.979
  340.250   13.930    0.314    0.305   70.497
  340.500   12.928    0.303    0.322   67.452
  340.750   11.558    0.292    0.326   65.629
  341.000   10.528    0.286    0.342   66.858
  341.250    9.955    0.274    0.350   66.863
  341.500    9.239    0.270    0.370   67.478
  341.750    8.416    0.272    0.380   67.483
  342.000    8.108    0.286    0.386   65.661
  342.250    7.958    0.264    0.395   63.227
  342.500    7.958    0.259    0.395   57.134
  342.750    8.261    0.278    0.392   51.653
  343.000    8.261    0.293    0.388   48.610
  343.250    8.576    0.286    0.398   45.569
  343.500    8.738    0.280    0.400   46.793
  343.750    8.738    0.288    0.391   49.239
  344.000    8.738    0.295    0.387   49.246
  344.250    8.577    0.289    0.398   47.421
  344.500    7.813    0.282    0.397   51.088
  344.750    6.985    0.286    0.389   59.021
  345.000    5.795    0.281    0.386   68.782
  345.250    4.463    0.275    0.395   85.252
  345.500    3.567    0.262    0.444  101.722
  345.750    2.798    0.250    0.494  113.315
  346.000    2.502    0.234    0.537  122.466
  346.250    2.279    0.226    0.553  129.178
  346.500    2.076    0.221    0.533  133.453
  346.750    1.963    0.218    0.518  135.289
  347.000    1.788    0.212    0.512  137.733
  347.250    1.691    0.234    0.525  138.960
  347.500    1.691    0.244    0.543  135.917
  347.750    1.891    0.259    0.543  126.166
  348.000    2.237    0.267    0.510  121.903
  348.250    2.411    0.256    0.487  118.252
  348.500    3.016    0.250    0.470  112.772
  348.750    3.374    0.245    0.454  109.726
  349.000    3.704    0.243    0.421   99.977
  349.250    4.301    0.233    0.407   90.836
  349.500    4.722    0.228    0.399   83.525
  349.750    4.902    0.220    0.391   79.264
  350.000    5.088    0.217    0.391   77.439
  350.250    5.381    0.224    0.402   76.837
  350.500    5.692    0.230    0.411   71.965
  350.750    5.799    0.252    0.419   64.654
  351.000    5.692    0.273    0.423   57.952
  351.250    5.692    0.287    0.396   65.886
  351.500    5.587    0.277    0.411   70.768
  351.750    5.382    0.255    0.415   78.094
  352.000    5.089    0.247    0.417   81.148
  352.250    4.995    0.245    0.423   83.593
  352.500    4.995    0.252    0.411   80.549
  352.750    5.383    0.268    0.395   68.362
  353.000    5.484    0.290    0.389   61.051
  353.250    5.910    0.308    0.382   58.615
  353.500    6.021    0.314    0.382   61.673
  353.750    6.022    0.299    0.383   63.506
  354.000    6.022    0.295    0.388   65.952
  354.250    5.801    0.289    0.401   69.616
  354.500    5.485    0.272    0.401   73.892
  354.750    5.384    0.257    0.401   75.116
  355.000    5.285    0.244    0.400   72.683
  355.250    5.384    0.235    0.394   69.032
  355.500    5.486    0.229    0.396   69.646
  355.750    5.589    0.257    0.407   65.387
  356.000    5.695    0.298    0.396   59.904
  356.250    5.695    0.329    0.377   60.518
  356.500    5.590    0.306    0.378   63.574
  356.750    5.590    0.276    0.390   67.239
  357.000    5.487    0.266    0.395   70.296
  357.250    5.590    0.257    0.401   70.910
  357.500    5.803    0.258    0.405   70.305
  357.750    6.138    0.279    0.409   66.652
  358.000    6.491    0.320    0.404   60.565
  358.250    6.995    0.335    0.425   58.131
  358.500    7.127    0.329    0.435   55.696
  358.750    7.261    0.330    0.428   52.652
  359.000    7.127    0.326    0.422   49.000
  359.250    6.866    0.308    0.409   56.323
  359.500    6.739    0.300    0.400   61.818
  359.750    6.615    0.280    0.397   62.432
  360.000    6.740    0.275    0.424   55.733
  360.250    6.740    0.285    0.430   52.689
  360.500    6.867    0.308    0.437   48.428
  360.750    6.997    0.320    0.448   41.118
  361.000    6.997    0.328    0.446   36.855
  361.250    7.129    0.336    0.435   32.591
  361.500    7.264    0.353    0.429   31.378
  361.750    7.401    0.368    0.431   31.994
  362.000    7.540    0.359    0.442   31.391
  362.250    7.541    0.353    0.434   30.786
  362.500    7.683    0.351    0.427   30.794
  362.750    7.683    0.352    0.426   30.189
  363.000    7.828    0.362    0.427   30.808
  363.250    7.828    0.370    0.431   30.813
  363.500    7.828    0.371    0.440   30.207
  363.750    7.829    0.369    0.442   30.213
  364.000    7.829    0.365    0.446   29.609
  364.250    7.829    0.355    0.438   30.226
  364.500    7.829    0.351    0.431   30.232
  364.750    7.829    0.342    0.420   31.456
  365.000    7.685    0.353    0.416   34.512
  365.250    7.543    0.361    0.421   38.177
  365.500    7.404    0.359    0.421   43.673
  365.750    7.001    0.357    0.426   46.115
  366.000    6.619    0.343    0.436   51.609
  366.250    6.377    0.320    0.430   56.494
  366.500    6.377    0.305    0.430   59.549
  366.750    6.377    0.298    0.444   57.725
  367.000    6.498    0.299    0.447   50.414
  367.250    6.620    0.311    0.438   42.495
  367.500    6.872    0.324    0.433   37.622
  367.750    7.002    0.332    0.438   35.188
  368.000    7.134    0.330    0.444   33.974
  368.250    7.134    0.326    0.449   38.250
