~VERSION INFORMATION
 VERS.                 2.0:   CWLS LOG ASCII STANDARD -VERSION 2.0
 WRAP.                  NO:   ONE LINE PER DEPTH STEP
~WELL INFORMATION BLOCK
#MNEM.UNIT           DATA                    DESCRIPTION OF MNEMONIC
#---------    -------------------            -------------------------------
# Generated from Intellog Unique Number	CS_71_72/WELL/922
WELL.         SULPETRO BRENDA IPIATIK        : Well_name    - WELL
LOC .         00/14-01-072-10W4/0            : Location     - LOCATION
UWI .         00/14-01-072-10W4/0            : Uwi          - UNIQUE WELL ID
ENTR.         SP                             : Entered      - ENTERED BY
SRVC.         SCHLUMBERGER                   : Scn          - SERVICE COMPANY
STRT.M        310.25                         : top_depth    - START DEPTH
STOP.M        510                            : bot_depth    - STOP DEPTH
STEP.M        0.25                           : increment    - STEP LENGTH
 NULL. -999.2500:NULL Value
~CURVE INFORMATION BLOCK
#MNEM UNIT       ERCB CURVE CODE    CURVE DESCRIPTION
#-----------   ------------------   ----------------------------------
DEPT.M        00 001 00 00         : DEPTH        - DEPTH
ILD .OHMM     00 120 00 00         : RESD         - DEEP RESISTIVITY (DIL)
DPHI.V/V      00 890 00 00         : PHID         - DENSITY POROSITY (LIMESTONE)
NPHI.V/V      00 330 00 00         : PHIN         - NEUTRON POROSITY (LIMESTONE)
GR  .API      00 310 00 00         : GR           - GAMMA RAY
~PARAMETER INFORMATION
#MNEM.UNIT           DATA             DESCRIPTION OF MNEMONIC
#---------         -----------     ------------------------------
GL  .M        664.9                : gl           - GROUND LEVEL ELEVATION
EREF.M        667.5                : kb           - ELEVATION OF DEPTH REFERENCE
DATM.M        664.9                : datum        - DATUM ELEVATION
TDD .M        521                  : tdd          - TOTAL DEPTH DRILLER
RUN .         ONE                  : Run          - RUN NUMBER
ENG .         BILL                 : Engineer     - RECORDING ENGINEER
WIT .         JIM                  : Witness      - WITNESSED BY
MUD .         GEL                  : Mud_type     - MUD TYPE
MATR.         LIMESTONE            : Logunit      - NEUTRON MATRIX
TMAX.C        25                   : BHT          - MAXIMUM RECORDED TEMPERATURE
BHTD.M        521                  : BHTDEP       - MAXIMUM RECORDED TEMPERATURE
MATR.         1                    : LOGUNIT      - NEUTRON MATRIX
RMT .C        25                   : MDTP         - TEMPERATURE OF MUD
NEUT.         1                    : NEUTRON      - NEUTRON TYPE
RESI.         0                    : RESIST       - RESISTIVITY TYPE
RMC .OHMM     0.25                 : RMC          - RESISTIVITY OF MUD CAKE
RMF .OHMM     0.25                 : RMF          - RESISTIVITY OF MUD FILTRATE
SUFT.C        15                   : SUFT         - SURFACE TEMPERATURE
~A  DEPTH     RESD     PHID     PHIN       GR
  310.250    3.106    0.207    0.480  121.476
  310.500    3.109    0.200    0.507  131.205
  310.750    3.169    0.197    0.457  118.464
  311.000    3.292    0.196    0.423  119.694
  311.250    3.355    0.179    0.434  117.883
  311.500    3.421    0.146    0.443   94.818
  311.750    3.486   -0.031    0.324   79.648
  312.000    3.488   -0.092    0.451   85.127
  312.250    3.623    0.003    0.463   93.034
  312.500    3.625    0.122    0.436   99.124
  312.750    3.628    0.169    0.403  107.639
  313.000    3.630    0.172    0.386  110.685
  313.250    3.566    0.176    0.391  104.020
  313.500    3.568    0.174    0.400  100.386
  313.750    3.637    0.178    0.395  108.905
  314.000    3.707    0.181    0.430  111.953
  314.250    3.710    0.185    0.450  113.181
  314.500    3.713    0.187    0.475  111.373
  314.750    3.715    0.187    0.490  112.597
  315.000    3.717    0.186    0.471  119.302
  315.250    3.720    0.186    0.420  121.131
  315.500    3.792    0.190    0.406  122.352
  315.750    3.866    0.197    0.409  110.828
  316.000    3.941    0.193    0.419  119.347
  316.250    3.942    0.185    0.426  123.607
  316.500    3.872    0.181    0.390  112.690
  316.750    3.665    0.175    0.398  114.522
  317.000    3.534    0.177    0.505   99.354
  317.250    3.880    0.182    0.219   68.395
  317.500    5.225    0.194    0.177   49.580
  317.750   10.016    0.215    0.154   39.267
  318.000   13.998    0.244    0.138   32.601
  318.250   26.829    0.280    0.124   28.971
  318.500   51.422    0.311    0.117   38.094
  318.750   63.122    0.303    0.111   42.357
  319.000   66.769    0.292    0.110   45.411
  319.250   63.193    0.287    0.112   44.814
  319.500   60.932    0.297    0.123   42.395
  319.750   72.085    0.304    0.133   41.193
  320.000   77.677    0.310    0.143   40.603
  320.250   85.287    0.311    0.147   40.615
  320.500   86.940    0.306    0.151   42.451
  320.750   83.824    0.309    0.156   43.067
  321.000   73.646    0.305    0.171   44.905
  321.250   54.761    0.295    0.188   44.916
  321.500   46.363    0.290    0.206   44.319
  321.750   38.532    0.279    0.230   44.942
  322.000   33.853    0.274    0.290   41.917
  322.250   27.620    0.269    0.343   40.717
  322.500   27.126    0.269    0.324   41.941
  322.750   22.970    0.276    0.335   45.599
  323.000   21.739    0.280    0.355   48.648
  323.250   20.576    0.283    0.349   43.197
  323.500   19.841    0.275    0.344   47.464
  323.750   19.484    0.266    0.347   49.902
  324.000   19.137    0.261    0.351   50.524
  324.250   18.803    0.270    0.351   50.535
  324.500   18.467    0.280    0.351   53.587
  324.750   17.479    0.281    0.348   57.852
  325.000   17.164    0.278    0.347   61.507
  325.250   16.246    0.276    0.348   63.947
  325.500   15.960    0.278    0.357   65.176
  325.750   15.966    0.278    0.368   58.506
  326.000   16.585    0.279    0.375   50.624
  326.250   17.545    0.286    0.374   45.780
  326.500   18.560    0.290    0.369   46.399
  326.750   19.640    0.290    0.353   50.669
  327.000   20.021    0.286    0.340   53.714
  327.250   20.032    0.277    0.331   56.763
  327.500   19.678    0.273    0.321   58.597
  327.750   19.693    0.269    0.344   59.217
  328.000   19.701    0.268    0.351   56.194
  328.250   20.849    0.279    0.330   53.781
  328.500   21.249    0.281    0.336   50.155
  328.750   21.667    0.286    0.354   48.343
  329.000   22.087    0.286    0.360   47.749
  329.250   22.513    0.283    0.368   48.363
  329.500   22.525    0.272    0.344   48.988
  329.750   22.963    0.269    0.331   50.821
  330.000   22.975    0.267    0.337   53.262
  330.250   21.747    0.278    0.347   55.703
  330.500   20.200    0.289    0.350   58.143
  330.750   17.424    0.248    0.338   63.018
  331.000   15.890    0.233    0.332   68.495
  331.250   15.324    0.245    0.332   67.903
  331.500   15.617    0.262    0.344   63.669
  331.750   16.528    0.279    0.353   62.462
  332.000   16.845    0.260    0.339   63.080
  332.250   16.857    0.243    0.318   68.560
  332.500   16.251    0.232    0.321   74.646
  332.750   15.670    0.228    0.343   78.910
  333.000   15.389    0.228    0.343   78.314
  333.250   16.287    0.237    0.331   67.398
  333.500   16.911    0.248    0.338   60.728
  333.750   17.561    0.261    0.359   59.526
  334.000   18.236    0.271    0.368   57.719
  334.250   18.939    0.271    0.382   49.837
  334.500   19.675    0.263    0.389   45.597
  334.750   20.051    0.260    0.356   45.002
  335.000   19.696    0.255    0.332   48.665
  335.250   19.348    0.266    0.355   49.280
  335.500   19.001    0.279    0.372   46.864
  335.750   18.320    0.283    0.381   45.053
  336.000   18.331    0.264    0.377   54.178
  336.250   18.690    0.256    0.409   59.048
  336.500   19.049    0.264    0.428   49.951
  336.750   19.784    0.276    0.385   44.499
  337.000   20.165    0.283    0.370   52.410
  337.250   20.181    0.283    0.375   54.848
  337.500   19.819    0.268    0.364   59.115
  337.750   18.759    0.259    0.358   65.809
  338.000   17.428    0.256    0.357   71.285
  338.250   16.192    0.263    0.371   66.444
  338.500   14.769    0.263    0.346   63.415
  338.750   13.720    0.229    0.335   74.370
  339.000   13.226    0.214    0.327   77.415
  339.250   12.751    0.204    0.349   81.676
  339.500   12.072    0.212    0.359   82.292
  339.750   12.076    0.230    0.366   76.233
  340.000   12.312    0.236    0.385   71.995
  340.250   12.318    0.244    0.397   66.548
  340.500   12.560    0.261    0.393   63.517
  340.750   12.336    0.265    0.341   58.672
  341.000   11.459    0.221    0.322   92.087
  341.250    9.886    0.185    0.333   95.744
  341.500    8.848    0.187    0.354   91.505
  341.750    8.219    0.214    0.389   87.267
  342.000    7.781    0.244    0.359   81.817
  342.250    7.643    0.225    0.321   84.864
  342.500    7.506    0.204    0.336   94.594
  342.750    7.510    0.203    0.330  105.538
  343.000    7.380    0.194    0.310  111.624
  343.250    7.384    0.176    0.331  110.428
  343.500    7.251    0.177    0.387  107.401
  343.750    7.124    0.186    0.407  100.129
  344.000    6.995    0.189    0.420   94.673
  344.250    6.747    0.181    0.357   91.040
  344.500    6.626    0.166    0.337  101.376
  344.750    6.507    0.157    0.321  115.359
  345.000    6.162    0.159    0.333  119.624
  345.250    6.052    0.160    0.359  120.245
  345.500    6.055    0.160    0.390  116.614
  345.750    6.171    0.165    0.410  111.158
  346.000    6.529    0.176    0.390  100.244
  346.250    7.039    0.182    0.335   97.222
  346.500    7.309    0.184    0.322   97.841
  346.750    7.449    0.182    0.329   99.671
  347.000    7.736    0.186    0.338   96.651
  347.250    7.744    0.201    0.357   94.232
  347.500    7.749    0.195    0.346   93.029
  347.750    7.755    0.184    0.334   87.582
  348.000    7.759    0.184    0.329   85.767
  348.250    7.762    0.175    0.364   90.642
  348.500    7.767    0.178    0.344  100.370
  348.750    7.628    0.181    0.336  109.494
  349.000    7.355    0.172    0.364  112.540
  349.250    6.963    0.173    0.357  106.486
  349.500    6.838    0.182    0.348  106.494
  349.750    6.594    0.193    0.335  108.942
  350.000    6.476    0.178    0.335  108.340
  350.250    6.360    0.164    0.370  107.139
  350.500    6.365    0.165    0.398  112.627
  350.750    6.488    0.174    0.415  113.238
  351.000    6.739    0.176    0.425  109.609
  351.250    7.264    0.177    0.404  104.154
  351.500    7.828    0.187    0.369   92.628
  351.750    8.437    0.194    0.348   94.463
  352.000    8.925    0.196    0.331   85.369
  352.250    9.986    0.197    0.375   79.309
  352.500   10.368    0.202    0.404   84.182
  352.750   10.769    0.219    0.426   81.153
  353.000   10.976    0.233    0.437   73.273
  353.250   11.399    0.242    0.431   84.223
  353.500   11.406    0.249    0.415   90.912
