~VERSION INFORMATION
 VERS.                 2.0:   CWLS LOG ASCII STANDARD -VERSION 2.0
 WRAP.                  NO:   ONE LINE PER DEPTH STEP
~WELL INFORMATION BLOCK
#MNEM.UNIT           DATA                    DESCRIPTION OF MNEMONIC
#---------    -------------------            -------------------------------
# Generated from Intellog Unique Number	CS_67_68/WELL/811
WELL.         DOME PETROLEUM LIMITED         : Well_name    - WELL
LOC .         00/10-28-068-03W4/0            : Location     - LOCATION
UWI .         00/10-28-068-03W4/0            : Uwi          - UNIQUE WELL ID
ENTR.         SP                             : Entered      - ENTERED BY
SRVC.         SCHLUMBERGER                   : Scn          - SERVICE COMPANY
STRT.M        395                            : top_depth    - START DEPTH
STOP.M        615                            : bot_depth    - STOP DEPTH
STEP.M        0.25                           : increment    - STEP LENGTH
 NULL. -999.2500:NULL Value
~CURVE INFORMATION BLOCK
#MNEM UNIT       ERCB CURVE CODE    CURVE DESCRIPTION
#-----------   ------------------   ----------------------------------
DEPT.M        00 001 00 00         : DEPTH        - DEPTH
GR  .API      00 310 00 00         : GR           - GAMMA RAY
NPHI.V/V      00 330 00 00         : PHIN         - NEUTRON POROSITY (LIMESTONE)
DPHI.V/V      00 890 00 00         : PHID         - DENSITY POROSITY (LIMESTONE)
ILD .OHMM     00 120 00 00         : RESD         - DEEP RESISTIVITY (DIL)
~PARAMETER INFORMATION
#MNEM.UNIT           DATA             DESCRIPTION OF MNEMONIC
#---------         -----------     ------------------------------
GL  .M        748.86               : gl           - GROUND LEVEL ELEVATION
EREF.M        752.86               : kb           - ELEVATION OF DEPTH REFERENCE
DATM.M        748.86               : datum        - DATUM ELEVATION
TDD .M        621                  : tdd          - TOTAL DEPTH DRILLER
RUN .         ONE                  : Run          - RUN NUMBER
ENG .         BILL                 : Engineer     - RECORDING ENGINEER
WIT .         JIM                  : Witness      - WITNESSED BY
MUD .         GEL                  : Mud_type     - MUD TYPE
MATR.         LIMESTONE            : Logunit      - NEUTRON MATRIX
TMAX.C        23.3                 : BHT          - MAXIMUM RECORDED TEMPERATURE
BHTD.M        621                  : BHTDEP       - MAXIMUM RECORDED TEMPERATURE
MATR.         1                    : LOGUNIT      - NEUTRON MATRIX
RMT .C        25                   : MDTP         - TEMPERATURE OF MUD
NEUT.         1                    : NEUTRON      - NEUTRON TYPE
RESI.         0                    : RESIST       - RESISTIVITY TYPE
RMC .OHMM     0.25                 : RMC          - RESISTIVITY OF MUD CAKE
RMF .OHMM     0.25                 : RMF          - RESISTIVITY OF MUD FILTRATE
SUFT.C        15                   : SUFT         - SURFACE TEMPERATURE
~A  DEPTH       GR     PHIN     PHID     RESD
# ...
  569.000   90.305    0.394    0.256    7.046
  569.250   87.657    0.386    0.255    7.381
  569.500   83.268    0.376    0.251    7.632
  569.750   85.185    0.368    0.248    7.631
  570.000   80.134    0.356    0.249    7.214
  570.250   66.914    0.353    0.259    6.820
  570.500   52.312    0.342    0.272    6.399
  570.750   46.420    0.325    0.282    6.198
  571.000   54.525    0.316    0.282    6.116
  571.250   60.227    0.340    0.280    6.161
  571.500   67.430    0.363    0.260    6.323
  571.750   71.091    0.375    0.240    6.563
  572.000   75.471    0.374    0.269    7.177
  572.250   79.431    0.400    0.345    7.647
  572.500   65.311    0.449    0.461    7.589
  572.750   46.504    0.552    0.461    7.255
  573.000   33.223    0.541    0.403    6.756
  573.250   27.632    0.407    0.373    6.268
  573.500   28.108    0.367    0.357    5.893
  573.750   27.622    0.337    0.343    5.623
  574.000   27.978    0.321    0.329    5.466
  574.250   29.955    0.309    0.319    5.445
  574.500   32.774    0.316    0.320    5.505
  574.750   36.795    0.328    0.324    5.505
  575.000   42.016    0.338    0.319    5.514
  575.250   48.079    0.351    0.313    5.513
  575.500   53.541    0.361    0.308    5.533
  575.750   57.561    0.354    0.304    5.563
  576.000   56.294    0.355    0.299    5.541
  576.250   53.767    0.366    0.302    5.520
  576.500   55.024    0.369    0.324    5.539
  576.750   56.401    0.362    0.331    5.549
  577.000   56.877    0.369    0.325    5.527
  577.250   53.748    0.377    0.319    5.516
  577.500   47.616    0.383    0.316    5.504
  577.750   43.107    0.388    0.324    5.473
  578.000   41.120    0.385    0.330    5.462
  578.250   42.977    0.379    0.333    5.420
  578.500   48.438    0.373    0.332    5.389
  578.750   52.399    0.376    0.334    5.348
  579.000   59.061    0.378    0.331    5.287
  579.250   62.422    0.368    0.323    5.257
  579.500   65.841    0.363    0.313    5.256
  579.750   62.353    0.360    0.311    5.255
  580.000   60.125    0.375    0.323    5.274
  580.250   64.205    0.380    0.329    5.322
  580.500   69.427    0.386    0.334    5.332
  580.750   75.069    0.388    0.328    5.301
  581.000   80.651    0.371    0.318    5.251
  581.250   91.039    0.352    0.248    5.319
  581.500   98.003    0.343    0.206    5.573
  581.750   97.638    0.359    0.177    6.095
  582.000   94.569    0.363    0.171    6.481
  582.250   91.921    0.352    0.173    6.790
  582.500   88.853    0.344    0.173    7.034
  582.750   86.146    0.337    0.175    7.179
  583.000   88.603    0.332    0.179    7.273
  583.250   92.144    0.338    0.194    7.245
  583.500   86.732    0.363    0.211    7.230
  583.750   77.416    0.376    0.233    7.121
  584.000   68.041    0.351    0.242    6.962
  584.250   69.418    0.328    0.233    6.845
  584.500   74.399    0.337    0.228    6.755
  584.750   77.818    0.350    0.225    6.779
  585.000   79.736    0.352    0.227    6.957
  585.250   76.187    0.353    0.218    7.061
  585.500   67.833    0.360    0.221    7.073
  585.750   63.443    0.352    0.254    7.019
  586.000   69.985    0.344    0.260    6.914
  586.250   73.946    0.337    0.236    6.810
  586.500   76.344    0.350    0.221    6.720
  586.750   73.276    0.355    0.241    6.669
  587.000   67.745    0.352    0.252    6.631
  587.250   67.920    0.344    0.255    6.605
  587.500   71.400    0.341    0.231    6.641
  587.750   70.073    0.344    0.200    6.880
  588.000   69.468    0.341    0.182    7.248
  588.250   72.948    0.332    0.189    7.523
  588.500   74.925    0.342    0.214    7.650
  588.750   74.981    0.354    0.226    7.521
  589.000   76.238    0.342    0.204    7.353
  589.250   73.891    0.341    0.192    7.188
  589.500   71.723    0.350    0.203    7.133
  589.750   70.697    0.352    0.204    7.173
  590.000   70.633    0.340    0.209    7.362
  590.250   69.366    0.331    0.226    7.237
  590.500   65.277    0.339    0.236    7.129
  590.750   59.565    0.351    0.249    6.957
  591.000   56.917    0.358    0.261    6.801
  591.250   55.471    0.358    0.274    6.674
  591.500   54.745    0.369    0.288    6.586
  591.750   53.720    0.378    0.300    6.285
  592.000   51.553    0.385    0.313    6.110
  592.250   48.485    0.389    0.306    6.109
  592.500   46.738    0.379    0.296    6.177
  592.750   50.458    0.373    0.290    6.280
  593.000   55.800    0.362    0.285    6.338
  593.250   60.480    0.364    0.266    6.337
  593.500   52.366    0.377    0.285    6.266
  593.750   48.577    0.366    0.309    6.137
  594.000   49.473    0.350    0.287    5.966
  594.250   56.137    0.331    0.254    5.619
  594.500   65.743    0.318    0.215    5.524
  594.750   73.849    0.318    0.186    6.087
  595.000   79.851    0.325    0.200    6.449
  595.250   72.337    0.331    0.236    6.744
  595.500   62.902    0.350    0.258    6.883
  595.750   57.010    0.358    0.275    6.869
  596.000   61.990    0.354    0.277    6.690
  596.250   64.629    0.350    0.263    6.492
  596.500   66.007    0.353    0.254    6.126
  596.750   61.557    0.367    0.268    6.034
  597.000   51.881    0.379    0.299    5.954
  597.250   51.215    0.351    0.296    5.854
  597.500   57.578    0.341    0.268    5.788
  597.750   60.157    0.347    0.257    5.733
  598.000   56.667    0.354    0.301    5.818
  598.250   50.716    0.364    0.318    6.005
  598.500   43.863    0.368    0.341    6.016
  598.750   50.706    0.378    0.302    5.925
  599.000   55.929    0.392    0.280    5.825
  599.250   60.849    0.412    0.299    5.717
  599.500   63.188    0.397    0.282    5.610
  599.750   60.180    0.374    0.265    5.546
  600.000   50.143    0.379    0.284    5.556
  600.250   45.813    0.393    0.304    5.534
  600.500   54.398    0.391    0.319    5.482
  600.750   60.822    0.384    0.311    5.399
  601.000   66.764    0.373    0.282    5.369
  601.250   70.304    0.367    0.266    5.347
  601.500   65.313    0.360    0.263    5.458
  601.750   59.362    0.357    0.254    5.761
  602.000   53.230    0.368    0.256    5.990
  602.250   50.702    0.381    0.273    6.114
  602.500   56.824    0.371    0.277    6.078
  602.750   62.647    0.360    0.252    5.987
  603.000   69.310    0.362    0.237    5.919
  603.250   72.009    0.366    0.249    5.907
  603.500   68.039    0.376    0.266    5.906
  603.750   65.511    0.375    0.266    5.905
  604.000   64.847    0.367    0.253    5.926
  604.250   65.503    0.359    0.253    5.981
  604.500   65.138    0.359    0.250    6.048
  604.750   65.313    0.369    0.248    6.035
  605.000   62.065    0.384    0.256    5.978
  605.250   46.141    0.384    0.276    5.889
  605.500   37.967    0.371    0.293    5.779
  605.750   48.354    0.358    0.320    5.649
  606.000   56.760    0.359    0.305    5.585
  606.250   65.105    0.373    0.277    5.501
  606.500   42.213    0.393    0.281    5.480
  606.750   35.180    0.389    0.308    5.438
  607.000   44.366    0.374    0.322    5.357
  607.250   54.033    0.364    0.316    5.189
  607.500   61.477    0.378    0.302    4.932
  607.750   65.197    0.393    0.288    4.867
  608.000   59.186    0.407    0.285    4.912
  608.250   49.930    0.416    0.310    5.080
  608.500   37.791    0.358    0.343    5.233
  608.750   29.676    0.331    0.342    5.311
  609.000   35.979    0.317    0.330    5.290
  609.250   50.752    0.315    0.288    5.220
  609.500   60.960    0.327    0.272    5.171
  609.750   50.262    0.355    0.271    5.150
  610.000   44.851    0.382    0.279    5.169
  610.250   41.723    0.380    0.317    5.246
  610.500   53.312    0.353    0.185    5.285
  610.750   61.597    0.371    0.128    5.715
  611.000   68.561    0.422   -0.008    6.465
  611.250   37.560    0.434   -0.011    8.164
  611.500   27.463    0.429   -0.009   11.753
  611.750   22.352    0.243   -0.004   16.358
  612.000   20.666    0.180    0.006   20.582
  612.250   20.480    0.137    0.018   27.803
