~VERSION INFORMATION
 VERS.                 2.0:   CWLS LOG ASCII STANDARD -VERSION 2.0
 WRAP.                  NO:   ONE LINE PER DEPTH STEP
~WELL INFORMATION BLOCK
#MNEM.UNIT           DATA                    DESCRIPTION OF MNEMONIC
#---------    -------------------            -------------------------------
# Generated from Intellog Unique Number	CS_77_79/WELL/937
WELL.         AMOCO B-1 LEISMER              : Well_name    - WELL
LOC .         00/10-09-078-09W4/0            : Location     - LOCATION
UWI .         00/10-09-078-09W4/0            : Uwi          - UNIQUE WELL ID
ENTR.         JHS                            : Entered      - ENTERED BY
SRVC.         SCHLUMBERGER                   : Scn          - SERVICE COMPANY
STRT.M        179.832                        : top_depth    - START DEPTH
STOP.M        402.082                        : bot_depth    - STOP DEPTH
STEP.M        0.25                           : increment    - STEP LENGTH
 NULL. -999.2500:NULL Value
~CURVE INFORMATION BLOCK
#MNEM UNIT       ERCB CURVE CODE    CURVE DESCRIPTION
#-----------   ------------------   ----------------------------------
DEPT.M        00 001 00 00         : DEPTH        - DEPTH
RHOB.KG/M3    00 350 00 00         : DENS         - BULK DENSITY
GR  .API      00 310 00 00         : GR           - GAMMA RAY
DPHI.V/V      00 890 00 00         : PHID         - DENSITY POROSITY (SANDSTONE)
NPHI.V/V      00 330 00 00         : PHIN         - NEUTRON POROSITY (SANDSTONE)
ILD .OHMM     00 120 00 00         : RESD         - DEEP RESISTIVITY (DIL)
~PARAMETER INFORMATION
#MNEM.UNIT           DATA             DESCRIPTION OF MNEMONIC
#---------         -----------     ------------------------------
GL  .M        599.953              : gl           - GROUND LEVEL ELEVATION
EREF.M        602.59               : kb           - ELEVATION OF DEPTH REFERENCE
DATM.M        602.59               : datum        - DATUM ELEVATION
TDD .M        417.576              : tdd          - TOTAL DEPTH DRILLER
RUN .         ONE                  : Run          - RUN NUMBER
ENG .         BILL                 : Engineer     - RECORDING ENGINEER
WIT .         JIM                  : Witness      - WITNESSED BY
MUD .         GEL                  : Mud_type     - MUD TYPE
MATR.         SANDSTONE            : Logunit      - NEUTRON MATRIX
TMAX.C        22.2222              : BHT          - MAXIMUM RECORDED TEMPERATURE
BHTD.M        417.576              : BHTDEP       - MAXIMUM RECORDED TEMPERATURE
MATR.         1                    : LOGUNIT      - NEUTRON MATRIX
RMT .C        25                   : MDTP         - TEMPERATURE OF MUD
NEUT.         1                    : NEUTRON      - NEUTRON TYPE
RESI.         0                    : RESIST       - RESISTIVITY TYPE
RMC .OHMM     0.25                 : RMC          - RESISTIVITY OF MUD CAKE
RMF .OHMM     0.25                 : RMF          - RESISTIVITY OF MUD FILTRATE
SUFT.C        15                   : SUFT         - SURFACE TEMPERATURE
~A  DEPTH     DENS       GR     PHID     PHIN     RESD
# ...
  252.832   -0.000   43.818    0.063    0.249   28.168
  253.082   -0.000   40.769    0.002    0.141   35.296
  253.332   -0.000   42.251   -0.000    0.128   39.034
  253.582    0.000   47.015    0.011    0.154   36.909
  253.832    0.000   53.525    0.044    0.215   30.512
  254.082    0.000   56.960    0.296    0.388   25.188
  254.332   -0.000   59.467    0.344    0.419   21.742
  254.582   -0.000   60.120    0.356    0.439   18.637
  254.832   -0.000   61.519    0.348    0.454   17.563
  255.082    0.000   61.571    0.353    0.472   17.620
  255.332    0.000   60.126    0.355    0.473   17.740
  255.582    0.000   59.080    0.354    0.462   17.955
  255.832   -0.000   60.476    0.360    0.447   17.728
  256.082   -0.000   61.295    0.355    0.441   17.566
  256.332    0.000   59.161    0.359    0.453   17.331
  256.582    0.000   60.726    0.372    0.462   17.144
  256.832    0.000   64.521    0.364    0.484   16.987
  257.082   -0.000   66.365    0.353    0.498   16.730
  257.332   -0.000   67.358    0.353    0.468   16.626
  257.582   -0.000   68.341    0.367    0.459   16.151
  257.832    0.000   67.439    0.351    0.478   15.920
  258.082    0.000   66.525    0.367    0.464   15.762
  258.332    0.000   68.313    0.377    0.476   15.591
  258.582   -0.000   65.811    0.372    0.465   15.316
  258.832   -0.000   64.628    0.363    0.467   15.360
  259.082    0.000   63.635    0.370    0.490   15.068
  259.332    0.000   62.980    0.374    0.494   15.054
  259.582    0.000   63.924    0.371    0.486   15.395
  259.832   -0.000   64.251    0.368    0.499   15.381
  260.082   -0.000   66.921    0.362    0.518   15.555
  260.332   -0.000   67.936    0.350    0.526   15.709
  260.582    0.000   66.897    0.344    0.503   16.256
  260.832    0.000   66.137    0.351    0.512   16.425
  261.082    0.000   66.968    0.345    0.503   16.595
  261.332   -0.000   69.028    0.348    0.467   16.625
  261.582   -0.000   70.052    0.348    0.454   16.051
  261.832   -0.000   72.407    0.340    0.474   14.478
  262.082    0.000   77.654    0.338    0.475    8.600
  262.332    0.000   81.974    0.316    0.494    6.909
  262.582   -0.000   84.395    0.276    0.539    5.082
  262.832   -0.000   82.533    0.275    0.570    4.565
  263.082   -0.000   77.702    0.296    0.535    5.086
  263.332    0.000   72.942    0.323    0.493    6.285
  263.582    0.000   71.460    0.335    0.467    8.136
  263.832    0.000   78.228    0.330    0.458    9.336
  264.082   -0.000   80.178    0.323    0.454    9.215
  264.332   -0.000   81.564    0.313    0.449    7.508
  264.582   -0.000   86.026    0.297    0.501    5.913
  264.832    0.000   91.510    0.251    0.531    4.904
  265.082    0.000   98.496    0.222    0.527    4.451
  265.332    0.000  101.513    0.236    0.496    4.229
  265.582   -0.000  102.902    0.222    0.488    4.152
  265.832   -0.000  104.285    0.213    0.497    4.176
  266.082    0.000  105.194    0.224    0.524    4.241
  266.332    0.000  105.181    0.234    0.559    4.127
  266.582    0.000  106.076    0.232    0.569    3.920
  266.832   -0.000  107.161    0.241    0.585    3.817
  267.082   -0.000  103.770    0.248    0.600    3.601
  267.332   -0.000  101.088    0.261    0.588    3.393
  267.582    0.000  103.244    0.246    0.606    3.191
  267.832    0.000  103.897    0.245    0.616    3.066
  268.082    0.000  104.636    0.247    0.621    3.003
  268.332   -0.000   97.305    0.243    0.616    2.907
  268.582   -0.000   99.888    0.252    0.617    2.896
  268.832    0.000  101.205    0.246    0.619    2.954
  269.082    0.000  105.248    0.250    0.620    2.980
  269.332    0.000  104.173    0.255    0.612    3.152
  269.582   -0.000   99.596    0.253    0.592    3.409
  269.832   -0.000  100.750    0.259    0.559    3.774
  270.082   -0.000  100.624    0.264    0.535    4.180
  270.332    0.000   90.348    0.249    0.527    4.821
  270.582    0.000   83.740    0.255    0.572    5.153
  270.832    0.000   87.310    0.266    0.587    5.126
  271.082   -0.000   89.005    0.257    0.607    4.531
  271.332   -0.000   93.390    0.236    0.614    3.972
  271.582   -0.000   95.580    0.242    0.615    3.508
  271.832    0.000   95.914    0.238    0.611    3.306
  272.082    0.000   94.148    0.263    0.607    3.138
  272.332   -0.000   93.855    0.250    0.608    3.150
  272.582   -0.000   92.828    0.249    0.611    3.180
  272.832   -0.000   93.576    0.266    0.602    3.281
  273.082    0.000   94.556    0.251    0.581    3.442
  273.332    0.000   94.626    0.259    0.583    3.536
  273.582    0.000   93.081    0.272    0.596    3.895
  273.832   -0.000   89.552    0.270    0.557    4.177
  274.082   -0.000   87.996    0.274    0.488    4.684
  274.332   -0.000   88.154    0.286    0.460    5.013
  274.582    0.000   90.975    0.255    0.465    5.017
  274.832    0.000   92.653    0.230    0.497    4.891
  275.082   -0.000   92.929    0.233    0.505    4.751
  275.332   -0.000   94.535    0.233    0.503    4.662
  275.582   -0.000   95.070    0.216    0.470    4.674
  275.832    0.000   92.563    0.223    0.474    5.004
  276.082    0.000   88.728    0.212    0.474    5.366
  276.332    0.000   84.929    0.229    0.443    5.880
  276.582   -0.000   84.089    0.255    0.433    6.146
  276.832   -0.000   84.363    0.242    0.450    6.303
  277.082   -0.000   85.444    0.241    0.465    6.163
  277.332    0.000   87.811    0.224    0.475    5.835
  277.582    0.000   91.183    0.211    0.487    5.389
  277.832    0.000   91.379    0.218    0.536    5.041
  278.082   -0.000   87.409    0.239    0.571    4.473
  278.332   -0.000   88.571    0.244    0.569    4.299
  278.582    0.000   91.436    0.249    0.599    4.064
  278.832    0.000   94.032    0.261    0.591    3.834
  279.082    0.000   97.733    0.270    0.568    3.634
  279.332   -0.000  100.018    0.248    0.588    3.587
  279.582   -0.000  100.894    0.245    0.585    3.463
  279.832   -0.000  102.588    0.262    0.609    3.196
  280.082    0.000  102.732    0.277    0.618    3.011
  280.332    0.000  100.248    0.273    0.609    2.979
  280.582    0.000  100.068    0.265    0.607    3.103
  280.832   -0.000   98.395    0.254    0.604    3.324
  281.082   -0.000   90.175    0.269    0.560    3.681
  281.332    0.000   81.659    0.299    0.527    4.233
  281.582    0.000   77.398    0.298    0.514    5.037
  281.832    0.000   78.374    0.297    0.483    5.701
  282.082   -0.000   82.688    0.276    0.475    6.222
  282.332   -0.000   83.653    0.263    0.514    6.625
  282.582   -0.000   86.111    0.257    0.489    6.860
  282.832    0.000   88.076    0.291    0.465    6.973
  283.082    0.000   88.948    0.278    0.494    6.993
  283.332    0.000   89.669    0.276    0.467    7.002
  283.582   -0.000   91.622    0.285    0.458    6.904
  283.832   -0.000   92.727    0.275    0.490    6.884
  284.082   -0.000   92.065    0.261    0.477    6.885
  284.332    0.000   89.549    0.255    0.518    6.879
  284.582    0.000   83.343    0.271    0.529    7.068
  284.832   -0.000   80.829    0.271    0.524    7.278
  285.082   -0.000   79.232    0.244    0.507    7.568
  285.332   -0.000   78.499    0.222    0.456    7.697
  285.582    0.000   82.265    0.201    0.439    7.578
  285.832    0.000   85.619    0.231    0.453    7.364
  286.082    0.000   85.015    0.269    0.477    7.141
  286.332   -0.000   83.979    0.263    0.486    6.819
  286.582   -0.000   84.860    0.261    0.497    6.666
  286.832   -0.000   85.858    0.279    0.519    6.682
  287.082    0.000   86.308    0.292    0.503    6.686
  287.332    0.000   86.202    0.272    0.497    6.689
  287.582    0.000   82.871    0.261    0.529    6.693
  287.832   -0.000   84.625    0.259    0.521    6.698
  288.082   -0.000   86.728    0.264    0.487    6.702
  288.332    0.000   87.209    0.272    0.473    6.706
  288.582    0.000   85.981    0.261    0.483    6.710
  288.832    0.000   84.609    0.239    0.493    6.714
  289.082   -0.000   83.771    0.248    0.498    6.720
