~VERSION INFORMATION
 VERS.                 2.0:   CWLS LOG ASCII STANDARD -VERSION 2.0
 WRAP.                  NO:   ONE LINE PER DEPTH STEP
~WELL INFORMATION BLOCK
#MNEM.UNIT           DATA                    DESCRIPTION OF MNEMONIC
#---------    -------------------            -------------------------------
# Generated from Intellog Unique Number	CS_77_79/WELL/960
WELL.         CDN. SUP. THORNBURY            : Well_name    - WELL
LOC .         00/10-22-078-14W4/0            : Location     - LOCATION
UWI .         00/10-22-078-14W4/0            : Uwi          - UNIQUE WELL ID
ENTR.         JHS                            : Entered      - ENTERED BY
SRVC.         SCHLUMBERGER                   : Scn          - SERVICE COMPANY
STRT.M        275                            : top_depth    - START DEPTH
STOP.M        518.25                         : bot_depth    - STOP DEPTH
STEP.M        0.25                           : increment    - STEP LENGTH
 NULL. -999.2500:NULL Value
~CURVE INFORMATION BLOCK
#MNEM UNIT       ERCB CURVE CODE    CURVE DESCRIPTION
#-----------   ------------------   ----------------------------------
DEPT.M        00 001 00 00         : DEPTH        - DEPTH
NPHI.V/V      00 330 00 00         : PHIN         - NEUTRON POROSITY (LIMESTONE)
GR  .API      00 310 00 00         : GR           - GAMMA RAY
ILD .OHMM     00 120 00 00         : RESD         - DEEP RESISTIVITY (DIL)
DPHI.V/V      00 890 00 00         : PHID         - DENSITY POROSITY (LIMESTONE)
~PARAMETER INFORMATION
#MNEM.UNIT           DATA             DESCRIPTION OF MNEMONIC
#---------         -----------     ------------------------------
GL  .M        685.4                : gl           - GROUND LEVEL ELEVATION
EREF.M        689.9                : kb           - ELEVATION OF DEPTH REFERENCE
DATM.M        689.9                : datum        - DATUM ELEVATION
TDD .M        665                  : tdd          - TOTAL DEPTH DRILLER
RUN .         ONE                  : Run          - RUN NUMBER
ENG .         BILL                 : Engineer     - RECORDING ENGINEER
WIT .         JIM                  : Witness      - WITNESSED BY
MUD .         GEL                  : Mud_type     - MUD TYPE
MATR.         LIMESTONE            : Logunit      - NEUTRON MATRIX
TMAX.C        19                   : BHT          - MAXIMUM RECORDED TEMPERATURE
BHTD.M        665                  : BHTDEP       - MAXIMUM RECORDED TEMPERATURE
MATR.         1                    : LOGUNIT      - NEUTRON MATRIX
RMT .C        25                   : MDTP         - TEMPERATURE OF MUD
NEUT.         1                    : NEUTRON      - NEUTRON TYPE
RESI.         0                    : RESIST       - RESISTIVITY TYPE
RMC .OHMM     0.25                 : RMC          - RESISTIVITY OF MUD CAKE
RMF .OHMM     0.25                 : RMF          - RESISTIVITY OF MUD FILTRATE
SUFT.C        15                   : SUFT         - SURFACE TEMPERATURE
~A  DEPTH     PHIN       GR     RESD     PHID
  275.000    0.402  107.411    3.369    0.220
  275.250    0.424  107.424    3.370    0.216
  275.500    0.421  106.818    3.307    0.219
  275.750    0.450  103.744    3.246    0.224
  276.000    0.498  100.055    3.309    0.225
  276.250    0.484  100.069    3.309    0.217
  276.500    0.533  101.932    3.310    0.212
  276.750    0.491  103.179    3.311    0.220
  277.000    0.474  103.811    3.250    0.215
  277.250    0.497  101.972    3.251    0.228
  277.500    0.482   98.898    3.314    0.223
  277.750    0.493   97.677    3.378    0.231
  278.000    0.447   99.543    3.443    0.232
  278.250    0.412  100.176    3.577    0.237
  278.500    0.391   99.570    3.647    0.237
  278.750    0.397  100.822    3.648    0.233
  279.000    0.375  101.451    3.580    0.231
  279.250    0.398  102.695    3.514    0.228
  279.500    0.429  102.707    3.514    0.224
  279.750    0.422  102.720    3.385    0.226
  280.000    0.437  103.970    3.322    0.243
  280.250    0.480  103.982    3.260    0.238
  280.500    0.458  100.908    3.200    0.229
  280.750    0.475   97.837    3.140    0.239
  281.000    0.510   99.085    3.082    0.259
  281.250    0.463  102.805    2.912    0.270
  281.500    0.501  104.665    2.804    0.260
  281.750    0.454  103.445    2.752    0.255
  282.000    0.424  105.310    2.701    0.251
  282.250    0.437  105.322    2.754    0.260
  282.500    0.448  102.867    2.754    0.268
  282.750    0.473  100.410    2.808    0.260
  283.000    0.482   97.338    2.862    0.254
  283.250    0.448   93.646    2.863    0.256
  283.500    0.441   96.750    2.864    0.272
  283.750    0.438   99.847    2.864    0.266
  284.000    0.435   98.626    2.920    0.251
  284.250    0.456   98.639    2.976    0.234
  284.500    0.438  100.503    2.977    0.230
  284.750    0.439  103.603    3.035    0.239
  285.000    0.459  103.617    3.094    0.245
  285.250    0.446  101.161    3.095    0.240
  285.500    0.454  101.174    3.155    0.221
  285.750    0.442  104.892    3.216    0.215
  286.000    0.432  106.140    3.217    0.209
  286.250    0.434  105.533    3.279    0.222
  286.500    0.445  102.461    3.280    0.230
  286.750    0.424   99.389    3.408    0.225
  287.000    0.411   99.400    3.474    0.225
  287.250    0.435  103.737    3.541    0.225
  287.500    0.447  106.217    3.679    0.225
  287.750    0.448  106.849    3.822    0.209
  288.000    0.426  103.776    3.897    0.185
  288.250    0.409  103.788    3.972    0.174
  288.500    0.400  105.035    3.898    0.166
  288.750    0.404  106.285    3.900    0.197
  289.000    0.412  106.915    3.827    0.211
  289.250    0.425  106.926    3.756    0.212
  289.500    0.430  106.943    3.549    0.205
  289.750    0.449  106.953    3.418    0.216
  290.000    0.456  104.497    3.418    0.226
  290.250    0.447  102.043    3.620    0.217
  290.500    0.441  102.671    3.690    0.202
  290.750    0.472  103.302    3.907    0.208
  291.000    0.458  104.552    3.908    0.217
  291.250    0.444  105.181    3.909    0.222
  291.500    0.413  104.578    3.836    0.221
  291.750    0.387  103.355    3.695    0.212
  292.000    0.398  102.133    3.695    0.209
  292.250    0.409  100.294    3.767    0.217
  292.500    0.423   99.076    3.840    0.222
  292.750    0.432   99.089    3.990    0.214
  293.000    0.419  100.335    4.067    0.211
  293.250    0.408  100.966    4.068    0.212
  293.500    0.406  103.447    4.147    0.209
  293.750    0.391  105.930    4.391    0.201
  294.000    0.373  101.006    5.016    0.188
  294.250    0.381   87.438    6.182    0.155
  294.500    0.376   70.784    7.765    0.130
  294.750    0.360   62.773    9.389    0.138
  295.000    0.388   66.492   11.141    0.204
  295.250    0.388   72.058   12.971    0.265
  295.500    0.398   79.482   12.974    0.253
  295.750    0.407   81.961   12.733    0.251
  296.000    0.405   86.913   12.031    0.236
  296.250    0.369   91.867   11.155    0.218
  296.500    0.354   94.965   10.540    0.195
  296.750    0.358   95.594    9.408    0.180
  297.000    0.379  101.164    8.558    0.179
  297.250    0.441  104.264    7.496    0.190
  297.500    0.466  106.746    6.442    0.201
  297.750    0.429  109.846    5.641    0.192
  298.000    0.410  109.859    5.036    0.194
  298.250    0.395  106.787    4.850    0.204
  298.500    0.379  106.798    4.670    0.210
  298.750    0.434  108.050    4.497    0.208
  299.000    0.449  109.911    4.169    0.205
  299.250    0.451  113.631    4.015    0.221
  299.500    0.431  114.261    4.093    0.224
  299.750    0.409  110.569    4.172    0.221
  300.000    0.407  106.261    4.858    0.216
  300.250    0.389  103.188    5.445    0.222
  300.500    0.397   99.496    5.875    0.236
  300.750    0.414   98.277    5.989    0.243
  301.000    0.402   98.289    6.223    0.251
  301.250    0.416   98.921    6.589    0.236
  301.500    0.410   98.934    7.246    0.214
  301.750    0.405   98.944    7.970    0.194
  302.000    0.420   97.723    8.439    0.195
  302.250    0.411  100.206    8.602    0.205
  302.500    0.395   98.987    8.443    0.164
  302.750    0.395  100.851    8.130    0.125
  303.000    0.407  105.184    7.538    0.123
  303.250    0.432  110.754    7.122    0.150
  303.500    0.413  108.915    7.261    0.227
  303.750    0.386  102.757    8.294    0.238
  304.000    0.369   95.361    9.475    0.241
  304.250    0.378   89.200   10.420    0.237
  304.500    0.398   85.511   11.461    0.241
  304.750    0.406   81.204   12.134    0.259
  305.000    0.421   79.363   12.850    0.279
  305.250    0.398   78.759   12.853    0.288
  305.500    0.378   80.628   12.855    0.281
  305.750    0.378   82.490   12.616    0.280
  306.000    0.377   82.505   13.358    0.291
  306.250    0.386   80.046   14.693    0.288
  306.500    0.411   76.356   15.558    0.285
  306.750    0.454   80.073   16.163    0.295
  307.000    0.447   85.643   15.864    0.309
  307.250    0.435   86.275   15.568    0.306
  307.500    0.418   86.904   15.280    0.305
  307.750    0.397   91.239   14.995    0.295
  308.000    0.386   95.572   14.169    0.285
  308.250    0.358   99.906   13.906    0.272
  308.500    0.347   96.214   13.909    0.264
  308.750    0.349   86.353   14.180    0.280
  309.000    0.357   83.898   14.732    0.292
  309.250    0.364   86.996   15.019    0.297
  309.500    0.377   91.330   15.020    0.284
  309.750    0.394   93.197   14.742    0.280
  310.000    0.394   98.148   14.197    0.285
  310.250    0.379  100.629   13.933    0.277
  310.500    0.378   97.559   13.418    0.259
  310.750    0.374   91.397   13.169    0.229
  311.000    0.365   80.915   13.424    0.220
  311.250    0.362   67.967   13.684    0.244
  311.500    0.374   64.275   13.688    0.268
  311.750    0.348   67.993   13.434    0.272
  312.000    0.358   71.714   13.185    0.253
  312.250    0.374   72.341   12.697    0.226
  312.500    0.365   72.353   11.998    0.219
  312.750    0.360   72.368   11.553    0.224
  313.000    0.348   74.232   10.712    0.232
  313.250    0.347   76.717   10.315    0.224
  313.500    0.350   79.815    9.383    0.184
  313.750    0.339   82.912    8.700    0.164
  314.000    0.370   89.716    7.914    0.187
  314.250    0.359   97.753    7.337    0.210
  314.500    0.361  105.791    6.549    0.194
  314.750    0.389  111.979    5.958    0.186
  315.000    0.411  114.462    5.629    0.190
  315.250    0.422  117.561    5.421    0.169
  315.500    0.437  119.425    5.221    0.162
  315.750    0.454  118.820    5.123    0.154
  316.000    0.473  123.157    5.125    0.170
  316.250    0.478  124.402    5.224    0.147
  316.500    0.446  122.565    5.532    0.145
  316.750    0.402  116.405    5.747    0.175
  317.000    0.408  109.627    5.971    0.172
  317.250    0.426  110.875    5.860    0.142
  317.500    0.450  120.148    5.331    0.142
  317.750    0.444  125.716    4.942    0.165
  318.000    0.428  128.818    4.582    0.192
  318.250    0.443  130.067    4.248    0.206
