~VERSION INFORMATION
 VERS.                 2.0:   CWLS LOG ASCII STANDARD -VERSION 2.0
 WRAP.                  NO:   ONE LINE PER DEPTH STEP
~WELL INFORMATION BLOCK
#MNEM.UNIT           DATA                    DESCRIPTION OF MNEMONIC
#---------    -------------------            -------------------------------
# Generated from Intellog Unique Number	CS_73_76/WELL/2200
WELL.         PEX KIRBY                      : Well_name    - WELL
LOC .         AA/11-10-074-08W4/0            : Location     - LOCATION
UWI .         AA/11-10-074-08W4/0            : Uwi          - UNIQUE WELL ID
ENTR.         SP                             : Entered      - ENTERED BY
SRVC.         SCHLUMBERGER                   : Scn          - SERVICE COMPANY
STRT.M        310                            : top_depth    - START DEPTH
STOP.M        533                            : bot_depth    - STOP DEPTH
STEP.M        0.25                           : increment    - STEP LENGTH
 NULL. -999.2500:NULL Value
~CURVE INFORMATION BLOCK
#MNEM UNIT       ERCB CURVE CODE    CURVE DESCRIPTION
#-----------   ------------------   ----------------------------------
DEPT.M        00 001 00 00         : DEPTH        - DEPTH
ILD .OHMM     00 120 00 00         : RESD         - DEEP RESISTIVITY (DIL)
DPHI.V/V      00 890 00 00         : PHID         - DENSITY POROSITY (LIMESTONE)
NPHI.V/V      00 330 00 00         : PHIN         - NEUTRON POROSITY (LIMESTONE)
GR  .API      00 310 00 00         : GR           - GAMMA RAY
~PARAMETER INFORMATION
#MNEM.UNIT           DATA             DESCRIPTION OF MNEMONIC
#---------         -----------     ------------------------------
GL  .M        692.3                : gl           - GROUND LEVEL ELEVATION
EREF.M        695.8                : kb           - ELEVATION OF DEPTH REFERENCE
DATM.M        692.3                : datum        - DATUM ELEVATION
TDD .M        538                  : tdd          - TOTAL DEPTH DRILLER
RUN .         ONE                  : Run          - RUN NUMBER
ENG .         BILL                 : Engineer     - RECORDING ENGINEER
WIT .         JIM                  : Witness      - WITNESSED BY
MUD .         GEL                  : Mud_type     - MUD TYPE
MATR.         LIMESTONE            : Logunit      - NEUTRON MATRIX
TMAX.C        23                   : BHT          - MAXIMUM RECORDED TEMPERATURE
BHTD.M        538                  : BHTDEP       - MAXIMUM RECORDED TEMPERATURE
MATR.         1                    : LOGUNIT      - NEUTRON MATRIX
RMT .C        25                   : MDTP         - TEMPERATURE OF MUD
NEUT.         1                    : NEUTRON      - NEUTRON TYPE
RESI.         0                    : RESIST       - RESISTIVITY TYPE
RMC .OHMM     0.25                 : RMC          - RESISTIVITY OF MUD CAKE
RMF .OHMM     0.25                 : RMF          - RESISTIVITY OF MUD FILTRATE
SUFT.C        15                   : SUFT         - SURFACE TEMPERATURE
~A  DEPTH     RESD     PHID     PHIN       GR
  310.000    4.324    0.219    0.464   88.408
  310.250    4.408    0.235    0.456   90.835
  310.500    4.410    0.235    0.439   92.041
  310.750    4.249    0.232    0.456   93.858
  311.000    4.094    0.234    0.486   96.283
  311.250    3.871    0.235    0.502   95.663
  311.500    3.660    0.240    0.494   93.213
  311.750    3.527    0.242    0.505   86.489
  312.000    3.398    0.245    0.523   85.258
  312.250    3.596    0.243    0.538   86.469
  312.500    3.735    0.247    0.527   94.382
  312.750    3.880    0.235    0.506   96.194
  313.000    4.030    0.230    0.484   96.793
  313.250    4.031    0.228    0.501   96.176
  313.500    4.033    0.237    0.507   97.379
  313.750    4.034    0.233    0.497   98.589
  314.000    4.113    0.223    0.497   95.527
  314.250    4.037    0.231    0.508   94.905
  314.500    4.039    0.245    0.519   96.721
  314.750    3.965    0.253    0.526   97.320
  315.000    4.042    0.239    0.469   89.381
  315.250    4.698    0.235    0.448   81.444
  315.500    5.671    0.256    0.134   60.699
  315.750    8.258    0.329    0.117   41.175
  316.000   13.207    0.354    0.090   33.235
  316.250   23.642    0.383    0.078   28.955
  316.500   53.016    0.415    0.069   27.727
  316.750   94.901    0.425    0.068   27.706
  317.000  116.713    0.403    0.158   28.307
  317.250  114.588    0.391    0.218   28.907
  317.500   80.244    0.380    0.278   31.942
  317.750   52.128    0.367    0.303   44.736
  318.000   33.864    0.353    0.342   58.747
  318.250   20.794    0.305    0.359   69.712
  318.500   16.298    0.293    0.361   70.918
  318.750   14.843    0.319    0.343   65.418
  319.000   13.518    0.316    0.326   61.749
  319.250   12.313    0.276    0.350   72.710
  319.500   11.643    0.254    0.366   78.186
  319.750   11.218    0.230    0.374   83.048
  320.000   10.217    0.211    0.394   89.129
  320.250    9.132    0.215    0.428   90.953
  320.500    8.966    0.205    0.441   87.280
  320.750    8.970    0.200    0.397   82.390
  321.000    9.316    0.214    0.377   81.767
  321.250    9.497    0.209    0.381   82.975
  321.500    9.864    0.215    0.401   86.623
  321.750    9.866    0.210    0.402   87.831
  322.000    9.687    0.207    0.382   86.599
  322.250    9.691    0.199    0.391   88.414
  322.500   10.452    0.198    0.397   86.575
  322.750   10.855    0.231    0.398   81.072
  323.000   11.486    0.253    0.406   77.401
  323.250   13.106    0.267    0.424   74.340
  323.500   14.132    0.282    0.429   72.497
  323.750   16.123    0.295    0.421   70.659
  324.000   17.716    0.306    0.405   68.820
  324.250   18.748    0.314    0.392   65.756
  324.500   18.756    0.314    0.394   64.527
  324.750   17.408    0.301    0.396   75.488
  325.000   18.084    0.270    0.396   69.986
  325.250   18.560    0.284    0.406   59.003
  325.500   19.140    0.301    0.419   38.869
  325.750   20.259    0.338    0.376   32.759
  326.000   21.041    0.344    0.354   33.355
  326.250   22.266    0.333    0.350   37.609
  326.500   23.128    0.328    0.376   40.036
  326.750   23.575    0.335    0.399   37.588
  327.000   23.584    0.337    0.383   32.699
  327.250   23.592    0.335    0.366   35.119
  327.500   22.732    0.329    0.373   38.160
  327.750   21.096    0.315    0.398   53.392
  328.000   19.948    0.304    0.404   58.865
  328.250   18.862    0.316    0.416   58.245
  328.500   18.520    0.332    0.397   55.179
  328.750   18.182    0.327    0.389   53.954
  329.000   16.560    0.312    0.372   52.108
  329.250   15.082    0.295    0.365   56.365
  329.500   13.230    0.262    0.360   62.450
  329.750   11.605    0.267    0.345   77.072
  330.000   10.372    0.145    0.362   92.302
  330.250    8.441    0.141    0.430   98.386
  330.500    7.132    0.141    0.487  102.029
  330.750    6.374    0.135    0.486  103.851
  331.000    5.805    0.165    0.458  109.322
  331.250    5.189    0.198    0.447  112.358
  331.500    4.639    0.205    0.454  113.567
  331.750    4.386    0.204    0.456  111.116
  332.000    3.994    0.207    0.482  110.494
  332.250    3.777    0.210    0.492  111.094
  332.500    3.708    0.225    0.512  109.251
  332.750    3.999    0.244    0.528   96.435
  333.000    4.563    0.261    0.520   83.011
  333.250    4.919    0.258    0.469   79.950
  333.500    5.719    0.233    0.407   79.935
  333.750    7.033    0.224    0.415   78.702
  334.000    8.981    0.235    0.401   76.254
  334.250   10.637    0.244    0.411   75.022
  334.500   11.690    0.249    0.395   77.448
  334.750   11.693    0.253    0.379   78.043
  335.000   11.481    0.241    0.392   75.593
  335.250   11.702    0.240    0.411   76.193
  335.500   12.620    0.253    0.416   74.961
  335.750   13.106    0.278    0.420   67.629
  336.000   14.402    0.298    0.440   65.784
  336.250   15.243    0.287    0.428   66.387
  336.500   15.833    0.274    0.410   68.202
  336.750   16.137    0.273    0.412   66.974
  337.000   15.843    0.263    0.427   62.080
  337.250   12.894    0.262    0.422   62.680
  337.500   10.691    0.263    0.415   67.540
  337.750    9.920    0.258    0.406   72.410
  338.000    8.703    0.270    0.413   74.226
  338.250    8.543    0.280    0.434   71.775
  338.500    8.232    0.284    0.426   72.375
  338.750    8.082    0.281    0.412   75.411
  339.000    8.087    0.269    0.409   76.615
  339.250    8.242    0.261    0.417   75.997
  339.500    8.888    0.271    0.426   73.543
  339.750    9.766    0.295    0.434   68.651
  340.000   10.730    0.313    0.438   66.814
  340.250   12.242    0.332    0.431   62.530
  340.500   13.969    0.348    0.418   60.692
  340.750   14.507    0.335    0.414   60.680
  341.000   15.645    0.338    0.436   62.495
  341.250   16.249    0.332    0.448   63.093
  341.500   16.875    0.329    0.432   63.081
  341.750   17.527    0.334    0.444   62.455
  342.000   19.997    0.342    0.465   62.448
  342.250   23.247    0.322    0.457   63.044
  342.500   25.541    0.234    0.435   59.983
  342.750   27.546    0.039    0.374   53.265
  343.000   25.561    0.141    0.248   50.814
  343.250   21.596    0.215    0.347   51.412
  343.500   17.573    0.265    0.377   58.106
  343.750   13.774    0.298    0.416   64.800
  344.000   11.858    0.316    0.453   70.884
  344.250    9.833    0.317    0.427   74.530
  344.500    8.955    0.302    0.429   73.296
  344.750    9.128    0.292    0.443   70.237
  345.000    9.480    0.310    0.431   64.739
  345.250   10.035    0.320    0.414   62.287
  345.500   10.228    0.309    0.442   64.716
  345.750   10.426    0.308    0.478   68.971
  346.000   10.831    0.315    0.441   67.738
  346.250   11.248    0.304    0.430   63.452
  346.500   11.903    0.280    0.429   61.614
  346.750   13.582    0.265    0.415   57.334
  347.000   14.104    0.103    0.275   53.667
  347.250   14.650    0.038    0.169   46.335
  347.500   14.654    0.072    0.148   42.666
  347.750   13.858    0.180    0.286   50.580
  348.000   13.105    0.219    0.345   64.590
  348.250   12.626    0.268    0.363   62.745
  348.500   11.938    0.276    0.384   61.518
  348.750   10.672    0.279    0.400   62.727
  349.000   10.090    0.282    0.411   66.372
  349.250    9.542    0.278    0.430   67.578
  349.500    9.911    0.292    0.427   66.348
  349.750   10.893    0.303    0.439   63.889
  350.000   11.102    0.311    0.428   63.880
  350.250   11.316    0.318    0.443   64.481
  350.500   11.108    0.314    0.446   69.956
  350.750   10.309    0.280    0.421   80.917
  351.000    9.215    0.211    0.416   91.272
  351.250    8.236    0.198    0.435   99.796
  351.500    7.362    0.200    0.461  104.052
  351.750    6.961    0.219    0.482   97.940
  352.000    6.707    0.233    0.495   95.489
  352.250    6.967    0.238    0.483   96.697
  352.500    7.373    0.246    0.481   97.296
  352.750    8.103    0.260    0.469   94.843
  353.000    8.737    0.263    0.458   92.998
  353.250    9.074    0.265    0.456   92.382
