~VERSION INFORMATION
 VERS.                 2.0:   CWLS LOG ASCII STANDARD -VERSION 2.0
 WRAP.                  NO:   ONE LINE PER DEPTH STEP
~WELL INFORMATION BLOCK
#MNEM.UNIT           DATA                    DESCRIPTION OF MNEMONIC
#---------    -------------------            -------------------------------
# Generated from Intellog Unique Number	CS_67_68/WELL/818
WELL.         AMOCO CANADA PETROLEUM         : Well_name    - WELL
LOC .         00/11-03-068-18W4/0            : Location     - LOCATION
UWI .         00/11-03-068-18W4/0            : Uwi          - UNIQUE WELL ID
ENTR.         SP                             : Entered      - ENTERED BY
SRVC.         SCHLUMBERGER                   : Scn          - SERVICE COMPANY
STRT.M        289.560                        : top_depth    - START DEPTH
STOP.M        502.560                        : bot_depth    - STOP DEPTH
STEP.M        0.25                           : increment    - STEP LENGTH
 NULL. -999.2500:NULL Value
~CURVE INFORMATION BLOCK
#MNEM UNIT       ERCB CURVE CODE    CURVE DESCRIPTION
#-----------   ------------------   ----------------------------------
DEPT.M        00 001 00 00         : DEPTH        - DEPTH
GR  .API      00 310 00 00         : GR           - GAMMA RAY
DPHI.V/V      00 890 00 00         : PHID         - DENSITY POROSITY (SANDSTONE)
NPHI.V/V      00 330 00 00         : PHIN         - NEUTRON POROSITY (SANDSTONE)
ILD .OHMM     00 120 00 00         : RESD         - DEEP RESISTIVITY (DIL)
~PARAMETER INFORMATION
#MNEM.UNIT           DATA             DESCRIPTION OF MNEMONIC
#---------         -----------     ------------------------------
GL  .M        556.992              : gl           - GROUND LEVEL ELEVATION
EREF.M        561.137              : kb           - ELEVATION OF DEPTH REFERENCE
DATM.M        556.992              : datum        - DATUM ELEVATION
TDD .M        519.989              : tdd          - TOTAL DEPTH DRILLER
RUN .         ONE                  : Run          - RUN NUMBER
ENG .         BILL                 : Engineer     - RECORDING ENGINEER
WIT .         JIM                  : Witness      - WITNESSED BY
MUD .         GEL                  : Mud_type     - MUD TYPE
MATR.         SANDSTONE            : Logunit      - NEUTRON MATRIX
TMAX.C        31.6667              : BHT          - MAXIMUM RECORDED TEMPERATURE
BHTD.M        519.989              : BHTDEP       - MAXIMUM RECORDED TEMPERATURE
MATR.         1                    : LOGUNIT      - NEUTRON MATRIX
RMT .C        25                   : MDTP         - TEMPERATURE OF MUD
NEUT.         1                    : NEUTRON      - NEUTRON TYPE
RESI.         0                    : RESIST       - RESISTIVITY TYPE
RMC .OHMM     0.25                 : RMC          - RESISTIVITY OF MUD CAKE
RMF .OHMM     0.25                 : RMF          - RESISTIVITY OF MUD FILTRATE
SUFT.C        15                   : SUFT         - SURFACE TEMPERATURE
~A  DEPTH       GR     PHID     PHIN     RESD
  289.560  109.418    0.221    0.448    3.092
  289.810  109.263    0.205    0.438    3.134
  290.060  108.430    0.192    0.433    3.142
  290.310  108.217    0.182    0.435    3.134
  290.560  109.754    0.201    0.443    3.158
  290.810  107.685    0.218    0.447    3.095
  291.060  104.597    0.213    0.445    3.056
  291.310  104.385    0.205    0.455    3.065
  291.560  102.109    0.198    0.461    3.097
  291.810   99.164    0.227    0.458    3.194
  292.060  102.799    0.254    0.470    3.291
  292.310  101.393    0.268    0.477    3.412
  292.560   92.838    0.273    0.424    3.333
  292.810   84.363    0.288    0.397    3.166
  293.060   76.188    0.276    0.365    3.173
  293.310   65.166    0.256    0.343    3.326
  293.560   55.409    0.241    0.318    3.412
  293.810   47.788    0.236    0.285    3.192
  294.060   42.483    0.222    0.286    2.917
  294.310   39.959    0.228    0.306    2.703
  294.560   43.836    0.202    0.330    2.490
  294.810   55.496    0.245    0.330    2.552
  295.060   70.590    0.241    0.327    2.724
  295.310   81.227    0.230    0.347    2.958
  295.560   86.543    0.221    0.362    3.184
  295.810   83.975    0.217    0.378    3.261
  296.060   77.929    0.227    0.397    3.177
  296.310   72.632    0.241    0.381    3.104
  296.560   70.193    0.256    0.372    3.078
  296.810   68.435    0.265    0.362    3.020
  297.060   70.249    0.253    0.354    3.051
  297.310   77.073    0.251    0.379    3.075
  297.560   77.203    0.248    0.392    3.086
  297.810   72.690    0.228    0.407    3.088
  298.060   73.413    0.208    0.371    3.075
  298.310   83.190    0.198    0.382    3.033
  298.560   88.984    0.196    0.406    2.960
  298.810   89.166    0.219    0.423    2.912
  299.060   81.236    0.230    0.437    2.868
  299.310   75.864    0.240    0.430    2.845
  299.560   69.957    0.257    0.415    2.863
  299.810   67.028    0.250    0.394    2.840
  300.060   74.327    0.240    0.385    2.797
  300.310   76.298    0.229    0.409    2.750
  300.560   70.952    0.211    0.427    2.697
  300.810   65.267    0.186    0.445    2.660
  301.060   65.364    0.237    0.376    2.661
  301.310   74.578    0.221    0.356    2.670
  301.560   79.038    0.211    0.379    2.690
  301.810   80.901    0.205    0.401    2.719
  302.060   81.830    0.223    0.418    2.776
  302.310   80.411    0.226    0.395    2.877
  302.560   74.490    0.223    0.408    2.959
  302.810   70.280    0.250    0.403    2.992
  303.060   68.076    0.251    0.390    3.022
  303.310   67.942    0.262    0.380    3.044
  303.560   70.579    0.249    0.373    3.035
  303.810   75.046    0.241    0.371    2.993
  304.060   77.150    0.230    0.387    2.949
  304.310   77.020    0.222    0.408    2.879
  304.560   78.780    0.228    0.398    2.787
  304.810   84.288    0.231    0.415    2.720
  305.060   84.502    0.239    0.429    2.690
  305.310   80.053    0.242    0.443    2.688
  305.560   80.951    0.232    0.431    2.683
  305.810   81.032    0.225    0.439    2.670
  306.060   79.573    0.222    0.455    2.628
  306.310   76.823    0.250    0.434    2.574
  306.560   75.784    0.234    0.414    2.574
  306.810   76.717    0.256    0.406    2.605
  307.060   79.014    0.260    0.422    2.636
  307.310   81.706    0.248    0.417    2.671
  307.560   83.929    0.242    0.429    2.687
  307.810   82.745    0.244    0.423    2.710
  308.060   74.072    0.245    0.418    2.725
  308.310   69.666    0.254    0.411    2.766
  308.560   68.947    0.256    0.402    2.840
  308.810   68.886    0.236    0.403    2.896
  309.060   66.965    0.229    0.406    2.951
  309.310   64.395    0.227    0.390    3.019
  309.560   64.330    0.234    0.380    2.984
  309.810   67.695    0.235    0.375    2.911
  310.060   72.408    0.240    0.375    2.898
  310.310   76.332    0.241    0.391    2.921
  310.560   79.492    0.229    0.409    2.972
  310.810   81.563    0.218    0.425    3.000
  311.060   81.939    0.211    0.447    3.028
  311.310   76.173    0.232    0.451    3.018
  311.560   72.043    0.236    0.429    3.000
  311.810   77.809    0.225    0.408    2.973
  312.060   83.245    0.214    0.400    2.939
  312.310   87.078    0.205    0.400    2.908
  312.560   88.984    0.200    0.424    2.898
  312.810   91.044    0.210    0.443    2.883
  313.060   92.701    0.215    0.460    2.878
  313.310   93.184    0.201    0.477    2.895
  313.560   93.735    0.202    0.461    2.935
  313.810   94.449    0.187    0.443    2.961
  314.060   95.942    0.197    0.427    2.991
  314.310   96.758    0.212    0.429    2.986
  314.560   97.142    0.200    0.448    2.975
  314.810   97.019    0.196    0.449    2.950
  315.060   99.659    0.196    0.450    2.928
  315.310  102.067    0.197    0.460    2.896
  315.560   98.628    0.181    0.458    2.848
  315.810   96.748    0.189    0.447    2.807
  316.060   95.934    0.203    0.443    2.727
  316.310   96.070    0.214    0.452    2.643
  316.560   96.509    0.238    0.469    2.539
  316.810   96.353    0.269    0.487    2.460
  317.060   95.310    0.298    0.508    2.398
  317.310   93.120    0.306    0.521    2.318
  317.560   91.106    0.299    0.514    2.280
  317.810   90.132    0.294    0.508    2.226
  318.060   89.962    0.272    0.500    2.180
  318.310   87.641    0.282    0.495    2.127
  318.560   84.477    0.313    0.496    2.085
  318.810   84.731    0.327    0.508    2.073
  319.060   86.998    0.335    0.522    2.153
  319.310   88.491    0.336    0.513    2.213
  319.560   89.481    0.330    0.507    2.288
  319.810   89.857    0.297    0.501    2.358
  320.060   88.762    0.304    0.499    2.388
  320.310   91.282    0.318    0.516    2.386
  320.560   92.269    0.296    0.504    2.339
  320.810   91.974    0.292    0.497    2.286
  321.060   91.588    0.303    0.500    2.208
  321.310   90.472    0.292    0.513    2.134
  321.560   87.613    0.280    0.516    2.093
  321.810   86.506    0.254    0.539    2.085
  322.060   89.496    0.239    0.552    2.094
  322.310   89.131    0.239    0.532    2.148
  322.560   84.879    0.241    0.535    2.231
  322.810   81.133    0.204    0.526    2.301
  323.060   79.385    0.210    0.519    2.349
  323.310   84.415    0.194    0.514    2.373
  323.560   88.402    0.257    0.524    2.372
  323.810   91.050    0.259    0.529    2.372
  324.060   90.811    0.246    0.539    2.367
  324.310   88.658    0.217    0.530    2.368
  324.560   86.272    0.232    0.525    2.380
  324.810   85.223    0.246    0.533    2.411
  325.060   87.796    0.243    0.544    2.489
  325.310   91.467    0.249    0.528    2.590
  325.560   94.521    0.272    0.506    2.691
  325.810   97.180    0.237    0.484    2.768
  326.060   97.841    0.191    0.488    2.820
  326.310   94.328    0.182    0.495    2.872
  326.560   88.587    0.193    0.490    2.912
  326.810   87.373    0.205    0.460    2.936
  327.060   89.315    0.206    0.436    2.932
  327.310   92.495    0.198    0.454    2.914
  327.560   94.907    0.191    0.469    2.906
  327.810   96.212    0.184    0.485    2.890
  328.060   95.789    0.191    0.502    2.837
  328.310   94.812    0.200    0.507    2.804
  328.560   96.321    0.193    0.519    2.745
  328.810   97.661    0.208    0.531    2.676
  329.060   98.235    0.230    0.513    2.633
  329.310   96.205    0.210    0.504    2.588
  329.560   92.718    0.200    0.506    2.607
  329.810   88.587    0.190    0.518    2.673
  330.060   84.551    0.162    0.523    2.744
  330.310   81.173    0.091    0.523    2.769
  330.560   82.695    0.035    0.468    2.691
  330.810   86.914    0.148    0.463    2.626
  331.060   89.866    0.213    0.476    2.544
  331.310   92.567    0.239    0.482    2.491
  331.560   93.393    0.249    0.484    2.422
  331.810   93.250    0.227    0.485    2.418
  332.060   90.297    0.229    0.476    2.434
  332.310   86.842    0.237    0.469    2.440
  332.560   84.117    0.252    0.464    2.416
  332.810   85.034    0.243    0.474    2.340
