~VERSION INFORMATION
 VERS.                 2.0:   CWLS LOG ASCII STANDARD -VERSION 2.0
 WRAP.                  NO:   ONE LINE PER DEPTH STEP
~WELL INFORMATION BLOCK
#MNEM.UNIT           DATA                    DESCRIPTION OF MNEMONIC
#---------    -------------------            -------------------------------
# Generated from Intellog Unique Number	CW_73_75/WELL/1033
WELL.         SULPETRO ET AT FAWCETT 11-02   : Well_name    - WELL
LOC .         00/11-02-075-21W4/0            : Location     - LOCATION
UWI .         00/11-02-075-21W4/0            : Uwi          - UNIQUE WELL ID
ENTR.         JAYE                           : Entered      - ENTERED BY
SRVC.         SCHLUMBERGER                   : Scn          - SERVICE COMPANY
DATE.         5 MAR 82                       : Date         - LOG DATE
STRT.M        370                            : top_depth    - START DEPTH
STOP.M        575                            : bot_depth    - STOP DEPTH
STEP.M        0.25                           : increment    - STEP LENGTH
 NULL. -999.2500:NULL Value
~CURVE INFORMATION BLOCK
#MNEM UNIT       ERCB CURVE CODE    CURVE DESCRIPTION
#-----------   ------------------   ----------------------------------
DEPT.M        00 001 00 00         : DEPTH        - DEPTH
ILD .OHMM     00 120 00 00         : RESD         - DEEP RESISTIVITY (DIL)
NPHI.V/V      00 330 00 00         : PHIN         - NEUTRON POROSITY (SANDSTONE)
DPHI.V/V      00 890 00 00         : PHID         - DENSITY POROSITY (SANDSTONE)
CALI.MM       00 280 01 00         : CAL          - CALIPER
GR  .API      00 310 00 00         : GR           - GAMMA RAY
~PARAMETER INFORMATION
#MNEM.UNIT           DATA             DESCRIPTION OF MNEMONIC
#---------         -----------     ------------------------------
GL  .M        676.38               : gl           - GROUND LEVEL ELEVATION
EREF.M        679.28               : kb           - ELEVATION OF DEPTH REFERENCE
DATM.M        676.38               : datum        - DATUM ELEVATION
TDD .M        598.5                : tdd          - TOTAL DEPTH DRILLER
RUN .         ONE                  : Run          - RUN NUMBER
ENG .         SMYTHE               : Engineer     - RECORDING ENGINEER
WIT .         ROWE                 : Witness      - WITNESSED BY
BASE.         EDM                  : Branch       - HOME BASE OF LOGGING UNIT
MUD .         DAPP MUD             : Mud_type     - MUD TYPE
MATR.         SANDSTONE            : Logunit      - NEUTRON MATRIX
TMAX.C        23.3                 : BHT          - MAXIMUM RECORDED TEMPERATURE
BHTD.M        598.5                : BHTDEP       - MAXIMUM RECORDED TEMPERATURE
RMT .C        16.6                 : MDTP         - TEMPERATURE OF MUD
MUDD.KG/M     1190                 : MWT          - MUD DENSITY
NEUT.         1                    : NEUTRON      - NEUTRON TYPE
RESI.         0                    : RESIST       - RESISTIVITY TYPE
RM  .OHMM     1.874                : RM           - RESISTIVITY OF MUD
RMC .OHMM     0                    : RMC          - RESISTIVITY OF MUD CAKE
RMF .OHMM     1.85                 : RMF          - RESISTIVITY OF MUD FILTRATE
SUFT.C        0                    : SUFT         - SURFACE TEMPERATURE
~A  DEPTH     RESD     PHIN     PHID      CAL       GR
# ...
  406.500    5.258    0.487    0.331  159.399   77.876
  406.750    5.183    0.466    0.331  159.427   82.075
  407.000    5.208    0.450    0.323  159.769   84.901
  407.250    5.242    0.460    0.302  160.319   89.350
  407.500    5.227    0.479    0.281  160.970  105.721
  407.750    5.212    0.490    0.266  162.455  115.414
  408.000    5.246    0.480    0.245  163.837  126.854
  408.250    5.279    0.452    0.232  165.423  136.109
  408.500    5.294    0.458    0.258  165.041  125.890
  408.750    5.319    0.473    0.291  163.715   95.947
  409.000    5.353    0.492    0.303  161.249   82.919
  409.250    5.338    0.485    0.311  159.510   69.953
  409.500    5.373    0.450    0.314  158.391   63.852
  409.750    5.398    0.422    0.315  157.175   61.250
  410.000    5.453    0.430    0.321  156.576   60.704
  410.250    5.489    0.431    0.330  156.714   61.283
  410.500    5.442    0.430    0.330  157.365   62.361
  410.750    5.438    0.441    0.311  157.811   64.752
  411.000    5.555    0.457    0.299  158.046   67.328
  411.250    5.666    0.463    0.304  158.077   70.716
  411.500    5.735    0.461    0.305  157.379   73.915
  411.750    5.806    0.444    0.282  156.469   77.182
  412.000    5.656    0.421    0.276  155.559   79.257
  412.250    5.795    0.412    0.269  155.487   81.272
  412.500    6.091    0.420    0.270  156.344   83.598
  412.750    6.390    0.438    0.290  157.733   76.251
  413.000    6.691    0.430    0.312  158.796   68.091
  413.250    7.099    0.420    0.308  160.177   64.237
  413.500    7.462    0.435    0.310  161.353   63.755
  413.750    7.288    0.439    0.311  161.796   68.269
  414.000    6.727    0.444    0.308  162.350   73.842
  414.250    6.758    0.460    0.304  162.793   77.852
  414.500    7.390    0.477    0.288  163.130   81.678
  414.750    8.424    0.447    0.268  163.680   81.444
  415.000    9.005    0.285    0.158  163.396   78.529
  415.250    8.928    0.249    0.040  162.804   64.314
  415.500    8.257    0.264    0.126  162.415   58.590
  415.750    7.465    0.363    0.218  160.991   63.600
  416.000    6.585    0.401    0.303  160.185   72.855
  416.250    5.809    0.432    0.309  159.171   74.870
  416.500    5.163    0.430    0.308  158.162   76.511
  416.750    4.911    0.429    0.300  158.190   81.896
  417.000    4.861    0.438    0.282  158.327   80.228
  417.250    4.938    0.442    0.300  158.769   72.257
  417.500    5.028    0.422    0.315  159.524   68.965
  417.750    5.176    0.418    0.304  159.657   66.048
  418.000    5.278    0.434    0.307  159.378   63.818
  418.250    5.314    0.454    0.324  158.882   70.453
  418.500    5.358    0.465    0.329  158.291   78.647
  418.750    5.384    0.468    0.299  157.693   82.971
  419.000    5.378    0.450    0.267  158.452   87.296
  419.250    5.382    0.428    0.252  160.666   93.618
  419.500    5.377    0.434    0.245  162.359  100.314
  419.750    5.362    0.460    0.259  163.426  101.018
  420.000    5.357    0.482    0.273  163.665   99.289
  420.250    5.371    0.479    0.284  163.383   98.493
  420.500    5.345    0.478    0.271  162.580   98.572
  420.750    5.270    0.486    0.254  162.605   98.840
  421.000    5.215    0.494    0.268  162.946   98.170
  421.250    5.152    0.505    0.292  163.081   95.068
  421.500    5.116    0.504    0.288  163.214   95.398
  421.750    5.141    0.482    0.246  164.802  101.781
  422.000    5.184    0.461    0.204  167.432  109.725
  422.250    5.247    0.466    0.183  170.166  115.235
  422.500    5.352    0.478    0.181  172.382  117.126
  422.750    5.541    0.495    0.192  172.933  114.771
  423.000    5.748    0.529    0.209  172.853  110.545
  423.250    5.829    0.527    0.198  172.884  109.438
  423.500    5.781    0.483    0.192  173.019  117.569
  423.750    5.688    0.428    0.185  173.045  124.578
  424.000    5.421    0.428    0.152  172.871  114.671
  424.250    5.108    0.433    0.156  173.000  110.194
  424.500    4.724    0.434    0.175  172.720  111.149
  424.750    4.255    0.456    0.200  172.536  113.475
  425.000    3.761    0.474    0.257  172.569  113.867
  425.250    3.458    0.498    0.301  172.599  113.010
  425.500    3.283    0.564    0.309  172.519  111.841
  425.750    3.268    0.587    0.305  172.131  108.738
  426.000    3.896    0.626    0.299  172.784   96.583
  426.250    4.458    0.572    0.303  171.462   86.051
  426.500    5.005    0.458    0.312  167.848   76.206
  426.750    5.912    0.424    0.317  162.781   67.734
  427.000    6.879    0.445    0.313  157.920   63.008
  427.250    6.834    0.451    0.325  156.699   62.714
  427.500    6.662    0.423    0.330  158.291   63.106
  427.750    6.397    0.417    0.327  160.298   64.310
  428.000    6.096    0.430    0.331  162.300   64.763
  428.250    5.799    0.435    0.341  161.810   64.094
  428.500    5.557    0.422    0.345  158.821   63.549
  428.750    5.722    0.410    0.345  157.809   63.506
  429.000    5.846    0.427    0.344  158.047   64.397
  429.250    5.919    0.425    0.345  159.121   67.658
  429.500    5.936    0.409    0.346  159.980   71.172
  429.750    5.929    0.415    0.345  160.737   69.191
  430.000    5.967    0.423    0.344  160.766   66.275
  430.250    6.050    0.408    0.343  160.483   66.168
  430.500    6.079    0.411    0.340  160.407   67.684
  430.750    6.131    0.426    0.334  159.919   69.448
  431.000    6.080    0.428    0.323  159.422   69.340
  431.250    5.882    0.420    0.324  158.932   67.673
  431.500    5.552    0.438    0.338  158.548   67.629
  431.750    5.393    0.449    0.343  158.368   69.144
  432.000    5.227    0.472    0.338  158.188   69.971
  432.250    4.991    0.478    0.345  158.009   69.990
  432.500    4.884    0.464    0.355  157.728   67.573
  432.750    4.690    0.459    0.351  157.341   65.030
  433.000    4.598    0.459    0.348  157.365   65.862
  433.250    4.593    0.454    0.349  157.293   67.876
  433.500    4.597    0.449    0.346  157.112   70.514
  433.750    4.584    0.460    0.343  156.828   72.779
  434.000    4.818    0.462    0.331  156.652   72.982
  434.250    5.491    0.469    0.339  156.787   68.070
  434.500    6.342    0.493    0.314  157.126   65.215
  434.750    7.678    0.463    0.207  160.483   63.610
  435.000    9.330    0.258    0.108  164.465   61.443
  435.250   11.684    0.218    0.077  166.053   56.091
  435.500   13.595    0.190    0.067  166.604   55.047
  435.750   15.791    0.186    0.055  166.737   55.940
  436.000   17.203    0.173    0.050  166.974   55.895
  436.250   15.849    0.188    0.050  167.419   54.788
  436.500   12.773    0.199    0.050  167.447   54.867
  436.750   10.431    0.198    0.038  167.579   56.010
  437.000    7.960    0.177    0.077  167.404   59.146
  437.250    6.403    0.344    0.129  166.908   70.899
  437.500    5.659    0.437    0.335  166.106   73.350
  437.750    5.184    0.476    0.350  165.095   73.306
  438.000    4.794    0.483    0.354  163.563   73.823
  438.250    4.552    0.464    0.353  162.033   74.401
  438.500    4.371    0.454    0.348  161.439   74.168
  438.750    4.341    0.452    0.344  161.153   74.061
  439.000    4.337    0.459    0.341  160.666   74.579
  439.250    4.349    0.470    0.341  160.590   75.220
  439.500    4.377    0.485    0.345  160.411   76.735
  439.750    4.423    0.489    0.348  160.435   76.753
  440.000    4.485    0.489    0.347  160.160   72.962
  440.250    4.565    0.492    0.345  159.980   70.982
  440.500    4.639    0.508    0.338  159.589   71.061
  440.750    4.661    0.507    0.330  159.410   73.451
  441.000    4.708    0.474    0.322  159.441   75.716
  441.250    4.731    0.479    0.329  159.464   73.924
  441.500    4.762    0.503    0.334  159.288   72.192
  441.750    4.775    0.511    0.333  159.109   75.643
  442.000    4.716    0.496    0.336  159.037   74.723
  442.250    4.632    0.486    0.340  159.168   72.869
  442.500    4.707    0.492    0.341  160.029   76.694
  442.750    4.975    0.506    0.341  160.471   77.834
