~VERSION INFORMATION
 VERS.                 2.0:   CWLS LOG ASCII STANDARD -VERSION 2.0
 WRAP.                  NO:   ONE LINE PER DEPTH STEP
~WELL INFORMATION BLOCK
#MNEM.UNIT           DATA                    DESCRIPTION OF MNEMONIC
#---------    -------------------            -------------------------------
# Generated from Intellog Unique Number	CW_70_72/WELL/3034
NULL.         -999.25                        : NULL_VALUE
WELL.         MIAMI AMOCO HONDO 11-32        : Well_name    - WELL              
LOC .         11-32-070-02W5                 : Location     - LOCATION          
UWI .         00/11-32-070-02W5/0            : Uwi          - UNIQUE WELL ID    
ENTR.         J                              : Entered      - ENTERED BY        
SRVC.         SCHLUMBERGER                   : Scn          - SERVICE COMPANY   
DATE.         30 JAN 75                      : Date         - LOG DATE          
STRT.M        417.576                        : top_depth    - START DEPTH       
STOP.M        634.076                        : bot_depth    - STOP DEPTH        
STEP.M        0.25                           : increment    - STEP LENGTH       
~CURVE INFORMATION BLOCK
#MNEM UNIT       ERCB CURVE CODE    CURVE DESCRIPTION
#-----------   ------------------   ----------------------------------
DEPT.M        00 001 00 00         : DEPTH        - DEPTH                       
ILD .OHMM     00 120 00 00         : RESD         - DEEP RESISTIVITY (DIL)      
CALI.MM       00 280 01 00         : CAL          - CALIPER                     
GR  .API      00 310 00 00         : GR           - GAMMA RAY                   
NPHI.V/V      00 330 00 00         : PHIN         - NEUTRON POROSITY (SANDSTONE)
DPHI.V/V      00 890 00 00         : PHID         - DENSITY POROSITY (SANDSTONE)
~PARAMETER INFORMATION       
#MNEM.UNIT           DATA             DESCRIPTION OF MNEMONIC
#---------         -----------     ------------------------------
GL  .M        591.617              : gl           - GROUND LEVEL ELEVATION      
EREF.M        596.189              : kb           - ELEVATION OF DEPTH REFERENCE
DATM.M        591.617              : datum        - DATUM ELEVATION             
TDD .M        653.796              : tdd          - TOTAL DEPTH DRILLER         
RUN .         ONE                  : Run          - RUN NUMBER                  
ENG .         LAVERDIERE           : Engineer     - RECORDING ENGINEER          
WIT .         MCTAGGART            : Witness      - WITNESSED BY                
BASE.         EDM                  : Branch       - HOME BASE OF LOGGING UNIT   
MUD .         GEL                  : Mud_type     - MUD TYPE                    
MATR.         SANDSTONE            : Logunit      - NEUTRON MATRIX              
TMAX.C        28.3333              : BHT          - MAXIMUM RECORDED TEMPERATURE
BHTD.M        653.796              : BHTDEP       - MAXIMUM RECORDED TEMPERATURE
RMT .C        19.4444              : MDTP         - TEMPERATURE OF MUD          
MUDD.KG/M     1152                 : MWT          - MUD DENSITY                 
NEUT.         1                    : NEUTRON      - NEUTRON TYPE                
RESI.         0                    : RESIST       - RESISTIVITY TYPE            
RM  .OHMM     0.61                 : RM           - RESISTIVITY OF MUD          
RMC .OHMM     0.92                 : RMC          - RESISTIVITY OF MUD CAKE     
RMF .OHMM     0.25                 : RMF          - RESISTIVITY OF MUD FILTRATE 
SUFT.C        -17.7778             : SUFT         - SURFACE TEMPERATURE         
~A  DEPTH     RESD      CAL       GR     PHIN     PHID
# ...
  563.576    2.393  153.974   55.800    0.390    0.221
  563.826    2.420  152.128   57.749    0.403    0.231
  564.076    2.511  155.018   59.576    0.408    0.227
  564.326    2.644  157.597   60.856    0.402    0.233
  564.576    2.693  159.867   62.258    0.395    0.229
  564.826    2.594  158.845   63.660    0.401    0.229
  565.076    2.579  157.513   65.608    0.404    0.238
  565.326    2.650  156.593   64.580    0.389    0.217
  565.576    2.827  157.115   61.422    0.374    0.189
  565.826    2.905  158.356   57.780    0.362    0.148
  566.076    2.976  161.450   54.806    0.341    0.117
  566.326    3.089  162.897   55.052    0.305    0.090
  566.576    3.134  161.258   56.880    0.308    0.117
  566.826    3.181  159.514   59.801    0.344    0.198
  567.076    3.176  158.080   60.352    0.374    0.224
  567.326    3.147  155.926   59.505    0.407    0.243
  567.576    2.996  154.799   59.508    0.431    0.244
  567.826    2.893  152.234   60.059    0.396    0.228
  568.076    2.948  150.902   59.091    0.360    0.210
  568.326    3.255  151.630   57.697    0.320    0.182
  568.576    3.727  156.370   56.120    0.289    0.148
  568.826    4.254  158.023   57.036    0.273    0.111
  569.076    4.672  158.133   58.681    0.343    0.119
  569.326    4.846  157.213   58.989    0.416    0.170
  569.576    4.874  156.499   57.900    0.411    0.197
  569.826    4.823  156.609   57.112    0.354    0.214
  570.076    4.903  157.439   54.503    0.283    0.143
  570.326    5.041  159.504   49.279    0.248    0.055
  570.576    5.079  160.745   51.471    0.271    0.041
  570.826    4.952  161.369   55.730    0.325    0.138
  571.076    4.679  161.376   58.408    0.388    0.177
  571.326    4.406  161.588   57.926    0.401    0.210
  571.576    4.194  162.521   57.869    0.389    0.222
  571.826    4.022  162.630   58.602    0.383    0.213
  572.076    3.905  162.122   59.882    0.377    0.210
  572.326    3.843  161.306   61.527    0.383    0.205
  572.576    3.775  160.385   62.989    0.389    0.197
  572.826    3.706  159.362   64.573    0.394    0.199
  573.076    3.547  158.340   62.997    0.385    0.207
  573.326    3.390  157.524   61.785    0.372    0.195
  573.576    3.310  156.707   61.668    0.366    0.210
  573.826    3.298  156.096   62.340    0.373    0.186
  574.076    3.622  155.587   60.095    0.350    0.122
  574.326    4.163  156.109   55.359    0.265    0.094
  574.576    4.974  157.350   51.716    0.247    0.065
  574.826    5.604  159.415   52.023    0.248    0.015
  575.076    5.877  159.627   55.127    0.268    0.077
  575.326    5.657  158.501   57.501    0.287    0.111
  575.576    5.258  156.759   60.362    0.314    0.160
  575.826    4.704  155.838   62.675    0.359    0.194
  576.076    4.216  154.919   63.652    0.383    0.224
  576.326    3.848  154.310   63.655    0.382    0.221
  576.576    3.462  154.314   61.896    0.377    0.214
  576.826    3.306  155.350   64.149    0.375    0.205
  577.076    3.194  156.489   64.092    0.396    0.194
  577.326    3.142  157.627   62.333    0.394    0.191
  577.576    3.102  158.355   60.271    0.392    0.197
  577.826    3.086  157.230   58.998    0.387    0.201
  578.076    3.104  155.795   58.759    0.385    0.209
  578.326    3.205  156.830   60.708    0.394    0.161
  578.576    3.299  161.159   64.784    0.373    0.126
  578.826    3.551  163.225   62.478    0.311    0.098
  579.076    3.848  162.407   59.139    0.280    0.070
  579.326    4.305  160.973   62.364    0.296    0.104
  579.576    4.465  159.539   65.650    0.380    0.172
  579.826    4.426  157.590   65.654    0.405    0.185
  580.076    4.290  155.436   64.989    0.402    0.195
  580.326    4.099  155.443   64.203    0.400    0.205
  580.576    3.839  155.654   64.936    0.404    0.206
  580.826    3.594  156.999   66.885    0.392    0.193
  581.076    3.379  157.829   65.491    0.382    0.178
  581.326    3.293  157.733   65.981    0.374    0.189
  581.576    3.288  158.049   69.875    0.370    0.192
  581.826    3.278  158.467   71.095    0.369    0.182
  582.076    3.265  158.679   71.584    0.372    0.182
  582.326    3.278  159.200   71.102    0.378    0.181
  582.576    3.297  159.206   70.498    0.387    0.166
  582.826    3.340  159.316   70.806    0.397    0.164
  583.076    3.385  158.911   70.688    0.396    0.173
  583.326    3.433  159.019   73.245    0.398    0.154
  583.576    3.466  159.027   74.221    0.393    0.161
  583.826    3.500  159.238   74.043    0.389    0.169
  584.076    3.539  159.245   74.411    0.384    0.154
  584.326    3.645  159.871   75.265    0.381    0.155
  584.576    3.732  159.979   76.060    0.377    0.154
  584.826    3.894  160.191   76.307    0.371    0.138
  585.076    3.980  160.815   76.249    0.367    0.128
  585.326    4.161  161.130   75.403    0.360    0.138
  585.576    4.300  161.652   74.069    0.352    0.111
  585.826    4.397  162.379   77.112    0.328    0.100
  586.076    4.505  163.311   86.841    0.337    0.114
  586.326    4.580  164.245   92.680    0.363    0.105
  586.576    4.665  164.560   95.782    0.375    0.101
  586.826    4.743  164.361   98.278    0.385    0.122
  587.076    4.932  163.852   93.116    0.391    0.121
  587.326    5.115  162.314   87.710    0.399    0.126
  587.576    5.535  160.571   82.001    0.386    0.090
  587.826    6.493  160.579   75.684    0.359    0.086
  588.076    7.656  160.173   69.975    0.315    0.069
  588.326    8.915  159.769   74.902    0.288    0.037
  588.576    9.789  160.084   74.602    0.319    0.030
  588.826   10.869  160.604   67.798    0.314    0.057
  589.076   11.094  160.817   69.444    0.279    0.029
  589.326    9.958  161.853   75.890    0.351    0.046
  589.576    7.309  162.374   80.999    0.404    0.104
  589.826    5.868  162.689   82.583    0.398    0.111
  590.076    4.816  163.415   82.222    0.396    0.099
  590.326    4.301  163.319   80.403    0.383    0.092
  590.576    3.976  163.739   82.534    0.379    0.103
  590.826    3.812  164.053   86.914    0.384    0.113
  591.076    3.753  164.266   87.282    0.388    0.115
  591.326    3.753  164.376   82.788    0.392    0.094
  591.576    3.787  164.382   80.057    0.397    0.085
  591.826    3.893  163.873   80.669    0.392    0.079
  592.076    4.062  163.365   82.192    0.377    0.077
  592.326    4.213  163.064   83.655    0.368    0.083
  592.576    4.421  162.555   85.300    0.376    0.100
  592.826    4.560  162.665   87.005    0.380    0.099
  593.076    4.696  162.466   88.893    0.378    0.083
  593.326    4.827  162.162   87.682    0.372    0.082
  593.576    4.992  161.964   83.917    0.366    0.088
  593.826    5.103  161.867   79.545    0.352    0.082
  594.076    5.216  161.773   80.400    0.316    0.084
  594.326    5.304  161.778   82.713    0.318    0.064
  594.576    5.386  161.269   86.181    0.340    0.063
  594.826    5.515  161.276   81.323    0.355    0.068
  595.076    5.946  160.870   80.111    0.361    0.064
  595.326    6.248  162.113   83.033    0.358    0.065
  595.576    6.543  162.120   84.678    0.344    0.093
  595.826    6.737  162.127   84.864    0.332    0.070
  596.076    6.967  162.131   83.956    0.326    0.056
  596.326    7.241  161.831   80.070    0.311    0.048
  596.576    7.581  161.840   75.698    0.288    0.028
  596.826    7.893  161.638   78.011    0.255    0.000
  597.076    8.160  161.542   83.242    0.263   -0.007
  597.326    8.252  161.445   89.263    0.287    0.018
  597.576    8.105  161.451   92.974    0.311    0.030
  597.826    7.798  161.664   97.111    0.324    0.043
  598.076    6.725  161.772  100.518    0.338    0.061
  598.326    5.696  161.780  103.075    0.354    0.078
  598.576    5.001  161.683  104.963    0.367    0.099
  598.826    4.305  161.177  101.381    0.382    0.113
  599.076    3.745  161.284   96.158    0.400    0.118
  599.326    2.986  161.291   86.741    0.427    0.117
  599.576    2.455  161.709   87.474    0.470    0.115
  599.826    2.003  162.024   91.793    0.539    0.141
