~VERSION INFORMATION
 VERS.                 2.0:   CWLS LOG ASCII STANDARD -VERSION 2.0
 WRAP.                  NO:   ONE LINE PER DEPTH STEP
~WELL INFORMATION BLOCK
#MNEM.UNIT           DATA                    DESCRIPTION OF MNEMONIC
#---------    -------------------            -------------------------------
# Generated from Intellog Unique Number	CS_73_76/WELL/838
WELL.         MIAMI OIL PRODUCERS            : Well_name    - WELL
LOC .         00/10-32-073-11W4/0            : Location     - LOCATION
UWI .         00/10-32-073-11W4/0            : Uwi          - UNIQUE WELL ID
ENTR.         SP                             : Entered      - ENTERED BY
SRVC.         SCHLUMBERGER                   : Scn          - SERVICE COMPANY
STRT.M        295.656                        : top_depth    - START DEPTH
STOP.M        533.156                        : bot_depth    - STOP DEPTH
STEP.M        0.25                           : increment    - STEP LENGTH
 NULL. -999.2500:NULL Value
~CURVE INFORMATION BLOCK
#MNEM UNIT       ERCB CURVE CODE    CURVE DESCRIPTION
#-----------   ------------------   ----------------------------------
DEPT.M        00 001 00 00         : DEPTH        - DEPTH
GR  .API      00 310 00 00         : GR           - GAMMA RAY
DPHI.V/V      00 890 00 00         : PHID         - DENSITY POROSITY (SANDSTONE)
NPHI.V/V      00 330 00 00         : PHIN         - NEUTRON POROSITY (SANDSTONE)
ILD .OHMM     00 120 00 00         : RESD         - DEEP RESISTIVITY (DIL)
~PARAMETER INFORMATION
#MNEM.UNIT           DATA             DESCRIPTION OF MNEMONIC
#---------         -----------     ------------------------------
GL  .M        644.347              : gl           - GROUND LEVEL ELEVATION
EREF.M        647.395              : kb           - ELEVATION OF DEPTH REFERENCE
DATM.M        644.347              : datum        - DATUM ELEVATION
TDD .M        636.727              : tdd          - TOTAL DEPTH DRILLER
RUN .         ONE                  : Run          - RUN NUMBER
ENG .         BILL                 : Engineer     - RECORDING ENGINEER
WIT .         JIM                  : Witness      - WITNESSED BY
MUD .         GEL                  : Mud_type     - MUD TYPE
MATR.         SANDSTONE            : Logunit      - NEUTRON MATRIX
TMAX.C        25.5556              : BHT          - MAXIMUM RECORDED TEMPERATURE
BHTD.M        636.727              : BHTDEP       - MAXIMUM RECORDED TEMPERATURE
MATR.         1                    : LOGUNIT      - NEUTRON MATRIX
RMT .C        25                   : MDTP         - TEMPERATURE OF MUD
NEUT.         1                    : NEUTRON      - NEUTRON TYPE
RESI.         0                    : RESIST       - RESISTIVITY TYPE
RMC .OHMM     0.25                 : RMC          - RESISTIVITY OF MUD CAKE
RMF .OHMM     0.25                 : RMF          - RESISTIVITY OF MUD FILTRATE
SUFT.C        15                   : SUFT         - SURFACE TEMPERATURE
~A  DEPTH       GR     PHID     PHIN     RESD
# ...
  382.656   63.734    0.324    0.484   11.451
  382.906   64.470    0.326    0.492   11.213
  383.156   64.432    0.327    0.484   11.244
  383.406   64.443    0.322    0.465   11.082
  383.656   64.568    0.321    0.451   11.050
  383.906   66.249    0.326    0.442   11.049
  384.156   66.605    0.328    0.447   10.865
  384.406   66.484    0.328    0.454   10.601
  384.656   65.072    0.324    0.449   10.299
  384.906   64.072    0.327    0.446    9.982
  385.156   63.986    0.330    0.451    9.902
  385.406   65.525    0.329    0.458    9.761
  385.656   66.903    0.328    0.458    9.863
  385.906   67.593    0.325    0.456    9.944
  386.156   68.041    0.323    0.460   10.117
  386.406   69.083    0.324    0.459   10.147
  386.656   71.704    0.323    0.460   10.159
  386.906   73.376    0.318    0.457    9.927
  387.156   76.891    0.322    0.452    8.740
  387.406   78.733    0.324    0.446    6.790
  387.656   79.012    0.324    0.444    5.227
  387.906   78.216    0.325    0.458    4.340
  388.156   79.805    0.323    0.457    4.013
  388.406   83.491    0.318    0.473    4.031
  388.656   84.873    0.312    0.495    4.466
  388.906   86.393    0.299    0.517    4.874
  389.156   86.140    0.318    0.520    5.562
  389.406   85.851    0.307    0.497    6.056
  389.656   83.878    0.315    0.479    7.068
  389.906   81.616    0.329    0.471    7.994
  390.156   79.316    0.332    0.478    8.215
  390.406   75.504    0.337    0.472    8.088
  390.656   72.272    0.334    0.465    7.933
  390.906   70.552    0.329    0.476    7.803
  391.156   70.577    0.337    0.477    7.804
  391.406   70.698    0.340    0.464    7.779
  391.656   71.171    0.351    0.485    7.665
  391.906   71.174    0.362    0.509    7.961
  392.156   70.225    0.373    0.494    8.964
  392.406   67.174    0.328    0.451   10.684
  392.656   66.192    0.269    0.434   13.706
  392.906   65.226    0.186    0.405   16.102
  393.156   64.299    0.115    0.339   17.361
  393.406   62.269    0.074    0.254   18.363
  393.656   59.977    0.054    0.220   15.614
  393.906   58.835    0.045    0.245   10.295
  394.156   62.569    0.107    0.314    8.432
  394.406   69.297    0.260    0.344    7.464
  394.656   73.546    0.301    0.386    6.871
  394.906   76.418    0.311    0.422    6.806
  395.156   78.298    0.307    0.458    6.810
  395.406   79.481    0.304    0.451    6.879
  395.656   81.399    0.302    0.461    6.950
  395.906   80.411    0.304    0.466    7.191
  396.156   78.417    0.311    0.475    7.261
  396.406   77.154    0.322    0.470    7.343
  396.656   76.661    0.325    0.461    7.348
  396.906   74.812    0.326    0.458    7.318
  397.156   72.505    0.329    0.454    7.097
  397.406   71.980    0.334    0.452    6.888
  397.656   75.995    0.330    0.448    6.685
  397.906   77.168    0.320    0.441    6.609
  398.156   79.378    0.316    0.455    6.426
  398.406   82.326    0.305    0.457    6.258
  398.656   85.122    0.297    0.456    6.167
  398.906   89.228    0.285    0.459    6.158
  399.156   91.024    0.273    0.465    6.161
  399.406   91.674    0.273    0.463    6.144
  399.656   90.658    0.266    0.446    6.473
  399.906   89.687    0.266    0.440    6.524
  400.156   89.748    0.266    0.446    6.994
  400.406   88.795    0.258    0.454    7.181
  400.656   86.798    0.255    0.457    7.016
  400.906   85.243    0.259    0.449    7.442
  401.156   82.427    0.249    0.439    7.551
  401.406   81.534    0.244    0.432    7.443
  401.656   81.988    0.239    0.432    7.086
  401.906   83.949    0.237    0.433    6.898
  402.156   85.411    0.245    0.445    6.687
  402.406   86.674    0.251    0.451    6.628
  402.656   88.688    0.265    0.453    6.562
  402.906   89.992    0.284    0.446    6.579
  403.156   87.525    0.282    0.458    6.475
  403.406   85.659    0.278    0.458    6.572
  403.656   85.683    0.270    0.471    6.657
  403.906   85.638    0.267    0.485    6.688
  404.156   86.237    0.262    0.486    6.827
  404.406   86.279    0.270    0.480    6.701
  404.656   86.381    0.277    0.477    6.545
  404.906   86.903    0.279    0.487    6.252
  405.156   86.949    0.291    0.489    6.240
  405.406   86.268    0.288    0.480    6.221
  405.656   86.333    0.282    0.467    6.372
  405.906   86.543    0.271    0.465    6.601
  406.156   86.906    0.272    0.467    6.743
  406.406   87.349    0.273    0.469    6.876
  406.656   87.511    0.273    0.472    6.908
  406.906   87.517    0.271    0.459    7.001
  407.156   88.525    0.267    0.451    6.928
  407.406   89.676    0.261    0.447    6.898
  407.656   92.163    0.254    0.461    6.659
  407.906   94.493    0.251    0.471    6.582
  408.156   95.192    0.257    0.468    6.514
  408.406   95.704    0.253    0.482    6.407
  408.656   96.667    0.247    0.488    6.418
  408.906   97.602    0.251    0.491    6.428
  409.156   97.099    0.254    0.486    6.539
  409.406   95.524    0.247    0.479    6.717
  409.656   95.282    0.238    0.472    6.919
  409.906   95.700    0.243    0.467    6.988
  410.156   96.020    0.247    0.461    6.808
  410.406   96.490    0.246    0.454    7.180
  410.656   94.526    0.244    0.449    7.238
  410.906   92.868    0.248    0.441    7.160
  411.156   91.871    0.247    0.436    6.048
  411.406   91.128    0.250    0.450    4.878
  411.656   91.979    0.264    0.447    3.738
  411.906   94.556    0.272    0.460    3.098
  412.156   95.545    0.283    0.505    2.550
  412.406   97.198    0.297    0.534    2.273
  412.656   98.777    0.307    0.534    2.022
  412.906   98.606    0.317    0.537    2.107
  413.156   96.589    0.311    0.550    2.371
  413.406   94.988    0.308    0.551    2.805
  413.656   94.123    0.295    0.523    3.239
  413.906   94.780    0.286    0.498    3.928
  414.156   95.394    0.277    0.478    4.419
  414.406   96.708    0.260    0.460    5.160
  414.656   96.800    0.251    0.458    5.462
  414.906   95.205    0.254    0.458    5.781
  415.156   92.919    0.259    0.456    5.953
  415.406   90.942    0.267    0.458    5.875
  415.656   90.722    0.268    0.458    5.701
  415.906   91.337    0.260    0.455    5.536
  416.156   91.186    0.256    0.461    5.429
  416.406   89.971    0.251    0.465    5.604
  416.656   89.559    0.252    0.462    5.855
  416.906   89.277    0.257    0.464    6.011
  417.156   88.311    0.263    0.457    6.475
  417.406   86.351    0.278    0.453    6.653
  417.656   82.590    0.294    0.458    6.874
  417.906   78.130    0.289    0.458    6.940
  418.156   75.870    0.285    0.456    6.996
  418.406   73.125    0.292    0.460    5.942
  418.656   71.234    0.319    0.458    5.059
  418.906   70.111    0.330    0.456    4.856
  419.156   70.457    0.333    0.460    5.583
  419.406   72.489    0.326    0.463    5.693
  419.656   75.174    0.319    0.462    5.638
  419.906   76.556    0.304    0.452    5.996
  420.156   80.998    0.293    0.444    6.345
  420.406   89.103    0.281    0.442    6.374
  420.656   90.142    0.271    0.442    6.141
  420.906   89.584    0.264    0.450    5.961
  421.156   91.219    0.266    0.451    5.821
  421.406   92.124    0.261    0.468    5.709
  421.656   93.153    0.268    0.459    5.717
  421.906   93.348    0.268    0.452    5.688
  422.156   91.431    0.264    0.444    5.515
  422.406   87.569    0.264    0.440    5.178
  422.656   83.773    0.270    0.447    5.134
  422.906   82.069    0.284    0.471    5.228
  423.156   81.659    0.302    0.477    5.453
  423.406   77.539    0.301    0.464    5.677
  423.656   75.248    0.287    0.463    5.955
  423.906   73.992    0.296    0.462    6.006
  424.156   75.041    0.305    0.459    6.195
  424.406   75.013    0.316    0.453    6.180
  424.656   75.018    0.322    0.448    6.322
  424.906   75.016    0.314    0.448    6.313
  425.156   73.582    0.303    0.448    6.328
  425.406   72.464    0.310    0.449    6.195
  425.656   72.099    0.308    0.458    6.210
  425.906   73.141    0.304    0.470    6.225
