~VERSION INFORMATION
 VERS.                 2.0:   CWLS LOG ASCII STANDARD -VERSION 2.0
 WRAP.                  NO:   ONE LINE PER DEPTH STEP
~WELL INFORMATION BLOCK
#MNEM.UNIT           DATA                    DESCRIPTION OF MNEMONIC
#---------    -------------------            -------------------------------
# Generated from Intellog Unique Number	CS_71_72/WELL/868
WELL.         PEX PHILLIPS AEC GRIST         : Well_name    - WELL
LOC .         00/10-23-072-07W4/0            : Location     - LOCATION
UWI .         00/10-23-072-07W4/0            : Uwi          - UNIQUE WELL ID
ENTR.         SP                             : Entered      - ENTERED BY
SRVC.         SCHLUMBERGER                   : Scn          - SERVICE COMPANY
STRT.M        320                            : top_depth    - START DEPTH
STOP.M        547                            : bot_depth    - STOP DEPTH
STEP.M        0.25                           : increment    - STEP LENGTH
 NULL. -999.2500:NULL Value
~CURVE INFORMATION BLOCK
#MNEM UNIT       ERCB CURVE CODE    CURVE DESCRIPTION
#-----------   ------------------   ----------------------------------
DEPT.M        00 001 00 00         : DEPTH        - DEPTH
ILD .OHMM     00 120 00 00         : RESD         - DEEP RESISTIVITY (DIL)
DPHI.V/V      00 890 00 00         : PHID         - DENSITY POROSITY (LIMESTONE)
NPHI.V/V      00 330 00 00         : PHIN         - NEUTRON POROSITY (LIMESTONE)
GR  .API      00 310 00 00         : GR           - GAMMA RAY
~PARAMETER INFORMATION
#MNEM.UNIT           DATA             DESCRIPTION OF MNEMONIC
#---------         -----------     ------------------------------
GL  .M        691.2                : gl           - GROUND LEVEL ELEVATION
EREF.M        694.7                : kb           - ELEVATION OF DEPTH REFERENCE
DATM.M        691.2                : datum        - DATUM ELEVATION
TDD .M        550                  : tdd          - TOTAL DEPTH DRILLER
RUN .         ONE                  : Run          - RUN NUMBER
ENG .         BILL                 : Engineer     - RECORDING ENGINEER
WIT .         JIM                  : Witness      - WITNESSED BY
MUD .         GEL                  : Mud_type     - MUD TYPE
MATR.         LIMESTONE            : Logunit      - NEUTRON MATRIX
TMAX.C        24                   : BHT          - MAXIMUM RECORDED TEMPERATURE
BHTD.M        550                  : BHTDEP       - MAXIMUM RECORDED TEMPERATURE
MATR.         1                    : LOGUNIT      - NEUTRON MATRIX
RMT .C        25                   : MDTP         - TEMPERATURE OF MUD
NEUT.         1                    : NEUTRON      - NEUTRON TYPE
RESI.         0                    : RESIST       - RESISTIVITY TYPE
RMC .OHMM     0.25                 : RMC          - RESISTIVITY OF MUD CAKE
RMF .OHMM     0.25                 : RMF          - RESISTIVITY OF MUD FILTRATE
SUFT.C        15                   : SUFT         - SURFACE TEMPERATURE
~A  DEPTH     RESD     PHID     PHIN       GR
  320.000    3.056    0.200    0.561   85.371
  320.250    2.999    0.224    0.526   87.204
  320.500    2.944    0.231    0.530   91.478
  320.750    2.943    0.245    0.527   92.704
  321.000    2.943    0.253    0.533   91.491
  321.250    2.888    0.253    0.527   89.667
  321.500    2.888    0.247    0.525   91.502
  321.750    2.782    0.244    0.531   95.168
  322.000    2.782    0.241    0.524   97.002
  322.250    2.782    0.228    0.516   97.009
  322.500    2.887    0.220    0.516   95.185
  322.750    2.996    0.220    0.540   94.581
  323.000    3.227    0.233    0.556   98.247
  323.250    3.412    0.237    0.531   98.861
  323.500    3.608    0.235    0.520   96.430
  323.750    3.744    0.229    0.514   95.214
  324.000    3.886    0.228    0.499   95.220
  324.250    4.033    0.224    0.488   92.178
  324.500    4.108    0.212    0.477   88.525
  324.750    4.108    0.200    0.486   84.262
  325.000    4.107    0.192    0.486   82.439
  325.250    3.957    0.198    0.488   86.713
  325.500    3.741    0.220    0.505   92.208
  325.750    3.604    0.238    0.521   95.263
  326.000    3.408    0.246    0.527   96.487
  326.250    3.345    0.258    0.534   97.103
  326.500    3.471    0.247    0.511   96.499
  326.750    3.739    0.234    0.497   95.286
  327.000    3.954    0.220    0.510   94.071
  327.250    4.180    0.217    0.522   92.860
  327.500    4.258    0.224    0.528   92.255
  327.750    4.258    0.231    0.532   92.260
  328.000    4.257    0.220    0.529   91.047
  328.250    4.101    0.210    0.521   89.224
  328.500    4.101    0.208    0.503   87.402
  328.750    4.100    0.224    0.478   86.796
  329.000    4.177    0.232    0.470   91.680
  329.250    4.024    0.226    0.461   92.296
  329.500    3.949    0.222    0.481   86.814
  329.750    3.804    0.224    0.500   81.332
  330.000    3.734    0.215    0.504   85.608
  330.250    4.022    0.222    0.499   86.222
  330.500    4.414    0.264    0.515   74.034
  330.750    5.218    0.296    0.426   65.501
  331.000    6.899    0.298    0.411   61.241
  331.250    9.826    0.273    0.422   61.854
  331.500   11.835    0.256    0.431   69.179
  331.750   13.233    0.243    0.442   72.845
  332.000   12.987    0.277    0.416   74.068
  332.250   11.613    0.358    0.408   75.903
  332.500    9.820    0.419    0.459   76.519
  332.750    8.304    0.444    0.557   77.135
  333.000    7.154    0.414    0.599   83.850
  333.250    6.518    0.302    0.619   88.735
  333.500    6.049    0.263    0.570   88.128
  333.750    8.300    0.331    0.450   71.670
  334.000   10.973    0.359    0.404   52.163
  334.250   17.476    0.383    0.280   40.584
  334.500   27.833    0.396    0.235   37.542
  334.750   50.496    0.399    0.189   37.547
  335.000   76.050    0.383    0.197   37.554
  335.250   77.471    0.363    0.235   38.169
  335.500   54.380    0.340    0.303   38.785
  335.750   41.123    0.326    0.353   39.401
  336.000   36.774    0.318    0.363   40.627
  336.250   28.864    0.313    0.368   48.561
  336.500   23.958    0.297    0.348   57.102
  336.750   20.260    0.279    0.360   65.034
  337.000   17.132    0.226    0.404   82.724
  337.250   13.958    0.238    0.426   86.388
  337.500   12.481    0.245    0.405   84.564
  337.750   11.584    0.212    0.397   83.351
  338.000   11.159    0.216    0.417   86.406
  338.250   10.952    0.232    0.426   90.074
  338.500   11.367    0.222    0.420   90.686
  338.750   11.796    0.194    0.432   86.424
  339.000   12.242    0.193    0.447   81.551
  339.250   12.706    0.238    0.438   78.510
  339.500   13.434    0.276    0.429   79.124
  339.750   14.204    0.280    0.419   79.741
  340.000   14.470    0.270    0.417   79.138
  340.250   15.016    0.274    0.419   79.142
  340.500   15.297    0.273    0.416   77.930
  340.750   15.296    0.270    0.413   76.717
  341.000   15.294    0.268    0.410   75.501
  341.250   16.474    0.287    0.436   73.678
  341.500   17.419    0.294    0.446   73.074
  341.750   18.417    0.297    0.433   75.519
  342.000   19.473    0.287    0.422   67.600
  342.250   16.776    0.291    0.414   63.947
  342.500   14.453    0.303    0.412   66.391
  342.750   11.996    0.307    0.462   96.884
  343.000   10.727    0.269    0.517   96.282
  343.250    9.956    0.233    0.479   85.313
  343.500   10.142    0.185    0.440   79.829
  343.750   11.552    0.140    0.403   73.738
  344.000   12.215    0.226    0.393   68.866
  344.250   14.713    0.254    0.396   60.336
  344.500   16.450    0.265    0.397   56.071
  344.750   19.090    0.272    0.391   50.590
  345.000   20.564    0.280    0.385   44.500
  345.250   22.568    0.287    0.372   42.065
  345.500   23.862    0.291    0.382   38.412
  345.750   22.986    0.293    0.354   39.028
  346.000   20.555    0.278    0.323   45.132
  346.250   16.746    0.242    0.352   53.675
  346.500   13.643    0.192    0.394   63.436
  346.750   11.324    0.185    0.429   80.516
  347.000    9.399    0.164    0.453   89.668
  347.250    7.948    0.146    0.470   99.431
  347.500    7.241    0.154    0.483  101.266
  347.750    6.238    0.170    0.476  106.760
  348.000    5.683    0.192    0.471  111.644
  348.250    5.082    0.204    0.481  110.433
  348.500    4.716    0.207    0.484  109.216
  348.750    4.377    0.201    0.480  109.833
  349.000    4.217    0.197    0.515  111.061
  349.250    3.914    0.195    0.552  110.455
  349.500    3.701    0.192    0.578  112.292
  349.750    3.565    0.199    0.558  112.905
  350.000    3.434    0.237    0.544  109.252
  350.250    3.564    0.255    0.542  108.649
  350.500    3.840    0.253    0.547  106.216
  350.750    4.136    0.247    0.532  100.124
  351.000    4.539    0.235    0.482   94.643
  351.250    4.711    0.231    0.471   87.940
  351.500    5.074    0.226    0.476   84.289
  351.750    5.169    0.224    0.476   83.685
  352.000    5.364    0.228    0.476   84.300
  352.250    5.364    0.234    0.468   84.915
  352.500    5.464    0.237    0.451   81.872
  352.750    5.996    0.239    0.444   78.831
  353.000    6.459    0.237    0.432   77.008
  353.250    6.958    0.221    0.425   75.792
  353.500    7.636    0.213    0.419   75.189
  353.750    7.925    0.222    0.422   74.586
  354.000    8.225    0.240    0.430   74.591
  354.250    7.923    0.250    0.438   74.596
  354.500    7.776    0.261    0.463   77.043
  354.750    7.632    0.271    0.469   77.659
  355.000    7.631    0.265    0.459   75.835
  355.250    7.630    0.271    0.463   73.401
  355.500    7.772    0.288    0.461   72.797
  355.750    7.771    0.295    0.455   73.415
  356.000    7.771    0.280    0.442   74.028
  356.250    7.770    0.279    0.438   75.865
  356.500    7.769    0.280    0.434   75.872
  356.750    7.914    0.280    0.433   75.876
  357.000    8.213    0.291    0.446   75.274
  357.250    8.524    0.306    0.457   74.670
  357.500    8.683    0.311    0.446   74.674
  357.750    8.845    0.309    0.432   72.852
  358.000    9.010    0.304    0.430   71.027
  358.250    9.179    0.296    0.432   66.766
  358.500    9.351    0.298    0.435   63.723
  358.750    9.704    0.309    0.447   60.682
  359.000    9.885    0.309    0.456   60.075
  359.250   10.452    0.293    0.447   59.471
  359.500   10.647    0.287    0.430   60.087
  359.750   11.049    0.293    0.415   60.703
  360.000   11.256    0.307    0.424   59.489
  360.250   11.681    0.316    0.441   58.276
  360.500   11.680    0.321    0.441   59.500
  360.750   11.899    0.310    0.433   61.945
  361.000   11.897    0.305    0.434   63.171
  361.250   11.677    0.314    0.446   62.569
  361.500   11.675    0.313    0.451   62.574
  361.750   11.673    0.307    0.451   64.409
  362.000   11.672    0.304    0.442   66.245
  362.250   11.890    0.305    0.444   66.251
  362.500   12.112    0.310    0.463   64.426
  362.750   12.111    0.309    0.487   62.604
  363.000   11.886    0.314    0.448   68.710
  363.250   11.239    0.310    0.420   72.372
