~VERSION INFORMATION
 VERS.                 2.0:   CWLS LOG ASCII STANDARD -VERSION 2.0
 WRAP.                  NO:   ONE LINE PER DEPTH STEP
~WELL INFORMATION BLOCK
#MNEM.UNIT           DATA                    DESCRIPTION OF MNEMONIC
#---------    -------------------            -------------------------------
# Generated from Intellog Unique Number	CN_94_101/WELL/3820
WELL.         10-02-096-18W4                 : Well_name    - WELL
LOC .         00/10-02-096-18W4/0            : Location     - LOCATION
UWI .         00/10-02-096-18W400            : Uwi          - UNIQUE WELL ID
ENTR.         T                              : Entered      - ENTERED BY
SRVC.         SCHLUMBERGER                   : Scn          - SERVICE COMPANY
DATE.         06/18/92                       : Date         - LOG DATE
STRT.M        225                            : top_depth    - START DEPTH
STOP.M        404.75                         : bot_depth    - STOP DEPTH
STEP.M        0.25                           : increment    - STEP LENGTH
 NULL. -999.2500:NULL Value
~CURVE INFORMATION BLOCK
#MNEM UNIT       ERCB CURVE CODE    CURVE DESCRIPTION
#-----------   ------------------   ----------------------------------
DEPT.M        00 001 00 00         : DEPTH        - DEPTH
GR  .API      00 310 00 00         : GR           - GAMMA RAY
CALI.MM       00 280 01 00         : CAL          - CALIPER
NPHI.V/V      00 330 00 00         : PHIN         - NEUTRON POROSITY (SANDSTONE)
DPHI.V/V      00 890 00 00         : PHID         - DENSITY POROSITY (SANDSTONE)
ILD .OHMM     00 120 00 00         : RESD         - DEEP RESISTIVITY (DIL)
~PARAMETER INFORMATION
#MNEM.UNIT           DATA             DESCRIPTION OF MNEMONIC
#---------         -----------     ------------------------------
GL  .M        673.9                : gl           - GROUND LEVEL ELEVATION
EREF.M        676.9                : kb           - ELEVATION OF DEPTH REFERENCE
DATM.M        676.9                : datum        - DATUM ELEVATION
TDD .M        411                  : tdd          - TOTAL DEPTH DRILLER
RUN .         0.000000             : Run          - RUN NUMBER
MUD .         GEL                  : Mud_type     - MUD TYPE
MATR.         SANDSTONE            : Logunit      - NEUTRON MATRIX
TMAX.C        0                    : BHT          - MAXIMUM RECORDED TEMPERATURE
BHTD.M        344                  : BHTDEP       - MAXIMUM RECORDED TEMPERATURE
RMT .C        14                   : MDTP         - TEMPERATURE OF MUD
MUDD.KG/M     1050                 : MWT          - MUD DENSITY
NEUT.         1                    : NEUTRON      - NEUTRON TYPE
RESI.         0                    : RESIST       - RESISTIVITY TYPE
RM  .OHMM     3.15                 : RM           - RESISTIVITY OF MUD
RMC .OHMM     3.15                 : RMC          - RESISTIVITY OF MUD CAKE
RMF .OHMM     0                    : RMF          - RESISTIVITY OF MUD FILTRATE
SUFT.C        4                    : SUFT         - SURFACE TEMPERATURE
BTZC.MM       0                    : BITZC        - BIT SIZE CONSTANT
MDW .KG/M     0                    : MDW          - MUD WEIGHT
~A  DEPTH       GR      CAL     PHIN     PHID     RESD
# ...
  261.500   58.776  167.857    0.364    0.200   12.053
  261.750   60.000  165.816    0.382    0.243   15.142
  262.000   62.449  164.796    0.402    0.301   17.875
  262.250   61.837  164.796    0.397    0.337   13.095
  262.500   56.327  162.755    0.364    0.338   13.095
  262.750   56.939  162.755    0.333    0.318   14.527
  263.000   63.061  163.776    0.346    0.293   19.023
  263.250   73.469  162.755    0.382    0.287   16.797
  263.500   74.082  163.776    0.394    0.289   12.053
  263.750   74.694  164.796    0.387    0.274   10.424
  264.000   78.367  165.816    0.385    0.256    9.594
  264.250   88.776  161.735    0.410    0.251    8.830
  264.500   92.449  162.755    0.419    0.253    7.636
  264.750   97.347  162.755    0.419    0.248    6.884
  265.000   99.796  162.755    0.419    0.243    6.743
  265.250   97.959  162.755    0.427    0.251    6.604
  265.500   96.122  162.755    0.424    0.257    6.743
  265.750   96.735  162.755    0.413    0.264    6.743
  266.000   96.122  164.796    0.394    0.266    6.884
  266.250   97.347  164.796    0.412    0.262    6.884
  266.500   97.959  164.796    0.446    0.262    6.743
  266.750   98.571  170.918    0.467    0.254    6.604
  267.000   96.122  171.939    0.536    0.238    6.206
  267.250   93.061  170.918    0.540    0.232    5.954
  267.500   91.224  169.898    0.527    0.236    5.712
  267.750   94.286  167.857    0.496    0.244    5.479
  268.000   98.571  167.857    0.472    0.254    5.594
  268.250  101.020  166.837    0.467    0.261    5.712
  268.500  104.082  165.816    0.443    0.259    5.831
  268.750  104.082  167.857    0.443    0.261    5.831
  269.000  102.245  168.878    0.454    0.262    6.206
  269.250  100.408  165.816    0.454    0.263    6.206
  269.500   96.735  167.857    0.454    0.254    6.469
  269.750   91.837  167.857    0.471    0.240    6.743
  270.000   93.673  171.939    0.471    0.253    6.884
  270.250   99.184  175.000    0.444    0.257    7.176
  270.500   95.510  177.041    0.419    0.263    7.326
  270.750   93.061  175.000    0.410    0.269    7.480
  271.000   91.837  163.776    0.413    0.263    7.636
  271.250   93.061  170.918    0.431    0.241    7.796
  271.500   93.673  169.898    0.433    0.243    7.796
  271.750   95.510  167.857    0.424    0.253    7.960
  272.000   99.796  171.939    0.421    0.252    7.796
  272.250  100.408  167.857    0.429    0.237    7.480
  272.500   99.184  163.776    0.437    0.232    7.326
  272.750   91.837  162.755    0.439    0.235    7.480
  273.000   90.612  165.816    0.441    0.240    7.480
  273.250   99.184  165.816    0.444    0.235    7.326
  273.500  101.633  165.816    0.466    0.230    7.028
  273.750  100.408  165.816    0.453    0.181    7.636
  274.000   92.449  163.776    0.412    0.081    8.471
  274.250   80.204  161.735    0.349    0.109    9.204
  274.500   81.429  168.878    0.373    0.198    9.594
  274.750   94.286  168.878    0.424    0.237    9.015
  275.000   96.735  168.878    0.523    0.253    8.297
  275.250   97.959  167.857    0.560    0.264    7.176
  275.500   99.796  168.878    0.526    0.261    6.469
  275.750  101.020  169.898    0.493    0.247    5.479
  276.000   99.184  170.918    0.481    0.238    6.604
  276.250   99.796  170.918    0.477    0.254    6.743
  276.500   99.184  170.918    0.471    0.262    5.594
  276.750   98.571  169.898    0.474    0.252    5.954
  277.000   97.959  161.735    0.474    0.244    6.884
  277.250   93.673  162.755    0.446    0.251    6.884
  277.500   95.510  162.755    0.443    0.248    6.884
  277.750   96.122  161.735    0.459    0.247    7.326
  278.000   99.184  163.776    0.464    0.254    6.743
  278.250  102.245  168.878    0.471    0.274    6.469
  278.500  102.245  159.694    0.479    0.282    6.336
  278.750  105.306  168.878    0.483    0.268    6.206
  279.000  105.918  167.857    0.463    0.242    6.206
  279.250  104.694  161.735    0.443    0.244    6.206
  279.500  100.408  167.857    0.442    0.248    6.336
  279.750  100.408  167.857    0.451    0.251    6.336
  280.000  101.020  165.816    0.471    0.248    6.206
  280.250  105.306  168.878    0.463    0.243    6.078
  280.500  108.980  171.939    0.473    0.233    5.954
  280.750  105.918  173.980    0.476    0.206    6.078
  281.000   98.571  162.755    0.444    0.193    6.604
  281.250   95.510  162.755    0.443    0.101    7.796
  281.500  100.408  161.735    0.505    0.132    6.743
  281.750  112.041  162.755    0.505    0.232    6.336
  282.000  114.490  162.755    0.501    0.251    5.479
  282.250  116.327  162.755    0.472    0.247    4.940
  282.500  112.653  161.735    0.442    0.241    5.043
  282.750  108.980  160.714    0.447    0.232    4.739
  283.000  110.816  162.755    0.464    0.232    5.257
  283.250  116.327  162.755    0.498    0.232    5.367
  283.500  119.388  162.755    0.507    0.232    5.367
  283.750  117.551  162.755    0.516    0.223    5.367
  284.000  109.592  162.755    0.495    0.207    5.479
  284.250  105.918  162.755    0.444    0.173    6.078
  284.500  105.306  161.735    0.463    0.156    5.831
  284.750  108.367  161.735    0.472    0.181    5.594
  285.000  112.041  162.755    0.496    0.207    5.257
  285.250  108.980  161.735    0.496    0.211    5.043
  285.500  112.653  167.857    0.496    0.236    5.149
  285.750  113.878  165.816    0.501    0.257    4.940
  286.000  110.204  161.735    0.502    0.278    4.838
  286.250  101.020  162.755    0.482    0.273    5.954
  286.500  100.408  162.755    0.474    0.247    4.098
  286.750  102.857  162.755    0.476    0.230    4.184
  287.000  105.306  161.735    0.485    0.233    4.739
  287.250  106.531  161.735    0.492    0.237    4.940
  287.500  108.367  164.796    0.491    0.238    5.367
  287.750  121.837  162.755    0.471    0.243    5.594
  288.000  110.816  162.755    0.473    0.244    5.712
  288.250  112.041  161.735    0.482    0.241    5.508
  288.500  108.367  161.735    0.486    0.242    5.508
  288.750  104.694  161.735    0.488    0.244    5.623
  289.000  101.020  161.735    0.478    0.249    5.862
  289.250  101.633  160.714    0.444    0.257    5.986
  289.500  107.143  160.714    0.442    0.254    6.111
  289.750  110.204  160.714    0.448    0.240    6.111
  290.000  108.367  160.714    0.442    0.236    6.111
  290.250  105.306  159.694    0.438    0.241    5.986
  290.500  102.245  159.694    0.422    0.244    6.111
  290.750   99.184  158.673    0.408    0.247    6.505
  291.000   99.184  158.673    0.407    0.235    6.240
  291.250  105.306  160.714    0.452    0.222    5.986
  291.500  113.265  161.735    0.496    0.207    5.862
  291.750  113.265  161.735    0.483    0.196    5.623
  292.000  106.531  162.755    0.444    0.165    5.394
  292.250  100.408  162.755    0.434    0.173    5.986
  292.500  107.143  167.857    0.441    0.207    6.371
  292.750  113.878  168.878    0.458    0.236    5.394
  293.000  112.041  177.041    0.464    0.241    5.283
  293.250  112.653  175.000    0.458    0.246    5.283
  293.500  113.878  168.878    0.444    0.251    5.283
  293.750  104.694  175.000    0.424    0.252    5.508
  294.000  101.633  176.020    0.408    0.249    5.862
  294.250  105.306  176.020    0.417    0.242    6.240
  294.500  108.980  172.959    0.458    0.237    5.986
  294.750  112.653  173.980    0.471    0.243    5.508
  295.000  110.816  173.980    0.461    0.246    4.963
  295.250  110.204  175.000    0.463    0.241    4.963
  295.500  107.755  175.000    0.458    0.246    4.963
  295.750  104.694  175.000    0.424    0.258    5.283
  296.000  102.857  179.082    0.429    0.263    5.862
  296.250  101.633  175.000    0.438    0.274    6.371
  296.500   97.347  168.878    0.428    0.278    7.112
  296.750   96.735  166.837    0.418    0.271    7.571
  297.000  100.408  166.837    0.429    0.253    7.571
  297.250  104.082  168.878    0.481    0.177    7.571
  297.500   96.735  168.878    0.473    0.104    7.894
  297.750   86.327  168.878    0.254   -0.001    8.581
