~VERSION INFORMATION
 VERS.                 2.0:   CWLS LOG ASCII STANDARD -VERSION 2.0
 WRAP.                  NO:   ONE LINE PER DEPTH STEP
~WELL INFORMATION BLOCK
#MNEM.UNIT           DATA                    DESCRIPTION OF MNEMONIC
#---------    -------------------            -------------------------------
# Generated from Intellog Unique Number	CS_73_76/WELL/2204
WELL.         CANADA CITIES SERVICE LTD      : Well_name    - WELL
LOC .         00/11-29-074-01W4/0            : Location     - LOCATION
UWI .         00/11-29-074-01W4/0            : Uwi          - UNIQUE WELL ID
ENTR.         SP                             : Entered      - ENTERED BY
SRVC.         SCHLUMBERGER                   : Scn          - SERVICE COMPANY
STRT.M        325                            : top_depth    - START DEPTH
STOP.M        575                            : bot_depth    - STOP DEPTH
STEP.M        0.25                           : increment    - STEP LENGTH
 NULL. -999.2500:NULL Value
~CURVE INFORMATION BLOCK
#MNEM UNIT       ERCB CURVE CODE    CURVE DESCRIPTION
#-----------   ------------------   ----------------------------------
DEPT.M        00 001 00 00         : DEPTH        - DEPTH
ILD .OHMM     00 120 00 00         : RESD         - DEEP RESISTIVITY (DIL)
DPHI.V/V      00 890 00 00         : PHID         - DENSITY POROSITY (LIMESTONE)
NPHI.V/V      00 330 00 00         : PHIN         - NEUTRON POROSITY (LIMESTONE)
GR  .API      00 310 00 00         : GR           - GAMMA RAY
~PARAMETER INFORMATION
#MNEM.UNIT           DATA             DESCRIPTION OF MNEMONIC
#---------         -----------     ------------------------------
GL  .M        693.6                : gl           - GROUND LEVEL ELEVATION
EREF.M        597                  : kb           - ELEVATION OF DEPTH REFERENCE
DATM.M        693.6                : datum        - DATUM ELEVATION
TDD .M        582                  : tdd          - TOTAL DEPTH DRILLER
RUN .         ONE                  : Run          - RUN NUMBER
ENG .         BILL                 : Engineer     - RECORDING ENGINEER
WIT .         JIM                  : Witness      - WITNESSED BY
MUD .         GEL                  : Mud_type     - MUD TYPE
MATR.         LIMESTONE            : Logunit      - NEUTRON MATRIX
TMAX.C        18.5                 : BHT          - MAXIMUM RECORDED TEMPERATURE
BHTD.M        582                  : BHTDEP       - MAXIMUM RECORDED TEMPERATURE
MATR.         1                    : LOGUNIT      - NEUTRON MATRIX
RMT .C        25                   : MDTP         - TEMPERATURE OF MUD
NEUT.         1                    : NEUTRON      - NEUTRON TYPE
RESI.         0                    : RESIST       - RESISTIVITY TYPE
RMC .OHMM     0.25                 : RMC          - RESISTIVITY OF MUD CAKE
RMF .OHMM     0.25                 : RMF          - RESISTIVITY OF MUD FILTRATE
SUFT.C        15                   : SUFT         - SURFACE TEMPERATURE
~A  DEPTH     RESD     PHID     PHIN       GR
# ...
  542.500    4.020    0.193    0.394   76.004
  542.750    4.413    0.182    0.408   94.368
  543.000    4.755    0.182    0.418  103.549
  543.250    4.936    0.192    0.412  118.852
  543.500    5.029    0.214    0.391  120.074
  543.750    4.934    0.233    0.371  113.948
  544.000    4.752    0.232    0.356   89.456
  544.250    4.577    0.204    0.349   74.760
  544.500    4.408    0.199    0.357   69.248
  544.750    4.244    0.208    0.365   68.020
  545.000    4.012    0.220    0.379   71.079
  545.250    4.011    0.219    0.373   75.361
  545.500    4.087    0.214    0.371   72.296
  545.750    4.241    0.202    0.332   71.070
  546.000    4.321    0.190    0.322   69.230
  546.250    4.402    0.218    0.329   68.616
  546.500    4.320    0.229    0.336   66.164
  546.750    4.238    0.237    0.349   63.100
  547.000    4.082    0.246    0.364   61.261
  547.250    3.931    0.242    0.355   57.585
  547.500    3.786    0.236    0.355   54.521
  547.750    3.715    0.223    0.350   53.906
  548.000    3.714    0.225    0.344   51.455
  548.250    3.714    0.217    0.339   51.452
  548.500    3.783    0.207    0.366   51.449
  548.750    3.783    0.236    0.392   52.058
  549.000    3.509    0.275    0.392   52.668
  549.250    2.964    0.310    0.373   47.768
  549.500    2.552    0.309    0.375   35.520
  549.750    2.280    0.304    0.378   28.783
  550.000    1.996    0.304    0.384   27.549
  550.250    1.854    0.320    0.401   24.481
  550.500    1.821    0.331    0.411   21.414
  550.750    1.788    0.335    0.415   20.185
  551.000    2.156    0.332    0.408   22.626
  551.250    2.158    0.329    0.401   25.069
  551.500    2.201    0.309    0.388   25.064
  551.750    2.244    0.302    0.381   22.609
  552.000    2.246    0.313    0.366   21.988
  552.250    2.206    0.318    0.355   22.595
  552.500    2.207    0.323    0.368   22.591
  552.750    2.128    0.328    0.379   21.361
  553.000    2.090    0.313    0.371   18.293
  553.250    2.015    0.319    0.372   18.287
  553.500    2.016    0.328    0.376   20.116
  553.750    2.019    0.329    0.375   20.725
  554.000    2.020    0.332    0.373   21.943
  554.250    2.021    0.335    0.373   23.161
  554.500    1.985    0.326    0.387   23.155
  554.750    1.914    0.317    0.396   21.925
  555.000    1.915    0.324    0.405   20.082
  555.250    1.846    0.336    0.410   18.852
  555.500    1.813    0.348    0.397   18.233
  555.750    1.814    0.357    0.392   18.839
  556.000    1.816    0.353    0.402   19.446
  556.250    1.817    0.345    0.410   20.664
  556.500    1.888    0.341    0.399   21.272
  556.750    1.924    0.324    0.381   21.265
  557.000    2.000    0.322    0.372   21.258
  557.250    2.039    0.325    0.357   21.864
  557.500    2.079    0.324    0.347   23.083
  557.750    2.200    0.323    0.356   24.912
  558.000    2.372    0.325    0.357   26.133
  558.250    2.607    0.322    0.353   29.801
  558.500    2.863    0.291    0.349   37.140
  558.750    3.327    0.268    0.339   42.644
  559.000    4.014    0.254    0.338   47.535
  559.250    4.408    0.217    0.340   49.979
  559.500    5.124    0.216    0.354   53.034
  559.750    5.322    0.196    0.362   50.580
  560.000    5.427    0.190    0.356   41.390
  560.250    5.231    0.218    0.346   34.650
  560.500    4.265    0.221    0.344   34.644
  560.750    3.887    0.184    0.341   36.473
  561.000    3.543    0.175    0.345   37.692
  561.250    3.352    0.201    0.357   35.238
  561.500    2.998    0.250    0.362   28.497
  561.750    2.684    0.266    0.374   24.207
  562.000    2.586    0.264    0.378   27.260
  562.250    2.637    0.223    0.378   30.928
  562.500    3.302    0.230    0.380   51.738
  562.750    3.766    0.244    0.372   72.546
  563.000    4.376    0.214    0.448   83.561
  563.250    4.630    0.193    0.467   88.454
  563.500    5.383    0.189    0.472   87.835
  563.750    5.697    0.190    0.463   84.154
  564.000    5.918    0.191    0.462   82.312
  564.250    6.034    0.194    0.462   82.306
  564.500    6.037    0.203    0.455   82.911
  564.750    6.042    0.177    0.438   84.132
  565.000    5.935    0.189    0.433   85.961
  565.250    5.939    0.198    0.435   85.957
  565.500    5.832    0.209    0.446   84.724
  565.750    5.839    0.211    0.440   84.108
  566.000    5.952    0.197    0.444   84.714
  566.250    5.955    0.186    0.449   85.321
  566.500    6.073    0.168    0.452   85.926
  566.750    6.191    0.186    0.444   86.533
  567.000    6.556    0.208    0.443   85.914
  567.250    6.683    0.193    0.420   89.581
  567.500    6.941    0.193    0.403   93.862
  567.750    7.209    0.201    0.372   99.366
  568.000    7.632    0.173    0.386   82.216
  568.250    8.230    0.162    0.363   73.640
  568.500    9.040    0.165    0.353   63.838
  568.750   10.310    0.125    0.361   55.261
  569.000   12.435    0.144    0.331   47.909
  569.250   15.002    0.161    0.272   41.168
  569.500   16.480    0.149    0.222   35.040
  569.750   18.449    0.079    0.187   31.974
  570.000   19.521    0.045    0.172   30.129
  570.250   20.665    0.041    0.165   30.125
  570.500   21.467    0.035    0.159   31.953
  570.750   22.299    0.035    0.154   32.562
  571.000   23.172    0.029    0.155   33.780
  571.250   23.184    0.025    0.154   34.999
  571.500   23.633    0.035    0.147   35.605
  571.750   24.557    0.053    0.144   36.211
  572.000   24.567    0.047    0.144   36.206
  572.250   26.003    0.039    0.153   36.812
  572.500   27.013    0.044    0.169   42.316
  572.750   28.072    0.054    0.181   49.656
  573.000   28.085    0.078    0.189   57.608
  573.250   28.630    0.082    0.175   44.133
  573.500   28.658    0.047    0.155   35.558
  573.750   29.212    0.045    0.163   34.325
  574.000   29.785    0.047    0.186   36.156
  574.250   31.536    0.068    0.204   31.866
  574.500   33.376    0.062    0.215   20.227
  574.750   34.675    0.056    0.183   17.160
  575.000   36.020    0.047    0.166   17.766
