~VERSION INFORMATION
 VERS.                 2.0:   CWLS LOG ASCII STANDARD -VERSION 2.0
 WRAP.                  NO:   ONE LINE PER DEPTH STEP
~WELL INFORMATION BLOCK
#MNEM.UNIT           DATA                    DESCRIPTION OF MNEMONIC
#---------    -------------------            -------------------------------
# Generated from Intellog Unique Number	CS_71_72/WELL/873
WELL.         BVX ET AL BRETT                : Well_name    - WELL
LOC .         00/10-30-071-12W4/0            : Location     - LOCATION
UWI .         00/10-30-071-12W4/0            : Uwi          - UNIQUE WELL ID
ENTR.         SP                             : Entered      - ENTERED BY
SRVC.         SCHLUMBERGER                   : Scn          - SERVICE COMPANY
STRT.M        310                            : top_depth    - START DEPTH
STOP.M        540                            : bot_depth    - STOP DEPTH
STEP.M        0.25                           : increment    - STEP LENGTH
 NULL. -999.2500:NULL Value
~CURVE INFORMATION BLOCK
#MNEM UNIT       ERCB CURVE CODE    CURVE DESCRIPTION
#-----------   ------------------   ----------------------------------
DEPT.M        00 001 00 00         : DEPTH        - DEPTH
GR  .API      00 310 00 00         : GR           - GAMMA RAY
NPHI.V/V      00 330 00 00         : PHIN         - NEUTRON POROSITY (LIMESTONE)
DPHI.V/V      00 890 00 00         : PHID         - DENSITY POROSITY (LIMESTONE)
ILD .OHMM     00 120 00 00         : RESD         - DEEP RESISTIVITY (DIL)
~PARAMETER INFORMATION
#MNEM.UNIT           DATA             DESCRIPTION OF MNEMONIC
#---------         -----------     ------------------------------
GL  .M        643.76               : gl           - GROUND LEVEL ELEVATION
EREF.M        646.5                : kb           - ELEVATION OF DEPTH REFERENCE
DATM.M        643.76               : datum        - DATUM ELEVATION
TDD .M        542                  : tdd          - TOTAL DEPTH DRILLER
RUN .         ONE                  : Run          - RUN NUMBER
ENG .         BILL                 : Engineer     - RECORDING ENGINEER
WIT .         JIM                  : Witness      - WITNESSED BY
MUD .         GEL                  : Mud_type     - MUD TYPE
MATR.         LIMESTONE            : Logunit      - NEUTRON MATRIX
TMAX.C        20                   : BHT          - MAXIMUM RECORDED TEMPERATURE
BHTD.M        542                  : BHTDEP       - MAXIMUM RECORDED TEMPERATURE
MATR.         1                    : LOGUNIT      - NEUTRON MATRIX
RMT .C        25                   : MDTP         - TEMPERATURE OF MUD
NEUT.         1                    : NEUTRON      - NEUTRON TYPE
RESI.         0                    : RESIST       - RESISTIVITY TYPE
RMC .OHMM     0.25                 : RMC          - RESISTIVITY OF MUD CAKE
RMF .OHMM     0.25                 : RMF          - RESISTIVITY OF MUD FILTRATE
SUFT.C        15                   : SUFT         - SURFACE TEMPERATURE
~A  DEPTH       GR     PHIN     PHID     RESD
# ...
  440.500   59.562    0.336    0.313    3.403
  440.750   62.591    0.334    0.273    3.416
  441.000   61.848    0.352    0.240    3.415
  441.250   62.930    0.347    0.230    3.415
  441.500   74.903    0.352    0.223    3.428
  441.750   79.448    0.360    0.215    3.421
  442.000   81.020    0.366    0.231    3.408
  442.250   81.251    0.360    0.243    3.358
  442.500   79.228    0.348    0.251    3.229
  442.750   80.128    0.336    0.240    3.128
  443.000   75.915    0.339    0.233    3.041
  443.250   74.381    0.336    0.229    2.996
  443.500   74.669    0.308    0.232    2.957
  443.750   74.840    0.314    0.237    2.924
  444.000   75.435    0.327    0.250    2.908
  444.250   77.794    0.343    0.270    2.918
  444.500   77.355    0.360    0.281    2.945
  444.750   74.539    0.357    0.271    3.017
  445.000   73.980    0.351    0.264    3.074
  445.250   71.106    0.345    0.252    3.143
  445.500   70.727    0.341    0.251    3.220
  445.750   72.295    0.337    0.238    3.548
  446.000   79.523    0.353    0.220    3.587
  446.250   84.499    0.366    0.215    3.621
  446.500   86.736    0.361    0.224    3.627
  446.750   87.879    0.359    0.235    3.614
  447.000   80.624    0.384    0.243    3.566
  447.250   78.724    0.387    0.219    3.520
  447.500   77.919    0.385    0.212    3.448
  447.750   76.261    0.384    0.223    3.391
  448.000   81.117    0.340    0.232    3.365
  448.250   83.659    0.344    0.239    3.359
  448.500   81.210    0.354    0.238    3.359
  448.750   78.642    0.347    0.232    3.377
  449.000   78.871    0.328    0.228    3.415
  449.250   80.135    0.333    0.244    3.486
  449.500   81.460    0.356    0.248    3.518
  449.750   82.294    0.348    0.221    3.571
  450.000   82.163    0.349    0.225    3.584
  450.250   80.081    0.367    0.233    3.584
  450.500   73.130    0.380    0.223    3.485
  450.750   77.010    0.371    0.213    3.459
  451.000   81.682    0.356    0.211    3.376
  451.250   87.083    0.347    0.209    3.313
  451.500   87.982    0.342    0.208    3.240
  451.750   85.047    0.339    0.213    3.109
  452.000   83.086    0.344    0.231    2.957
  452.250   87.820    0.351    0.226    2.739
  452.500   85.859    0.361    0.240    2.566
  452.750   86.027    0.373    0.261    2.454
  453.000   89.299    0.386    0.281    2.269
  453.250   89.285    0.401    0.295    2.190
  453.500   87.873    0.387    0.274    2.117
  453.750   79.095    0.359    0.265    2.090
  454.000   75.371    0.365    0.241    2.101
  454.250   72.130    0.382    0.019    2.372
  454.500   71.265    0.382    0.004    2.836
  454.750   70.703    0.291    0.013    3.101
  455.000   70.508    0.246    0.164    3.455
  455.250   70.064    0.278    0.231    3.778
  455.500   69.385    0.325    0.267    4.116
  455.750   66.876    0.355    0.290    4.178
  456.000   65.342    0.355    0.247    4.093
  456.250   78.592    0.350    0.248    3.841
  456.500   82.291    0.375    0.257    3.680
  456.750   82.034    0.361    0.218    3.421
  457.000   80.438    0.345    0.163    3.365
  457.250   81.216    0.368    0.066    3.259
  457.500   74.083    0.389    0.007    3.396
  457.750   66.341    0.177   -0.009    4.145
  458.000   58.173    0.162   -0.008    5.135
  458.250   50.493    0.157    0.029    6.004
  458.500   45.671    0.196    0.102    6.541
  458.750   43.650    0.245    0.156    6.639
  459.000   63.411    0.286    0.191    6.185
  459.250   72.404    0.318    0.184    5.510
  459.500   79.388    0.349    0.180    4.945
  459.750   81.565    0.354    0.191    4.463
  460.000   83.073    0.369    0.191    3.976
  460.250   84.945    0.365    0.198    3.852
  460.500   86.815    0.336    0.202    3.823
  460.750   88.264    0.333    0.202    3.873
  461.000   84.417    0.345    0.192    3.923
  461.250   79.960    0.352    0.183    3.975
  461.500   80.799    0.346    0.174    4.034
  461.750   82.489    0.343    0.177    4.094
  462.000   82.050    0.347    0.190    4.110
  462.250   80.149    0.337    0.198    4.140
  462.500   82.813    0.322    0.205    4.155
  462.750   86.995    0.317    0.206    4.194
  463.000   89.296    0.319    0.200    4.217
  463.250   90.195    0.321    0.194    4.225
  463.500   88.902    0.339    0.191    4.217
  463.750   84.569    0.337    0.206    4.209
  464.000   77.132    0.340    0.217    4.201
  464.250   80.159    0.346    0.204    4.169
  464.500   81.911    0.337    0.195    4.138
  464.750   78.916    0.334    0.197    4.054
  465.000   80.850    0.328    0.176    3.971
  465.250   85.218    0.321    0.175    3.949
  465.500   75.771    0.311    0.207    3.919
  465.750   70.768    0.305    0.199    3.875
  466.000   79.638    0.307    0.183    3.818
  466.250   84.006    0.330    0.207    3.782
  466.500   82.227    0.355    0.216    3.740
  466.750   78.500    0.353    0.119    3.671
  467.000   74.838    0.299    0.114    3.596
  467.250   67.948    0.310    0.167    3.549
  467.500   62.396    0.342    0.200    3.510
  467.750   68.892    0.360    0.210    3.457
  468.000   74.109    0.364    0.201    3.406
  468.250   76.959    0.353    0.216    3.324
  468.500   80.292    0.350    0.238    3.208
  468.750   78.696    0.333    0.245    3.143
  469.000   79.595    0.323    0.246    2.906
  469.250   80.129    0.347    0.252    2.826
  469.500   77.012    0.369    0.248    2.476
  469.750   79.857    0.372    0.245    2.149
  470.000   81.606    0.370    0.244    1.872
  470.250   78.918    0.365    0.254    1.760
  470.500   79.572    0.357    0.247    1.640
  470.750   87.044    0.381    0.227    1.583
  471.000   92.445    0.390    0.195    1.574
  471.250   82.878    0.346    0.158    1.871
  471.500   69.113    0.312    0.172    2.254
  471.750   73.420    0.321    0.207    2.696
  472.000   80.403    0.334    0.228    3.147
  472.250   83.859    0.343    0.238    3.499
  472.500   82.808    0.344    0.224    3.371
  472.750   77.928    0.324    0.158    3.259
  473.000   68.969    0.310    0.205    3.193
  473.250   74.128    0.323    0.230    3.211
  473.500   80.564    0.352    0.229    3.229
  473.750   75.135    0.399    0.075    3.395
  474.000   61.248    0.212   -0.003    3.911
  474.250   51.193    0.164   -0.010    4.591
  474.500   44.365    0.150   -0.009    5.039
  474.750   45.081    0.195   -0.005    5.500
  475.000   60.949    0.277    0.059    5.530
  475.250   76.087    0.310    0.190    5.348
  475.500   80.758    0.327    0.210    4.728
  475.750   84.758    0.330    0.215    3.961
  476.000   88.154    0.344    0.212    3.355
  476.250   91.670    0.360    0.209    3.040
  476.500   94.333    0.370    0.203    2.708
  476.750   89.148    0.363    0.205    2.499
  477.000   85.544    0.369    0.205    2.394
  477.250   89.607    0.378    0.199    2.354
  477.500   93.789    0.368    0.194    2.298
  477.750   95.722    0.356    0.190    2.281
  478.000   88.471    0.346    0.188    2.276
  478.250   88.882    0.344    0.177    2.268
  478.500   89.964    0.338    0.150    2.259
  478.750   84.412    0.338    0.118    2.280
  479.000   77.705    0.345    0.167    2.358
  479.250   77.935    0.356    0.189    2.456
  479.500   85.465    0.356    0.199    2.568
  479.750   86.669    0.347    0.200    2.651
  480.000   84.161    0.360    0.199    2.661
  480.250   88.711    0.378    0.198    2.665
  480.500   93.626    0.399    0.200    2.636
  480.750   88.439    0.387    0.208    2.645
  481.000   81.612    0.360    0.213    2.690
  481.250   87.135    0.346    0.208    2.745
  481.500   95.577    0.346    0.203    2.705
  481.750   95.870    0.359    0.200    2.630
  482.000   91.719    0.369    0.197    2.487
  482.250   98.152    0.385    0.197    2.334
  482.500  102.947    0.403    0.172    2.203
  482.750   93.198    0.365    0.136    2.436
  483.000   83.752    0.324    0.114    2.913
  483.250   78.324    0.307    0.101    3.516
  483.500   72.103    0.311    0.100    4.220
  483.750   67.647    0.322    0.123    4.917
