~VERSION INFORMATION
 VERS.                 2.0:   CWLS LOG ASCII STANDARD -VERSION 2.0
 WRAP.                  NO:   ONE LINE PER DEPTH STEP
~WELL INFORMATION BLOCK
#MNEM.UNIT           DATA                    DESCRIPTION OF MNEMONIC
#---------    -------------------            -------------------------------
# Generated from Intellog Unique Number	CC_80_83/WELL/2384
NULL.         -999.25                        : NULL_VALUE
WELL.         BVX ET AL WATCHUSK             : Well_name    - WELL
LOC .         10-29-081-02W4                 : Location     - LOCATION          
UWI .         00/10-29-081-02W400            : Uwi          - UNIQUE WELL ID    
ENTR.         DW                             : Entered      - ENTERED BY        
SRVC.         SCHLUMBERGER                   : Scn          - SERVICE COMPANY   
DATE.         14 FEB 79                      : Date         - LOG DATE
STRT.M        125                            : top_depth    - START DEPTH       
STOP.M        265.101                        : bot_depth    - STOP DEPTH        
STEP.M        0.3                            : increment    - STEP LENGTH       
~CURVE INFORMATION BLOCK
#MNEM UNIT       ERCB CURVE CODE    CURVE DESCRIPTION
#-----------   ------------------   ----------------------------------
DEPT.M        00 001 00 00         : DEPTH        - DEPTH                       
DPHI.V/V      00 890 00 00         : PHID         - DENSITY POROSITY (LIMESTONE)
NPHI.V/V      00 330 00 00         : PHIN         - NEUTRON POROSITY (LIMESTONE)
GR  .API      00 310 00 00         : GR           - GAMMA RAY                   
ILD .OHMM     00 120 00 00         : RESD         - DEEP RESISTIVITY (DIL)      
~PARAMETER INFORMATION       
#MNEM.UNIT           DATA             DESCRIPTION OF MNEMONIC
#---------         -----------     ------------------------------
GL  .M        474                  : gl           - GROUND LEVEL ELEVATION      
EREF.M        477                  : kb           - ELEVATION OF DEPTH REFERENCE
DATM.M        477                  : datum        - DATUM ELEVATION             
TDD .M        276                  : tdd          - TOTAL DEPTH DRILLER         
RUN .         ONE                  : Run          - RUN NUMBER                  
ENG .         BILL                 : Engineer     - RECORDING ENGINEER          
WIT .         JIM                  : Witness      - WITNESSED BY                
MUD .         GEL                  : Mud_type     - MUD TYPE                    
MATR.         LIMESTONE            : Logunit      - NEUTRON MATRIX              
TMAX.C        24.4                 : BHT          - MAXIMUM RECORDED TEMPERATURE
BHTD.M        276                  : BHTDEP       - MAXIMUM RECORDED TEMPERATURE
MATR.         1                    : LOGUNIT      - NEUTRON MATRIX              
RMT .C        25                   : MDTP         - TEMPERATURE OF MUD          
NEUT.         1                    : NEUTRON      - NEUTRON TYPE                
RESI.         0                    : RESIST       - RESISTIVITY TYPE            
RMC .OHMM     0.25                 : RMC          - RESISTIVITY OF MUD CAKE     
RMF .OHMM     0.25                 : RMF          - RESISTIVITY OF MUD FILTRATE 
SUFT.C        15                   : SUFT         - SURFACE TEMPERATURE         
~A  DEPTH     PHID     PHIN       GR     RESD
  125.000    0.348    0.480   51.626    7.311
  125.300    0.342    0.484   47.948    7.448
  125.600    0.359    0.483   47.339    7.588
  125.900    0.353    0.483   47.963    7.730
  126.200    0.343    0.503   55.355    7.585
  126.500    0.326    0.505   55.977    7.584
  126.800    0.327    0.492   55.990    7.441
  127.100    0.327    0.481   56.613    7.440
  127.400    0.322    0.502   58.467    7.437
  127.700    0.319    0.517   59.707    7.436
  128.000    0.355    0.501   55.408    7.576
  128.300    0.361    0.480   56.649    7.718
  128.600    0.354    0.463   59.118    8.011
  128.900    0.317    0.452   59.128    8.162
  129.200    0.320    0.465   58.519    8.315
  129.500    0.335    0.476   56.685    8.630
  129.800    0.341    0.484   56.694    8.792
  130.100    0.344    0.503   58.547    8.791
  130.400    0.345    0.487   61.631    8.789
  130.700    0.345    0.501   61.641    8.787
  131.000    0.331    0.510   54.268    8.461
  131.300    0.316    0.486   58.583    8.302
  131.600    0.323    0.497   61.668    8.301
  131.900    0.334    0.490   61.679    8.300
  132.200    0.336    0.466   59.842    8.144
  132.500    0.337    0.452   59.852    8.142
  132.800    0.329    0.449   59.859    7.989
  133.100    0.315    0.457   59.870    7.839
  133.400    0.329    0.487   61.725    7.691
  133.700    0.337    0.505   62.965    7.690
  134.000    0.325    0.482   62.357    7.546
  134.300    0.316    0.486   61.137    7.544
  134.600    0.327    0.486   59.914    7.543
  134.900    0.337    0.477   60.538    7.541
  135.200    0.337    0.474   61.779    7.400
  135.500    0.335    0.474   61.172    7.398
  135.800    0.335    0.483   60.566    7.396
  136.100    0.335    0.504   58.115    7.257
  136.400    0.334    0.513   56.278    7.256
  136.700    0.327    0.521   57.520    7.254
  137.000    0.338    0.516   58.142    7.253
  137.300    0.344    0.497   60.613    7.251
  137.600    0.334    0.481   61.852    7.250
  137.900    0.322    0.465   61.861    7.249
  138.200    0.319    0.495   58.180    7.248
  138.500    0.310    0.483   54.496    7.246
  138.800    0.302    0.481   52.045    7.110
  139.100    0.307    0.499   52.673    6.977
  139.400    0.327    0.510   53.294    6.845
  139.700    0.335    0.523   55.763    6.844
  140.000    0.346    0.515   58.852    6.843
  140.300    0.363    0.522   58.857    6.841
  140.600    0.361    0.521   57.637    6.840
  140.900    0.351    0.487   58.879    6.839
  141.200    0.330    0.474   58.887    6.837
  141.500    0.319    0.466   58.898    6.836
  141.800    0.342    0.483   58.902    6.707
  142.100    0.341    0.493   60.756    6.458
  142.400    0.329    0.499   60.152    6.457
  142.700    0.327    0.495   60.160    6.579
  143.000    0.341    0.489   61.401    6.578
  143.300    0.326    0.498   63.254    6.576
  143.600    0.331    0.502   66.338    6.575
  143.900    0.331    0.483   70.039    6.573
  144.200    0.337    0.485   71.278    6.450
  144.500    0.347    0.490   70.671    6.449
  144.800    0.359    0.511   70.067    6.327
  145.100    0.383    0.509   67.617    6.326
  145.400    0.387    0.493   66.394    6.324
  145.700    0.379    0.495   61.481    6.443
  146.000    0.379    0.515   56.572    6.564
  146.300    0.378    0.524   57.810    6.687
  146.600    0.346    0.529   62.127    7.207
  146.900    0.268    0.513   63.979    7.482
  147.200    0.219    0.361   63.987    8.371
  147.500    0.268    0.368   64.612    8.529
  147.800    0.327    0.480   68.312    8.527
  148.100    0.330    0.496   73.241    8.059
  148.400    0.342    0.511   70.792    7.065
  148.700    0.360    0.519   66.496    6.311
  149.000    0.360    0.534   64.661    5.965
  149.300    0.386    0.569   64.052    5.853
  149.600    0.364    0.554   65.293    5.852
  149.900    0.346    0.527   65.918    5.741
  150.200    0.332    0.498   65.925    5.849
  150.500    0.321    0.492   65.932    5.848
  150.800    0.325    0.511   64.098    5.847
  151.100    0.330    0.522   62.877    5.737
  151.400    0.343    0.525   63.499    5.524
  151.700    0.374    0.533   66.587    5.320
  152.000    0.370    0.539   68.439    5.123
  152.300    0.326    0.546   72.754    4.841
  152.600    0.276    0.548   88.756    4.490
  152.900    0.275    0.548   88.765    4.324
  153.200    0.292    0.535   85.699    4.243
  153.500    0.286    0.513   82.019    4.404
  153.800    0.283    0.524   80.181    4.746
  154.100    0.283    0.536   77.732    4.927
  154.400    0.272    0.539   74.664    5.211
  154.700    0.238    0.524   72.828    5.410
  155.000    0.261    0.521   74.066    5.830
  155.300    0.253    0.512   82.687    6.052
  155.600    0.234    0.503   85.774    6.051
  155.900    0.224    0.502   85.165    6.049
  156.200    0.222    0.508   82.100    5.936
  156.500    0.241    0.546   76.575    5.825
  156.800    0.261    0.553   75.969    5.505
  157.100    0.273    0.549   78.437    6.159
  157.400    0.282    0.524   81.520    6.394
  157.700    0.289    0.479   82.146    7.428
  158.000    0.293    0.470   80.923    8.630
  158.300    0.277    0.466   78.474    9.477
  158.600    0.255    0.461   74.177   10.025
  158.900    0.268    0.461   72.342   10.213
  159.200    0.299    0.465   72.964   10.210
  159.500    0.276    0.480   79.125   10.019
  159.800    0.256    0.499   83.441    9.119
  160.100    0.274    0.513   83.448    8.782
  160.400    0.289    0.519   79.768    8.779
  160.700    0.291    0.518   79.164    8.944
  161.000    0.294    0.511   78.555    9.285
  161.300    0.296    0.509   76.722    9.638
  161.600    0.295    0.527   76.112    9.635
  161.900    0.293    0.552   78.582    9.633
  162.200    0.288    0.553   83.513    9.453
  162.500    0.277    0.530   84.754    9.276
  162.800    0.270    0.503   85.377    8.932
  163.100    0.262    0.512   87.231    8.130
  163.400    0.251    0.520   92.778    7.829
  163.700    0.239    0.520   95.861    7.261
  164.000    0.244    0.525   98.328    6.487
  164.300    0.248    0.526   97.723    6.016
  164.600    0.256    0.514   95.271    6.129
  164.900    0.265    0.516   93.435    6.014
  165.200    0.272    0.534   97.137    5.684
  165.500    0.256    0.559  100.838    5.077
  165.800    0.250    0.566  102.077    4.709
  166.100    0.254    0.556  102.698    4.287
  166.400    0.259    0.562  103.938    3.976
  166.700    0.265    0.608  103.947    3.687
  167.000    0.257    0.603  101.495    3.485
  167.300    0.267    0.597   97.198    3.484
  167.600    0.267    0.584   93.518    3.755
  167.900    0.270    0.572   93.526    3.825
  168.200    0.263    0.594   94.767    3.825
  168.500    0.271    0.604  100.311    3.481
  168.800    0.262    0.584  106.471    3.110
  169.100    0.263    0.570  100.946    2.939
  169.400    0.263    0.555   94.802    2.994
  169.700    0.255    0.511   91.120    3.288
  170.000    0.242    0.511   91.131    3.611
  170.300    0.230    0.515   95.446    4.117
  170.600    0.233    0.513   96.683    5.254
  170.900    0.247    0.506   95.465    5.990
  171.200    0.249    0.496   94.242    6.578
  171.500    0.242    0.491   96.102    7.089
  171.800    0.239    0.499   96.724    7.223
  172.100    0.238    0.478   94.884    7.221
  172.400    0.226    0.484   88.742    6.954
  172.700    0.241    0.513   94.902    5.983
  173.000    0.269    0.555   97.987    5.550
  173.300    0.254    0.568   96.769    4.347
  173.600    0.237    0.556   93.700    3.957
  173.900    0.225    0.541   92.479    3.882
  174.201    0.217    0.541   90.027    4.030
  174.501    0.230    0.513   88.193    4.183
  174.801    0.245    0.505   86.970    4.509
  175.101    0.258    0.524   87.595    5.045
  175.401    0.264    0.534   88.217    5.540
  175.701    0.261    0.531   88.843    5.860
  176.001    0.254    0.531   90.083    6.198
  176.301    0.253    0.529   91.320    6.197
  176.601    0.258    0.500   85.181    6.196
  176.901    0.289    0.473   83.343    6.195
