~VERSION INFORMATION
 VERS.                 2.0:   CWLS LOG ASCII STANDARD -VERSION 2.0
 WRAP.                  NO:   ONE LINE PER DEPTH STEP
~WELL INFORMATION BLOCK
#MNEM.UNIT           DATA                    DESCRIPTION OF MNEMONIC
#---------    -------------------            -------------------------------
# Generated from Intellog Unique Number	CN_94_101/WELL/3811
WELL.         11-09-096-17W4                 : Well_name    - WELL
LOC .         00/11-09-096-17W4/0            : Location     - LOCATION
UWI .         00/11-09-096-17W400            : Uwi          - UNIQUE WELL ID
ENTR.         T                              : Entered      - ENTERED BY
SRVC.         SCHLUMBERGER                   : Scn          - SERVICE COMPANY
DATE.         07/31/92                       : Date         - LOG DATE
STRT.M        300                            : top_depth    - START DEPTH
STOP.M        475                            : bot_depth    - STOP DEPTH
STEP.M        0.25                           : increment    - STEP LENGTH
 NULL. -999.2500:NULL Value
~CURVE INFORMATION BLOCK
#MNEM UNIT       ERCB CURVE CODE    CURVE DESCRIPTION
#-----------   ------------------   ----------------------------------
DEPT.M        00 001 00 00         : DEPTH        - DEPTH
GR  .API      00 310 00 00         : GR           - GAMMA RAY
CALI.MM       00 280 01 00         : CAL          - CALIPER
NPHI.V/V      00 330 00 00         : PHIN         - NEUTRON POROSITY (SANDSTONE)
DPHI.V/V      00 890 00 00         : PHID         - DENSITY POROSITY (SANDSTONE)
ILD .OHMM     00 120 00 00         : RESD         - DEEP RESISTIVITY (DIL)
~PARAMETER INFORMATION
#MNEM.UNIT           DATA             DESCRIPTION OF MNEMONIC
#---------         -----------     ------------------------------
GL  .M        743                  : gl           - GROUND LEVEL ELEVATION
EREF.M        747.4                : kb           - ELEVATION OF DEPTH REFERENCE
DATM.M        747.4                : datum        - DATUM ELEVATION
TDD .M        482                  : tdd          - TOTAL DEPTH DRILLER
RUN .         0.000000             : Run          - RUN NUMBER
MUD .         GEL                  : Mud_type     - MUD TYPE
MATR.         SANDSTONE            : Logunit      - NEUTRON MATRIX
TMAX.C        0                    : BHT          - MAXIMUM RECORDED TEMPERATURE
BHTD.M        103.632              : BHTDEP       - MAXIMUM RECORDED TEMPERATURE
RMT .C        -1.11111             : MDTP         - TEMPERATURE OF MUD
MUDD.KG/M     8900                 : MWT          - MUD DENSITY
NEUT.         1                    : NEUTRON      - NEUTRON TYPE
RESI.         0                    : RESIST       - RESISTIVITY TYPE
RM  .OHMM     3.69                 : RM           - RESISTIVITY OF MUD
RMC .OHMM     3.69                 : RMC          - RESISTIVITY OF MUD CAKE
RMF .OHMM     0                    : RMF          - RESISTIVITY OF MUD FILTRATE
SUFT.C        -15                  : SUFT         - SURFACE TEMPERATURE
BTZC.MM       0                    : BITZC        - BIT SIZE CONSTANT
MDW .KG/M     0                    : MDW          - MUD WEIGHT
~A  DEPTH       GR      CAL     PHIN     PHID     RESD
# ...
  446.000  125.949  155.242    0.451    0.160    6.829
  446.250  129.114  155.242    0.459    0.165    6.978
  446.500  132.911  155.242    0.474    0.168    7.286
  446.750  136.709  155.242    0.468    0.163    7.286
  447.000  136.709  156.250    0.451    0.149    7.286
  447.250  130.380  156.250    0.435    0.121    7.608
  447.500  120.253  156.250    0.424    0.125    7.445
  447.750  118.354  156.250    0.444    0.140    7.774
  448.000  120.253  156.250    0.445    0.118    7.943
  448.250  116.456  156.250    0.402    0.083    8.294
  448.500  102.532  156.250    0.344    0.086    8.475
  448.750  103.361  156.250    0.410    0.117    8.849
  449.000  112.815  156.250    0.429    0.156    9.441
  449.250  117.227  156.250    0.463    0.159    8.660
  449.500  119.118  156.250    0.480    0.161    8.117
  449.750  127.941  156.250    0.469    0.147    7.608
  450.000  124.051  156.250    0.454    0.127    6.978
  450.250  120.253  156.250    0.444    0.122    6.541
  450.500  120.886  156.250    0.444    0.141    6.541
  450.750  122.152  156.250    0.445    0.151    6.541
  451.000  120.886  156.250    0.456    0.154    6.683
  451.250  121.519  156.250    0.480    0.151    6.978
  451.500  119.620  156.250    0.469    0.147    7.286
  451.750  103.797  156.250    0.456    0.155    7.943
  452.000   89.241  156.250    0.392    0.163    9.857
  452.250   71.519  156.250    0.368    0.165   12.232
  452.500   62.658  156.250    0.384    0.190   15.179
  452.750   67.089  156.250    0.378    0.241   18.836
  453.000   68.987  156.250    0.367    0.294   26.607
  453.250   63.291  156.250    0.343    0.309   33.738
  453.500   63.291  156.250    0.381    0.287   36.781
  453.750   73.418  156.250    0.425    0.237   30.947
  454.000   82.278  156.250    0.449    0.199   29.640
  454.250   75.316  156.250    0.417    0.195   28.387
  454.500   68.354  156.250    0.364    0.216   27.188
  454.750   65.823  156.250    0.333    0.260   26.607
  455.000   64.557  156.250    0.275    0.314   33.018
  455.250   61.392  156.250    0.267    0.386   36.781
  455.500   57.595  156.250    0.284    0.381   42.781
  455.750   50.633  156.250    0.368    0.335   40.973
  456.000   47.468  156.250    0.391    0.329   33.738
  456.250   46.203  156.250    0.405    0.323   27.781
  456.500   43.671  156.250    0.402    0.316   26.039
  456.750   34.177  156.250    0.400    0.315   28.387
  457.000   28.481  156.250    0.393    0.310   31.623
  457.250   22.152  156.250    0.363    0.301   34.475
  457.500   22.785  156.250    0.334    0.300   48.697
  457.750   25.949  155.242    0.366    0.318   70.287
  458.000   28.481  155.242    0.413    0.323  115.478
  458.250   37.342  155.242    0.421    0.323  215.961
  458.500   39.241  155.242    0.424    0.324  215.961
  458.750   40.506  155.242    0.425    0.324  193.865
  459.000   40.042  155.242    0.422    0.329  174.030
  459.250   39.407  155.242    0.416    0.335  152.889
  459.500   38.771  155.242    0.418    0.332  134.315
  459.750   39.407  155.242    0.422    0.326  131.447
  460.000   40.678  154.234    0.423    0.321  128.640
  460.250   41.314  154.234    0.417    0.324  125.893
  460.500   42.585  154.234    0.408    0.325  123.204
  460.750   42.585  154.234    0.414    0.315  123.204
  461.000   42.585  154.234    0.416    0.309  125.893
  461.250   43.671  154.234    0.417    0.310  131.447
  461.500   44.937  154.234    0.421    0.314  137.246
  461.750   47.468  154.234    0.416    0.303  143.301
  462.000   38.608  154.234    0.389    0.297  163.117
  462.250   37.975  154.234    0.386    0.295  185.674
  462.500   36.709  153.226    0.359    0.296  193.865
  462.750   36.076  153.226    0.376    0.305  166.677
  463.000   33.544  153.226    0.391    0.311  125.893
  463.250   31.780  153.226    0.400    0.318  125.893
  463.500   30.508  153.226    0.407    0.321  131.447
  463.750   30.508  165.323    0.420    0.321  137.246
  464.000   31.780  151.210    0.426    0.319  143.301
  464.250   33.051  151.210    0.421    0.323  163.117
  464.500   34.958  154.234    0.407    0.326  177.828
  464.750   39.407  150.202    0.407    0.328  193.865
  465.000   39.407  151.210    0.407    0.330  181.708
  465.250   38.771  158.266    0.417    0.329  159.634
  465.500   38.136  154.234    0.435    0.334  143.301
  465.750   38.136  151.210    0.438    0.329  140.241
  466.000   38.136  151.210    0.437    0.328  137.246
  466.250   38.771  150.202    0.429    0.324  134.315
  466.500   38.771  150.202    0.418    0.323  125.893
  466.750   39.407  150.202    0.414    0.318  120.573
  467.000   39.407  150.202    0.424    0.320  117.998
  467.250   39.407  158.266    0.432    0.323  113.012
  467.500   40.678  156.250    0.436    0.324  108.237
  467.750   40.678  156.250    0.436    0.325  101.450
  468.000   41.949  156.250    0.436    0.323   97.163
  468.250   43.220  156.250    0.436    0.318   95.088
  468.500   44.492  157.258    0.434    0.318   91.070
  468.750   45.763  157.258    0.440    0.316   89.125
  469.000   47.034  157.258    0.430    0.308   87.222
  469.250   48.305  158.266    0.420    0.300   80.006
  469.500   49.576  159.274    0.420    0.304   80.006
  469.750   48.305  156.250    0.474    0.308   78.298
  470.000   47.669  156.250    0.418    0.310   78.298
  470.250   50.212  156.250    0.408    0.309   76.626
  470.500   50.847  156.250    0.398    0.295   76.626
  470.750   50.847  156.250    0.408    0.285   81.752
  471.000   52.119  156.250    0.428    0.284   71.821
  471.250   54.025  156.250    0.428    0.295   71.821
  471.500   51.702  156.250    0.419    0.300   65.879
  471.750   49.149  156.250    0.429    0.304   64.473
  472.000   47.234  156.250    0.436    0.309   59.139
  472.250   51.702  156.250    0.438    0.301   56.640
  472.500   57.447  156.250    0.446    0.286   51.955
  472.750   60.638  156.250    0.447    0.280   46.639
  473.000   62.553  156.250    0.428    0.284   41.867
  473.250   61.915  156.250    0.426    0.284   40.098
  473.500   61.915  156.250    0.422    0.285   36.781
  473.750   62.924  156.250    0.397    0.291   33.018
  474.000   67.373  156.250    0.386    0.292   30.287
  474.250   69.280  156.250    0.389    0.284   28.387
  474.500   63.559  156.250    0.391    0.277   28.387
  474.750   63.559  156.250    0.357    0.203   29.640
  475.000   63.559  156.250    0.253   -0.003   30.287
