~VERSION INFORMATION
 VERS.                 2.0:   CWLS LOG ASCII STANDARD -VERSION 2.0
 WRAP.                  NO:   ONE LINE PER DEPTH STEP
~WELL INFORMATION BLOCK
#MNEM.UNIT           DATA                    DESCRIPTION OF MNEMONIC
#---------    -------------------            -------------------------------
# Generated from Intellog Unique Number	CW_70_72/WELL/1051
NULL.         -999.25                        : NULL_VALUE
WELL.         DECALTA ET AL SMITH 11-03      : Well_name    - WELL              
LOC .         11-03-071-01W5                 : Location     - LOCATION          
UWI .         00/11-03-071-01W5/0            : Uwi          - UNIQUE WELL ID    
ENTR.         JAYE                           : Entered      - ENTERED BY        
SRVC.         SCHLUMBERGER                   : Scn          - SERVICE COMPANY   
DATE.         1 NOV 77                       : Date         - LOG DATE          
STRT.M        384.048                        : top_depth    - START DEPTH       
STOP.M        644.298                        : bot_depth    - STOP DEPTH        
STEP.M        0.25                           : increment    - STEP LENGTH       
~CURVE INFORMATION BLOCK
#MNEM UNIT       ERCB CURVE CODE    CURVE DESCRIPTION
#-----------   ------------------   ----------------------------------
DEPT.M        00 001 00 00         : DEPTH        - DEPTH                       
DPHI.V/V      00 890 00 00         : PHID         - DENSITY POROSITY (SANDSTONE)
NPHI.V/V      00 330 00 00         : PHIN         - NEUTRON POROSITY (SANDSTONE)
GR  .API      00 310 00 00         : GR           - GAMMA RAY                   
CALI.MM       00 280 01 00         : CAL          - CALIPER                     
ILD .OHMM     00 120 00 00         : RESD         - DEEP RESISTIVITY (DIL)      
~PARAMETER INFORMATION       
#MNEM.UNIT           DATA             DESCRIPTION OF MNEMONIC
#---------         -----------     ------------------------------
GL  .M        572.11               : gl           - GROUND LEVEL ELEVATION      
EREF.M        575.158              : kb           - ELEVATION OF DEPTH REFERENCE
DATM.M        572.11               : datum        - DATUM ELEVATION             
TDD .M        649.224              : tdd          - TOTAL DEPTH DRILLER         
RUN .         ONE                  : Run          - RUN NUMBER                  
ENG .         KUBICA               : Engineer     - RECORDING ENGINEER          
WIT .         RIES                 : Witness      - WITNESSED BY                
BASE.         EDM                  : Branch       - HOME BASE OF LOGGING UNIT   
MUD .         GEL                  : Mud_type     - MUD TYPE                    
MATR.         SANDSTONE            : Logunit      - NEUTRON MATRIX              
TMAX.C        26.6667              : BHT          - MAXIMUM RECORDED TEMPERATURE
BHTD.M        651.358              : BHTDEP       - MAXIMUM RECORDED TEMPERATURE
RMT .C        8.88889              : MDTP         - TEMPERATURE OF MUD          
MUDD.KG/M     1116                 : MWT          - MUD DENSITY                 
NEUT.         1                    : NEUTRON      - NEUTRON TYPE                
RESI.         0                    : RESIST       - RESISTIVITY TYPE            
RM  .OHMM     4.03                 : RM           - RESISTIVITY OF MUD          
RMC .OHMM     0                    : RMC          - RESISTIVITY OF MUD CAKE     
RMF .OHMM     4.38                 : RMF          - RESISTIVITY OF MUD FILTRATE 
SUFT.C        0                    : SUFT         - SURFACE TEMPERATURE         
~A  DEPTH     PHID     PHIN       GR      CAL     RESD
# ...
  566.548    0.133    0.327  145.617  171.239    6.422
  566.798    0.141    0.335  148.756  171.292    6.377
  567.048    0.126    0.348  150.898  171.544    6.263
  567.298    0.113    0.366  145.258  172.010    6.058
  567.548    0.054    0.343  137.935  172.051    5.816
  567.798    0.036    0.316  128.497  172.312    5.522
  568.048    0.055    0.291  122.485  172.346    5.301
  568.298    0.125    0.308  135.151  172.285    5.304
  568.548    0.194    0.350  145.698  172.229    5.543
  568.798    0.223    0.404  153.569  172.689    6.070
  569.048    0.199    0.465  154.158  175.263    5.972
  569.298    0.186    0.478  153.062  178.050    4.715
  569.548    0.169    0.440  155.329  178.411    3.793
  569.798    0.171    0.429  159.401  176.343    2.956
  570.048    0.167    0.443  157.250  172.492    2.516
  570.298    0.148    0.460  150.736  173.583    2.287
  570.548    0.114    0.474  143.168  176.051    2.171
  570.798    0.051    0.356  138.522  174.830    2.120
  571.048    0.022    0.340  132.571  171.185    2.375
  571.298    0.069    0.340  134.339  170.502    2.706
  571.548    0.096    0.343  133.997  170.009    3.324
  571.798    0.060    0.337  131.903  169.209    3.992
  572.048    0.066    0.347  131.366  168.513    4.758
  572.298    0.015    0.321  129.773  167.932    5.290
  572.548    0.099    0.333  129.426  167.656    5.739
  572.798    0.106    0.348  132.567  167.594    6.020
  573.048    0.093    0.348  136.639  167.637    6.103
  573.298    0.092    0.356  139.901  167.790    5.982
  573.548    0.083    0.358  138.559  168.251    5.841
  573.798    0.071    0.317  134.352  168.615    5.726
  574.048    0.047    0.295  128.461  168.655    5.708
  574.298    0.011    0.276  121.015  168.696    5.798
  574.548    0.022    0.242  111.638  168.746    6.002
  574.798    0.078    0.279  113.905  168.574    6.402
  575.048    0.056    0.305  123.770  168.517    7.145
  575.298    0.022    0.274  121.305  168.568    8.079
  575.548    0.106    0.285  129.364  168.600    9.188
  575.798    0.128    0.317  141.967  168.442    9.298
  576.048    0.149    0.357  150.025  168.380    8.470
  576.298    0.163    0.387  146.688  168.114    7.699
  576.548    0.118    0.341  132.455  167.931    6.818
  576.798    0.115    0.353  130.243  166.503    6.095
  577.048    0.118    0.365  130.265  164.752    5.677
  577.298    0.109    0.354  125.498  165.322    5.360
  577.548    0.049    0.309  121.662  165.382    5.323
  577.798    0.050    0.300  124.676  165.631    5.721
  578.048    0.078    0.325  129.935  165.880    6.265
  578.298    0.116    0.354  132.451  166.034    6.849
  578.548    0.106    0.352  130.859  166.279    7.292
  578.798    0.097    0.338  131.386  166.124    7.380
  579.048    0.084    0.310  133.527  166.167    7.261
  579.298    0.067    0.302  141.146  166.413    7.225
  579.548    0.091    0.315  144.599  166.460    7.244
  579.798    0.107    0.340  143.628  166.716    7.289
  580.048    0.114    0.339  141.099  166.973    7.253
  580.298    0.117    0.339  136.955  167.114    7.095
  580.548    0.120    0.348  132.994  167.372    6.915
  580.798    0.130    0.360  126.544  167.420    6.727
  581.048    0.129    0.382  119.596  167.352    6.386
  581.298    0.116    0.362  103.868  167.503    6.190
  581.548    0.099    0.339   78.676  167.545    6.078
  581.798    0.156    0.306   57.407  167.482    6.036
  582.048    0.243    0.325   53.886  167.000    5.720
  582.298    0.271    0.337   53.224  165.573    5.359
  582.548    0.263    0.342   53.004  163.187    4.899
  582.798    0.250    0.345   50.038  160.171    4.387
  583.048    0.266    0.341   48.881  157.691    3.835
  583.298    0.255    0.329   50.093  156.891    3.466
  583.548    0.245    0.318   52.110  156.617    3.023
  583.798    0.253    0.312   54.502  156.446    2.692
  584.048    0.262    0.302   55.029  156.490    2.462
  584.298    0.262    0.288   54.991  157.177    2.350
  584.548    0.229    0.287   54.829  157.957    2.317
  584.798    0.212    0.299   54.606  158.843    2.398
  585.048    0.227    0.314   54.012  160.040    2.577
  585.298    0.242    0.321   53.416  161.566    2.658
  585.548    0.261    0.324   53.128  162.554    2.669
  585.798    0.251    0.326   53.031  163.546    2.602
  586.048    0.256    0.332   54.611  164.221    2.503
  586.298    0.260    0.334   57.005  164.373    2.380
  586.548    0.259    0.338   58.647  164.310    2.272
  586.798    0.270    0.345   57.242  164.355    2.154
  587.048    0.280    0.352   52.845  164.609    2.106
  587.298    0.272    0.359   50.069  164.656    2.065
  587.548    0.273    0.363   50.783  164.278    2.051
  587.798    0.267    0.360   51.616  163.265    2.056
  588.048    0.255    0.355   52.330  160.993    2.061
  588.298    0.251    0.349   52.727  158.401    2.055
  588.548    0.255    0.344   53.686  156.230    2.041
  588.798    0.262    0.336   55.268  155.429    2.035
  589.048    0.271    0.326   57.535  155.368    2.040
  589.298    0.281    0.322   58.123  155.939    2.049
  589.548    0.274    0.331   58.958  157.246    2.058
  589.798    0.257    0.328   60.291  159.293    2.063
  590.048    0.253    0.318   60.131  161.554    2.068
  590.298    0.250    0.316   59.845  163.389    2.077
  590.548    0.248    0.327   59.747  163.540    2.082
  590.798    0.242    0.336   60.150  161.791    2.088
  591.048    0.248    0.340   60.981  159.933    2.105
  591.298    0.250    0.341   61.817  157.769    2.122
  591.548    0.235    0.338   62.651  156.435    2.147
  591.798    0.252    0.332   65.482  156.375    2.169
  592.048    0.254    0.328   67.809  157.476    2.179
  592.298    0.242    0.332   68.209  159.104    2.184
  592.548    0.216    0.338   67.363  160.838    2.194
  592.798    0.245    0.335   67.142  161.932    2.208
  593.048    0.239    0.324   67.913  162.711    2.209
  593.298    0.214    0.306   69.808  162.547    2.223
  593.548    0.221    0.305   73.382  161.536    2.276
  593.798    0.233    0.311   77.829  160.530    2.360
  594.048    0.241    0.308   78.914  160.147    2.461
  594.298    0.217    0.306   77.507  160.716    2.572
  594.548    0.207    0.306   76.911  161.709    2.728
  594.798    0.204    0.312   80.300  162.384    2.915
  595.048    0.202    0.320   84.683  162.956    3.087
  595.298    0.181    0.318   81.782  163.317    3.243
  595.548    0.197    0.315   79.380  163.785    3.447
  595.798    0.212    0.311   81.651  164.352    3.608
  596.048    0.196    0.311   84.226  165.044    3.763
  596.298    0.184    0.312   87.806  165.300    3.895
  596.548    0.193    0.311   91.316  165.658    3.994
  596.798    0.191    0.310   95.450  166.225    3.997
  597.048    0.178    0.312   99.710  166.682    3.985
  597.298    0.151    0.310   92.639  167.149    4.017
  597.548    0.156    0.308   83.760  167.723    4.097
  597.798    0.147    0.293   77.310  167.977    4.232
  598.048    0.128    0.258   75.469  168.550    4.439
  598.298    0.140    0.266   81.721  168.801    4.744
  598.548    0.155    0.294   87.536  169.057    5.061
  598.798    0.162    0.302   93.481  169.205    5.347
  599.048    0.179    0.308   96.805  168.932    5.901
  599.298    0.174    0.312   97.890  169.712    6.610
  599.548    0.182    0.302   99.349  170.497    7.226
  599.798    0.164    0.300  102.798  171.184    7.313
  600.048    0.150    0.297  104.442  171.648    6.723
  600.298    0.141    0.290  105.840  171.801    5.898
  600.548    0.133    0.274  108.418  171.933    5.536
  600.798    0.122    0.266  113.299  172.194    5.593
  601.048    0.110    0.295  123.537  172.126    5.702
  601.298    0.103    0.324  129.852  171.966    5.903
  601.548    0.092    0.344  122.468  171.696    6.179
  601.798    0.075    0.369  114.150  171.322    6.408
  602.048    0.122    0.336  103.032  171.151    6.696
  602.298    0.141    0.307   95.649  170.983    7.063
  602.548    0.136    0.293   89.134  170.712    7.449
  602.798    0.134    0.281   77.642  170.437    7.857
