~VERSION INFORMATION
 VERS.                 2.0:   CWLS LOG ASCII STANDARD -VERSION 2.0
 WRAP.                  NO:   ONE LINE PER DEPTH STEP
~WELL INFORMATION BLOCK
#MNEM.UNIT           DATA                    DESCRIPTION OF MNEMONIC
#---------    -------------------            -------------------------------
# Generated from Intellog Unique Number	CW_70_72/WELL/1069
NULL.         -999.25                        : NULL_VALUE
WELL.         NORCEN ET AL BLANCHE 14-35     : Well_name    - WELL              
LOC .         14-35-072-02W5                 : Location     - LOCATION          
UWI .         00/14-35-072-02W5/0            : Uwi          - UNIQUE WELL ID    
ENTR.         JAYE                           : Entered      - ENTERED BY        
SRVC.         COMPUTALOG                     : Scn          - SERVICE COMPANY   
DATE.         6 JAN 86                       : Date         - LOG DATE          
STRT.M        375                            : top_depth    - START DEPTH       
STOP.M        615                            : bot_depth    - STOP DEPTH        
STEP.M        0.25                           : increment    - STEP LENGTH       
~CURVE INFORMATION BLOCK
#MNEM UNIT       ERCB CURVE CODE    CURVE DESCRIPTION
#-----------   ------------------   ----------------------------------
DEPT.M        00 001 00 00         : DEPTH        - DEPTH                       
DPHI.V/V      00 890 00 00         : PHID         - DENSITY POROSITY (SANDSTONE)
NPHI.V/V      00 330 00 00         : PHIN         - NEUTRON POROSITY (SANDSTONE)
CALI.MM       00 280 01 00         : CAL          - CALIPER                     
GR  .API      00 310 00 00         : GR           - GAMMA RAY                   
ILD .OHMM     00 120 00 00         : RESD         - DEEP RESISTIVITY (DIL)      
~PARAMETER INFORMATION       
#MNEM.UNIT           DATA             DESCRIPTION OF MNEMONIC
#---------         -----------     ------------------------------
GL  .M        587.75               : gl           - GROUND LEVEL ELEVATION      
EREF.M        591.25               : kb           - ELEVATION OF DEPTH REFERENCE
DATM.M        587.75               : datum        - DATUM ELEVATION             
TDD .M        628                  : tdd          - TOTAL DEPTH DRILLER         
RUN .         ONE                  : Run          - RUN NUMBER                  
ENG .         CALDERWOOD           : Engineer     - RECORDING ENGINEER          
WIT .         HUGHES               : Witness      - WITNESSED BY                
BASE.         EDM                  : Branch       - HOME BASE OF LOGGING UNIT   
MUD .         GEL CHEM             : Mud_type     - MUD TYPE                    
MATR.         SANDSTONE            : Logunit      - NEUTRON MATRIX              
TMAX.C        50                   : BHT          - MAXIMUM RECORDED TEMPERATURE
BHTD.M        633.1                : BHTDEP       - MAXIMUM RECORDED TEMPERATURE
RMT .C        15.6                 : MDTP         - TEMPERATURE OF MUD          
MUDD.KG/M     1170                 : MWT          - MUD DENSITY                 
NEUT.         1                    : NEUTRON      - NEUTRON TYPE                
RESI.         0                    : RESIST       - RESISTIVITY TYPE            
RM  .OHMM     4                    : RM           - RESISTIVITY OF MUD          
RMC .OHMM     5                    : RMC          - RESISTIVITY OF MUD CAKE     
RMF .OHMM     4.8                  : RMF          - RESISTIVITY OF MUD FILTRATE 
SUFT.C        0                    : SUFT         - SURFACE TEMPERATURE         
~A  DEPTH     PHID     PHIN      CAL       GR     RESD
# ...
  594.000    0.319    0.373  196.695   48.764    4.537
  594.250    0.282    0.394  197.536   62.811    4.313
  594.500    0.234    0.367  196.369   66.708    4.116
  594.750    0.234    0.328  194.454   55.589    3.920
  595.000    0.244    0.293  193.799   37.823    3.707
  595.250    0.247    0.278  193.791   28.368    3.484
  595.500    0.237    0.269  194.311   23.701    3.275
  595.750    0.234    0.275  195.479   24.400    3.067
  596.000    0.245    0.294  197.177   33.465    2.999
  596.250    0.228    0.318  198.860   64.055    3.000
  596.500    0.210    0.352  201.310   80.016    3.052
  596.750    0.237    0.386  201.832   95.212    3.116
  597.000    0.247    0.390  200.667   80.968    3.182
  597.250    0.239    0.351  199.576   58.349    3.212
  597.500    0.246    0.316  199.037   29.027    3.251
  597.750    0.224    0.284  198.931   26.665    3.332
  598.000    0.207    0.267  198.604   32.595    3.433
  598.250    0.179    0.288  198.266   41.085    3.653
  598.500    0.191    0.311  198.372   52.325    4.045
  598.750    0.198    0.326  201.560   65.603    4.554
  599.000    0.174    0.343  205.917   82.017    5.119
  599.250    0.141    0.361  211.014   87.630    5.592
  599.500    0.128    0.379  215.580   88.719    5.840
  599.750    0.119    0.367  215.154   86.476    6.065
  600.000    0.109    0.335  213.868   82.830    6.276
  600.250    0.099    0.325  213.648   81.997    6.493
  600.500    0.087    0.319  214.180   81.283    6.693
  600.750    0.082    0.314  214.596   76.490    6.885
  601.000    0.081    0.309  214.896   75.462    7.098
  601.250    0.084    0.299  214.800   78.270    7.178
  601.500    0.094    0.310  214.357   81.906    7.179
  601.750    0.102    0.303  213.711   76.152    7.127
  602.000    0.104    0.296  212.739   68.419    7.024
  602.250    0.095    0.287  211.775   70.267    6.958
  602.500    0.086    0.278  211.132   73.333    6.908
  602.750    0.109    0.282  210.800   77.031    6.831
  603.000    0.096    0.288  211.325   78.944    6.706
  603.250    0.073    0.293  212.174   74.016    6.557
  603.500    0.058    0.303  212.699   82.765    6.364
  603.750    0.079    0.335  213.540   95.533    6.178
  604.000    0.097    0.373  212.576  103.959    5.973
  604.250    0.079    0.399  208.414  112.711    5.668
  604.500    0.062    0.361  204.569  112.254    5.348
  604.750    0.040    0.337  200.749  102.539    4.961
  605.000    0.049    0.322  198.820   84.335    4.646
  605.250    0.078    0.341  197.635   75.581    4.230
  605.500    0.124    0.364  196.883   66.314    3.858
  605.750    0.160    0.387  196.564   54.298    3.607
  606.000    0.173    0.384  196.339   41.202    3.487
  606.250    0.183    0.395  195.909   36.792    3.462
  606.500    0.190    0.422  195.568   37.363    3.496
  606.750    0.186    0.428  195.778   33.010    3.523
  607.000    0.176    0.411  196.207   24.450    3.598
  607.250    0.163    0.385  196.296   17.482    3.729
  607.500    0.144    0.363  196.719   14.857    3.886
  607.750    0.129    0.348  197.039   14.023    4.059
  608.000    0.165    0.371  197.128   15.742    4.129
  608.250    0.184    0.388  197.220   18.612    4.083
  608.500    0.160    0.410  197.235   21.164    3.897
  608.750    0.133    0.397  197.309   22.437    3.683
  609.000    0.114    0.374  195.600   23.389    3.443
  609.250    0.098    0.351  194.217   22.939    3.299
  609.500    0.096    0.337  193.886   22.167    3.262
  609.750    0.105    0.328  193.871   23.950    3.262
  610.000    0.114    0.338  194.411   25.482    3.276
  610.250    0.127    0.350  195.257   25.346    3.276
  610.500    0.145    0.367  196.307   24.129    3.179
  610.750    0.155    0.390  197.148   21.889    3.046
  611.000    0.148    0.386  197.888   17.352    2.923
  611.250    0.143    0.372  197.765   17.219    2.815
  611.500    0.137    0.359  196.699   19.385    2.784
  611.750    0.150    0.368  196.585   23.083    2.774
  612.000    0.166    0.380  196.786   27.679    2.749
  612.250    0.160    0.380  197.526   23.394    2.740
  612.500    0.148    0.366  198.714   15.662    2.813
  612.750    0.136    0.342  199.531   16.431    3.155
  613.000    0.071    0.218  200.706   18.398    3.947
  613.250    0.042    0.191  201.545   19.099    5.186
  613.500    0.005    0.162  202.285   17.566    6.353
  613.750    0.015    0.142  202.694   16.024    9.169
  614.000    0.022    0.134  203.330   15.127   13.232
  614.250    0.027    0.126  203.852   14.489   17.680
  614.500    0.017    0.119  204.053   14.538   20.669
  614.750    0.010    0.109  204.368   14.681   22.334
  615.000    0.004    0.099  204.261   14.794   24.130
