~VERSION INFORMATION
 VERS.                 2.0:   CWLS LOG ASCII STANDARD -VERSION 2.0
 WRAP.                  NO:   ONE LINE PER DEPTH STEP
~WELL INFORMATION BLOCK
#MNEM.UNIT           DATA                    DESCRIPTION OF MNEMONIC
#---------    -------------------            -------------------------------
# Generated from Intellog Unique Number	CW_73_75/WELL/1047
WELL.         ATCOR ET AL MARTEN H 11-33     : Well_name    - WELL
LOC .         00/11-33-074-23W4/0            : Location     - LOCATION
UWI .         00/11-33-074-23W4/0            : Uwi          - UNIQUE WELL ID
ENTR.         JAYE                           : Entered      - ENTERED BY
SRVC.         COMPUTALOG                     : Scn          - SERVICE COMPANY
DATE.         26 FEB 85                      : Date         - LOG DATE
STRT.M        450                            : top_depth    - START DEPTH
STOP.M        695                            : bot_depth    - STOP DEPTH
STEP.M        0.25                           : increment    - STEP LENGTH
 NULL. -999.2500:NULL Value
~CURVE INFORMATION BLOCK
#MNEM UNIT       ERCB CURVE CODE    CURVE DESCRIPTION
#-----------   ------------------   ----------------------------------
DEPT.M        00 001 00 00         : DEPTH        - DEPTH
ILD .OHMM     00 120 00 00         : RESD         - DEEP RESISTIVITY (DIL)
DPHI.V/V      00 890 00 00         : PHID         - DENSITY POROSITY (SANDSTONE)
NPHI.V/V      00 330 00 00         : PHIN         - NEUTRON POROSITY (SANDSTONE)
CALI.MM       00 280 01 00         : CAL          - CALIPER
GR  .API      00 310 00 00         : GR           - GAMMA RAY
~PARAMETER INFORMATION
#MNEM.UNIT           DATA             DESCRIPTION OF MNEMONIC
#---------         -----------     ------------------------------
GL  .M        708                  : gl           - GROUND LEVEL ELEVATION
EREF.M        711                  : kb           - ELEVATION OF DEPTH REFERENCE
DATM.M        708                  : datum        - DATUM ELEVATION
TDD .M        697                  : tdd          - TOTAL DEPTH DRILLER
RUN .         ONE                  : Run          - RUN NUMBER
ENG .         BERUDE               : Engineer     - RECORDING ENGINEER
WIT .         HICKS                : Witness      - WITNESSED BY
BASE.         EDM                  : Branch       - HOME BASE OF LOGGING UNIT
MUD .         GEL CHEM             : Mud_type     - MUD TYPE
MATR.         SANDSTONE            : Logunit      - NEUTRON MATRIX
TMAX.C        24                   : BHT          - MAXIMUM RECORDED TEMPERATURE
BHTD.M        695.6                : BHTDEP       - MAXIMUM RECORDED TEMPERATURE
RMT .C        24                   : MDTP         - TEMPERATURE OF MUD
MUDD.KG/M     1130                 : MWT          - MUD DENSITY
NEUT.         1                    : NEUTRON      - NEUTRON TYPE
RESI.         0                    : RESIST       - RESISTIVITY TYPE
RM  .OHMM     3.9                  : RM           - RESISTIVITY OF MUD
RMC .OHMM     0                    : RMC          - RESISTIVITY OF MUD CAKE
RMF .OHMM     4                    : RMF          - RESISTIVITY OF MUD FILTRATE
SUFT.C        0                    : SUFT         - SURFACE TEMPERATURE
~A  DEPTH     RESD     PHID     PHIN      CAL       GR
# ...
  596.000    6.634    0.171    0.428  226.233   96.441
  596.250    7.032    0.147    0.411  226.291  104.752
  596.500    7.937    0.114    0.385  226.452  122.035
  596.750    9.593    0.059    0.348  226.404  129.083
  597.000   11.528    0.032    0.267  226.456  114.838
  597.250   16.471    0.009    0.236  226.306   76.330
  597.500   23.090    0.004    0.211  226.262   71.436
  597.750   24.383    0.033    0.211  226.210   77.030
  598.000   22.840    0.080    0.248  226.167   77.379
  598.250   20.637    0.136    0.274  226.118   75.519
  598.500   18.260    0.221    0.317  226.386   76.880
  598.750   15.703    0.267    0.350  226.334   83.675
  599.000   13.634    0.268    0.376  226.073   91.670
  599.250   12.942    0.270    0.377  225.924   91.957
  599.500   12.690    0.279    0.376  225.452   92.560
  599.750   12.348    0.230    0.372  224.979   93.984
  600.000   10.656    0.177    0.368  224.726   89.722
  600.250    9.564    0.170    0.368  225.057   87.560
  600.500    8.474    0.194    0.375  224.579   98.186
  600.750    7.694    0.209    0.391  224.424   98.341
  601.000    6.986    0.218    0.395  224.365   91.661
  601.250    6.688    0.212    0.394  224.300   96.767
  601.500    6.562    0.201    0.389  224.037   99.932
  601.750    6.623    0.201    0.385  223.669   96.699
  602.000    7.048    0.199    0.377  223.203   93.598
  602.250    8.121    0.185    0.360  223.139   93.312
  602.500    9.718    0.165    0.338  223.095   92.714
  602.750   10.944    0.135    0.308  223.243   89.923
  603.000   11.494    0.075    0.291  223.283   81.802
  603.250   11.799    0.064    0.284  223.445   73.742
  603.500   11.380    0.116    0.288  223.602   71.139
  603.750   10.713    0.147    0.303  223.535   77.250
  604.000    9.876    0.183    0.337  223.063   88.628
  604.250    8.984    0.185    0.358  222.797   97.058
  604.500    8.064    0.183    0.367  222.641   95.645
  604.750    7.267    0.173    0.381  222.593   97.557
  605.000    6.636    0.176    0.395  222.316  104.545
  605.250    6.364    0.182    0.402  221.957  109.780
  605.500    6.280    0.171    0.369  222.008  107.363
  605.750    6.313    0.162    0.354  221.952  105.635
  606.000    6.373    0.164    0.371  222.206  104.915
  606.250    6.482    0.167    0.387  222.253  110.274
  606.500    6.807    0.162    0.382  222.417  112.499
  606.750    7.149    0.154    0.372  222.348  107.448
  607.000    7.326    0.148    0.373  222.403  104.151
  607.250    7.395    0.146    0.382  222.456  103.182
  607.500    7.395    0.152    0.393  222.704   99.574
  607.750    7.418    0.160    0.391  222.656   99.353
  608.000    7.364    0.166    0.381  222.606  102.893
  608.250    7.307    0.168    0.378  222.855  103.547
  608.500    7.222    0.169    0.383  223.120  103.828
  608.750    7.074    0.168    0.384  223.470  104.171
  609.000    6.966    0.168    0.383  223.426  103.199
  609.250    6.862    0.174    0.390  223.372  105.423
  609.500    6.745    0.185    0.393  223.312  105.389
  609.750    6.718    0.187    0.382  223.258  104.667
  610.000    6.730    0.155    0.378  223.622  105.823
  610.250    6.755    0.148    0.379  225.761  109.239
  610.500    6.779    0.169    0.372  225.395  112.406
  610.750    6.778    0.172    0.347  224.603  106.790
  611.000    6.740    0.160    0.349  224.444   99.986
  611.250    6.662    0.152    0.363  224.070   97.820
  611.500    6.599    0.156    0.380  224.017  100.171
  611.750    6.547    0.164    0.394  223.963  105.655
  612.000    6.523    0.170    0.393  223.809  110.698
  612.250    6.484    0.176    0.367  223.429  110.854
  612.500    6.459    0.171    0.353  223.478  110.256
  612.750    6.444    0.163    0.365  223.536  110.976
  613.000    6.433    0.168    0.387  223.898  110.754
  613.250    6.420    0.177    0.407  224.052  108.904
  613.500    6.406    0.181    0.404  224.091  106.926
  613.750    6.357    0.174    0.389  224.035  107.081
  614.000    6.295    0.176    0.392  223.887  111.437
  614.250    6.259    0.166    0.391  224.035  115.730
  614.500    6.223    0.149    0.399  224.085  110.741
  614.750    6.187    0.155    0.397  224.033  109.079
  615.000    6.198    0.166    0.389  223.974  111.555
  615.250    6.269    0.176    0.380  223.914  115.409
  615.500    6.315    0.184    0.378  224.074  113.620
  615.750    6.314    0.172    0.383  224.212  108.634
  616.000    6.325    0.154    0.391  224.162  108.787
  616.250    6.312    0.147    0.400  224.114  108.251
  616.500    6.299    0.151    0.407  224.064  108.281
  616.750    6.251    0.165    0.398  224.004  109.880
  617.000    6.226    0.181    0.386  223.945  110.472
  617.250    6.214    0.190    0.372  223.993  107.932
  617.500    6.236    0.192    0.369  223.728  109.153
  617.750    6.319    0.192    0.369  223.456  111.627
  618.000    6.377    0.173    0.356  223.517  111.155
  618.250    6.401    0.153    0.364  223.358  105.354
  618.500    6.399    0.140    0.372  223.194  103.061
  618.750    6.423    0.157    0.373  223.138  103.657
  619.000    6.435    0.179    0.385  223.087  102.995
  619.250    6.483    0.189    0.398  223.029  105.659
  619.500    6.493    0.183    0.394  223.397  111.457
  619.750    6.443    0.181    0.386  223.654  115.625
  620.000    6.419    0.182    0.400  224.331  115.529
  620.250    6.357    0.164    0.411  225.626  107.970
  620.500    6.331    0.149    0.405  226.090  107.686
  620.750    6.331    0.161    0.400  226.036  111.668
  621.000    6.341    0.180    0.409  225.679  109.063
  621.250    6.353    0.169    0.409  224.989  102.885
  621.500    6.375    0.156    0.394  224.627  103.980
  621.750    6.375    0.168    0.375  224.866  107.332
  622.000    6.399    0.178    0.374  225.128  104.853
  622.250    6.421    0.188    0.377  225.388   99.052
  622.500    6.459    0.198    0.371  225.340   98.892
  622.750    6.579    0.206    0.371  225.279  102.558
  623.000    6.755    0.212    0.377  225.130  102.086
  623.250    7.204    0.211    0.352  225.068   97.038
  623.500    8.099    0.150    0.330  224.806   87.662
  623.750    9.330    0.067    0.291  224.646   78.851
  624.000   10.630    0.017    0.266  224.375   72.109
  624.250   12.961    0.005    0.253  224.218   65.994
  624.500   14.710    0.030    0.253  224.168   58.687
  624.750   14.514    0.096    0.275  224.107   71.508
  625.000   12.687    0.133    0.302  224.156   79.120
  625.250   11.369    0.154    0.339  224.098   83.164
  625.500    9.938    0.161    0.366  224.154   84.136
  625.750    8.872    0.158    0.380  224.096   84.541
  626.000    8.288    0.151    0.389  224.040   85.694
  626.250    7.844    0.143    0.388  223.986   86.353
  626.500    7.438    0.152    0.374  223.719   88.139
  626.750    7.135    0.165    0.372  223.557   94.000
  627.000    6.919    0.175    0.382  223.195  100.364
  627.250    6.815    0.166    0.383  223.140  105.221
  627.500    6.763    0.170    0.377  223.288  107.444
  627.750    6.711    0.151    0.385  223.124  107.536
  628.000    6.672    0.105    0.398  222.966  104.869
  628.250    6.634    0.116    0.396  222.814  109.603
  628.500    6.609    0.141    0.388  222.441  115.902
  628.750    6.595    0.160    0.383  222.066  122.077
  629.000    6.705    0.152    0.383  221.701  125.179
  629.250    6.808    0.153    0.370  221.647  116.427
  629.500    6.963    0.161    0.347  221.493  110.752
  629.750    7.161    0.167    0.336  220.391  109.717
  630.000    7.382    0.164    0.339  218.973  107.799
  630.250    7.593    0.170    0.341  218.708  104.633
  630.500    7.810    0.173    0.335  218.867  100.713
  630.750    7.928    0.163    0.329  218.706   97.793
  631.000    8.032    0.147    0.325  218.543   97.570
  631.250    8.153    0.139    0.326  218.387   98.730
  631.500    8.261    0.139    0.331  218.119  102.022
  631.750    8.307    0.149    0.340  218.486  105.751
  632.000    8.134    0.156    0.350  219.159  105.969
  632.250    8.025    0.155    0.355  220.566  105.809
