~VERSION INFORMATION
 VERS.                 2.0:   CWLS LOG ASCII STANDARD -VERSION 2.0
 WRAP.                  NO:   ONE LINE PER DEPTH STEP
~WELL INFORMATION BLOCK
#MNEM.UNIT           DATA                    DESCRIPTION OF MNEMONIC
#---------    -------------------            -------------------------------
# Generated from Intellog Unique Number	CW_70_72/WELL/1030
WELL.         SUNDANCE ET AL CALL 10-01      : Well_name    - WELL              
NULL.         -999.25                        : NULL_VALUE
LOC .         10-01-072-23W4                 : Location     - LOCATION          
UWI .         00/10-01-072-23W4/0            : Uwi          - UNIQUE WELL ID    
ENTR.         JAYE                           : Entered      - ENTERED BY        
SRVC.         SCHLUMBERGER                   : Scn          - SERVICE COMPANY   
DATE.         15 FEB 77                      : Date         - LOG DATE          
STRT.M        399.288                        : top_depth    - START DEPTH       
STOP.M        624.788                        : bot_depth    - STOP DEPTH        
STEP.M        0.25                           : increment    - STEP LENGTH       
~CURVE INFORMATION BLOCK
#MNEM UNIT       ERCB CURVE CODE    CURVE DESCRIPTION
#-----------   ------------------   ----------------------------------
DEPT.M        00 001 00 00         : DEPTH        - DEPTH                       
DPHI.V/V      00 890 00 00         : PHID         - DENSITY POROSITY (SANDSTONE)
NPHI.V/V      00 330 00 00         : PHIN         - NEUTRON POROSITY (SANDSTONE)
GR  .API      00 310 00 00         : GR           - GAMMA RAY                   
CALI.MM       00 280 01 00         : CAL          - CALIPER                     
ILD .OHMM     00 120 00 00         : RESD         - DEEP RESISTIVITY (DIL)      
~PARAMETER INFORMATION       
#MNEM.UNIT           DATA             DESCRIPTION OF MNEMONIC
#---------         -----------     ------------------------------
GL  .M        641.452              : gl           - GROUND LEVEL ELEVATION      
EREF.M        645.262              : kb           - ELEVATION OF DEPTH REFERENCE
DATM.M        641.452              : datum        - DATUM ELEVATION             
TDD .M        640.08               : tdd          - TOTAL DEPTH DRILLER         
RUN .         ONE                  : Run          - RUN NUMBER                  
ENG .         PIMM                 : Engineer     - RECORDING ENGINEER          
WIT .         CHRISTERSEN          : Witness      - WITNESSED BY                
BASE.         EDM                  : Branch       - HOME BASE OF LOGGING UNIT   
MUD .         GEL                  : Mud_type     - MUD TYPE                    
MATR.         SANDSTONE            : Logunit      - NEUTRON MATRIX              
TMAX.C        31.6667              : BHT          - MAXIMUM RECORDED TEMPERATURE
BHTD.M        639.775              : BHTDEP       - MAXIMUM RECORDED TEMPERATURE
RMT .C        13.3333              : MDTP         - TEMPERATURE OF MUD          
MUDD.KG/M     1104                 : MWT          - MUD DENSITY                 
NEUT.         1                    : NEUTRON      - NEUTRON TYPE                
RESI.         0                    : RESIST       - RESISTIVITY TYPE            
RM  .OHMM     5.52                 : RM           - RESISTIVITY OF MUD          
RMC .OHMM     0                    : RMC          - RESISTIVITY OF MUD CAKE     
RMF .OHMM     5.54                 : RMF          - RESISTIVITY OF MUD FILTRATE 
SUFT.C        0                    : SUFT         - SURFACE TEMPERATURE         
~A  DEPTH     PHID     PHIN       GR      CAL     RESD
  399.288    0.220    0.512  125.375  197.043    2.788
  399.538    0.220    0.508  125.066  196.312    2.871
  399.788    0.221    0.501  122.313  195.580    2.979
  400.038    0.203    0.490  121.942  195.161    3.024
  400.288    0.221    0.493  120.289  195.568    2.963
  400.538    0.219    0.509  117.841  197.010    2.861
  400.788    0.211    0.517  113.438  198.556    2.758
  401.038    0.223    0.517  106.775  199.895    2.773
  401.288    0.237    0.499  100.233  197.613    2.861
  401.538    0.249    0.482   94.303  186.639    3.047
  401.788    0.256    0.455   90.022  175.459    3.292
  402.038    0.263    0.438   86.047  169.969    3.557
  402.288    0.250    0.421   80.605  167.893    3.879
  402.538    0.249    0.408   75.347  167.370    4.200
  402.788    0.238    0.401   71.861  167.363    4.605
  403.038    0.226    0.409   77.722  168.598    5.050
  403.288    0.269    0.419   82.362  171.488    5.269
  403.538    0.270    0.430   83.397  172.517    5.328
  403.788    0.266    0.448   80.033  172.407    5.183
  404.038    0.298    0.445   75.630  170.642    5.023
  404.288    0.312    0.433   72.938  168.153    4.823
  404.538    0.322    0.423   76.417  167.111    4.606
  404.788    0.319    0.426   86.616  168.966    4.439
  405.038    0.337    0.440   96.938  171.443    4.358
  405.288    0.357    0.483  104.389  175.473    4.247
  405.538    0.384    0.498  108.845  188.192    4.034
  405.788    0.408    0.507  112.874  214.982    3.706
  406.038    0.414    0.514  116.597  242.290    3.494
  406.288    0.360    0.521  109.262  276.322    3.342
  406.538    0.313    0.446  103.942  241.139    3.318
  406.788    0.259    0.425   97.829  183.711    3.424
  407.038    0.240    0.407   91.348  167.358    3.748
  407.288    0.255    0.396   88.350  165.592    4.140
  407.538    0.272    0.384   93.173  165.276    4.650
  407.788    0.272    0.390  102.762  165.580    5.090
  408.038    0.253    0.415  111.312  166.504    5.214
  408.288    0.238    0.431  117.174  167.324    5.147
  408.538    0.225    0.422  120.409  167.940    4.942
  408.788    0.234    0.414  117.838  168.657    4.737
  409.038    0.229    0.429  113.619  169.686    4.625
  409.288    0.242    0.454  114.165  171.542    4.524
  409.538    0.245    0.469  115.750  175.778    4.458
  409.788    0.252    0.469  114.952  185.911    4.458
  410.038    0.272    0.465  113.237  211.356    4.499
  410.288    0.275    0.459  112.317  200.072    4.575
  410.538    0.253    0.447  111.030  175.649    4.738
  410.788    0.235    0.434  110.843  175.746    4.916
  411.038    0.225    0.446  112.550  177.291    4.791
  411.288    0.228    0.467  111.691  178.837    4.517
  411.538    0.262    0.479  110.648  174.796    4.266
  411.788    0.265    0.503  109.911  188.032    4.081
  412.038    0.266    0.481  109.052  186.784    4.165
  412.288    0.263    0.453  108.499  175.397    4.354
  412.538    0.245    0.434  107.639  167.114    4.551
  412.788    0.223    0.447  106.658  170.315    4.783
  413.038    0.215    0.443  105.738  170.516    4.810
  413.288    0.222    0.436  105.979  177.131    4.653
  413.538    0.225    0.436  107.625  180.539    4.636
  413.788    0.245    0.430  107.926  176.704    4.705
  414.038    0.245    0.420  107.250  177.422    4.819
  414.288    0.223    0.411  105.902  179.277    4.918
  414.538    0.251    0.395  103.454  175.443    5.019
  414.788    0.244    0.386   98.746  171.505    5.094
  415.038    0.260    0.374   93.060  168.601    5.141
  415.288    0.264    0.369   91.223  167.250    5.122
  415.538    0.254    0.382   89.814  166.727    4.992
  415.788    0.236    0.414   83.823  166.928    4.637
  416.038    0.211    0.399   71.477  167.438    4.260
  416.288    0.266    0.382   58.765  167.949    3.751
  416.538    0.293    0.365   46.969  167.529    3.273
  416.788    0.306    0.363   39.633  166.694    2.834
  417.038    0.310    0.373   40.912  166.482    2.594
  417.288    0.308    0.377   45.736  166.682    2.570
  417.538    0.286    0.392   53.491  166.674    2.667
  417.788    0.293    0.397   56.909  166.772    2.747
  418.038    0.301    0.390   56.416  166.867    2.824
  418.288    0.296    0.401   57.146  166.863    2.871
  418.538    0.296    0.394   59.097  166.650    2.872
  418.788    0.281    0.386   57.444  166.435    2.877
  419.038    0.265    0.381   56.157  166.223    2.872
  419.288    0.274    0.391   57.559  165.699    2.893
  419.538    0.284    0.382   60.548  165.382    2.914
  419.788    0.257    0.375   65.188  165.376    2.980
  420.038    0.252    0.380   70.072  165.368    3.058
  420.288    0.225    0.364   74.957  165.363    3.196
  420.538    0.228    0.365   82.896  165.460    3.298
  420.788    0.242    0.373   93.096  165.557    3.409
  421.038    0.259    0.380  104.089  165.447    3.525
  421.288    0.258    0.395  108.913  165.132    3.644
  421.538    0.220    0.413  112.330  165.332    3.844
  421.788    0.209    0.439  113.182  165.739    4.018
  422.038    0.202    0.464  110.123  166.870    4.318
  422.288    0.221    0.475  104.193  160.760    4.522
  422.538    0.247    0.471   98.201  160.340    4.555
  422.788    0.278    0.491  109.928  163.127    4.255
  423.038    0.310    0.510  120.251  166.121    3.788
  423.288    0.301    0.565  126.540  172.012    3.398
  423.538    0.299    0.556  127.208  172.833    3.087
  423.788    0.277    0.548  129.160  176.654    2.889
  424.038    0.264    0.528  133.677  186.788    2.674
  424.288    0.273    0.526  135.690  193.920    2.544
  424.538    0.238    0.525  135.747  192.983    2.434
  424.788    0.246    0.503  135.132  193.493    2.398
  425.038    0.272    0.486  133.051  198.246    2.544
  425.288    0.251    0.444  128.954  190.170    2.837
  425.538    0.244    0.421  124.795  178.369    3.174
  425.788    0.226    0.403  121.737  170.293    3.455
  426.038    0.228    0.419  118.006  172.149    3.748
  426.288    0.246    0.459  112.687  176.074    4.072
  426.538    0.257    0.487  101.257  177.101    4.490
  426.788    0.242    0.482   93.616  183.406    4.711
  427.038    0.288    0.458   83.836  168.605    4.482
  427.288    0.313    0.438   76.623  161.770    4.257
  427.538    0.312    0.416   75.397  162.798    4.028
  427.788    0.306    0.429   77.165  163.309    3.804
  428.038    0.302    0.436   79.361  163.717    3.673
  428.288    0.294    0.421   83.145  164.226    3.639
  428.538    0.285    0.426   88.762  164.325    3.714
  428.788    0.259    0.429   92.180  164.627    3.962
  429.038    0.193    0.418   88.266  165.244    4.393
  429.288    0.166    0.407   86.857  165.858    4.782
  429.538    0.150    0.393   88.625  166.368    4.934
  429.788    0.181    0.398   94.303  166.259    4.818
  430.038    0.230    0.436   99.066  166.666    4.686
  430.288    0.263    0.459  101.995  167.694    4.712
  430.538    0.263    0.446  102.052  169.964    4.818
  430.788    0.249    0.432  102.659  170.681    4.899
  431.038    0.235    0.432  104.855  170.675    4.963
  431.288    0.241    0.446  101.429  170.048    5.009
  431.538    0.273    0.450  100.204  169.525    4.990
  431.788    0.248    0.469  101.178  169.000    4.863
  432.038    0.228    0.482  104.595  168.478    4.783
  432.288    0.246    0.476  101.842  167.333    4.863
  432.538    0.279    0.466   97.806  165.982    5.065
  432.788    0.284    0.458   97.558  165.251    5.074
  433.038    0.284    0.460  103.602  165.761    4.784
  433.288    0.276    0.472  109.220  166.997    4.460
  433.538    0.251    0.477  112.760  169.059    4.158
  433.788    0.253    0.462  114.467  169.157    4.045
  434.038    0.272    0.446  115.012  168.840    4.128
  434.288    0.268    0.432  116.354  168.109    4.275
  434.538    0.277    0.423  119.405  169.032    4.371
  434.788    0.280    0.408  125.389  170.062    4.420
  435.038    0.270    0.401  132.472  172.434    4.444
  435.288    0.268    0.414  139.251  174.291    4.396
  435.538    0.265    0.428  124.705  177.699    4.323
