~VERSION INFORMATION
 VERS.                 2.0:   CWLS LOG ASCII STANDARD -VERSION 2.0
 WRAP.                  NO:   ONE LINE PER DEPTH STEP
~WELL INFORMATION BLOCK
#MNEM.UNIT           DATA                    DESCRIPTION OF MNEMONIC
#---------    -------------------            -------------------------------
# Generated from Intellog Unique Number	CS_73_76/WELL/3262
WELL.         W.W. BECKER OIL & GAS LTD.     : Well_name    - WELL
LOC .         00/11-11-075-14W4/0            : Location     - LOCATION
UWI .         00/11-11-075-14W4/0            : Uwi          - UNIQUE WELL ID
ENTR.         SP                             : Entered      - ENTERED BY
SRVC.         SCHLUMBERGER                   : Scn          - SERVICE COMPANY
STRT.M        396.24                         : top_depth    - START DEPTH
STOP.M        630.74                         : bot_depth    - STOP DEPTH
STEP.M        0.25                           : increment    - STEP LENGTH
 NULL. -999.2500:NULL Value
~CURVE INFORMATION BLOCK
#MNEM UNIT       ERCB CURVE CODE    CURVE DESCRIPTION
#-----------   ------------------   ----------------------------------
DEPT.M        00 001 00 00         : DEPTH        - DEPTH
GR  .API      00 310 00 00         : GR           - GAMMA RAY
DPHI.V/V      00 890 00 00         : PHID         - DENSITY POROSITY (SANDSTONE)
NPHI.V/V      00 330 00 00         : PHIN         - NEUTRON POROSITY (SANDSTONE)
ILD .OHMM     00 120 00 00         : RESD         - DEEP RESISTIVITY (DIL)
~PARAMETER INFORMATION
#MNEM.UNIT           DATA             DESCRIPTION OF MNEMONIC
#---------         -----------     ------------------------------
GL  .M        859.231              : gl           - GROUND LEVEL ELEVATION
EREF.M        859.231              : kb           - ELEVATION OF DEPTH REFERENCE
DATM.M        859.231              : datum        - DATUM ELEVATION
TDD .M        634.289              : tdd          - TOTAL DEPTH DRILLER
RUN .         ONE                  : Run          - RUN NUMBER
ENG .         BILL                 : Engineer     - RECORDING ENGINEER
WIT .         JIM                  : Witness      - WITNESSED BY
MUD .         GEL                  : Mud_type     - MUD TYPE
MATR.         SANDSTONE            : Logunit      - NEUTRON MATRIX
TMAX.C        23.8889              : BHT          - MAXIMUM RECORDED TEMPERATURE
BHTD.M        634.289              : BHTDEP       - MAXIMUM RECORDED TEMPERATURE
MATR.         1                    : LOGUNIT      - NEUTRON MATRIX
RMT .C        25                   : MDTP         - TEMPERATURE OF MUD
NEUT.         1                    : NEUTRON      - NEUTRON TYPE
RESI.         0                    : RESIST       - RESISTIVITY TYPE
RMC .OHMM     0.25                 : RMC          - RESISTIVITY OF MUD CAKE
RMF .OHMM     0.25                 : RMF          - RESISTIVITY OF MUD FILTRATE
SUFT.C        15                   : SUFT         - SURFACE TEMPERATURE
~A  DEPTH       GR     PHID     PHIN     RESD
# ...
  439.740  112.364    0.255    0.495    5.025
  439.990  118.636    0.239    0.507    5.131
  440.240  120.115    0.232    0.513    5.274
  440.490  117.715    0.245    0.487    5.543
  440.740  113.578    0.249    0.464    5.928
  440.990  112.591    0.250    0.440    6.097
  441.240  111.486    0.239    0.441    6.452
  441.490  106.017    0.217    0.457    6.732
  441.740  101.386    0.229    0.456    6.933
  441.990   96.159    0.243    0.439    7.131
  442.240   94.240    0.246    0.429    7.121
  442.490   94.692    0.245    0.421    7.122
  442.740   96.037    0.245    0.420    7.123
  442.990   97.093    0.238    0.446    7.123
  443.240   97.249    0.228    0.464    7.124
  443.490   95.924    0.231    0.464    7.124
  443.740   94.268    0.238    0.470    7.122
  443.990   94.115    0.234    0.478    7.102
  444.240   94.733    0.234    0.479    6.757
  444.490   97.125    0.213    0.469    6.354
  444.740  100.913    0.194    0.455    6.130
  444.990  105.463    0.202    0.442    6.038
  445.240  107.209    0.214    0.439    6.262
  445.490  102.582    0.213    0.446    6.641
  445.740   97.157    0.223    0.438    7.057
  445.990   92.200    0.245    0.433    7.354
  446.240   87.256    0.267    0.433    7.823
  446.490   81.348    0.282    0.437    8.063
  446.740   77.230    0.297    0.439    8.037
  446.990   73.534    0.304    0.442    7.957
  447.240   76.303    0.301    0.450    6.919
  447.490   82.133    0.290    0.448    5.996
  447.740   84.860    0.257    0.462    5.258
  447.990   88.291    0.226    0.494    4.715
  448.240   84.231    0.250    0.517    5.041
  448.490   77.680    0.277    0.541    6.074
  448.740   73.879    0.321    0.544    6.719
  448.990   70.926    0.334    0.519    8.544
  449.240   67.814    0.309    0.460   10.059
  449.490   65.590    0.319    0.473   11.246
  449.740   62.549    0.325    0.480   11.910
  449.990   64.516    0.317    0.470   12.125
  450.240   68.335    0.304    0.450   12.119
  450.490   69.233    0.309    0.456   12.116
  450.740   67.938    0.314    0.446   11.982
  450.990   66.045    0.324    0.434   11.905
  451.240   64.519    0.329    0.432   11.899
  451.490   63.555    0.324    0.434   11.894
  451.740   61.871    0.337    0.447   11.872
  451.990   62.022    0.348    0.464   11.676
  452.240   61.331    0.354    0.455   11.683
  452.490   60.688    0.351    0.455   11.682
  452.740   59.231    0.346    0.458   11.854
  452.990   58.069    0.344    0.452   11.952
  453.240   57.700    0.349    0.447   12.347
  453.490   58.084    0.354    0.452   12.494
  453.740   58.163    0.359    0.441   12.555
  453.990   57.110    0.346    0.428   12.796
  454.240   57.341    0.331    0.421   12.809
  454.490   59.158    0.323    0.422   12.848
  454.740   60.656    0.327    0.434   13.052
  454.990   60.689    0.327    0.455   13.024
  455.240   60.709    0.326    0.464   13.303
  455.490   60.140    0.322    0.446   13.285
  455.740   60.723    0.314    0.444   13.288
  455.990   61.315    0.311    0.451   13.289
  456.240   62.282    0.312    0.457   13.296
  456.490   63.130    0.314    0.460   13.359
  456.740   63.092    0.313    0.455   13.542
  456.990   62.055    0.307    0.445   13.273
  457.240   61.978    0.310    0.444   13.291
  457.490   63.026    0.321    0.456   13.290
  457.740   62.794    0.315    0.468   13.188
  457.990   61.815    0.307    0.458   12.796
  458.240   61.879    0.325    0.452   13.003
  458.490   62.347    0.335    0.448   13.403
  458.740   63.735    0.334    0.461   13.812
  458.990   62.790    0.332    0.480   14.264
  459.240   56.228    0.323    0.466   14.408
  459.490   49.681    0.301    0.444   14.301
  459.740   47.595    0.235    0.423   13.912
  459.990   53.475    0.227    0.427   13.220
  460.240   57.343    0.287    0.444   12.607
  460.490   61.098    0.322    0.455   12.458
  460.740   61.866    0.329    0.447   12.317
  460.990   61.771    0.331    0.434   12.334
  461.240   62.962    0.325    0.432   12.450
  461.490   64.961    0.324    0.436   12.855
  461.740   67.494    0.329    0.425   13.250
  461.990   70.224    0.319    0.419   13.675
  462.240   73.978    0.308    0.412   13.805
  462.490   76.382    0.299    0.440   14.236
  462.740   69.686    0.289    0.469   14.647
  462.990   59.405    0.281    0.460   15.391
  463.240   58.992    0.294    0.449   16.009
  463.490   64.618    0.299    0.435   16.958
  463.740   69.925    0.301    0.447   17.766
  463.990   73.284    0.290    0.461   18.170
  464.240   67.681    0.268    0.431   18.149
  464.490   63.340    0.257    0.366   16.800
  464.740   66.095    0.266    0.403   15.413
  464.990   71.004    0.292    0.438   14.526
  465.240   75.558    0.295    0.455   13.864
  465.490   77.376    0.291    0.461   13.528
  465.740   75.612    0.295    0.455   13.553
  465.990   75.027    0.299    0.443   13.294
  466.240   73.990    0.288    0.441   13.311
  466.490   70.303    0.286    0.456   13.313
  466.740   67.341    0.286    0.470   13.313
  466.990   69.245    0.291    0.487   13.313
  467.240   69.632    0.297    0.491   13.319
  467.490   67.863    0.305    0.481   13.471
  467.740   63.699    0.310    0.479   15.371
  467.990   62.647    0.305    0.482   18.389
  468.240   62.939    0.292    0.473   22.819
  468.490   59.075    0.260    0.411   29.044
  468.740   54.071    0.178    0.231   37.065
  468.990   50.363    0.076    0.160   48.856
  469.240   47.170   -0.000    0.130   58.496
  469.490   46.602   -0.000    0.123   55.518
  469.740   45.869   -0.000    0.119   52.251
  469.990   45.915    0.000    0.117   48.954
  470.240   45.424    0.000    0.117   46.991
  470.490   42.690   -0.000    0.118   43.944
  470.740   41.791    0.000    0.118   40.209
  470.990   42.613    0.000    0.119   34.826
  471.240   46.725    0.000    0.120   29.319
  471.490   49.716   -0.000    0.127   23.670
  471.740   51.785    0.014    0.152   19.228
  471.990   53.780    0.043    0.186   16.240
  472.240   54.818    0.111    0.252   13.823
  472.490   55.110    0.208    0.298   12.934
  472.740   55.559    0.317    0.437   12.392
  472.990   55.559    0.318    0.443   12.398
  473.240   55.576    0.326    0.440   12.438
  473.490   54.993    0.324    0.450   12.608
  473.740   54.949    0.311    0.459   12.850
  473.990   54.928    0.316    0.459   13.100
  474.240   54.919    0.320    0.470   13.287
  474.490   54.864    0.325    0.489   13.330
  474.740   55.547    0.327    0.496   13.345
  474.990   55.508    0.328    0.486   13.593
  475.240   55.544    0.327    0.463   13.581
  475.490   54.903    0.334    0.460   13.579
  475.740   54.223    0.329    0.462   13.580
  475.990   55.184    0.322    0.454   13.581
  476.240   54.325    0.315    0.465   13.581
  476.490   56.441    0.321    0.473   13.582
  476.740   60.050    0.320    0.478   13.583
  476.990   61.931    0.310    0.480   13.578
  477.240   64.062    0.297    0.486   13.466
  477.490   68.516    0.303    0.470   13.342
  477.740   71.934    0.306    0.452   13.338
  477.990   75.802    0.309    0.439   13.339
  478.240   79.742    0.308    0.439   13.340
  478.490   82.233    0.299    0.448   13.340
  478.740   83.434    0.293    0.459   13.340
  478.990   79.089    0.296    0.480   13.343
  479.240   77.876    0.296    0.482   13.493
  479.490   80.059    0.299    0.474   13.573
  479.740   81.329    0.290    0.475   13.803
  479.990   82.575    0.291    0.486   14.122
  480.240   79.863    0.293    0.474   14.132
  480.490   78.388    0.295    0.473   14.366
  480.740   77.476    0.286    0.477   14.334
  480.990   75.691    0.286    0.467   14.634
  481.240   69.997    0.287    0.463   14.648
  481.490   64.753    0.281    0.467   14.346
  481.740   60.232    0.293    0.481   14.098
  481.990   63.525    0.289    0.485   13.686
  482.240   66.043    0.286    0.468   13.297
  482.490   70.284    0.297    0.456   12.658
  482.740   73.378    0.314    0.454   12.558
  482.990   74.254    0.318    0.463   11.901
