~VERSION INFORMATION
 VERS.                 2.0:   CWLS LOG ASCII STANDARD -VERSION 2.0
 WRAP.                  NO:   ONE LINE PER DEPTH STEP
~WELL INFORMATION BLOCK
#MNEM.UNIT           DATA                    DESCRIPTION OF MNEMONIC
#---------    -------------------            -------------------------------
# Generated from Intellog Unique Number	CS_77_79/WELL/984
WELL.         CANADIAN WORLDWIDE ENERGY      : Well_name    - WELL
LOC .         00/11-03-077-04W4/0            : Location     - LOCATION
UWI .         00/11-03-077-04W4/0            : Uwi          - UNIQUE WELL ID
ENTR.         SP                             : Entered      - ENTERED BY
SRVC.         SCHLUMBERGER                   : Scn          - SERVICE COMPANY
STRT.M        175                            : top_depth    - START DEPTH
STOP.M        450                            : bot_depth    - STOP DEPTH
STEP.M        0.25                           : increment    - STEP LENGTH
 NULL. -999.2500:NULL Value
~CURVE INFORMATION BLOCK
#MNEM UNIT       ERCB CURVE CODE    CURVE DESCRIPTION
#-----------   ------------------   ----------------------------------
DEPT.M        00 001 00 00         : DEPTH        - DEPTH
ILD .OHMM     00 120 00 00         : RESD         - DEEP RESISTIVITY (DIL)
DPHI.V/V      00 890 00 00         : PHID         - DENSITY POROSITY (LIMESTONE)
NPHI.V/V      00 330 00 00         : PHIN         - NEUTRON POROSITY (LIMESTONE)
GR  .API      00 310 00 00         : GR           - GAMMA RAY
~PARAMETER INFORMATION
#MNEM.UNIT           DATA             DESCRIPTION OF MNEMONIC
#---------         -----------     ------------------------------
GL  .M        577.9                : gl           - GROUND LEVEL ELEVATION
EREF.M        581.55               : kb           - ELEVATION OF DEPTH REFERENCE
DATM.M        577.9                : datum        - DATUM ELEVATION
TDD .M        450                  : tdd          - TOTAL DEPTH DRILLER
RUN .         ONE                  : Run          - RUN NUMBER
ENG .         BILL                 : Engineer     - RECORDING ENGINEER
WIT .         JIM                  : Witness      - WITNESSED BY
MUD .         GEL                  : Mud_type     - MUD TYPE
MATR.         LIMESTONE            : Logunit      - NEUTRON MATRIX
TMAX.C        23                   : BHT          - MAXIMUM RECORDED TEMPERATURE
BHTD.M        450                  : BHTDEP       - MAXIMUM RECORDED TEMPERATURE
MATR.         1                    : LOGUNIT      - NEUTRON MATRIX
RMT .C        25                   : MDTP         - TEMPERATURE OF MUD
NEUT.         1                    : NEUTRON      - NEUTRON TYPE
RESI.         0                    : RESIST       - RESISTIVITY TYPE
RMC .OHMM     0.25                 : RMC          - RESISTIVITY OF MUD CAKE
RMF .OHMM     0.25                 : RMF          - RESISTIVITY OF MUD FILTRATE
SUFT.C        15                   : SUFT         - SURFACE TEMPERATURE
~A  DEPTH     RESD     PHID     PHIN       GR
# ...
  392.500    4.641    0.280    0.356   76.810
  392.750    4.823    0.260    0.352   82.493
  393.000    5.107    0.241    0.355   87.551
  393.250    4.921    0.235    0.363   80.007
  393.500    4.566    0.249    0.373   67.421
  393.750    4.318    0.255    0.379   53.569
  394.000    4.083    0.289    0.378   48.545
  394.250    4.085    0.311    0.366   46.046
  394.500    4.088    0.324    0.352   44.168
  394.750    4.090    0.320    0.337   41.666
  395.000    4.016    0.319    0.326   39.160
  395.250    3.944    0.320    0.319   35.393
  395.500    3.948    0.326    0.314   33.519
  395.750    3.950    0.325    0.317   34.167
  396.000    3.953    0.322    0.320   33.556
  396.250    3.954    0.320    0.327   32.937
  396.500    3.956    0.321    0.327   32.962
  396.750    4.035    0.326    0.329   33.602
  397.000    4.113    0.334    0.334   39.299
  397.250    4.356    0.350    0.336   41.831
  397.500    4.700    0.358    0.327   47.517
  397.750    5.169    0.318    0.313   55.727
  398.000    5.474    0.289    0.306   55.748
  398.250    5.375    0.269    0.301   53.244
  398.500    5.180    0.264    0.297   52.630
  398.750    5.086    0.263    0.306   52.653
  399.000    4.994    0.266    0.320   52.031
  399.250    4.903    0.282    0.336   48.895
  399.500    4.724    0.301    0.348   44.502
  399.750    4.468    0.311    0.351   45.779
  400.000    4.386    0.318    0.350   51.475
  400.250    4.306    0.304    0.336   54.635
  400.500    4.228    0.292    0.328   66.626
  400.750    4.233    0.301    0.329   71.054
  401.000    4.314    0.314    0.339   61.617
  401.250    4.399    0.318    0.348   52.813
  401.500    4.240    0.303    0.351   58.500
  401.750    4.163    0.305    0.341   67.969
  402.000    4.088    0.320    0.356   56.020
  402.250    4.090    0.330    0.361   53.507
  402.500    4.092    0.331    0.346   49.745
  402.750    4.174    0.319    0.336   47.871
  403.000    4.256    0.310    0.330   50.406
  403.250    4.258    0.306    0.330   48.534
  403.500    4.261    0.310    0.336   47.295
  403.750    4.265    0.314    0.346   47.308
  404.000    4.266    0.320    0.351   46.065
  404.250    4.189    0.323    0.355   43.557
  404.500    4.037    0.311    0.352   42.946
  404.750    3.963    0.320    0.337   44.225
  405.000    3.892    0.331    0.334   42.349
  405.250    3.751    0.338    0.336   38.584
  405.500    3.753    0.343    0.340   37.339
  405.750    3.755    0.348    0.342   36.096
  406.000    3.688    0.339    0.345   36.744
  406.250    3.690    0.342    0.347   38.021
  406.500    3.692    0.334    0.344   35.516
  406.750    3.626    0.330    0.340   34.905
  407.000    3.627    0.327    0.338   37.447
  407.250    3.629    0.325    0.338   39.347
  407.500    3.633    0.330    0.344   42.514
  407.750    3.566    0.336    0.346   35.606
  408.000    3.568    0.341    0.345   34.357
  408.250    3.639    0.351    0.345   33.113
  408.500    3.642    0.341    0.344   32.499
  408.750    3.643    0.333    0.341   34.411
  409.000    3.647    0.326    0.337   39.468
  409.250    3.649    0.324    0.337   48.934
  409.500    3.651    0.328    0.339   55.884
  409.750    3.653    0.339    0.340   55.270
  410.000    3.656    0.341    0.341   56.548
  410.250    3.727    0.341    0.346   54.044
  410.500    3.729    0.338    0.348   50.283
  410.750    3.803    0.336    0.351   46.522
  411.000    3.806    0.337    0.354   44.640
  411.250    3.807    0.341    0.356   40.876
  411.500    3.811    0.337    0.352   42.152
  411.750    3.741    0.337    0.349   45.952
  412.000    3.815    0.340    0.347   44.709
  412.250    3.817    0.346    0.348   45.359
  412.500    3.819    0.339    0.349   46.631
  412.750    3.896    0.336    0.354   46.024
  413.000    3.898    0.337    0.355   44.776
  413.250    3.827    0.325    0.353   51.094
  413.500    3.829    0.322    0.339   50.483
  413.750    3.831    0.326    0.333   49.237
  414.000    3.835    0.332    0.332   47.995
  414.250    3.765    0.331    0.337   48.639
  414.500    3.767    0.332    0.347   44.875
  414.750    3.769    0.339    0.351   43.000
  415.000    3.701    0.345    0.350   41.129
  415.250    3.704    0.349    0.349   43.038
  415.500    3.637    0.349    0.346   36.752
  415.750    3.639    0.346    0.345   38.660
  416.000    3.641    0.350    0.348   42.459
  416.250    3.643    0.357    0.351   42.475
  416.500    3.645    0.360    0.354   42.492
  416.750    3.718    0.357    0.351   43.134
  417.000    3.719    0.351    0.347   42.521
  417.250    3.792    0.336    0.336   39.391
  417.500    4.093    0.324    0.325   39.403
  417.750    4.253    0.308    0.313   40.682
  418.000    4.419    0.298    0.310   41.964
  418.250    4.507    0.299    0.314   43.868
  418.500    4.342    0.289    0.318   48.924
  418.750    4.264    0.276    0.318   54.612
  419.000    4.187    0.286    0.320   59.677
  419.250    4.189    0.326    0.332   61.582
  419.500    4.271    0.346    0.353   64.117
  419.750    4.523    0.340    0.367   63.504
  420.000    4.789    0.321    0.354   57.852
  420.250    4.884    0.282    0.337   48.412
  420.500    4.981    0.253    0.332   41.496
  420.750    5.078    0.263    0.337   43.407
  421.000    5.179    0.265    0.336   50.983
  421.250    5.183    0.261    0.325   49.739
  421.500    5.185    0.268    0.327   48.498
  421.750    5.288    0.272    0.329   47.883
  422.000    5.290    0.273    0.327   49.166
  422.250    5.395    0.265    0.324   50.435
  422.500    5.298    0.260    0.328   51.715
  422.750    5.201    0.266    0.331   50.471
  423.000    5.107    0.265    0.323   51.117
  423.250    4.921    0.263    0.318   53.654
  423.500    4.482    0.273    0.324   44.846
  423.750    4.401    0.292    0.330   36.671
  424.000    4.403    0.311    0.333   34.168
  424.250    4.406    0.319    0.329   33.553
  424.500    4.493    0.320    0.325   29.158
  424.750    4.582    0.315    0.322   29.177
  425.000    4.583    0.308    0.322   31.083
  425.250    4.501    0.294    0.326   34.880
  425.500    4.256    0.260    0.325   41.204
  425.750    4.101    0.272    0.321   32.398
  426.000    4.026    0.298    0.325   29.892
  426.250    3.954    0.310    0.330   29.904
  426.500    3.956    0.321    0.332   29.297
  426.750    3.884    0.314    0.335   29.314
  427.000    3.815    0.305    0.336   28.699
  427.250    3.746    0.306    0.343   27.457
  427.500    3.748    0.334    0.347   26.207
  427.750    3.680    0.341    0.350   26.856
  428.000    3.682    0.336    0.354   29.398
  428.250    3.617    0.342    0.354   30.676
  428.500    3.619    0.352    0.351   31.321
  428.750    3.620    0.356    0.354   30.705
  429.000    3.623    0.346    0.355   30.719
  429.250    3.694    0.344    0.349   32.000
  429.500    3.839    0.342    0.342   32.017
  429.750    3.841    0.336    0.331   32.662
  430.000    3.843    0.323    0.323   32.678
  430.250    3.774    0.311    0.320   33.329
  430.500    3.776    0.317    0.323   31.454
  430.750    3.709    0.316    0.326   30.836
  431.000    3.711    0.319    0.328   30.863
  431.250    3.713    0.323    0.331   30.878
  431.500    3.714    0.322    0.330   30.890
  431.750    3.718    0.319    0.332   31.545
  432.000    3.719    0.324    0.334   31.555
  432.250    3.722    0.328    0.338   31.575
  432.500    3.725    0.323    0.343   32.220
  432.750    3.727    0.329    0.346   32.864
  433.000    3.729    0.334    0.349   34.144
  433.250    3.732    0.338    0.354   34.157
  433.500    3.733    0.340    0.356   28.501
  433.750    3.666    0.336    0.358   24.107
  434.000    3.600    0.331    0.357   21.601
  434.250    3.604    0.335    0.353   19.729
  434.500    3.605    0.344    0.352   19.744
  434.750    3.676    0.345    0.342   21.021
  435.000    3.748    0.345    0.332   22.304
  435.250    3.822    0.335    0.335   23.581
  435.500    3.971    0.325    0.343   24.855
  435.750    4.127    0.318    0.338   26.134
