~VERSION INFORMATION
 VERS.                 2.0:   CWLS LOG ASCII STANDARD -VERSION 2.0
 WRAP.                  NO:   ONE LINE PER DEPTH STEP
~WELL INFORMATION BLOCK
#MNEM.UNIT           DATA                    DESCRIPTION OF MNEMONIC
#---------    -------------------            -------------------------------
# Generated from Intellog Unique Number	CS_73_76/WELL/3247
WELL.         HOME HB DEVENISH               : Well_name    - WELL
LOC .         00/10-29-075-08W4/0            : Location     - LOCATION
UWI .         00/10-29-075-08W4/0            : Uwi          - UNIQUE WELL ID
ENTR.         SP                             : Entered      - ENTERED BY
SRVC.         SCHLUMBERGER                   : Scn          - SERVICE COMPANY
STRT.M        262.128                        : top_depth    - START DEPTH
STOP.M        490.378                        : bot_depth    - STOP DEPTH
STEP.M        0.25                           : increment    - STEP LENGTH
 NULL. -999.2500:NULL Value
~CURVE INFORMATION BLOCK
#MNEM UNIT       ERCB CURVE CODE    CURVE DESCRIPTION
#-----------   ------------------   ----------------------------------
DEPT.M        00 001 00 00         : DEPTH        - DEPTH
GR  .API      00 310 00 00         : GR           - GAMMA RAY
DPHI.V/V      00 890 00 00         : PHID         - DENSITY POROSITY (SANDSTONE)
NPHI.V/V      00 330 00 00         : PHIN         - NEUTRON POROSITY (SANDSTONE)
ILD .OHMM     00 120 00 00         : RESD         - DEEP RESISTIVITY (DIL)
~PARAMETER INFORMATION
#MNEM.UNIT           DATA             DESCRIPTION OF MNEMONIC
#---------         -----------     ------------------------------
GL  .M        662.33               : gl           - GROUND LEVEL ELEVATION
EREF.M        665.378              : kb           - ELEVATION OF DEPTH REFERENCE
DATM.M        662.33               : datum        - DATUM ELEVATION
TDD .M        498.348              : tdd          - TOTAL DEPTH DRILLER
RUN .         ONE                  : Run          - RUN NUMBER
ENG .         BILL                 : Engineer     - RECORDING ENGINEER
WIT .         JIM                  : Witness      - WITNESSED BY
MUD .         GEL                  : Mud_type     - MUD TYPE
MATR.         SANDSTONE            : Logunit      - NEUTRON MATRIX
TMAX.C        16.6667              : BHT          - MAXIMUM RECORDED TEMPERATURE
BHTD.M        498.348              : BHTDEP       - MAXIMUM RECORDED TEMPERATURE
MATR.         1                    : LOGUNIT      - NEUTRON MATRIX
RMT .C        25                   : MDTP         - TEMPERATURE OF MUD
NEUT.         1                    : NEUTRON      - NEUTRON TYPE
RESI.         0                    : RESIST       - RESISTIVITY TYPE
RMC .OHMM     0.25                 : RMC          - RESISTIVITY OF MUD CAKE
RMF .OHMM     0.25                 : RMF          - RESISTIVITY OF MUD FILTRATE
SUFT.C        15                   : SUFT         - SURFACE TEMPERATURE
~A  DEPTH       GR     PHID     PHIN     RESD
# ...
  305.628  103.587    0.228    0.472    7.805
  305.878  103.939    0.211    0.474    7.810
  306.128  102.503    0.221    0.492    8.392
  306.378  100.074    0.252    0.503    9.424
  306.628   95.030    0.257    0.488   11.016
  306.878   89.369    0.256    0.465   13.380
  307.128   80.336    0.267    0.458   17.701
  307.378   70.978    0.297    0.452   20.335
  307.628   62.589    0.347    0.441   23.014
  307.878   52.848    0.334    0.433   24.290
  308.128   54.251    0.324    0.439   23.524
  308.378   58.462    0.311    0.444   21.408
  308.628   61.014    0.300    0.449   18.529
  308.878   60.188    0.309    0.455   16.358
  309.128   57.976    0.305    0.453   14.618
  309.378   57.296    0.296    0.457   13.520
  309.628   58.070    0.281    0.456   13.111
  309.878   59.223    0.268    0.466   13.079
  310.128   60.801    0.280    0.475   14.015
  310.378   63.722    0.293    0.476   14.329
  310.628   66.591    0.294    0.476   13.955
  310.878   67.939    0.291    0.482   14.427
  311.128   70.079    0.296    0.486   15.939
  311.378   72.919    0.291    0.487   18.035
  311.628   69.777    0.304    0.479   20.697
  311.878   65.927    0.308    0.471   22.465
  312.128   61.941    0.299    0.461   24.371
  312.378   60.798    0.311    0.462   25.920
  312.628   61.042    0.305    0.471   26.647
  312.878   61.428    0.312    0.471   27.148
  313.128   61.740    0.331    0.468   27.096
  313.378   60.711    0.332    0.473   27.723
  313.628   59.094    0.328    0.481   27.645
  313.878   59.145    0.330    0.491   28.178
  314.128   62.264    0.321    0.479   28.743
  314.378   66.248    0.319    0.469   29.190
  314.628   69.646    0.318    0.488   29.499
  314.878   68.276    0.305    0.506   29.788
  315.128   64.279    0.307    0.493   30.257
  315.378   62.108    0.313    0.503   30.375
  315.628   60.782    0.317    0.515   30.399
  315.878   58.924    0.317    0.504   30.991
  316.128   57.502    0.322    0.485   30.962
  316.378   55.448    0.312    0.464   30.969
  316.628   55.353    0.312    0.453   30.976
  316.878   58.182    0.315    0.452   30.984
  317.128   58.559    0.323    0.447   30.993
  317.378   54.429    0.334    0.438   31.004
  317.628   50.330    0.324    0.429   31.011
  317.878   49.250    0.315    0.425   31.020
  318.128   51.853    0.312    0.431   31.029
  318.378   53.042    0.316    0.440   31.038
  318.628   53.591    0.321    0.452   31.033
  318.878   53.365    0.317    0.458   30.864
  319.128   52.974    0.319    0.464   30.502
  319.378   52.389    0.313    0.471   30.514
  319.628   51.706    0.321    0.460   30.552
  319.878   51.774    0.324    0.452   30.007
  320.128   51.995    0.322    0.444   30.055
  320.378   53.700    0.322    0.440   29.409
  320.628   55.178    0.323    0.442   29.465
  320.878   56.201    0.325    0.448   29.471
  321.128   57.163    0.320    0.459   29.479
  321.378   56.791    0.314    0.454   29.485
  321.628   54.324    0.327    0.453   29.480
  321.878   54.132    0.335    0.446   29.483
  322.128   54.126    0.344    0.440   29.002
  322.378   54.124    0.341    0.445   28.469
  322.628   54.121    0.334    0.454   27.480
  322.878   54.117    0.334    0.454   26.430
  323.128   54.115    0.345    0.451   24.926
  323.378   54.105    0.350    0.449   24.239
  323.628   53.992    0.358    0.466   23.718
  323.878   55.445    0.366    0.481   23.741
  324.128   56.798    0.363    0.500   24.145
  324.378   59.752    0.350    0.509   24.394
  324.628   62.003    0.343    0.477   24.660
  324.878   64.615    0.337    0.466   24.670
  325.128   65.718    0.341    0.468   24.640
  325.378   66.043    0.334    0.487   25.142
  325.628   67.301    0.328    0.502   25.095
  325.878   67.072    0.320    0.497   25.753
  326.128   66.618    0.318    0.490   26.559
  326.378   66.912    0.322    0.486   26.817
  326.628   67.921    0.297    0.473   27.681
  326.878   68.621    0.226    0.367   28.526
  327.128   63.137    0.157    0.293   29.188
  327.378   59.888    0.154    0.382   29.167
  327.628   59.333    0.249    0.440   28.718
  327.878   61.191    0.323    0.481   28.432
  328.128   62.447    0.338    0.485   28.114
  328.378   62.976    0.341    0.482   27.579
  328.628   63.696    0.336    0.492   27.480
  328.878   63.012    0.356    0.502   27.143
  329.128   62.491    0.353    0.497   26.893
  329.378   61.109    0.352    0.488   26.183
  329.628   60.645    0.352    0.496   25.754
  329.878   60.622    0.356    0.502   25.490
  330.128   60.657    0.361    0.493   25.284
  330.378   61.680    0.349    0.483   25.278
  330.628   62.685    0.351    0.493   25.288
  330.878   62.937    0.360    0.503   25.294
  331.128   61.484    0.348    0.498   25.300
  331.378   60.789    0.339    0.484   25.310
  331.628   60.550    0.328    0.476   25.315
  331.878   59.638    0.318    0.468   25.323
  332.128   57.928    0.314    0.458   25.332
  332.378   57.005    0.320    0.464   25.334
  332.628   55.954    0.331    0.468   25.070
  332.878   55.672    0.341    0.462   24.904
  333.128   55.126    0.350    0.455   24.899
  333.378   56.337    0.341    0.471   24.904
  333.628   58.355    0.350    0.469   24.906
  333.878   59.270    0.356    0.466   25.250
  334.128   60.610    0.356    0.473   25.814
  334.378   61.148    0.354    0.468   26.878
  334.628   61.184    0.343    0.476   27.629
  334.878   60.567    0.323    0.477   29.333
  335.128   58.748    0.314    0.481   32.780
  335.378   57.133    0.300    0.488   37.630
  335.628   56.171    0.268    0.483   47.095
  335.878   54.715    0.226    0.323   57.710
  336.128   49.736    0.145    0.243   72.116
  336.378   46.265    0.053    0.181   81.470
  336.628   42.114    0.002    0.147   66.811
  336.878   41.854    0.001    0.129   57.337
  337.128   43.965    0.001    0.136   47.929
  337.378   47.354   -0.009    0.154   39.012
  337.628   51.950    0.128    0.273   33.552
  337.878   56.328    0.174    0.367   27.850
  338.128   58.647    0.322    0.433   24.376
  338.378   61.516    0.337    0.485   22.740
  338.628   62.843    0.346    0.501   22.064
  338.878   62.529    0.343    0.490   22.067
  339.128   61.491    0.343    0.481   22.065
  339.378   61.050    0.337    0.471   22.079
  339.628   61.294    0.325    0.461   22.290
  339.878   62.275    0.330    0.474   22.485
  340.128   62.233    0.330    0.471   22.501
  340.378   62.238    0.319    0.466   22.504
  340.628   62.239    0.318    0.463   22.509
  340.878   61.784    0.336    0.470   22.521
  341.128   61.680    0.345    0.476   22.546
  341.378   61.025    0.333    0.486   22.123
  341.628   60.045    0.332    0.490   21.782
  341.878   59.059    0.329    0.483   20.819
  342.128   58.084    0.327    0.477   19.919
  342.378   57.372    0.338    0.494   18.934
  342.628   57.370    0.335    0.498   18.440
  342.878   58.468    0.333    0.486   18.452
  343.128   58.805    0.326    0.476   19.011
  343.378   59.827    0.322    0.469   19.158
  343.628   59.793    0.317    0.466   19.386
  343.878   59.797    0.319    0.470   20.431
  344.128   59.796    0.329    0.462   21.017
  344.378   59.334    0.331    0.466   21.012
  344.628   58.884    0.322    0.470   21.042
  344.878   57.410    0.314    0.470   20.664
  345.128   56.693    0.327    0.468   20.064
  345.378   57.534    0.322    0.469   19.492
  345.628   58.513    0.320    0.478   18.596
  345.878   59.782    0.324    0.484   18.035
  346.128   60.978    0.335    0.494   17.506
  346.378   60.989    0.349    0.502   16.732
  346.628   60.017    0.358    0.504   16.234
  346.878   59.728    0.369    0.513   15.438
  347.128   58.723    0.383    0.554   15.457
  347.378   57.922    0.356    0.547   15.956
  347.628   57.344    0.333    0.500   16.955
  347.878   56.081    0.319    0.459   18.311
  348.128   56.214    0.315    0.462   19.791
  348.378   57.898    0.327    0.483   20.327
  348.628   56.609    0.347    0.477   19.722
  348.878   55.380    0.350    0.461   16.218
