~VERSION INFORMATION
 VERS.                 2.0:   CWLS LOG ASCII STANDARD -VERSION 2.0
 WRAP.                  NO:   ONE LINE PER DEPTH STEP
~WELL INFORMATION BLOCK
#MNEM.UNIT           DATA                    DESCRIPTION OF MNEMONIC
#---------    -------------------            -------------------------------
# Generated from Intellog Unique Number	CS_73_76/WELL/2206
WELL.         DOME ET AL KIRBY               : Well_name    - WELL
LOC .         00/11-31-074-06W4/0            : Location     - LOCATION
UWI .         00/11-31-074-06W4/0            : Uwi          - UNIQUE WELL ID
ENTR.         SP                             : Entered      - ENTERED BY
SRVC.         SCHLUMBERGER                   : Scn          - SERVICE COMPANY
STRT.M        240                            : top_depth    - START DEPTH
STOP.M        470                            : bot_depth    - STOP DEPTH
STEP.M        0.25                           : increment    - STEP LENGTH
 NULL. -999.2500:NULL Value
~CURVE INFORMATION BLOCK
#MNEM UNIT       ERCB CURVE CODE    CURVE DESCRIPTION
#-----------   ------------------   ----------------------------------
DEPT.M        00 001 00 00         : DEPTH        - DEPTH
ILD .OHMM     00 120 00 00         : RESD         - DEEP RESISTIVITY (DIL)
DPHI.V/V      00 890 00 00         : PHID         - DENSITY POROSITY (LIMESTONE)
NPHI.V/V      00 330 00 00         : PHIN         - NEUTRON POROSITY (LIMESTONE)
GR  .API      00 310 00 00         : GR           - GAMMA RAY
~PARAMETER INFORMATION
#MNEM.UNIT           DATA             DESCRIPTION OF MNEMONIC
#---------         -----------     ------------------------------
GL  .M        632.87               : gl           - GROUND LEVEL ELEVATION
EREF.M        637.33               : kb           - ELEVATION OF DEPTH REFERENCE
DATM.M        632.87               : datum        - DATUM ELEVATION
TDD .M        478                  : tdd          - TOTAL DEPTH DRILLER
RUN .         ONE                  : Run          - RUN NUMBER
ENG .         BILL                 : Engineer     - RECORDING ENGINEER
WIT .         JIM                  : Witness      - WITNESSED BY
MUD .         GEL                  : Mud_type     - MUD TYPE
MATR.         LIMESTONE            : Logunit      - NEUTRON MATRIX
TMAX.C        21                   : BHT          - MAXIMUM RECORDED TEMPERATURE
BHTD.M        478                  : BHTDEP       - MAXIMUM RECORDED TEMPERATURE
MATR.         1                    : LOGUNIT      - NEUTRON MATRIX
RMT .C        25                   : MDTP         - TEMPERATURE OF MUD
NEUT.         1                    : NEUTRON      - NEUTRON TYPE
RESI.         0                    : RESIST       - RESISTIVITY TYPE
RMC .OHMM     0.25                 : RMC          - RESISTIVITY OF MUD CAKE
RMF .OHMM     0.25                 : RMF          - RESISTIVITY OF MUD FILTRATE
SUFT.C        15                   : SUFT         - SURFACE TEMPERATURE
~A  DEPTH     RESD     PHID     PHIN       GR
# ...
  327.000    5.514    0.322    0.449  109.941
  327.250    5.410    0.299    0.427  108.084
  327.500    5.111    0.283    0.426  114.789
  327.750    4.310    0.298    0.435  114.769
  328.000    3.705    0.314    0.455  111.078
  328.250    3.125    0.301    0.449  109.828
  328.500    2.737    0.334    0.457  109.200
  328.750    2.586    0.368    0.468  115.907
  329.000    2.585    0.400    0.502  119.558
  329.250    2.788    0.420    0.527  117.085
  329.500    3.182    0.375    0.542  110.931
  329.750    3.918    0.313    0.520  107.856
  330.000    4.823    0.308    0.508  101.715
  330.250    5.202    0.307    0.496   94.966
  330.500    5.201    0.287    0.474   94.942
  330.750    4.731    0.300    0.456   96.147
  331.000    4.555    0.315    0.442   93.061
  331.250    4.470    0.321    0.471   93.648
  331.500    4.303    0.332    0.485   96.685
  331.750    4.554    0.347    0.469   99.121
  332.000    4.553    0.332    0.476  107.051
  332.250    4.384    0.436    0.470  108.258
  332.500    4.301    0.467    0.488   99.053
  332.750    4.141    0.457    0.522   87.400
  333.000    3.987    0.473    0.494   90.433
  333.250    3.767    0.454    0.478   98.984
  333.500    3.626    0.451    0.519  106.315
  333.750    3.558    0.438    0.513  111.802
  334.000    3.626    0.419    0.518  113.615
  334.250    3.765    0.423    0.535  117.869
  334.500    3.909    0.433    0.523  119.695
  334.750    3.984    0.423    0.542  119.669
  335.000    4.137    0.403    0.535  112.911
  335.250    4.215    0.390    0.523  110.443
  335.500    4.461    0.401    0.523  111.035
  335.750    4.811    0.400    0.491  114.064
  336.000    4.996    0.423    0.484  115.887
  336.250    5.388    0.439    0.494  114.031
  336.500    5.810    0.240    0.499  107.884
  336.750    6.034    0.235    0.504  107.249
  337.000    6.266    0.256    0.504  107.233
  337.250    6.385    0.269    0.458  109.048
  337.500    6.506    0.261    0.455  116.372
  337.750    6.505    0.250    0.463  118.799
  338.000    6.382    0.267    0.468  109.596
  338.250    6.382    0.279    0.480  112.016
  338.500    6.261    0.261    0.486  114.439
  338.750    6.261    0.259    0.482  115.648
  339.000    6.143    0.256    0.472  116.853
  339.250    5.914    0.255    0.472  111.317
  339.500    5.694    0.253    0.446  108.240
  339.750    5.587    0.234    0.454  110.661
  340.000    5.481    0.227    0.455  114.308
  340.250    5.481    0.258    0.441  116.740
  340.500    5.377    0.286    0.481  119.783
  340.750    5.276    0.302    0.487  121.595
  341.000    5.177    0.301    0.461  116.675
  341.250    4.984    0.315    0.447  116.645
  341.500    4.799    0.326    0.446  116.019
  341.750    4.283    0.352    0.470  115.999
  342.000    3.823    0.378    0.482  114.131
  342.250    3.349    0.414    0.491  112.896
  342.500    2.824    0.450    0.506  109.806
  342.750    2.521    0.470    0.519  108.569
  343.000    2.382    0.460    0.530  107.932
  343.250    2.382    0.461    0.528  106.677
  343.500    2.473    0.454    0.530  117.679
  343.750    2.667    0.443    0.526  125.622
  344.000    2.822    0.427    0.529  125.598
  344.250    2.931    0.422    0.532  117.614
  344.500    3.161    0.434    0.533  112.702
  344.750    3.677    0.449    0.549  116.964
  345.000    4.197    0.338    0.550  110.819
  345.250    4.526    0.301    0.529  112.633
  345.500    4.881    0.297    0.433  111.992
  345.750    5.264    0.304    0.421  110.756
  346.000    6.240    0.259    0.406  106.449
  346.250    6.730    0.235    0.384   98.461
  346.500    7.258    0.208    0.369   92.322
  346.750    7.396    0.233    0.353   81.897
  347.000    7.257    0.100    0.336   88.609
  347.250    6.986    0.030    0.326   87.974
  347.500    6.355    0.071    0.313   81.219
  347.750    5.567    0.124    0.299   86.088
  348.000    5.259    0.150    0.337   99.537
  348.250    4.694    0.242    0.364   97.681
  348.500    4.190    0.352    0.395   87.862
  348.750    4.034    0.375    0.393   80.494
  349.000    3.811    0.365    0.406   73.734
  349.250    3.670    0.348    0.427   71.882
  349.500    3.669    0.358    0.445   71.243
  349.750    3.669    0.354    0.444   69.392
  350.000    3.668    0.348    0.445   74.872
  350.250    3.668    0.351    0.445   74.853
  350.500    3.737    0.361    0.428   70.544
  350.750    3.737    0.363    0.415   68.694
  351.000    3.737    0.353    0.417   74.176
  351.250    3.736    0.348    0.412   72.930
  351.500    3.666    0.363    0.415   72.297
  351.750    3.665    0.370    0.409   72.279
  352.000    3.665    0.375    0.414   73.480
  352.250    3.596    0.378    0.413   72.843
  352.500    3.595    0.371    0.406   69.762
  352.750    3.664    0.370    0.408   67.904
  353.000    3.663    0.360    0.420   69.722
  353.250    3.804    0.357    0.411   72.148
  353.500    3.876    0.353    0.422   72.729
  353.750    3.950    0.348    0.411   73.320
  354.000    4.025    0.343    0.422   73.919
  354.250    4.101    0.346    0.402   75.729
  354.500    4.101    0.322    0.385   76.317
  354.750    4.100    0.300    0.372   78.751
  355.000    4.100    0.321    0.375   81.790
  355.250    3.947    0.329    0.386   79.928
  355.500    3.947    0.349    0.410   75.619
  355.750    3.946    0.344    0.406   73.765
  356.000    3.946    0.333    0.418   73.742
  356.250    3.946    0.358    0.400   76.775
  356.500    3.945    0.362    0.399   77.983
  356.750    3.945    0.355    0.390   79.188
  357.000    4.096    0.364    0.385   74.265
  357.250    4.253    0.374    0.425   76.078
  357.500    4.417    0.374    0.421   78.511
  357.750    4.587    0.352    0.426   81.550
  358.000    4.854    0.336    0.424   85.199
  358.250    5.137    0.324    0.416   88.852
  358.500    5.334    0.312    0.409   90.667
  358.750    5.539    0.306    0.404   93.701
  359.000    5.539    0.317    0.398   97.350
  359.250    5.538    0.325    0.415  101.003
  359.500    5.434    0.336    0.410   99.150
  359.750    5.331    0.329    0.420   94.230
  360.000    5.037    0.321    0.425  101.546
  360.250    4.942    0.314    0.439   98.463
  360.500    4.668    0.325    0.456   96.613
  360.750    4.581    0.305    0.453   98.425
  361.000    4.327    0.287    0.438  103.304
  361.250    3.936    0.265    0.444  109.397
  361.500    3.719    0.240    0.435  113.053
  361.750    3.383    0.232    0.432  117.317
  362.000    3.196    0.262    0.437  115.455
  362.250    3.020    0.268    0.447  108.696
  362.500    3.077    0.265    0.464  105.003
  362.750    3.195    0.270    0.454  109.876
  363.000    3.381    0.255    0.461  115.365
  363.250    3.445    0.240    0.450  119.635
  363.500    3.511    0.228    0.459  122.675
  363.750    3.444    0.230    0.468  117.753
  364.000    3.316    0.269    0.472  119.570
  364.250    3.193    0.312    0.468  112.202
  364.500    3.193    0.337    0.488  110.957
  364.750    3.443    0.363    0.510  109.701
  365.000    3.575    0.431    0.522  109.077
  365.250    3.856    0.422    0.513  114.561
  365.500    4.081    0.402    0.518  111.475
  365.750    4.237    0.389    0.511  107.171
  366.000    4.080    0.400    0.519  108.374
  366.250    3.711    0.339    0.489  104.677
  366.500    3.641    0.317    0.455   99.151
  366.750    3.927    0.302    0.437   97.902
  367.000    4.398    0.316    0.446   94.821
  367.250    4.743    0.338    0.451   89.900
  367.500    5.213    0.357    0.444   87.433
  367.750    5.622    0.357    0.440   86.797
  368.000    5.729    0.358    0.426   86.776
  368.250    5.949    0.371    0.433   85.527
  368.500    6.178    0.373    0.442   83.061
  368.750    6.177    0.370    0.455   84.263
  369.000    6.176    0.382    0.449   89.131
  369.250    5.835    0.376    0.460   89.729
  369.500    5.512    0.366    0.469   87.868
  369.750    5.409    0.373    0.460   87.834
  370.000    5.408    0.373    0.453   88.426
  370.250    5.511    0.362    0.443   89.018
