~VERSION INFORMATION
 VERS.                 2.0:   CWLS LOG ASCII STANDARD -VERSION 2.0
 WRAP.                  NO:   ONE LINE PER DEPTH STEP
~WELL INFORMATION BLOCK
#MNEM.UNIT           DATA                    DESCRIPTION OF MNEMONIC
#---------    -------------------            -------------------------------
# Generated from Intellog Unique Number	CS_69_70/WELL/856
WELL.         ET AL CHARRON                  : Well_name    - WELL
LOC .         00/10-01-069-16W4/0            : Location     - LOCATION
UWI .         00/10-01-069-16W4/0            : Uwi          - UNIQUE WELL ID
ENTR.         SP                             : Entered      - ENTERED BY
SRVC.         SCHLUMBERGER                   : Scn          - SERVICE COMPANY
STRT.M        274.32                         : top_depth    - START DEPTH
STOP.M        457.07                         : bot_depth    - STOP DEPTH
STEP.M        0.25                           : increment    - STEP LENGTH
 NULL. -999.2500:NULL Value
~CURVE INFORMATION BLOCK
#MNEM UNIT       ERCB CURVE CODE    CURVE DESCRIPTION
#-----------   ------------------   ----------------------------------
DEPT.M        00 001 00 00         : DEPTH        - DEPTH
GR  .API      00 310 00 00         : GR           - GAMMA RAY
DPHI.V/V      00 890 00 00         : PHID         - DENSITY POROSITY (SANDSTONE)
NPHI.V/V      00 330 00 00         : PHIN         - NEUTRON POROSITY (SANDSTONE)
ILD .OHMM     00 120 00 00         : RESD         - DEEP RESISTIVITY (DIL)
~PARAMETER INFORMATION
#MNEM.UNIT           DATA             DESCRIPTION OF MNEMONIC
#---------         -----------     ------------------------------
GL  .M        557.784              : gl           - GROUND LEVEL ELEVATION
EREF.M        560.222              : kb           - ELEVATION OF DEPTH REFERENCE
DATM.M        557.784              : datum        - DATUM ELEVATION
TDD .M        452.323              : tdd          - TOTAL DEPTH DRILLER
RUN .         ONE                  : Run          - RUN NUMBER
ENG .         BILL                 : Engineer     - RECORDING ENGINEER
WIT .         JIM                  : Witness      - WITNESSED BY
MUD .         GEL                  : Mud_type     - MUD TYPE
MATR.         SANDSTONE            : Logunit      - NEUTRON MATRIX
TMAX.C        22.2222              : BHT          - MAXIMUM RECORDED TEMPERATURE
BHTD.M        452.323              : BHTDEP       - MAXIMUM RECORDED TEMPERATURE
MATR.         1                    : LOGUNIT      - NEUTRON MATRIX
RMT .C        25                   : MDTP         - TEMPERATURE OF MUD
NEUT.         1                    : NEUTRON      - NEUTRON TYPE
RESI.         0                    : RESIST       - RESISTIVITY TYPE
RMC .OHMM     0.25                 : RMC          - RESISTIVITY OF MUD CAKE
RMF .OHMM     0.25                 : RMF          - RESISTIVITY OF MUD FILTRATE
SUFT.C        15                   : SUFT         - SURFACE TEMPERATURE
~A  DEPTH       GR     PHID     PHIN     RESD
# ...
  404.820   95.092    0.260    0.535    2.359
  405.070   94.953    0.271    0.563    2.332
  405.320   95.073    0.269    0.567    2.323
  405.570   94.094    0.259    0.546    2.324
  405.820   94.086    0.262    0.530    2.319
  406.070   95.263    0.265    0.535    2.309
  406.320   96.922    0.257    0.541    2.441
  406.570   95.316    0.249    0.533    2.584
  406.820   96.726    0.253    0.524    2.752
  407.070   98.749    0.237    0.541    2.919
  407.320   97.630    0.226    0.529    3.123
  407.570   93.226    0.218    0.486    3.331
  407.820   88.322    0.214    0.470    3.535
  408.070   91.320    0.221    0.474    3.765
  408.320   93.036    0.233    0.468    4.019
  408.570   92.677    0.229    0.454    4.202
  408.820   91.001    0.219    0.439    4.338
  409.070   86.732    0.213    0.429    4.340
  409.320   82.130    0.202    0.418    4.157
  409.570   78.092    0.212    0.408    4.012
  409.820   75.353    0.223    0.405    3.894
  410.070   74.368    0.247    0.431    3.890
  410.320   74.248    0.259    0.456    4.052
  410.570   74.046    0.257    0.463    4.429
  410.820   73.923    0.258    0.457    4.968
  411.070   73.466    0.255    0.438    5.433
  411.320   73.753    0.244    0.449    5.634
  411.570   74.360    0.230    0.448    5.630
  411.820   75.576    0.189    0.408    5.225
  412.070   76.873    0.152    0.370    4.821
  412.320   76.915    0.130    0.338    4.469
  412.570   75.857    0.139    0.340    4.233
  412.820   75.741    0.155    0.350    4.368
  413.070   77.451    0.166    0.389    5.341
  413.320   79.855    0.188    0.423    6.363
  413.570   82.289    0.180    0.440    6.796
  413.820   83.347    0.190    0.451    7.327
  414.070   81.456    0.196    0.441    7.614
  414.320   77.371    0.185    0.430    7.307
  414.570   69.497    0.167    0.410    6.518
  414.820   58.826    0.093    0.326    5.781
  415.070   53.233    0.045    0.253    5.367
  415.320   52.624    0.025    0.225    4.868
  415.570   57.308    0.020    0.214    4.562
  415.820   69.681    0.051    0.312    4.396
  416.070   79.761    0.115    0.372    4.265
  416.320   88.477    0.159    0.399    4.190
  416.570   93.496    0.155    0.407    4.104
  416.820   94.140    0.159    0.409    4.070
  417.070   94.080    0.184    0.421    4.045
  417.320   93.879    0.196    0.428    4.032
  417.570   92.071    0.204    0.432    4.025
  417.820   89.732    0.195    0.441    4.025
  418.070   88.615    0.182    0.448    4.024
  418.320   90.677    0.172    0.453    4.037
  418.570   92.658    0.201    0.456    4.090
  418.820   93.666    0.205    0.447    4.164
  419.070   93.245    0.190    0.437    4.197
  419.320   90.697    0.178    0.428    4.190
  419.570   89.988    0.168    0.445    4.199
  419.820   91.083    0.181    0.447    4.236
  420.070   92.609    0.180    0.454    4.752
  420.320   93.917    0.202    0.441    4.778
  420.570   95.128    0.215    0.429    4.863
  420.820   96.588    0.209    0.420    4.970
  421.070   97.935    0.213    0.424    4.872
  421.320   99.608    0.195    0.426    4.524
  421.570  100.755    0.184    0.440    3.970
  421.820  101.281    0.183    0.452    3.154
  422.070   97.968    0.179    0.443    2.734
  422.320   94.181    0.175    0.435    2.360
  422.570   92.272    0.186    0.442    2.136
  422.820   92.871    0.248    0.469    2.065
  423.070   94.618    0.245    0.482    2.108
  423.320   97.018    0.244    0.503    2.227
  423.570   98.508    0.248    0.526    2.472
  423.820   97.768    0.247    0.524    2.928
  424.070   96.963    0.241    0.514    3.428
  424.320   94.689    0.226    0.521    3.888
  424.570   90.191    0.207    0.515    4.531
  424.820   85.494    0.186    0.494    4.941
  425.070   80.904    0.167    0.423    5.609
  425.320   77.820    0.148    0.377    5.883
  425.570   77.204    0.140    0.343    6.458
  425.820   78.825    0.175    0.363    7.277
  426.070   79.599    0.187    0.393    8.143
  426.320   77.804    0.145    0.397    9.128
  426.570   68.560    0.106    0.337    9.751
  426.820   61.372    0.037    0.245    7.264
  427.070   53.596    0.018    0.200    5.665
  427.320   60.167    0.003    0.191    4.688
  427.570   66.269    0.002    0.241    4.273
  427.820   74.459    0.079    0.315    4.006
  428.070   81.130    0.135    0.394    3.902
  428.320   85.350    0.142    0.426    3.893
  428.570   87.879    0.136    0.437    3.885
  428.820   90.123    0.157    0.425    3.854
  429.070   91.869    0.182    0.412    3.829
  429.320   94.176    0.196    0.401    3.806
  429.570   96.228    0.192    0.436    3.780
  429.820   98.635    0.204    0.453    3.769
  430.070  100.288    0.211    0.466    3.711
  430.320  100.764    0.206    0.458    3.621
  430.570   94.955    0.196    0.471    3.529
  430.820   95.262    0.189    0.461    3.414
  431.070   96.808    0.199    0.453    3.320
  431.320   96.732    0.208    0.448    3.274
  431.570   97.080    0.183    0.465    3.176
  431.820   99.082    0.196    0.487    3.113
  432.070  100.767    0.198    0.511    3.060
  432.320  100.976    0.188    0.485    2.989
  432.570   99.894    0.181    0.477    2.960
  432.820   99.851    0.174    0.465    2.984
  433.070  100.422    0.184    0.466    2.997
  433.320  103.538    0.180    0.483    3.038
  433.570  103.561    0.186    0.494    3.115
  433.820  102.283    0.205    0.496    3.236
  434.070  104.953    0.215    0.501    3.375
  434.320  107.493    0.202    0.505    3.497
  434.570  108.710    0.208    0.511    3.474
  434.820  108.618    0.211    0.497    3.251
  435.070  108.077    0.203    0.495    2.990
  435.320  107.039    0.198    0.487    2.796
  435.570  102.829    0.188    0.459    2.663
  435.820   94.534    0.169    0.438    2.572
  436.070   96.588    0.142    0.412    2.865
  436.320  102.290    0.140    0.431    3.202
  436.570  105.409    0.183    0.467    3.540
  436.820  107.730    0.208    0.497    3.872
  437.070  108.607    0.214    0.513    4.281
  437.320  108.489    0.218    0.535    4.629
  437.570  105.542    0.216    0.495    5.057
  437.820   99.288    0.203    0.476    5.562
  438.070   92.871    0.189    0.481    6.135
  438.320   87.225    0.166    0.465    6.592
  438.570   82.916    0.138    0.433    7.352
  438.820   84.283    0.127    0.386    8.356
  439.070   86.330    0.165    0.383    9.666
  439.320   78.571    0.177    0.381   11.476
  439.570   67.713    0.169    0.364   12.565
  439.820   60.478    0.169    0.330   12.889
  440.070   57.055    0.175    0.311   11.811
  440.320   61.035    0.221    0.311   10.806
  440.570   62.429    0.244    0.318    9.665
  440.820   63.736    0.203    0.313    9.526
  441.070   61.788    0.177    0.301    8.380
  441.320   62.543    0.146    0.290    7.851
  441.570   67.374    0.106    0.299    7.167
  441.820   68.298    0.112    0.347    6.696
  442.070   66.496    0.102    0.367    6.309
  442.320   70.699    0.078    0.350    5.981
  442.570   75.031    0.063    0.363    5.919
  442.820   79.361    0.205    0.393    6.302
  443.070   83.736    0.213    0.410    6.950
  443.320   87.392    0.224    0.418    7.470
  443.570   91.243    0.226    0.407    8.052
  443.820   85.526    0.216    0.385    8.523
  444.070   66.884    0.230    0.373    8.237
  444.320   52.782    0.251    0.329    7.754
  444.570   35.614    0.271    0.281    7.371
  444.820   19.384    0.252    0.298    6.896
  445.070    5.802    0.238    0.322    6.526
  445.320    2.007    0.221    0.345    6.316
  445.570    1.345    0.214    0.368    6.206
  445.820    0.618    0.210    0.379    6.143
  446.070    0.226    0.201    0.373    6.166
  446.320   -0.030    0.191    0.364    6.143
  446.570   -0.208    0.182    0.364    6.061
  446.820   -0.032    0.190    0.347    5.980
  447.070    0.135    0.198    0.312    5.902
  447.320    0.064    0.189    0.239    5.740
  447.570    0.112    0.195   -0.020    5.572
  447.820    0.289    0.180   -0.014    5.376
  448.070    0.387    0.163   -0.017    5.267
