~VERSION INFORMATION
 VERS.                 2.0:   CWLS LOG ASCII STANDARD -VERSION 2.0
 WRAP.                  NO:   ONE LINE PER DEPTH STEP
~WELL INFORMATION BLOCK
#MNEM.UNIT           DATA                    DESCRIPTION OF MNEMONIC
#---------    -------------------            -------------------------------
# Generated from Intellog Unique Number	CW_82_90/WELL/3076
WELL.         PARA ET AL LIVOCK 11-16        : Well_name    - WELL
LOC .         00/11-16-085-20W4/0            : Location     - LOCATION
UWI .         00/11-16-085-20W4/0            : Uwi          - UNIQUE WELL ID
ENTR.         JAYE                           : Entered      - ENTERED BY
SRVC.         COMPUTALOG                     : Scn          - SERVICE COMPANY
DATE.         24 JAN 78                      : Date         - LOG DATE
STRT.M        198.12                         : top_depth    - START DEPTH
STOP.M        374.87                         : bot_depth    - STOP DEPTH
STEP.M        0.25                           : increment    - STEP LENGTH
 NULL. -999.2500:NULL Value
~CURVE INFORMATION BLOCK
#MNEM UNIT       ERCB CURVE CODE    CURVE DESCRIPTION
#-----------   ------------------   ----------------------------------
DEPT.M        00 001 00 00         : DEPTH        - DEPTH
ILD .OHMM     00 120 00 00         : RESD         - DEEP RESISTIVITY (DIL)
CALI.MM       00 280 01 00         : CAL          - CALIPER
GR  .API      00 310 00 00         : GR           - GAMMA RAY
NPHI.V/V      00 330 00 00         : PHIN         - NEUTRON POROSITY (SANDSTONE)
DPHI.V/V      00 890 00 00         : PHID         - DENSITY POROSITY (SANDSTONE)
COND.MMHO                          : COND         - DEEP CONDUCTIVITY (DIL)
~PARAMETER INFORMATION
#MNEM.UNIT           DATA             DESCRIPTION OF MNEMONIC
#---------         -----------     ------------------------------
GL  .M        623.621              : gl           - GROUND LEVEL ELEVATION
EREF.M        626.669              : kb           - ELEVATION OF DEPTH REFERENCE
DATM.M        623.621              : datum        - DATUM ELEVATION
TDD .M        377.952              : tdd          - TOTAL DEPTH DRILLER
RUN .         ONE                  : Run          - RUN NUMBER
ENG .         KING                 : Engineer     - RECORDING ENGINEER
MUD .         GEL CHEM SAWDUST     : Mud_type     - MUD TYPE
MATR.         SANDSTONE            : Logunit      - NEUTRON MATRIX
TMAX.C        16.1111              : BHT          - MAXIMUM RECORDED TEMPERATURE
BHTD.M        377.952              : BHTDEP       - MAXIMUM RECORDED TEMPERATURE
RMT .C        14.4444              : MDTP         - TEMPERATURE OF MUD
MUDD.KG/M     9400                 : MWT          - MUD DENSITY
NEUT.         1                    : NEUTRON      - NEUTRON TYPE
RESI.         0                    : RESIST       - RESISTIVITY TYPE
RM  .OHMM     4.35                 : RM           - RESISTIVITY OF MUD
RMC .OHMM     0                    : RMC          - RESISTIVITY OF MUD CAKE
RMF .OHMM     4.1                  : RMF          - RESISTIVITY OF MUD FILTRATE
SUFT.C        -17.7778             : SUFT         - SURFACE TEMPERATURE
~A  DEPTH     RESD      CAL       GR     PHIN     PHID     COND
# ...
  323.120   30.503  159.514  112.134    0.332    0.202   32.784
  323.370   26.802  159.764  118.886    0.242    0.186   37.311
  323.620   24.145  159.764  121.755    0.211    0.178   41.417
  323.870   25.636  160.199  123.388    0.190    0.164   39.008
  324.120   25.863  160.244  114.667    0.178    0.143   38.665
  324.370   24.436  160.391  108.531    0.222    0.145   40.923
  324.620   23.146  160.453  114.664    0.328    0.214   43.205
  324.870   21.880  160.295  120.183    0.400    0.215   45.705
  325.120   20.079  160.234  125.456    0.433    0.209   49.803
  325.370   18.272  160.531  122.094    0.410    0.200   54.729
  325.620   17.122  160.657  127.740    0.410    0.208   58.405
  325.870   17.282  160.815  122.652    0.397    0.204   57.862
  326.120   17.456  160.910  122.435    0.366    0.198   57.285
  326.370   17.316  160.829  121.544    0.372    0.196   57.751
  326.620   17.014  160.766  118.922    0.377    0.189   58.775
  326.870   16.937  160.766  119.942    0.378    0.199   59.041
  327.120   16.691  160.172  124.536    0.390    0.198   59.913
  327.370   16.354  159.979  128.817    0.431    0.196   61.148
  327.620   16.226  159.938  133.597    0.429    0.195   61.629
  327.870   15.806  160.340  136.093    0.399    0.197   63.266
  328.120   15.588  160.671  133.165    0.398    0.201   64.153
  328.370   15.341  161.356  135.850    0.422    0.193   65.185
  328.620   14.864  161.920  138.285    0.399    0.188   67.275
  328.870   14.292  162.299  133.134    0.385    0.184   69.971
  329.120   14.164  162.022  131.934    0.409    0.210   70.604
  329.370   14.315  162.078  127.530    0.377    0.227   69.859
  329.620   14.694  162.126  123.488    0.376    0.216   68.055
  329.870   15.370  162.326  127.224    0.343    0.208   65.060
  330.120   16.327  162.234  131.936    0.337    0.188   61.249
  330.370   16.207  162.292  131.227    0.365    0.174   61.703
  330.620   15.836  162.292  133.970    0.381    0.159   63.148
  330.870   15.775  162.292  134.680    0.389    0.195   63.391
  331.120   15.560  161.100  130.458    0.370    0.207   64.267
  331.370   15.651  160.518  127.778    0.322    0.208   63.892
  331.620   16.426  159.985  125.280    0.305    0.212   60.878
  331.870   17.774  160.006  124.825    0.308    0.213   56.262
  332.120   20.424  160.043  121.706    0.297    0.215   48.963
  332.370   22.234  160.217  119.085    0.313    0.225   44.976
  332.620   23.821  160.377  118.745    0.312    0.234   41.980
  332.870   24.267  160.738  116.128    0.304    0.232   41.208
  333.120   23.442  162.343  111.164    0.302    0.245   42.658
  333.370   23.433  165.318  104.230    0.306    0.269   42.674
  333.620   23.164  166.419   98.159    0.388    0.441   43.171
  333.870   23.588  165.326   97.203    0.383    0.431   42.394
  334.120   23.677  164.232   98.659    0.349    0.405   42.235
  334.370   22.571  163.129  108.854    0.306    0.366   44.305
  334.620   22.652  162.038  120.542    0.293    0.195   44.146
  334.870   22.944  161.358  122.788    0.271    0.183   43.584
  335.120   23.367  161.000  119.124    0.258    0.161   42.796
  335.370   24.135  160.759  118.229    0.221    0.142   41.434
  335.620   24.357  160.474  114.128    0.197    0.128   41.055
  335.870   24.579  160.431  115.150    0.147    0.110   40.685
  336.120   23.156  160.690  116.779    0.169    0.091   43.185
  336.370   21.413  161.268  120.449    0.399    0.129   46.701
  336.620   19.002  162.352  127.754    0.414    0.216   52.627
  336.870   16.898  164.807  138.454    0.428    0.202   59.178
  337.120   14.164  167.468  136.754    0.460    0.208   70.603
  337.370   12.407  170.971  138.332    0.476    0.206   80.598
  337.620   11.240  172.592  140.515    0.493    0.212   88.969
  337.870   10.382  172.327  142.275    0.449    0.219   96.324
  338.120    9.956  169.777  140.332    0.439    0.207  100.442
  338.370    9.815  168.882  138.825    0.457    0.200  101.880
  338.620    9.969  166.437  137.250    0.429    0.211  100.310
  338.870   11.163  164.708  133.584    0.406    0.196   89.582
  339.120   12.551  163.838  131.148    0.329    0.218   79.674
  339.370   14.377  164.082  125.509    0.303    0.217   69.554
  339.620   15.847  164.033  124.310    0.286    0.206   63.103
  339.870   16.697  163.810  127.859    0.300    0.185   59.893
  340.120   17.085  163.640  127.146    0.352    0.151   58.530
  340.370   17.132  163.252  124.461    0.367    0.109   58.371
  340.620   16.164  162.993  128.998    0.399    0.165   61.867
  340.870   14.083  163.043  137.843    0.402    0.153   71.008
  341.120   13.305  162.897  140.529    0.386    0.136   75.160
  341.370   12.783  162.451  138.088    0.375    0.123   78.227
  341.620   12.906  162.489  130.412    0.381    0.134   77.485
  341.870   13.105  162.427  135.624    0.409    0.175   76.306
  342.120   13.100  162.377  133.316    0.400    0.190   76.338
  342.370   12.885  162.443  131.872    0.397    0.194   77.609
  342.620   12.911  162.594  133.562    0.390    0.192   77.453
  342.870   12.974  162.636  133.594    0.405    0.186   77.075
  343.120   12.931  162.807  129.124    0.358    0.178   77.333
  343.370   12.694  162.848  130.022    0.395    0.165   78.779
  343.620   12.460  162.686  133.750    0.372    0.168   80.256
  343.870   12.205  162.641  137.906    0.360    0.179   81.936
  344.120   11.991  163.850  137.136    0.368    0.167   83.394
  344.370   11.898  165.244  129.095    0.345    0.151   84.051
  344.620   11.920  167.180  131.654    0.368    0.113   83.895
  344.870   11.973  166.208  135.258    0.420    0.196   83.521
  345.120   11.821  165.518  141.207    0.400    0.196   84.596
  345.370   11.488  167.355  143.213    0.373    0.193   87.049
  345.620   11.372  166.875  144.412    0.358    0.172   87.933
  345.870   11.553  159.820  141.299    0.354    0.178   86.555
  346.120   12.486  156.740  130.236    0.305    0.155   80.091
  346.370   14.629  156.497  127.183    0.230    0.121   68.359
  346.620   17.482  156.644  122.036    0.165    0.125   57.201
  346.870   19.234  157.328  121.820    0.181    0.108   51.991
  347.120   20.674  157.683  125.367    0.207    0.123   48.371
  347.370   21.383  157.135  129.157    0.277    0.176   46.767
  347.620   21.078  157.267  131.102    0.273    0.182   47.443
  347.870   20.027  157.008  127.311    0.262    0.189   49.932
  348.120   20.257  156.976  124.444    0.267    0.181   49.366
  348.370   21.666  157.136  118.064    0.222    0.168   46.156
  348.620   26.145  157.073  109.094    0.155    0.154   38.248
  348.870   29.416  157.223  107.153    0.141    0.119   33.995
  349.120   30.235  156.965  109.222    0.168    0.197   33.074
  349.370   29.671  157.225  116.834    0.208    0.196   33.703
  349.620   29.462  157.172  119.885    0.279    0.193   33.942
  349.870   29.961  157.234  122.015    0.272    0.189   33.377
  350.120   30.837  157.491  121.306    0.271    0.184   32.428
  350.370   30.986  156.914  115.665    0.266    0.176   32.273
  350.620   32.570  155.507  118.777    0.267    0.182   30.703
  350.870   37.518  155.553  115.109    0.241    0.194   26.654
  351.120   38.292  156.033  111.810    0.217    0.203   26.115
  351.370   38.843  156.291  104.939    0.220    0.226   25.745
  351.620   37.865  157.185  105.903    0.213    0.229   26.410
  351.870   39.030  156.188  107.527    0.203    0.204   25.621
  352.120   39.886  153.835  100.902    0.204    0.192   25.071
  352.370   41.488  152.634   98.959    0.188    0.173   24.103
  352.620   46.573  152.803   96.525    0.202    0.166   21.472
  352.870   49.250  153.682   94.582    0.266    0.176   20.305
  353.120   49.630  155.625   96.835    0.227    0.163   20.149
  353.370   48.565  155.884   96.808    0.183    0.127   20.591
  353.620   44.862  154.997   94.869    0.127    0.111   22.291
  353.870   38.803  154.207   96.500    0.137    0.152   25.771
  354.120   39.044  154.261   94.986    0.155    0.162   25.612
