~VERSION INFORMATION
 VERS.                 2.0:   CWLS LOG ASCII STANDARD -VERSION 2.0
 WRAP.                  NO:   ONE LINE PER DEPTH STEP
~WELL INFORMATION BLOCK
#MNEM.UNIT           DATA                    DESCRIPTION OF MNEMONIC
#---------    -------------------            -------------------------------
# Generated from Intellog Unique Number	CS_77_79/WELL/950
WELL.         AMOCO LEISMER                  : Well_name    - WELL
LOC .         00/10-12-079-08W4/0            : Location     - LOCATION
UWI .         00/10-12-079-08W4/0            : Uwi          - UNIQUE WELL ID
ENTR.         JHS                            : Entered      - ENTERED BY
SRVC.         SCHLUMBERGER                   : Scn          - SERVICE COMPANY
STRT.M        125                            : top_depth    - START DEPTH
STOP.M        350                            : bot_depth    - STOP DEPTH
STEP.M        0.25                           : increment    - STEP LENGTH
 NULL. -999.2500:NULL Value
~CURVE INFORMATION BLOCK
#MNEM UNIT       ERCB CURVE CODE    CURVE DESCRIPTION
#-----------   ------------------   ----------------------------------
DEPT.M        00 001 00 00         : DEPTH        - DEPTH
DPHI.V/V      00 890 00 00         : PHID         - DENSITY POROSITY (LIMESTONE)
NPHI.V/V      00 330 00 00         : PHIN         - NEUTRON POROSITY (LIMESTONE)
GR  .API      00 310 00 00         : GR           - GAMMA RAY
ILD .OHMM     00 120 00 00         : RESD         - DEEP RESISTIVITY (DIL)
RHOB.KG/M3    00 350 00 00         : DENS         - BULK DENSITY
~PARAMETER INFORMATION
#MNEM.UNIT           DATA             DESCRIPTION OF MNEMONIC
#---------         -----------     ------------------------------
GL  .M        568.82               : gl           - GROUND LEVEL ELEVATION
EREF.M        573                  : kb           - ELEVATION OF DEPTH REFERENCE
DATM.M        573                  : datum        - DATUM ELEVATION
TDD .M        355                  : tdd          - TOTAL DEPTH DRILLER
RUN .         ONE                  : Run          - RUN NUMBER
ENG .         BILL                 : Engineer     - RECORDING ENGINEER
WIT .         JIM                  : Witness      - WITNESSED BY
MUD .         GEL                  : Mud_type     - MUD TYPE
MATR.         LIMESTONE            : Logunit      - NEUTRON MATRIX
TMAX.C        23.5                 : BHT          - MAXIMUM RECORDED TEMPERATURE
BHTD.M        355                  : BHTDEP       - MAXIMUM RECORDED TEMPERATURE
MATR.         1                    : LOGUNIT      - NEUTRON MATRIX
RMT .C        25                   : MDTP         - TEMPERATURE OF MUD
NEUT.         1                    : NEUTRON      - NEUTRON TYPE
RESI.         0                    : RESIST       - RESISTIVITY TYPE
RMC .OHMM     0.25                 : RMC          - RESISTIVITY OF MUD CAKE
RMF .OHMM     0.25                 : RMF          - RESISTIVITY OF MUD FILTRATE
SUFT.C        15                   : SUFT         - SURFACE TEMPERATURE
~A  DEPTH     PHID     PHIN       GR     RESD     DENS
  125.000    0.344    0.590   94.135    3.047    0.000
  125.250    0.326    0.591   93.542    3.106    0.000
  125.500    0.321    0.590   94.162    3.050    0.000
  125.750    0.322    0.576   94.182    2.995    0.000
  126.000    0.334    0.584   92.378    2.782    0.000
  126.250    0.353    0.606   91.185    2.584    0.000
  126.500    0.345    0.601   91.194    2.445    0.000
  126.750    0.353    0.597   93.031    2.446    0.000
  127.000    0.359    0.605   98.511    2.448    0.000
  127.250    0.339    0.613  100.958    2.449    0.000
  127.500    0.344    0.617   98.545    2.360    0.000
  127.750    0.338    0.617   93.702    2.318    0.000
  128.000    0.348    0.601   91.294    2.363    0.000
  128.250    0.352    0.589   91.311    2.364    0.000
  128.500    0.344    0.591   90.110    2.365    0.000
  128.750    0.349    0.593   88.911    2.322    0.000
  129.000    0.355    0.604   88.927    2.239    0.000
  129.250    0.353    0.613   88.334    2.240    0.000
  129.500    0.323    0.615   88.961    2.369    0.000
  129.750    0.265    0.615   86.544    2.370    0.000
  130.000    0.227    0.614   81.703    2.461    0.000
  130.250    0.245    0.614   82.327    2.417    0.000
  130.500    0.304    0.614   86.594    2.373    0.000
  130.750    0.323    0.614   87.824    2.374    0.000
  131.000    0.329    0.614   84.805    2.466    0.000
  131.250    0.328    0.614   83.604    2.560    0.000
  131.500    0.309    0.610   90.910    2.658    0.000
  131.750    0.303    0.596   93.963    2.760    0.000
  132.000    0.328    0.588   90.941    2.813    0.000
  132.250    0.317    0.588   89.741    2.814    0.000
  132.500    0.306    0.582   94.013    2.868    0.000
  132.750    0.313    0.578   92.207    2.923    0.000
  133.000    0.301    0.566   91.007    3.035    0.000
  133.250    0.283    0.553   91.632    3.211    0.000
  133.500    0.292    0.555   91.037    3.334    0.000
  133.750    0.286    0.555   96.520    3.397    0.000
  134.000    0.291    0.563   97.749    3.463    0.000
  134.250    0.302    0.582   95.342    3.529    0.000
  134.500    0.287    0.554   97.179    3.597    0.000
  134.750    0.288    0.544   98.407    3.599    0.000
  135.000    0.299    0.555   93.563    3.600    0.000
  135.250    0.281    0.554   91.154    3.344    0.000
  135.500    0.302    0.577   93.599    3.106    0.000
  135.750    0.320    0.605   95.437    2.939    0.000
  136.000    0.302    0.611   94.240    2.996    0.000
  136.250    0.292    0.567   91.825    3.111    0.000
  136.500    0.297    0.538   91.233    3.290    0.000
  136.750    0.297    0.538   92.465    3.416    0.000
  137.000    0.288    0.542   91.871    3.482    0.000
  137.250    0.283    0.546   94.317    3.752    0.000
  137.500    0.287    0.516   90.688    4.195    0.000
  137.750    0.238    0.447   77.952    4.781    0.000
  138.000    0.191    0.431   71.895    4.783    0.000
  138.250    0.269    0.492   74.948    4.785    0.000
  138.500    0.320    0.505   81.040    4.876    0.000
  138.750    0.324    0.494   78.627    5.159    0.000
  139.000    0.310    0.507   76.212    4.881    0.000
  139.250    0.329    0.517   77.442    4.450    0.000
  139.500    0.373    0.536   86.568    3.910    0.000
  139.750    0.299    0.540   94.478    3.631    0.000
  140.000    0.268    0.548   97.533    3.633    0.000
  140.250    0.272    0.559   91.474    4.139    0.000
  140.500    0.300    0.527   87.850    5.079    0.000
  140.750    0.314    0.514   87.864    6.233    0.000
  141.000    0.328    0.499   89.704    6.971    0.000
  141.250    0.326    0.490   91.540    7.238    0.000
  141.500    0.316    0.496   95.807    6.977    0.000
  141.750    0.295    0.512  100.073    6.603    0.000
  142.000    0.280    0.515  103.734    6.729    0.000
  142.250    0.267    0.511  102.534    7.667    0.000
  142.500    0.275    0.479  101.338    9.237    0.000
  142.750    0.298    0.472   98.922   10.139    0.000
  143.000    0.325    0.473   92.871   11.131    0.000
  143.250    0.332    0.466   92.882   11.345    0.000
  143.500    0.309    0.467  100.186   11.143    0.000
  143.750    0.302    0.473  104.455   10.740    0.000
  144.000    0.293    0.485  105.076   10.163    0.000
  144.250    0.280    0.474  106.309    9.439    0.000
  144.500    0.268    0.468  108.148    8.931    0.000
  144.750    0.262    0.469  107.555    8.452    0.000
  145.000    0.269    0.493  104.535    8.300    0.000
  145.250    0.276    0.473   94.227    8.778    0.000
  145.500    0.297    0.464   76.024   11.181    0.000
  145.750    0.314    0.445   68.752   12.978    0.000
  146.000    0.327    0.457   73.023   13.986    0.000
  146.250    0.317    0.466   80.933   14.522    0.000
  146.500    0.300    0.475   83.985   15.079    0.000
  146.750    0.300    0.469   77.321   15.655    0.000
  147.000    0.312    0.475   73.700   16.872    0.000
  147.250    0.333    0.464   73.711   17.194    0.000
  147.500    0.352    0.449   74.942   17.523    0.000
  147.750    0.357    0.446   75.568   17.859    0.000
  148.000    0.352    0.448   75.586   17.219    0.000
  148.250    0.345    0.465   75.595   16.910    0.000
  148.500    0.335    0.460   76.829   16.914    0.000
  148.750    0.329    0.456   77.451   17.563    0.000
  149.000    0.330    0.466   75.038   18.926    0.000
  149.250    0.351    0.482   70.802   20.019    0.000
  149.500    0.342    0.492   66.573   20.790    0.000
  149.750    0.330    0.489   65.372   21.188    0.000
  150.000    0.323    0.474   65.383   20.808    0.000
  150.250    0.346    0.459   65.400   20.058    0.000
  150.500    0.362    0.457   67.239   19.695    0.000
  150.750    0.343    0.483   70.296   19.704    0.000
  151.000    0.331    0.489   72.133   20.460    0.000
  151.250    0.325    0.489   69.108   20.857    0.000
  151.500    0.348    0.480   64.272   21.253    0.000
  151.750    0.359    0.482   66.716   21.265    0.000
  152.000    0.368    0.479   69.765   21.272    0.000
  152.250    0.364    0.473   70.387   20.893    0.000
  152.500    0.361    0.474   69.191   20.899    0.000
  152.750    0.360    0.469   74.068   20.524    0.000
  153.000    0.361    0.478   77.724   20.534    0.000
  153.250    0.363    0.504   82.602   19.795    0.000
  153.500    0.354    0.515   83.223   19.439    0.000
  153.750    0.346    0.521   83.845   19.091    0.000
  154.000    0.337    0.501   86.291   19.099    0.000
  154.250    0.331    0.447   85.095   19.107    0.000
  154.500    0.341    0.434   89.361   19.115    0.000
  154.750    0.356    0.436   91.805   19.124    0.000
  155.000    0.359    0.447   89.395   19.492    0.000
  155.250    0.343    0.481   86.982   19.142    0.000
  155.500    0.327    0.487   85.172   19.153    0.000
  155.750    0.321    0.492   82.765   19.518    0.000
  156.000    0.316    0.496   80.350   19.893    0.000
  156.250    0.325    0.468   76.719   20.277    0.000
  156.500    0.334    0.479   76.740   19.914    0.000
  156.750    0.312    0.462   76.754   19.554    0.000
  157.000    0.306    0.445   75.553   18.162    0.000
  157.250    0.311    0.471   80.433   15.955    0.000
  157.500    0.322    0.484   85.913   13.257    0.000
  157.750    0.307    0.526   93.214   10.038    0.000
  158.000    0.281    0.543  106.591    7.190    0.000
  158.250    0.256    0.562  110.857    5.344    0.000
  158.500    0.243    0.543  109.659    4.359    0.000
  158.750    0.218    0.550  108.463    3.901    0.000
  159.000    0.238    0.574  111.518    3.760    0.000
  159.250    0.252    0.591  110.318    3.692    0.000
  159.500    0.233    0.595  105.473    3.367    0.000
  159.750    0.243    0.602  101.241    3.013    0.000
  160.000    0.285    0.603  104.898    2.959    0.000
  160.250    0.310    0.588  104.307    3.130    0.000
  160.500    0.320    0.560   97.644    4.981    0.000
  160.750    0.314    0.497   85.512    8.863    0.000
  161.000    0.330    0.442   60.630   14.639    0.000
  161.250    0.309    0.433   46.679   20.458    0.000
