~VERSION INFORMATION
 VERS.                 2.0:   CWLS LOG ASCII STANDARD -VERSION 2.0
 WRAP.                  NO:   ONE LINE PER DEPTH STEP
~WELL INFORMATION BLOCK
#MNEM.UNIT           DATA                    DESCRIPTION OF MNEMONIC
#---------    -------------------            -------------------------------
# Generated from Intellog Unique Number	CS_77_79/WELL/3306
WELL.         N0RTHSTAR ENERGY CORP.         : Well_name    - WELL
LOC .         00/12-36-079-11W4/0            : Location     - LOCATION
UWI .         00/12-36-079-11W4/0            : Uwi          - UNIQUE WELL ID
ENTR.         JOETTE                         : Entered      - ENTERED BY
SRVC.         SCHLUMBERGER                   : Scn          - SERVICE COMPANY
DATE.         08/24/92                       : Date         - LOG DATE
STRT.M        255                            : top_depth    - START DEPTH
STOP.M        480                            : bot_depth    - STOP DEPTH
STEP.M        0.25                           : increment    - STEP LENGTH
 NULL. -999.2500:NULL Value
~CURVE INFORMATION BLOCK
#MNEM UNIT       ERCB CURVE CODE    CURVE DESCRIPTION
#-----------   ------------------   ----------------------------------
DEPT.M        00 001 00 00         : DEPTH        - DEPTH
GR  .API      00 310 00 00         : GR           - GAMMA RAY
NPHI.V/V      00 330 00 00         : PHIN         - NEUTRON POROSITY (SANDSTONE)
DPHI.V/V      00 890 00 00         : PHID         - DENSITY POROSITY (SANDSTONE)
ILD .OHMM     00 120 00 00         : RESD         - DEEP RESISTIVITY (DIL)
~PARAMETER INFORMATION
#MNEM.UNIT           DATA             DESCRIPTION OF MNEMONIC
#---------         -----------     ------------------------------
GL  .M        682.9                : gl           - GROUND LEVEL ELEVATION
EREF.M        686.3                : kb           - ELEVATION OF DEPTH REFERENCE
DATM.M        686.3                : datum        - DATUM ELEVATION
TDD .M        502                  : tdd          - TOTAL DEPTH DRILLER
RUN .         ONE                  : Run          - RUN NUMBER
ENG .         BILL                 : Engineer     - RECORDING ENGINEER
WIT .         JIM                  : Witness      - WITNESSED BY
MUD .         GEL                  : Mud_type     - MUD TYPE
MATR.         SANDSTONE            : Logunit      - NEUTRON MATRIX
TMAX.C        22                   : BHT          - MAXIMUM RECORDED TEMPERATURE
BHTD.M        502                  : BHTDEP       - MAXIMUM RECORDED TEMPERATURE
MATR.         5.5                  : LOGUNIT      - NEUTRON MATRIX
RMT .C        5.5                  : MDTP         - TEMPERATURE OF MUD
NEUT.         1                    : NEUTRON      - NEUTRON TYPE
RESI.         0                    : RESIST       - RESISTIVITY TYPE
RMC .OHMM     0.33                 : RMC          - RESISTIVITY OF MUD CAKE
RMF .OHMM     0.16                 : RMF          - RESISTIVITY OF MUD FILTRATE
SUFT.C        15                   : SUFT         - SURFACE TEMPERATURE
~A  DEPTH       GR     PHIN     PHID     RESD
# ...
  429.000   76.451    0.371    0.303   10.216
  429.250   75.865    0.377    0.300    8.804
  429.500   81.772    0.395    0.290    7.588
  429.750   87.088    0.406    0.280    6.537
  430.000   94.175    0.419    0.256    6.415
  430.250  103.622    0.430    0.242    6.653
  430.500  107.169    0.439    0.234    7.028
  430.750  110.124    0.448    0.229    7.291
  431.000  116.030    0.449    0.239    8.142
  431.250  117.215    0.436    0.240    8.764
  431.500  117.222    0.407    0.237    9.788
  431.750  116.636    0.390    0.232   10.733
  432.000  115.459    0.383    0.222   12.673
  432.250  113.103    0.391    0.250   15.243
  432.500  110.747    0.396    0.263   22.063
  432.750  106.030    0.398    0.290   24.183
  433.000   97.182    0.366    0.303   25.554
  433.250   77.121    0.345    0.316   23.720
  433.500   42.895    0.335    0.315   21.212
  433.750   45.261    0.321    0.296   19.689
  434.000   54.708    0.302    0.118   16.965
  434.250   67.106    0.306    0.155   16.343
  434.500   74.193    0.325    0.203   15.741
  434.750   74.788    0.340    0.229   15.444
  435.000   72.432    0.350    0.228   15.719
  435.250   75.978    0.361    0.228   15.715
  435.500   80.115    0.357    0.238   15.996
  435.750   81.300    0.343    0.236   16.290
  436.000   77.762    0.339    0.232   17.209
  436.250   48.848    0.341    0.316   18.182
  436.500   44.132    0.345    0.315   18.515
  436.750   47.088    0.352    0.306   18.163
  437.000   51.814    0.355    0.297   17.495
  437.250   58.312    0.358    0.288   16.237
  437.500   61.856    0.361    0.286   15.639
  437.750   65.992    0.363    0.291   14.784
  438.000   70.718    0.359    0.297   14.238
  438.250   67.181    0.357    0.292   13.970
  438.500   61.284    0.369    0.276   13.706
  438.750   56.568    0.401    0.311   13.952
  439.000   53.623    0.418    0.305   14.206
  439.250   57.167    0.415    0.295   14.465
  439.500   71.927    0.409    0.280   15.283
  439.750   76.062    0.398    0.287   16.757
  440.000   74.886    0.388    0.303   19.063
  440.250   58.367    0.383    0.312   20.903
  440.500   57.782    0.375    0.318   24.225
  440.750   66.639    0.363    0.302   27.060
  441.000   71.365    0.352    0.292   36.372
  441.250   57.795    0.365    0.298   41.383
  441.500   51.898    0.389    0.312   46.221
  441.750   44.821    0.392    0.327   53.572
  442.000   41.284    0.394    0.337   65.630
  442.250   40.108    0.387    0.335   69.341
  442.500   45.426    0.376    0.327   68.041
  442.750   50.741    0.370    0.325   60.854
  443.000   57.237    0.360    0.325   53.419
  443.250   64.324    0.360    0.325   49.586
  443.500   69.641    0.361    0.325   45.176
  443.750   66.104    0.371    0.326   33.570
  444.000   61.387    0.381    0.331   31.160
  444.250   56.670    0.375    0.337   27.354
  444.500   55.496    0.371    0.335   24.467
  444.750   56.682    0.369    0.329   21.084
  445.000   59.636    0.370    0.319   18.172
  445.250   63.182    0.376    0.309   15.661
  445.500   66.728    0.393    0.303   14.268
  445.750   72.044    0.394    0.299   12.297
  446.000   70.869    0.387    0.303   10.795
  446.250   66.743    0.393    0.313    9.479
  446.500   65.566    0.401    0.308    8.476
  446.750   71.472    0.390    0.295    8.015
  447.000   77.969    0.387    0.277    7.719
  447.250   76.794    0.387    0.257    7.573
  447.500   70.306    0.382    0.297    7.570
  447.750   52.015    0.378    0.309    7.705
  448.000   44.937    0.373    0.315    7.992
  448.250   47.893    0.365    0.303    8.137
  448.500   54.980    0.365    0.285    8.132
  448.750   70.920    0.371    0.254    7.831
  449.000   84.499    0.385    0.244    7.685
  449.250   93.356    0.396    0.226    7.001
  449.500   98.674    0.396    0.261    6.620
  449.750   94.546    0.391    0.267    6.259
  450.000   90.419    0.391    0.265    6.140
  450.250   90.424    0.394    0.256    6.251
  450.500   93.379    0.402    0.248    6.365
  450.750   98.697    0.408    0.239    6.724
  451.000  102.832    0.402    0.250    6.973
  451.250  106.378    0.392    0.262    7.233
  451.500  105.203    0.366    0.254    7.363
  451.750  102.256    0.354    0.217    7.499
  452.000   98.720    0.340    0.196    7.635
  452.250   96.954    0.336    0.128    7.918
  452.500  101.680    0.338    0.207    7.913
  452.750  101.686    0.349    0.209    7.909
  453.000   98.740    0.360    0.205    7.759
  453.250   95.793    0.368    0.196    7.614
  453.500   94.027    0.366    0.198    7.332
  453.750   94.032    0.367    0.206    7.195
  454.000   95.216    0.367    0.216    7.059
  454.250   94.630    0.368    0.211    6.924
  454.500   96.405    0.369    0.190    6.921
  454.750   99.361    0.379    0.179    6.918
  455.000   98.776    0.385    0.185    6.913
  455.250  100.551    0.382    0.200    6.907
  455.500  103.506    0.405    0.200    6.779
  455.750  102.921    0.376    0.192    6.775
  456.000   99.975    0.372    0.189    6.648
  456.250   97.029    0.374    0.189    6.644
  456.500   94.083    0.385    0.193    6.641
  456.750   92.907    0.392    0.199    6.636
  457.000   92.913    0.387    0.212    6.634
  457.250   91.147    0.386    0.221    6.628
  457.500   89.381    0.390    0.212    6.626
  457.750   91.746    0.396    0.203    6.622
  458.000   91.751    0.399    0.193    6.619
  458.250   91.165    0.388    0.191    6.993
  458.500   92.941    0.385    0.191    7.525
  458.750   95.306    0.389    0.192    7.664
  459.000   96.491    0.389    0.194    7.947
  459.250   94.725    0.386    0.199    7.943
  459.500   93.548    0.377    0.204    7.510
  459.750   90.013    0.373    0.222    7.233
  460.000   89.427    0.365    0.227    7.096
  460.250   90.022    0.366    0.218    7.091
  460.500   91.208    0.376    0.207    7.220
  460.750   92.983    0.380    0.199    7.488
  461.000   93.578    0.372    0.194    7.768
  461.250   94.763    0.365    0.192    8.055
  461.500   94.768    0.354    0.190    8.356
  461.750   92.411    0.347    0.201    8.827
  462.000   89.464    0.342    0.210    9.157
  462.250   85.929    0.340    0.204   10.038
  462.500   83.572    0.340    0.201   10.804
  462.750   82.396    0.340    0.201   11.628
  463.000   81.220    0.339    0.211   12.748
  463.250   80.636    0.339    0.287   13.470
  463.500   77.690    0.342    0.292   14.234
  463.750   72.972    0.349    0.295   15.320
  464.000   64.714    0.358    0.293   16.186
  464.250   54.095    0.365    0.287   17.419
  464.500   54.690    0.361    0.285   18.069
  464.750   50.563    0.387    0.310   13.182
  465.000   43.486    0.396    0.332   10.548
  465.250   46.443    0.371    0.317    9.609
  465.500   70.054    0.361    0.288    9.606
  465.750   78.321    0.363    0.276    9.252
  466.000   93.081    0.367    0.241    8.909
  466.250   97.808    0.372    0.208    8.906
  466.500   95.451    0.367    0.199    9.066
  466.750   90.144    0.360    0.206    9.230
  467.000   88.379    0.354    0.211    9.055
  467.250   88.975    0.349    0.206    9.050
  467.500   89.567    0.343    0.192    8.880
  467.750   89.572    0.338    0.191    8.552
  468.000   88.396    0.337    0.200    8.392
  468.250   86.040    0.335    0.209    8.081
  468.500   81.913    0.337    0.213    7.929
  468.750   75.427    0.342    0.208    7.780
  469.000   76.613    0.345    0.204    7.492
  469.250   78.388    0.348    0.202    7.351
  469.500   75.442    0.351    0.201    7.212
  469.750   72.496    0.353    0.201    7.208
  470.000   74.271    0.359    0.203    7.072
  470.250   79.586    0.366    0.200    7.069
  470.500   86.673    0.370    0.185    7.069
  470.750   90.809    0.374    0.173    7.191
  471.000   97.306    0.377    0.174    6.928
  471.250   99.671    0.373    0.177    6.923
  471.500  100.856    0.366    0.178    7.050
  471.750   99.091    0.363    0.179    7.044
  472.000   95.555    0.362    0.181    7.042
  472.250   93.197    0.367    0.196    7.037
