~VERSION INFORMATION
 VERS.                 2.0:   CWLS LOG ASCII STANDARD -VERSION 2.0
 WRAP.                  NO:   ONE LINE PER DEPTH STEP
~WELL INFORMATION BLOCK
#MNEM.UNIT           DATA                    DESCRIPTION OF MNEMONIC
#---------    -------------------            -------------------------------
# Generated from Intellog Unique Number	CN_94_101/WELL/2757
WELL.         PARAMOUNT LTD.                 : Well_name    - WELL
LOC .         00/10-03-094-21W4/0            : Location     - LOCATION
UWI .         00/10-03-094-21W4/0            : Uwi          - UNIQUE WELL ID
ENTR.         JOETTE                         : Entered      - ENTERED BY
SRVC.         COMPUTALOG                     : Scn          - SERVICE COMPANY
DATE.         07/03/92                       : Date         - LOG DATE
STRT.M        200                            : top_depth    - START DEPTH
STOP.M        364.25                         : bot_depth    - STOP DEPTH
STEP.M        0.25                           : increment    - STEP LENGTH
 NULL. -999.2500:NULL Value
~CURVE INFORMATION BLOCK
#MNEM UNIT       ERCB CURVE CODE    CURVE DESCRIPTION
#-----------   ------------------   ----------------------------------
DEPT.M        00 001 00 00         : DEPTH        - DEPTH
CALI.MM       00 280 01 00         : CAL          - CALIPER
GR  .API      00 310 00 00         : GR           - GAMMA RAY
NPHI.V/V      00 330 00 00         : PHIN         - NEUTRON POROSITY (SANDSTONE)
DPHI.V/V      00 890 00 00         : PHID         - DENSITY POROSITY (SANDSTONE)
ILD .OHMM     00 120 00 00         : RESD         - DEEP RESISTIVITY (DIL)
~PARAMETER INFORMATION
#MNEM.UNIT           DATA             DESCRIPTION OF MNEMONIC
#---------         -----------     ------------------------------
GL  .M        615.5                : gl           - GROUND LEVEL ELEVATION
EREF.M        618.8                : kb           - ELEVATION OF DEPTH REFERENCE
DATM.M        618.8                : datum        - DATUM ELEVATION
TDD .M        367                  : tdd          - TOTAL DEPTH DRILLER
RUN .         ONE                  : Run          - RUN NUMBER
ENG .         BILL                 : Engineer     - RECORDING ENGINEER
WIT .         JIM                  : Witness      - WITNESSED BY
MUD .         GEL                  : Mud_type     - MUD TYPE
MATR.         SANDSTONE            : Logunit      - NEUTRON MATRIX
TMAX.C        35                   : BHT          - MAXIMUM RECORDED TEMPERATURE
BHTD.M        367                  : BHTDEP       - MAXIMUM RECORDED TEMPERATURE
RMT .C        16                   : MDTP         - TEMPERATURE OF MUD
MUDD.KG/M     1120                 : MWT          - MUD DENSITY
NEUT.         1                    : NEUTRON      - NEUTRON TYPE
RESI.         0                    : RESIST       - RESISTIVITY TYPE
RM  .OHMM     5                    : RM           - RESISTIVITY OF MUD
RMC .OHMM     5                    : RMC          - RESISTIVITY OF MUD CAKE
RMF .OHMM     5                    : RMF          - RESISTIVITY OF MUD FILTRATE
SUFT.C        4                    : SUFT         - SURFACE TEMPERATURE
~A  DEPTH      CAL       GR     PHIN     PHID     RESD
  200.000  169.959  106.683    0.444    0.216    5.416
  200.250  165.982  104.299    0.429    0.210    5.409
  200.500  163.998  107.906    0.424    0.222    5.300
  200.750  163.017  110.315    0.442    0.230    5.194
  201.000  162.037  112.723    0.469    0.239    5.095
  201.250  163.059  112.734    0.470    0.246    4.991
  201.500  165.075  110.947    0.464    0.246    5.081
  201.750  167.091  105.564    0.459    0.244    8.213
  202.000  168.108   90.595    0.433    0.287   12.329
  202.250  168.126   78.015    0.411    0.332   18.852
  202.500  165.148   52.255    0.387    0.343   21.047
  202.750  163.164   33.686    0.356    0.326   23.928
  203.000  161.194   21.112    0.350    0.310   28.230
  203.250  163.201   19.325    0.345    0.310   29.792
  203.500  169.217   27.729    0.348    0.310   29.761
  203.750  170.230   30.734    0.349    0.304   29.163
  204.000  170.248   28.947    0.340    0.296   29.123
  204.250  164.273   21.766    0.320    0.288   30.744
  204.500  154.303   16.983    0.304    0.297   33.681
  204.750  147.334   13.398    0.316    0.310   35.544
  205.000  145.355   11.611    0.308    0.323   35.520
  205.250  144.369   11.022    0.297    0.328   34.168
  205.500  144.388   11.636    0.294    0.305   32.287
  205.750  146.413   13.444    0.316    0.288   29.379
  206.000  151.421   20.048    0.368    0.269   25.770
  206.250  158.432   39.837    0.402    0.269   22.197
  206.500  163.445   59.626    0.417    0.267   17.415
  206.750  166.460   69.825    0.406    0.261   14.185
  207.000  168.480   69.237    0.403    0.263   12.438
  207.250  168.499   63.854    0.401    0.281   11.969
  207.500  164.522   66.263    0.387    0.276   11.728
  207.750  160.549   65.075    0.374    0.273   11.079
  208.000  160.558   64.487    0.376    0.276   10.668
  208.250  162.575   72.289    0.382    0.293    9.529
  208.500  165.594   69.303    0.392    0.315    9.341
  208.750  166.611   62.722    0.404    0.347   10.046
  209.000  162.634   54.941    0.413    0.376   10.414
  209.250  158.657   51.359    0.411    0.393   10.594
  209.500  161.672   51.370    0.397    0.336   10.191
  209.750  164.687   59.173    0.385    0.285    9.100
  210.000  161.709   73.567    0.386    0.250    8.763
  210.250  158.726   79.572    0.397    0.239    7.974
  210.500  153.755   86.175    0.409    0.243    7.391
  210.750  152.770   90.382    0.421    0.247    7.115
  211.000  151.789   94.591    0.432    0.253    6.977
  211.250  152.807   95.201    0.437    0.248    6.965
  211.500  168.816   94.014    0.437    0.239    6.957
  211.750  169.829   97.621    0.429    0.234    7.205
  212.000  169.847   95.232    0.395    0.238    7.332
  212.250  167.872   95.842    0.389    0.245    7.596
  212.500  163.900   97.654    0.417    0.245    7.590
  212.750  161.916   90.470    0.426    0.220    7.580
  213.000  160.940   79.693    0.416    0.154    8.002
  213.250  160.949   78.506    0.427    0.175    8.927
  213.500  161.971   85.711    0.443    0.215    8.587
  213.750  161.985   90.514    0.443    0.231    8.269
  214.000  161.004   89.929    0.429    0.239    7.665
  214.250  158.026   86.344    0.418    0.249    7.514
  214.500  158.045   82.759    0.421    0.246    8.083
  214.750  164.061   79.174    0.419    0.153    9.537
  215.000  167.071   76.188    0.383    0.119   11.672
  215.250  172.084   59.415    0.364    0.101   13.275
  215.500  171.117   50.439    0.361    0.194   14.543
  215.750  170.132   52.246    0.377    0.221   14.794
  216.000  168.144   58.852    0.378    0.287   13.975
  216.250  163.177   69.651    0.373    0.261   13.448
  216.500  162.187   72.659    0.372    0.238   13.178
  216.750  163.204   75.070    0.377    0.228   14.172
  217.000  167.223   74.481    0.383    0.215   15.520
  217.250  171.237   72.095    0.379    0.198   15.799
  217.500  173.253   72.103    0.374    0.221   15.772
  217.750  173.276   78.108    0.367    0.256   15.466
  218.000  171.292   79.917    0.365    0.288   14.604
  218.250  169.317   77.530    0.380    0.288   14.579
  218.500  167.333   72.750    0.389    0.285   14.841
  218.750  166.362   69.761    0.384    0.281   15.662
  219.000  167.370   63.779    0.371    0.280   16.843
  219.250  168.387   60.799    0.371    0.282   18.114
  219.500  169.409   65.000    0.379    0.289   19.480
  219.750  170.427   67.408    0.390    0.294   19.823
  220.000  170.440   63.823    0.392    0.295   21.311
  220.250  170.468   61.437    0.383    0.288   22.085
  220.500  170.482   63.848    0.371    0.252   22.046
  220.750  170.496   59.062    0.355    0.198   22.031
  221.000  169.515   50.682    0.366    0.207   22.412
  221.250  166.546   42.902    0.386    0.247   27.430
  221.500  165.561   44.714    0.392    0.289   27.913
  221.750  164.580   47.724    0.391    0.311   27.363
  222.000  164.599   48.329    0.386    0.312   25.355
  222.250  164.617   48.340    0.381    0.306   24.407
  222.500  164.636   45.956    0.370    0.304   23.487
  222.750  165.648   41.775    0.362    0.302   23.032
  223.000  165.676   40.587    0.359    0.305   22.561
  223.250  165.690   41.200    0.367    0.311   22.538
  223.500  165.717   43.004    0.380    0.319   22.935
  223.750  164.732   47.812    0.387    0.323   23.332
  224.000  163.747   50.817    0.390    0.316   23.283
  224.250  163.770   46.636    0.388    0.304   23.259
  224.500  169.777   42.452    0.381    0.311   23.226
  224.750  174.794   43.658    0.369    0.321   23.194
  225.000  171.821   47.268    0.365    0.330   23.161
  225.250  169.832   44.280    0.375    0.334   23.562
  225.500  167.853   41.894    0.366    0.322   23.529
  225.750  169.869   40.706    0.359    0.303   23.057
  226.000  173.883   38.919    0.364    0.296   22.610
  226.250  173.901   36.533    0.374    0.307   21.749
  226.500  172.921   39.543    0.394    0.319   21.320
  226.750  172.944   43.747    0.398    0.330   21.283
  227.000  171.968   44.959    0.404    0.330   23.325
  227.250  171.982   40.772    0.405    0.311   25.562
  227.500  171.996   37.187    0.394    0.268   27.994
  227.750  172.014   35.400    0.372    0.248   29.000
  228.000  172.042   33.613    0.372    0.233   28.438
  228.250  172.055   31.227    0.376    0.303   27.887
  228.500  172.069   31.840    0.376    0.320   26.835
  228.750  172.092   33.646    0.375    0.318   25.823
  229.000  172.115   36.654    0.372    0.308   25.313
  229.250  173.123   40.264    0.366    0.306   25.260
  229.500  173.151   37.878    0.359    0.308   25.243
  229.750  168.179   34.892    0.348    0.312   25.670
  230.000  167.190   33.704    0.337    0.318   26.113
  230.250  168.207   34.315    0.350    0.321   26.565
  230.500  168.225   37.322    0.341    0.315   27.033
  230.750  167.245   39.731    0.343    0.308   27.995
  231.000  170.260   39.745    0.378    0.296   27.956
  231.250  176.272   37.355    0.356    0.308   28.429
  231.500  180.285   33.174    0.350    0.310   28.409
  231.750  177.312   30.788    0.362    0.298   28.910
  232.000  173.335   30.200    0.377    0.298   29.410
  232.250  168.359   29.012    0.389    0.319   29.359
  232.500  164.382   27.824    0.376    0.337   28.770
  232.750  160.404   29.631    0.354    0.325   28.212
  233.000  163.419   33.237    0.344    0.316   25.671
  233.250  165.436   37.447    0.340    0.322   24.266
  233.500  166.453   41.051    0.339    0.333   21.675
  233.750  163.475   46.456    0.340    0.348   19.355
  234.000  159.497   51.861    0.349    0.348   18.637
  234.250  165.509   44.081    0.346    0.323   18.264
  234.500  170.517   39.902    0.342    0.320   18.244
  234.750  173.537   38.709    0.338    0.314   19.620
  235.000  172.556   37.521    0.339    0.315   21.480
  235.250  169.574   37.538    0.356    0.334   21.859
  235.500  165.597   40.542    0.379    0.364   21.828
  235.750  164.616   42.954    0.343    0.344   21.398
  236.000  164.639   36.969    0.316    0.334   23.011
  236.250  163.663   28.589    0.304    0.309   25.218
