~VERSION INFORMATION
 VERS.                 2.0:   CWLS LOG ASCII STANDARD -VERSION 2.0
 WRAP.                  NO:   ONE LINE PER DEPTH STEP
~WELL INFORMATION BLOCK
#MNEM.UNIT           DATA                    DESCRIPTION OF MNEMONIC
#---------    -------------------            -------------------------------
# Generated from Intellog Unique Number	CW_82_90/WELL/1034
WELL.         14-09-083-23W4                 : Well_name    - WELL
LOC .         00/14-09-083-23W4/0            : Location     - LOCATION
UWI .         00/14-09-083-23W4/0            : Uwi          - UNIQUE WELL ID
ENTR.         JAYE                           : Entered      - ENTERED BY
SRVC.         SCHLUMBERGER                   : Scn          - SERVICE COMPANY
DATE.         05 FEB 86                      : Date         - LOG DATE
STRT.M        225                            : top_depth    - START DEPTH
STOP.M        435                            : bot_depth    - STOP DEPTH
STEP.M        0.25                           : increment    - STEP LENGTH
 NULL. -999.2500:NULL Value
~CURVE INFORMATION BLOCK
#MNEM UNIT       ERCB CURVE CODE    CURVE DESCRIPTION
#-----------   ------------------   ----------------------------------
DEPT.M        00 001 00 00         : DEPTH        - DEPTH
CALI.MM       00 280 01 00         : CAL          - CALIPER
GR  .API      00 310 00 00         : GR           - GAMMA RAY
NPHI.V/V      00 330 00 00         : PHIN         - NEUTRON POROSITY (SANDSTONE)
DPHI.V/V      00 890 00 00         : PHID         - DENSITY POROSITY (SANDSTONE)
ILD .OHMM     00 120 00 00         : RESD         - DEEP RESISTIVITY (DIL)
~PARAMETER INFORMATION
#MNEM.UNIT           DATA             DESCRIPTION OF MNEMONIC
#---------         -----------     ------------------------------
GL  .M        597.8                : gl           - GROUND LEVEL ELEVATION
EREF.M        601.4                : kb           - ELEVATION OF DEPTH REFERENCE
DATM.M        597.8                : datum        - DATUM ELEVATION
TDD .M        437                  : tdd          - TOTAL DEPTH DRILLER
RUN .         ONE                  : Run          - RUN NUMBER
ENG .         PATTERSON            : Engineer     - RECORDING ENGINEER
WIT .         WHALLEY              : Witness      - WITNESSED BY
BASE.         RD                   : Branch       - HOME BASE OF LOGGING UNIT
MUD .         GEL CHEM             : Mud_type     - MUD TYPE
MATR.         SANDSTONE            : Logunit      - NEUTRON MATRIX
TMAX.C        20                   : BHT          - MAXIMUM RECORDED TEMPERATURE
BHTD.M        437                  : BHTDEP       - MAXIMUM RECORDED TEMPERATURE
RMT .C        12                   : MDTP         - TEMPERATURE OF MUD
MUDD.KG/M     1080                 : MWT          - MUD DENSITY
NEUT.         1                    : NEUTRON      - NEUTRON TYPE
RESI.         0                    : RESIST       - RESISTIVITY TYPE
RM  .OHMM     3.55                 : RM           - RESISTIVITY OF MUD
RMC .OHMM     0                    : RMC          - RESISTIVITY OF MUD CAKE
RMF .OHMM     3.19                 : RMF          - RESISTIVITY OF MUD FILTRATE
SUFT.C        0                    : SUFT         - SURFACE TEMPERATURE
~A  DEPTH      CAL       GR     PHIN     PHID     RESD
  225.000  256.966   89.088    0.516    0.260    3.183
  225.250  253.399   89.916    0.514    0.264    3.179
  225.500  251.068   83.503    0.503    0.265    3.158
  225.750  248.532   68.733    0.446    0.256    3.926
  226.000  247.447   64.919    0.460    0.246    4.675
  226.250  246.139   71.878    0.467    0.245    5.046
  226.500  244.335   85.034    0.445    0.270    5.396
  226.750  243.340   89.573    0.457    0.284    5.589
  227.000  243.480   91.710    0.485    0.270    5.976
  227.250  244.553   89.438    0.495    0.274    7.008
  227.500  245.632   76.400    0.475    0.298    8.913
  227.750  246.092   55.873    0.452    0.329   16.117
  228.000  246.849   46.430    0.449    0.335   23.385
  228.250  246.894   46.702    0.455    0.337   28.855
  228.500  246.736   46.667    0.478    0.341   34.876
  228.750  246.254   44.771    0.485    0.337   40.060
  229.000  246.294   44.239    0.472    0.335   44.151
  229.250  246.348   45.877    0.450    0.333   47.034
  229.500  246.489   48.133    0.440    0.337   49.359
  229.750  247.142   49.575    0.443    0.340   50.640
  230.000  247.194   49.601    0.445    0.341   51.463
  230.250  247.240   42.815    0.444    0.338   52.208
  230.500  247.165   42.407    0.479    0.331   51.978
  230.750  247.320   42.434    0.515    0.325   51.359
  231.000  247.364   40.541    0.476    0.332   50.640
  231.250  247.308   40.691    0.455    0.341   48.733
  231.500  247.440   39.849    0.458    0.349   45.249
  231.750  247.173   41.861    0.475    0.361   42.730
  232.000  246.807   42.313    0.472    0.371   39.678
  232.250  247.572   38.810    0.429    0.364   36.152
  232.500  248.230   37.540    0.436    0.343   32.942
  232.750  248.276   39.479    0.485    0.338   28.852
  233.000  248.211   41.117    0.524    0.334   27.193
  233.250  248.255   40.891    0.478    0.346   26.172
  233.500  246.853   38.691    0.501    0.373   25.857
  233.750  245.661   38.283    0.532    0.382   25.940
  234.000  246.008   39.856    0.572    0.372   26.062
  234.250  248.120   40.315    0.556    0.361   26.693
  234.500  249.496   40.277    0.485    0.355   27.491
  234.750  250.883   40.548    0.481    0.352   28.146
  235.000  251.231   41.379    0.458    0.352   28.878
  235.250  251.278   42.459    0.439    0.347   29.181
  235.500  251.422   45.458    0.433    0.346   29.382
  235.750  251.782   48.516    0.454    0.344   29.140
  236.000  251.782   48.227    0.462    0.345   29.171
  236.250  251.363   48.876    0.452    0.353   29.882
  236.500  251.277   51.750    0.476    0.365   30.365
  236.750  251.213   50.597    0.491    0.373   30.630
  237.000  251.052   48.700    0.504    0.377   30.955
  237.250  251.623   46.004    0.496    0.374   31.282
  237.500  252.070   43.554    0.480    0.368   31.738
  237.750  252.209   41.534    0.478    0.355   32.127
  238.000  252.677   40.260    0.488    0.350   32.715
  238.250  252.624   38.925    0.501    0.351   33.311
  238.500  252.548   36.782    0.488    0.354   33.671
  238.750  252.392   35.505    0.482    0.358   33.832
  239.000  252.115   35.967    0.491    0.360   33.996
  239.250  252.115   37.355    0.499    0.360   34.621
  239.500  252.224   38.618    0.480    0.360   34.991
  239.750  252.136   39.077    0.471    0.361   35.099
  240.000  252.177   39.045    0.493    0.364   35.268
  240.250  251.823   38.570    0.495    0.368   35.177
  240.500  251.823   37.664    0.479    0.364   34.816
  240.750  251.823   35.647    0.477    0.356   34.271
  241.000  251.237   36.046    0.462    0.355   33.483
  241.250  251.045   36.626    0.475    0.359   33.020
  241.500  250.166   35.604    0.495    0.362   32.568
  241.750  256.198   35.563    0.465    0.359   32.051
  242.000  251.388   38.063    0.449    0.355   31.321
  242.250  251.526   40.817    0.484    0.357   30.998
  242.500  250.745   41.461    0.511    0.361   30.572
  242.750  249.964   40.864    0.509    0.364   30.206
  243.000  249.491   39.901    0.491    0.366   30.013
  243.250  249.641   39.617    0.460    0.357   30.043
  243.500  250.300   39.460    0.444    0.347   29.970
  243.750  250.546   39.296    0.443    0.345   29.718
  244.000  251.409   39.633    0.455    0.346   29.143
  244.250  251.865   39.468    0.468    0.348   28.790
  244.500  252.008   38.567    0.465    0.349   28.396
  244.750  251.953   39.459    0.475    0.351   28.107
  245.000  251.788   40.540    0.481    0.353   27.874
  245.250  251.414   41.120    0.469    0.354   27.855
  245.500  250.320   41.456    0.463    0.351   28.365
  245.750  249.647   41.238    0.451    0.340   31.380
  246.000  249.480   41.136    0.414    0.292   32.928
  246.250  249.107   41.164    0.406    0.190   33.029
  246.500  249.562   41.553    0.436    0.088   32.450
  246.750  251.261   43.376    0.457    0.106   31.818
  247.000  252.748   44.270    0.461    0.267   31.027
  247.250  253.508   42.809    0.464    0.329   30.195
  247.500  254.789   42.338    0.470    0.331   29.280
  247.750  255.138   45.460    0.461    0.323   28.709
  248.000  255.083   48.889    0.464    0.319   27.942
  248.250  254.706   51.203    0.489    0.328   27.245
  248.500  253.826   50.301    0.491    0.337   25.688
  248.750  252.937   46.983    0.470    0.339   24.807
  249.000  251.324   46.141    0.450    0.330   23.827
  249.250  249.620   49.138    0.477    0.303   23.190
  249.500  249.558   50.897    0.498    0.298   21.942
  249.750  252.182   49.993    0.490    0.307   19.955
  250.000  254.290   49.710    0.476    0.322   15.816
  250.250  255.146   58.217    0.485    0.344    9.595
  250.500  255.291   69.322    0.532    0.301    6.359
  250.750  253.375   80.492    0.523    0.275    4.090
  251.000  250.321   87.265    0.530    0.258    3.776
  251.250  245.616   86.486    0.546    0.261    3.809
  251.500  244.939   74.007    0.547    0.271    4.096
  251.750  246.534   64.559    0.488    0.262    4.617
  252.000  247.809   63.781    0.459    0.269    5.324
  252.250  248.371   71.605    0.454    0.327    6.257
  252.500  247.686   81.597    0.456    0.325    6.740
  252.750  245.457   72.893    0.460    0.298    7.167
  253.000  242.201   63.447    0.471    0.284    7.945
  253.250  239.866   51.772    0.493    0.273    8.988
  253.500  237.854   53.470    0.506    0.326   10.660
  253.750  237.683   57.457    0.439    0.355   13.129
  254.000  240.206   57.485    0.431    0.335   15.749
  254.250  243.146   55.096    0.438    0.319   18.470
  254.500  244.412   53.136    0.458    0.324   21.783
  254.750  244.974   53.843    0.444    0.342   23.559
  255.000  242.950   54.366    0.435    0.362   24.080
  255.250  233.911   52.657    0.442    0.384   24.518
  255.500  231.584   51.385    0.432    0.382   24.685
  255.750  236.069   51.283    0.424    0.350   24.946
  256.000  240.025   50.568    0.425    0.337   25.548
  256.250  241.922   50.095    0.426    0.342   25.965
  256.500  242.480   54.950    0.419    0.349   26.440
  256.750  248.508   58.998    0.418    0.350   26.922
  257.000  251.338   58.345    0.448    0.349   27.360
  257.250  252.105   53.044    0.444    0.344   27.756
  257.500  251.421   48.428    0.446    0.332   28.210
  257.750  251.471   50.126    0.445    0.331   28.459
  258.000  251.097   52.567    0.447    0.336   28.595
  258.250  251.347   54.143    0.449    0.338   28.304
  258.500  251.394   54.657    0.429    0.341   27.707
  258.750  251.425   54.438    0.416    0.349   27.116
  259.000  252.086   53.595    0.415    0.349   26.344
  259.250  252.445   51.267    0.424    0.348   25.543
  259.500  252.790   49.435    0.438    0.352   24.723
  259.750  252.935   52.557    0.447    0.356   24.332
  260.000  253.081   54.685    0.444    0.360   24.177
  260.250  252.820   52.606    0.448    0.359   24.664
  260.500  252.757   52.631    0.458    0.357   25.307
  260.750  252.381   56.005    0.457    0.353   25.673
  261.000  252.013   55.161    0.441    0.351   25.799
  261.250  251.336   54.259    0.436    0.349   25.677
