~VERSION INFORMATION
 VERS.                 2.0:   CWLS LOG ASCII STANDARD -VERSION 2.0
 WRAP.                  NO:   ONE LINE PER DEPTH STEP
~WELL INFORMATION BLOCK
#MNEM.UNIT           DATA                    DESCRIPTION OF MNEMONIC
#---------    -------------------            -------------------------------
# Generated from Intellog Unique Number	CW_82_90/WELL/3077
WELL.         TEXEX WABASCA 11-19            : Well_name    - WELL
LOC .         00/11-19-085-22W4/0            : Location     - LOCATION
UWI .         00/11-19-085-22W4/0            : Uwi          - UNIQUE WELL ID
ENTR.         JAYE                           : Entered      - ENTERED BY
SRVC.         WESTERN ATLAS                  : Scn          - SERVICE COMPANY
DATE.         23 FEB 75                      : Date         - LOG DATE
STRT.M        152.4                          : top_depth    - START DEPTH
STOP.M        353.65                         : bot_depth    - STOP DEPTH
STEP.M        0.25                           : increment    - STEP LENGTH
 NULL. -999.2500:NULL Value
~CURVE INFORMATION BLOCK
#MNEM UNIT       ERCB CURVE CODE    CURVE DESCRIPTION
#-----------   ------------------   ----------------------------------
DEPT.M        00 001 00 00         : DEPTH        - DEPTH
CALI.MM       00 280 01 00         : CAL          - CALIPER
GR  .API      00 310 00 00         : GR           - GAMMA RAY
NPHI.V/V      00 330 00 00         : PHIN         - NEUTRON POROSITY (SANDSTONE)
DPHI.V/V      00 890 00 00         : PHID         - DENSITY POROSITY (SANDSTONE)
ILD .OHMM     00 120 00 00         : RESD         - DEEP RESISTIVITY (DIL)
~PARAMETER INFORMATION
#MNEM.UNIT           DATA             DESCRIPTION OF MNEMONIC
#---------         -----------     ------------------------------
GL  .M        559.399              : gl           - GROUND LEVEL ELEVATION
EREF.M        562.356              : kb           - ELEVATION OF DEPTH REFERENCE
DATM.M        559.399              : datum        - DATUM ELEVATION
TDD .M        354.482              : tdd          - TOTAL DEPTH DRILLER
RUN .         ONE                  : Run          - RUN NUMBER
ENG .         FAYE                 : Engineer     - RECORDING ENGINEER
WIT .         McDOUGAL             : Witness      - WITNESSED BY
BASE.         EDMONTON             : Branch       - HOME BASE OF LOGGING UNIT
MUD .         MUD GEL              : Mud_type     - MUD TYPE
MATR.         SANDSTONE            : Logunit      - NEUTRON MATRIX
TMAX.C        25.5556              : BHT          - MAXIMUM RECORDED TEMPERATURE
BHTD.M        354.482              : BHTDEP       - MAXIMUM RECORDED TEMPERATURE
RMT .C        15.5556              : MDTP         - TEMPERATURE OF MUD
MUDD.KG/M     9000                 : MWT          - MUD DENSITY
NEUT.         1                    : NEUTRON      - NEUTRON TYPE
RESI.         0                    : RESIST       - RESISTIVITY TYPE
RM  .OHMM     8.8                  : RM           - RESISTIVITY OF MUD
RMC .OHMM     0                    : RMC          - RESISTIVITY OF MUD CAKE
RMF .OHMM     0                    : RMF          - RESISTIVITY OF MUD FILTRATE
SUFT.C        4                    : SUFT         - SURFACE TEMPERATURE
~A  DEPTH      CAL       GR     PHIN     PHID     RESD
# ...
  261.900  249.455   55.226    0.506    0.265   11.339
  262.150  251.133   55.910    0.498    0.273   10.963
  262.400  252.497   56.285    0.510    0.273   10.679
  262.650  253.862   56.413    0.488    0.269   10.422
  262.900  254.913   57.591    0.468    0.254   10.039
  263.150  255.754   57.162    0.447    0.254    9.725
  263.400  256.385   53.707    0.438    0.252    9.597
  263.650  256.077   50.622    0.429    0.255    9.701
  263.900  253.781   48.711    0.420    0.257    9.971
  264.150  251.591   47.727    0.409    0.248   10.289
  264.400  250.444   46.125    0.399    0.180   11.998
  264.650  250.135   45.203    0.393    0.148   14.252
  264.900  250.140   45.639    0.394    0.160   17.183
  265.150  250.042   45.891    0.398    0.213   18.466
  265.400  250.151   46.142    0.404    0.231   18.257
  265.650  250.155   46.270    0.406    0.220   17.490
  265.900  250.473   45.841    0.411    0.183   16.569
  266.150  251.001   45.969    0.415    0.152   16.259
  266.400  251.528   46.838    0.422    0.145   16.342
  266.650  252.683   47.892    0.430    0.191   16.247
  266.900  253.525   50.122    0.437    0.220   16.244
  267.150  254.889   49.693    0.449    0.212   16.091
  267.400  256.987   44.075    0.457    0.233   15.357
  267.650  259.503   42.844    0.467    0.263   13.736
  267.900  260.028   44.330    0.487    0.284   11.707
  268.150  261.601   47.053    0.519    0.287   10.647
  268.400  262.965   48.787    0.517    0.287    8.135
  268.650  265.795   52.992    0.515    0.274    6.985
  268.900  267.052   53.429    0.515    0.263    7.140
  269.150  268.836   52.568    0.519    0.261    6.814
  269.400  269.781   48.804    0.528    0.254    7.109
  269.650  271.253   47.758    0.526    0.240    7.827
  269.900  271.464   48.318    0.503    0.245    8.521
  270.150  271.468   48.632    0.487    0.247    8.503
  270.400  271.468   50.674    0.472    0.245    8.267
  270.650  268.763   55.621    0.460    0.224    8.250
  270.900  269.287   57.355    0.454    0.206    8.449
  271.150  268.664   53.838    0.451    0.196    8.831
  271.400  267.415   52.544    0.446    0.221    9.420
  271.650  265.433   52.610    0.443    0.251    9.719
  271.900  262.301   54.221    0.448    0.250    9.771
  272.150  259.901   57.068    0.447    0.246    9.696
  272.400  257.290   57.689    0.440    0.248    9.874
  272.650  253.635   56.828    0.433    0.258   10.301
  272.900  250.398   54.547    0.426    0.116   10.787
  273.150  247.371   55.045    0.420    0.138   11.359
  273.400  245.180   55.112    0.412    0.164   11.894
  273.650  243.511   55.856    0.402    0.203   12.456
  273.900  240.380   55.799    0.392    0.208   13.140
  274.150  238.501   53.580    0.386    0.200   13.760
  274.400  236.101   51.792    0.384    0.205   14.489
  274.650  232.864   47.967    0.386    0.192   15.658
  274.900  230.465   46.920    0.389    0.122   17.016
  275.150  228.795   43.526    0.398    0.077   19.550
  275.400  224.931   39.144    0.408    0.106   24.553
  275.650  223.890   38.902    0.417    0.169   28.951
  275.900  220.863   39.770    0.425    0.281   28.515
  276.150  220.660   40.269    0.425    0.300   27.674
  276.400  221.500   41.385    0.424    0.264   25.735
  276.650  224.537   43.428    0.421    0.231   24.022
  276.900  227.052   44.729    0.423    0.188   21.646
  277.150  228.102   46.525    0.452    0.289   19.541
  277.400  228.735   48.383    0.455    0.261   17.674
  277.650  228.635   56.357    0.451    0.242   15.517
  277.900  228.326   58.214    0.439    0.239   13.853
  278.150  228.017   55.438    0.422    0.213   13.345
  278.400  227.185   48.523    0.414    0.094   13.390
  278.650  226.459   43.030    0.411    0.122   13.739
  278.900  225.940   44.269    0.406    0.246   14.227
  279.150  224.795   51.193    0.402    0.245   13.988
  279.400  224.381   51.629    0.400    0.245   13.575
  279.650  223.863   48.482    0.389    0.236   13.773
  279.900  222.822   42.370    0.374    0.190   14.158
  280.150  222.829   40.645    0.362    0.050   15.272
  280.400  223.041   42.688    0.352    0.095   16.082
  280.650  224.196   44.298    0.349    0.125   17.509
  280.900  225.038   47.392    0.351    0.215   18.713
  281.150  225.774   47.272    0.389    0.184   20.037
  281.400  226.931   44.558    0.382    0.124   21.694
  281.650  227.248   45.798    0.377    0.135   23.227
  281.900  228.090   46.111    0.375    0.172   23.742
  282.150  228.826   44.941    0.379    0.198   23.736
  282.400  230.086   46.615    0.410    0.167   22.823
  282.650  231.450   46.804    0.433    0.180   20.451
  282.900  232.918   47.550    0.453    0.234   17.823
  283.150  235.433   47.739    0.473    0.232   17.043
  283.400  237.843   47.557    0.541    0.201   16.755
  283.650  241.194   47.747    0.554    0.165   16.719
  283.900  243.395   45.095    0.558    0.139   16.559
  284.150  246.014   47.941    0.561    0.224   16.342
  284.400  247.901   51.096    0.566    0.234   15.919
  284.650  250.102   50.482    0.580    0.216   15.079
  284.900  251.780   53.266    0.587    0.232   14.581
  285.150  252.307   51.294    0.567    0.239   14.098
  285.400  252.730   51.484    0.469    0.234   13.657
  285.650  254.304   51.734    0.462    0.219   13.377
  285.900  255.041   49.576    0.463    0.216   13.225
  286.150  255.359   51.435    0.472    0.227   13.197
  286.400  255.050   52.118    0.468    0.204   13.267
  286.650  254.532   51.320    0.468    0.207   13.486
  286.900  254.119   50.706    0.487    0.222   13.837
  287.150  253.915   48.733    0.512    0.215   14.462
  287.400  253.605   49.787    0.531    0.190   14.948
  287.650  252.250   48.926    0.560    0.187   15.028
  287.900  251.732   51.525    0.579    0.232   14.883
  288.150  251.215   56.410    0.581    0.231   14.934
  288.400  251.220   56.106    0.544    0.199   14.929
  288.650  250.597   56.481    0.506    0.162   14.708
  288.900  248.719   57.227    0.477    0.215   14.036
  289.150  248.306   57.108    0.475    0.231   13.673
  289.400  247.788   53.713    0.502    0.220   13.294
  289.650  246.851   55.262    0.509    0.211   13.119
  289.900  246.647   53.351    0.511    0.171   13.042
  290.150  246.757   54.035    0.515    0.119   13.063
  290.400  246.656   52.680    0.519    0.153   13.552
  290.650  246.661   52.189    0.517    0.157   13.982
  290.900  246.144   53.368    0.505    0.197   14.213
  291.150  245.416   49.356    0.485    0.219   14.000
  291.400  245.631   51.523    0.489    0.180   13.561
  291.650  246.472   51.650    0.497    0.090   13.186
  291.900  247.104   45.477    0.498    0.101   13.207
  292.150  247.528   48.385    0.488    0.231   13.549
  292.400  247.637   55.617    0.457    0.235   13.622
  292.650  247.851   56.919    0.458    0.230   13.617
  292.900  248.274   55.379    0.459    0.227   13.589
  293.150  248.489   55.444    0.468    0.225   13.508
  293.400  248.807   55.140    0.470    0.221   13.431
  293.650  249.124   54.033    0.463    0.219   13.277
  293.900  248.710   53.851    0.438    0.204   13.006
  294.150  248.401   54.967    0.428    0.173   12.390
  294.400  247.779   55.095    0.424    0.177   11.586
  294.650  246.842   54.296    0.422    0.136   11.244
  294.900  246.116   53.436    0.420    0.141   11.241
  295.150  245.493   52.761    0.419    0.222   11.363
  295.400  244.766   53.258    0.429    0.245   11.790
  295.650  245.294   54.807    0.429    0.247   12.789
  295.900  245.821   55.862    0.427    0.245   13.949
  296.150  245.303   56.360    0.423    0.241   14.743
  296.400  241.648   53.831    0.417    0.211   15.640
  296.650  241.548   52.909    0.414    0.117   16.439
  296.900  241.973   52.789    0.414    0.093   16.896
  297.150  242.081   56.068    0.415    0.181   17.176
  297.400  242.190   57.617    0.418    0.215   17.621
  297.650  242.195   55.706    0.421    0.227   17.881
  297.900  242.409   54.289    0.422    0.233   17.353
  298.150  242.518   56.764    0.421    0.241   16.471
