~VERSION INFORMATION
 VERS.                 2.0:   CWLS LOG ASCII STANDARD -VERSION 2.0
 WRAP.                  NO:   ONE LINE PER DEPTH STEP
~WELL INFORMATION BLOCK
#MNEM.UNIT           DATA                    DESCRIPTION OF MNEMONIC
#---------    -------------------            -------------------------------
# Generated from Intellog Unique Number	CS_71_72/WELL/897
WELL.         AMOCO AEC IPAITIK              : Well_name    - WELL
LOC .         00/11-15-072-04W4/0            : Location     - LOCATION
UWI .         00/11-15-072-04W4/0            : Uwi          - UNIQUE WELL ID
ENTR.         SP                             : Entered      - ENTERED BY
SRVC.         SCHLUMBERGER                   : Scn          - SERVICE COMPANY
STRT.M        305                            : top_depth    - START DEPTH
STOP.M        500                            : bot_depth    - STOP DEPTH
STEP.M        0.25                           : increment    - STEP LENGTH
 NULL. -999.2500:NULL Value
~CURVE INFORMATION BLOCK
#MNEM UNIT       ERCB CURVE CODE    CURVE DESCRIPTION
#-----------   ------------------   ----------------------------------
DEPT.M        00 001 00 00         : DEPTH        - DEPTH
DPHI.V/V      00 890 00 00         : PHID         - DENSITY POROSITY (LIMESTONE)
NPHI.V/V      00 330 00 00         : PHIN         - NEUTRON POROSITY (LIMESTONE)
GR  .API      00 310 00 00         : GR           - GAMMA RAY
ILD .OHMM     00 120 00 00         : RESD         - DEEP RESISTIVITY (DIL)
~PARAMETER INFORMATION
#MNEM.UNIT           DATA             DESCRIPTION OF MNEMONIC
#---------         -----------     ------------------------------
GL  .M        680.6                : gl           - GROUND LEVEL ELEVATION
EREF.M        685.31               : kb           - ELEVATION OF DEPTH REFERENCE
DATM.M        680.6                : datum        - DATUM ELEVATION
TDD .M        524                  : tdd          - TOTAL DEPTH DRILLER
RUN .         ONE                  : Run          - RUN NUMBER
ENG .         BILL                 : Engineer     - RECORDING ENGINEER
WIT .         JIM                  : Witness      - WITNESSED BY
MUD .         GEL                  : Mud_type     - MUD TYPE
MATR.         LIMESTONE            : Logunit      - NEUTRON MATRIX
TMAX.C        25                   : BHT          - MAXIMUM RECORDED TEMPERATURE
BHTD.M        524                  : BHTDEP       - MAXIMUM RECORDED TEMPERATURE
MATR.         1                    : LOGUNIT      - NEUTRON MATRIX
RMT .C        25                   : MDTP         - TEMPERATURE OF MUD
NEUT.         1                    : NEUTRON      - NEUTRON TYPE
RESI.         0                    : RESIST       - RESISTIVITY TYPE
RMC .OHMM     0.25                 : RMC          - RESISTIVITY OF MUD CAKE
RMF .OHMM     0.25                 : RMF          - RESISTIVITY OF MUD FILTRATE
SUFT.C        15                   : SUFT         - SURFACE TEMPERATURE
~A  DEPTH     PHID     PHIN       GR     RESD
# ...
  348.500    0.280    0.442   78.976    4.372
  348.750    0.274    0.450   79.593    4.371
  349.000    0.281    0.471   77.187    4.371
  349.250    0.285    0.459   74.782    4.452
  349.500    0.278    0.441   76.003    4.451
  349.750    0.275    0.436   79.647    4.451
  350.000    0.274    0.440   80.260    4.450
  350.250    0.267    0.442   77.253    4.368
  350.500    0.270    0.447   75.445    4.208
  350.750    0.291    0.451   70.018    4.208
  351.000    0.309    0.458   68.211    4.130
  351.250    0.309    0.465   65.199    4.054
  351.500    0.304    0.481   63.398    4.053
  351.750    0.303    0.482   65.224    4.053
  352.000    0.303    0.478   65.236    3.978
  352.250    0.302    0.479   64.644    3.977
  352.500    0.299    0.472   65.869    3.976
  352.750    0.296    0.462   65.880    3.903
  353.000    0.279    0.454   65.288    3.975
  353.250    0.254    0.467   61.673    4.202
  353.500    0.162    0.479   56.849    4.783
  353.750    0.038    0.231   55.041    5.755
  354.000    0.044    0.218   52.028    6.430
  354.250    0.118    0.230   53.860    6.924
  354.500    0.195    0.324   56.894    5.753
  354.750    0.239    0.426   60.540    4.438
  355.000    0.304    0.474   61.151    3.756
  355.250    0.330    0.485   59.350    3.239
  355.500    0.333    0.474   58.155    3.007
  355.750    0.333    0.461   58.768    2.844
  356.000    0.333    0.449   61.202    2.740
  356.250    0.333    0.445   63.638    2.740
  356.500    0.334    0.456   64.855    2.689
  356.750    0.334    0.490   64.267    2.640
  357.000    0.329    0.509   64.880    2.591
  357.250    0.325    0.502   66.103    2.590
  357.500    0.322    0.477   63.695    2.590
  357.750    0.320    0.478   62.495    2.590
  358.000    0.333    0.495   63.117    2.589
  358.250    0.336    0.506   62.521    2.541
  358.500    0.326    0.501   59.514    2.541
  358.750    0.324    0.479   60.738    2.540
  359.000    0.324    0.473   62.562    2.494
  359.250    0.323    0.469   63.781    2.493
  359.500    0.314    0.482   65.609    2.493
  359.750    0.307    0.497   67.433    2.493
  360.000    0.306    0.497   69.265    2.402
  360.250    0.305    0.480   68.668    2.272
  360.500    0.319    0.465   65.053    2.148
  360.750    0.330    0.453   64.461    2.032
  361.000    0.319    0.447   65.687    1.995
  361.250    0.310    0.458   66.298    1.958
  361.500    0.304    0.454   67.521    1.957
  361.750    0.300    0.469   62.697    1.957
  362.000    0.302    0.476   57.266    1.921
  362.250    0.313    0.456   53.043    1.851
  362.500    0.322    0.440   50.029    1.783
  362.750    0.319    0.443   48.226    1.750
  363.000    0.318    0.451   51.272    1.718
  363.250    0.321    0.439   53.098    1.655
  363.500    0.326    0.432   54.318    1.655
  363.750    0.328    0.431   54.324    1.624
  364.000    0.334    0.438   53.732    1.594
  364.250    0.339    0.446   56.164    1.594
  364.500    0.338    0.446   57.389    1.624
  364.750    0.327    0.446   57.404    1.623
  365.000    0.321    0.464   54.994    1.654
  365.250    0.320    0.470   53.192    1.684
  365.500    0.315    0.450   54.416    1.684
  365.750    0.306    0.442   55.634    1.684
  366.000    0.322    0.433   56.255    1.684
  366.250    0.340    0.423   54.452    1.652
  366.500    0.343    0.429   50.837    1.563
  366.750    0.338    0.449   49.635    1.534
  367.000    0.339    0.466   47.230    1.506
  367.250    0.329    0.454   52.688    1.534
  367.500    0.306    0.421   59.356    1.591
  367.750    0.293    0.390   62.391    1.621
  368.000    0.280    0.386   64.825    1.651
  368.250    0.299    0.401   64.227    1.681
  368.500    0.303    0.425   60.612    1.777
  368.750    0.304    0.440   59.414    1.810
  369.000    0.298    0.443   59.428    1.844
  369.250    0.294    0.430   61.864    1.913
  369.500    0.281    0.443   63.081    1.985
  369.750    0.264    0.442   69.145    2.098
  370.000    0.249    0.423   72.781    2.259
  370.250    0.237    0.423   78.847    2.524
  370.500    0.247    0.435   80.674    2.668
  370.750    0.259    0.448   77.661    2.872
  371.000    0.262    0.457   74.041    2.872
  371.250    0.267    0.473   69.825    2.618
  371.500    0.271    0.490   68.016    2.431
  371.750    0.274    0.479   63.194    2.096
  372.000    0.282    0.458   58.970    1.946
  372.250    0.303    0.449   55.350    1.709
  372.500    0.315    0.432   51.131    1.558
  372.750    0.325    0.428   52.955    1.473
  373.000    0.314    0.428   57.203    1.473
  373.250    0.303    0.440   60.243    1.557
  373.500    0.296    0.441   62.673    1.740
  373.750    0.289    0.440   65.709    1.873
  374.000    0.271    0.436   69.959    1.980
  374.250    0.258    0.434   72.388    2.054
  374.500    0.255    0.452   74.212    2.131
  374.750    0.260    0.457   76.651    2.171
  375.000    0.262    0.464   76.658    2.171
  375.250    0.256    0.480   75.463    2.092
  375.500    0.239    0.472   73.058    1.978
  375.750    0.239    0.476   69.440    1.706
  376.000    0.312    0.504   64.611    1.584
  376.250    0.327    0.522   57.971    1.391
  376.500    0.336    0.486   55.562    1.291
  376.750    0.327    0.461   53.759    1.177
  377.000    0.316    0.455   56.198    1.113
  377.250    0.304    0.458   56.810    1.113
  377.500    0.296    0.454   56.820    1.176
  377.750    0.290    0.434   58.047    1.364
  378.000    0.284    0.421   59.876    1.611
  378.250    0.280    0.435   59.881    1.703
  378.500    0.274    0.443   58.687    1.903
  378.750    0.250    0.293   58.700    2.166
  379.000    0.231    0.245   58.108    2.011
  379.250    0.264    0.297   56.912    1.902
  379.500    0.291    0.358   58.132    1.671
  379.750    0.297    0.432   59.356    1.580
  380.000    0.306    0.452   59.971    1.495
  380.250    0.300    0.466   59.984    1.337
  380.500    0.289    0.470   59.997    1.288
  380.750    0.282    0.461   60.014    1.241
  381.000    0.282    0.465   60.028    1.241
  381.250    0.292    0.477   59.431    1.241
  381.500    0.293    0.474   59.449    1.264
  381.750    0.283    0.466   61.268    1.287
  382.000    0.280    0.456   61.278    1.264
  382.250    0.281    0.456   61.900    1.218
  382.500    0.287    0.468   61.908    1.195
  382.750    0.294    0.467   61.922    1.173
  383.000    0.300    0.463   62.536    1.151
  383.250    0.298    0.456   63.158    1.130
  383.500    0.290    0.451   63.168    1.109
  383.750    0.282    0.471   63.783    1.109
  384.000    0.279    0.485   63.193    1.109
  384.250    0.277    0.498   65.019    1.129
  384.500    0.282    0.496   67.459    1.129
  384.750    0.287    0.489   68.070    1.129
  385.000    0.296    0.485   65.061    1.150
  385.250    0.300    0.475   62.651    1.150
  385.500    0.295    0.462   65.687    1.150
  385.750    0.283    0.474   70.540    1.171
  386.000    0.274    0.498   72.967    1.193
  386.250    0.268    0.515   72.376    1.215
  386.500    0.282    0.497   69.365    1.237
  386.750    0.288    0.485   68.168    1.237
  387.000    0.278    0.470   70.603    1.260
  387.250    0.271    0.467   72.433    1.284
  387.500    0.257    0.485   74.263    1.382
  387.750    0.250    0.491   74.272    1.434
  388.000    0.246    0.481   74.277    1.516
  388.250    0.227    0.375   66.429    1.602
  388.500    0.159    0.341   62.810    1.632
  388.750    0.164    0.355   63.425    1.631
  389.000    0.205    0.442   66.465    1.631
  389.250    0.240    0.462   67.688    1.459
  389.500    0.261    0.481   65.883    1.330
  389.750    0.272    0.486   64.084    1.282
  390.000    0.275    0.467   63.488    1.168
  390.250    0.279    0.458   61.696    1.126
  390.500    0.286    0.441   61.099    1.084
  390.750    0.299    0.434   62.322    1.084
  391.000    0.297    0.421   63.543    1.104
  391.250    0.287    0.426   64.762    1.167
  391.500    0.281    0.453   65.985    1.211
  391.750    0.274    0.473   65.994    1.257
