~VERSION INFORMATION
 VERS.                 2.0:   CWLS LOG ASCII STANDARD -VERSION 2.0
 WRAP.                  NO:   ONE LINE PER DEPTH STEP
~WELL INFORMATION BLOCK
#MNEM.UNIT           DATA                    DESCRIPTION OF MNEMONIC
#---------    -------------------            -------------------------------
# Generated from Intellog Unique Number	CS_73_76/WELL/4866
WELL.         ESSO KIRBY 15-23-75-4          : Well_name    - WELL
LOC .         00/15-23-075-04W4/0            : Location     - LOCATION
UWI .         00/15-23-075-04W4/0            : Uwi          - UNIQUE WELL ID
ENTR.         ANDERSEN                       : Entered      - ENTERED BY
SRVC.         COMPUTALOG                     : Scn          - SERVICE COMPANY
STRT.M        200                            : top_depth    - START DEPTH
STOP.M        435                            : bot_depth    - STOP DEPTH
STEP.M        0.25                           : increment    - STEP LENGTH
 NULL. -999.2500:NULL Value
~CURVE INFORMATION BLOCK
#MNEM UNIT       ERCB CURVE CODE    CURVE DESCRIPTION
#-----------   ------------------   ----------------------------------
DEPT.M        00 001 00 00         : DEPTH        - DEPTH
ILD .OHMM     00 120 00 00         : RESD         - DEEP RESISTIVITY (DIL)
DPHI.V/V      00 890 00 00         : PHID         - DENSITY POROSITY (SANDSTONE)
NPHI.V/V      00 330 00 00         : PHIN         - NEUTRON POROSITY (SANDSTONE)
CALI.MM       00 280 01 00         : CAL          - CALIPER
GR  .API      00 310 00 00         : GR           - GAMMA RAY
~PARAMETER INFORMATION
#MNEM.UNIT           DATA             DESCRIPTION OF MNEMONIC
#---------         -----------     ------------------------------
GL  .M        596.42               : gl           - GROUND LEVEL ELEVATION
EREF.M        606.22               : kb           - ELEVATION OF DEPTH REFERENCE
DATM.M        606.22               : datum        - DATUM ELEVATION
TDD .M        446                  : tdd          - TOTAL DEPTH DRILLER
RUN .         ONE                  : Run          - RUN NUMBER
ENG .         BILL                 : Engineer     - RECORDING ENGINEER
WIT .         JIM                  : Witness      - WITNESSED BY
MUD .         GEL                  : Mud_type     - MUD TYPE
MATR.         SANDSTONE            : Logunit      - NEUTRON MATRIX
TMAX.C        32                   : BHT          - MAXIMUM RECORDED TEMPERATURE
BHTD.M        456                  : BHTDEP       - MAXIMUM RECORDED TEMPERATURE
MATR.         1                    : LOGUNIT      - NEUTRON MATRIX
RMT .C        10                   : MDTP         - TEMPERATURE OF MUD
NEUT.         1                    : NEUTRON      - NEUTRON TYPE
RESI.         0                    : RESIST       - RESISTIVITY TYPE
RMC .OHMM     6.2                  : RMC          - RESISTIVITY OF MUD CAKE
RMF .OHMM     6                    : RMF          - RESISTIVITY OF MUD FILTRATE
SUFT.C        15                   : SUFT         - SURFACE TEMPERATURE
~A  DEPTH     RESD     PHID     PHIN      CAL       GR
# ...
  273.000   90.519    0.321    0.379  195.088   40.700
  273.250   90.450    0.331    0.380  195.092   40.704
  273.500   90.333    0.333    0.386  195.100   39.767
  273.750   91.905    0.330    0.382  195.109   37.418
  274.000   91.834    0.325    0.384  195.117   37.893
  274.250   91.716    0.321    0.388  195.125   39.779
  274.500   91.645    0.320    0.389  195.133   43.077
  274.750   91.551    0.324    0.386  195.144   45.905
  275.000   91.456    0.331    0.384  195.152   47.792
  275.250   91.362    0.331    0.389  196.141   47.797
  275.500   91.245    0.329    0.395  196.149   46.858
  275.750   91.151    0.331    0.398  197.138   45.450
  276.000   91.057    0.328    0.398  197.146   43.572
  276.250   89.338    0.329    0.409  201.074   42.634
  276.500   89.223    0.341    0.416  209.907   44.991
  276.750   89.131    0.340    0.409  217.762   49.702
  277.000   89.040    0.342    0.412  217.770   52.059
  277.250   88.948    0.347    0.422  217.778   53.946
  277.500   88.879    0.348    0.428  219.747   56.773
  277.750   87.179    0.341    0.437  220.734   60.544
  278.000   87.090    0.331    0.443  223.686   64.313
  278.250   85.402    0.334    0.450  224.675   68.082
  278.500   85.314    0.338    0.451  225.664   69.027
  278.750   85.226    0.332    0.448  228.615   67.149
  279.000   85.138    0.335    0.443  231.565   62.446
  279.250   81.976    0.342    0.441  233.535   60.098
  279.500   78.951    0.344    0.444  233.543   61.514
  279.750   76.038    0.341    0.451  233.551   61.517
  280.000   74.584    0.347    0.452  232.577   60.109
  280.250   74.507    0.345    0.454  229.643   58.231
  280.500   73.082    0.330    0.456  224.749   56.822
  280.750   73.026    0.335    0.450  219.855   54.473
  281.000   71.629    0.346    0.439  220.843   50.712
  281.250   70.241    0.355    0.429  221.832   49.303
  281.500   68.915    0.355    0.435  221.840   49.778
  281.750   68.844    0.348    0.444  221.849   51.194
  282.000   67.527    0.329    0.426  218.915   52.139
  282.250   65.019    0.301    0.419  212.060   50.731
  282.500   62.620    0.287    0.425  212.068   49.795
  282.750   58.145    0.311    0.416  213.057   49.328
  283.000   54.985    0.329    0.380  211.106   49.332
  283.250   52.010    0.172    0.343  205.229   48.865
  283.500   48.280    0.105    0.300  203.276   47.928
  283.750   44.017    0.150    0.333  201.323   49.813
  284.000   41.625    0.220    0.358  200.351   52.641
  284.250   37.263    0.263    0.379  199.379   56.881
  284.500   32.753    0.301    0.408  198.406   60.651
  284.750   28.789    0.318    0.440  197.434   60.655
  285.000   24.846    0.323    0.455  196.464   59.718
  285.250   22.652    0.310    0.456  196.470   60.194
  285.500   21.811    0.302    0.453  196.478   63.492
  285.750   21.788    0.318    0.450  196.486   63.495
  286.000   22.993    0.331    0.445  195.518   54.086
  286.250   24.718    0.339    0.434  195.527   48.442
  286.500   30.193    0.346    0.424  194.552   47.035
  286.750   38.254    0.353    0.407  194.560   47.039
  287.000   48.467    0.353    0.398  194.571   46.101
  287.250   60.294    0.349    0.399  194.579   46.575
  287.500   67.215    0.347    0.388  194.587   45.638
  287.750   68.384    0.344    0.395  194.595   44.230
  288.000   68.314    0.344    0.405  194.604   44.706
  288.250   68.208    0.343    0.412  195.592   46.592
  288.500   68.173    0.342    0.414  195.601   47.067
  288.750   68.085    0.341    0.405  195.609   45.658
  289.000   68.033    0.340    0.411  195.619   43.779
  289.250   66.732    0.343    0.412  194.643   43.313
  289.500   66.646    0.344    0.402  194.651   44.258
  289.750   65.338    0.343    0.392  194.659   45.674
  290.000   65.304    0.341    0.393  194.667   47.560
  290.250   65.253    0.337    0.395  194.676   47.564
  290.500   64.005    0.337    0.399  194.684   46.627
  290.750   62.781    0.337    0.406  194.692   45.220
  291.000   61.549    0.341    0.415  194.700   45.694
  291.250   61.501    0.342    0.419  194.709   46.639
  291.500   61.453    0.345    0.412  194.717   46.642
  291.750   60.278    0.349    0.413  194.725   45.705
  292.000   59.125    0.353    0.420  195.716   45.238
  292.250   57.965    0.358    0.416  195.722   45.714
  292.500   57.935    0.361    0.405  195.732   46.189
  292.750   56.827    0.357    0.400  195.743   43.840
  293.000   54.716    0.357    0.402  195.749   42.903
  293.250   54.660    0.358    0.419  195.759   44.788
  293.500   53.628    0.358    0.422  195.767   48.559
  293.750   52.589    0.352    0.426  195.774   46.209
  294.000   51.596    0.347    0.435  195.782   46.212
  294.250   50.583    0.344    0.433  195.790   44.804
  294.500   49.628    0.348    0.429  195.798   42.456
  294.750   49.565    0.354    0.436  195.807   42.460
  295.000   47.724    0.354    0.431  195.815   43.876
  295.250   47.699    0.352    0.422  195.823   45.761
  295.500   45.939    0.350    0.420  195.831   47.648
  295.750   44.244    0.346    0.420  195.839   47.653
  296.000   42.612    0.341    0.422  195.850   47.658
  296.250   41.039    0.339    0.421  195.858   47.660
  296.500   40.987    0.342    0.417  195.864   48.134
  296.750   40.203    0.344    0.415  195.874   50.021
  297.000   40.161    0.344    0.419  195.883   50.026
  297.250   40.130    0.346    0.425  195.891   49.089
  297.500   40.089    0.351    0.435  195.901   49.093
  297.750   39.322    0.356    0.443  195.907   50.508
  298.000   37.871    0.348    0.443  195.918   52.394
  298.250   36.474    0.340    0.435  195.926   52.870
  298.500   34.492    0.339    0.428  195.930   51.462
  298.750   33.211    0.339    0.427  195.938   50.524
  299.000   34.403    0.343    0.428  195.949   50.528
  299.250   34.386    0.343    0.432  195.957   51.472
  299.500   35.629    0.340    0.436  195.967   52.418
  299.750   36.240    0.336    0.440  195.971   52.423
  300.000   34.894    0.331    0.442  195.981   53.368
  300.250   34.244    0.331    0.440  195.994   54.784
  300.500   32.383    0.332    0.433  196.000   53.846
  300.750   28.982    0.333    0.437  196.006   53.380
  301.000   27.912    0.333    0.433  196.016   54.797
  301.250   27.378    0.328    0.423  196.025   55.742
  301.500   27.343    0.327    0.424  196.031   54.805
  301.750   27.819    0.331    0.436  196.041   53.397
  302.000   27.790    0.336    0.447  196.049   52.459
  302.250   28.796    0.338    0.449  196.060   51.992
  302.500   29.837    0.338    0.443  196.064   51.995
  302.750   30.916    0.337    0.442  195.096   53.411
  303.000   31.463    0.334    0.446  195.102   53.886
  303.250   32.010    0.331    0.449  195.108   53.890
  303.500   31.977    0.326    0.453  195.118   54.835
  303.750   31.366    0.319    0.453  195.127   57.664
  304.000   30.208    0.315    0.449  194.156   59.550
  304.250   28.567    0.315    0.443  194.160   63.319
  304.500   27.513    0.313    0.437  194.175   67.088
  304.750   26.498    0.312    0.444  194.181   68.504
  305.000   25.520    0.316    0.450  195.166   66.626
  305.250   24.572    0.322    0.450  195.176   65.689
  305.500   24.547    0.332    0.449  195.184   65.693
  305.750   24.528    0.326    0.449  195.190   63.814
  306.000   23.617    0.308    0.450  195.199   62.877
  306.250   21.929    0.286    0.454  195.209   64.763
  306.500   20.367    0.277    0.460  195.217   68.062
  306.750   16.631    0.273    0.466  195.225   69.478
  307.000   14.622    0.268    0.479  195.234   69.953
  307.250   12.391    0.268    0.477  195.242   69.957
  307.500   10.891    0.268    0.469  196.231   69.960
  307.750    9.400    0.265    0.456  196.239   70.435
  308.000    8.412    0.261    0.456  196.249   71.851
  308.250    8.253    0.261    0.462  196.257   71.384
  308.500    8.552    0.262    0.464  196.264   70.918
  308.750    8.861    0.264    0.464  196.272   70.922
  309.000    8.852    0.265    0.464  196.280   70.927
  309.250    8.843    0.264    0.463  196.288   70.930
