~VERSION INFORMATION
 VERS.                 2.0:   CWLS LOG ASCII STANDARD -VERSION 2.0
 WRAP.                  NO:   ONE LINE PER DEPTH STEP
~WELL INFORMATION BLOCK
#MNEM.UNIT           DATA                    DESCRIPTION OF MNEMONIC
#---------    -------------------            -------------------------------
# Generated from Intellog Unique Number	CW_70_72/WELL/3308
NULL.         -999.25                        : NULL_VALUE
WELL.         IMP MITSUE                     : Well_name    - WELL              
LOC .         10-03-072-05W5                 : Location     - LOCATION          
UWI .         00/10-03-072-05W5/0            : Uwi          - UNIQUE WELL ID    
ENTR.         CAMPBELL                       : Entered      - ENTERED BY        
SRVC.         SCHLUMBERGER                   : Scn          - SERVICE COMPANY   
DATE.         15 DEC. 1965                   : Date         - LOG DATE          
STRT.M        588.264                        : top_depth    - START DEPTH       
STOP.M        731.514                        : bot_depth    - STOP DEPTH        
STEP.M        0.25                           : increment    - STEP LENGTH       
~CURVE INFORMATION BLOCK
#MNEM UNIT       ERCB CURVE CODE    CURVE DESCRIPTION
#-----------   ------------------   ----------------------------------
DEPT.M        00 001 00 00         : DEPTH        - DEPTH                       
ILD .OHMM     00 120 00 00         : RESD         - DEEP RESISTIVITY (DIL)      
DELT.US/F     00 520 00 00         : DELT         - SONIC TRAVEL TIME           
CALI.MM       00 280 01 00         : CAL          - CALIPER                     
GR  .API      00 310 00 00         : GR           - GAMMA RAY                   
~PARAMETER INFORMATION       
#MNEM.UNIT           DATA             DESCRIPTION OF MNEMONIC
#---------         -----------     ------------------------------
GL  .M        687.72               : gl           - GROUND LEVEL ELEVATION      
EREF.M        691.5                : kb           - ELEVATION OF DEPTH REFERENCE
DATM.M        691.5                : datum        - DATUM ELEVATION             
TDD .M        1817.22              : tdd          - TOTAL DEPTH DRILLER         
RUN .         ONE                  : Run          - RUN NUMBER                  
ENG .         DEMETRICK & WAGNER   : Engineer     - RECORDING ENGINEER          
WIT .         SEMELUK              : Witness      - WITNESSED BY                
MUD .         GEL                  : Mud_type     - MUD TYPE                    
MATR.         SANDSTONE            : Logunit      - NEUTRON MATRIX              
TMAX.C        46.6667              : BHT          - MAXIMUM RECORDED TEMPERATURE
BHTD.M        1817.22              : BHTDEP       - MAXIMUM RECORDED TEMPERATURE
RMT .C        23.3333              : MDTP         - TEMPERATURE OF MUD          
MUDD.KG/M     9700                 : MWT          - MUD DENSITY                 
NEUT.         1                    : NEUTRON      - NEUTRON TYPE                
RESI.         0                    : RESIST       - RESISTIVITY TYPE            
RM  .OHMM     1.56                 : RM           - RESISTIVITY OF MUD          
RMC .OHMM     2                    : RMC          - RESISTIVITY OF MUD CAKE     
RMF .OHMM     1.29                 : RMF          - RESISTIVITY OF MUD FILTRATE 
SUFT.C        -20                  : SUFT         - SURFACE TEMPERATURE         
~A  DEPTH     RESD     DELT      CAL       GR
# ...
  631.764   15.418  358.370  215.736   47.346
  632.014   15.421  360.593  216.776   51.407
  632.264   15.423  362.177  216.807   44.281
  632.514   15.326  363.122  217.349   45.727
  632.764   15.229  362.779  217.886   45.984
  633.014   15.034  362.431  218.428   48.377
  633.264   14.838  361.124  218.966   52.441
  633.514   14.149  359.175  220.005   53.885
  633.764   13.659  358.510  220.547   56.758
  634.014   13.364  359.131  220.578   47.013
  634.264   12.972  361.677  221.115   42.507
  634.514   12.678  366.154  221.160   43.475
  634.764   12.285  374.489  224.207   49.918
  635.014   11.794  380.248  226.757   50.888
  635.264   10.810  380.869  229.302   45.428
  635.514   10.122  377.956  231.341   47.825
  635.764    9.630  373.112  234.899   50.939
  636.014    8.843  374.375  237.440   49.288
  636.264    8.352  379.173  239.990   47.636
  636.514    8.157  382.686  242.033   49.081
  636.764    8.356  367.882  244.081   50.288
  637.014    8.851  354.684  245.116   54.112
  637.264    9.445  339.882  245.653   49.606
  637.514    9.939  327.970  246.701   51.527
  637.764   10.434  330.518  247.239   58.446
  638.014   10.930  331.139  247.274   65.129
  638.264   11.326  329.506  247.305   69.668
  638.514   11.821  326.911  247.345   70.638
  638.764   12.118  325.288  246.883   67.085
  639.014   12.614  322.691  246.412   68.051
  639.264   13.010  319.777  246.457   67.114
  639.514   13.012  314.936  244.986   68.322
  639.764   13.014  304.633  242.508   60.482
  640.014   12.424  299.789  236.018   53.832
  640.264   11.637  318.084  228.524   50.754
  640.514   11.540  332.200  225.050   48.627
  640.764   11.443  361.096  223.078   48.407
  641.014   11.347  377.136  222.109   50.325
  641.264   11.053  379.043  221.643   56.769
  641.514   10.857  380.306  221.705   58.691
  641.764   10.662  381.251  221.225   57.280
  642.014   10.664  381.869  220.750   58.488
  642.264   10.764  382.166  220.288   56.597
  642.514   10.865  381.184  219.826   54.234
  642.764   10.966  381.156  218.862   54.250
  643.014   11.164  382.417  218.391   51.169
  643.264   11.561  383.038  217.929   52.374
  643.514   11.760  382.379  217.969   60.012
  643.764   10.677  381.712  218.004   59.312
  644.014    9.496  378.156  218.035   59.091
  644.264    8.314  372.991  216.569   64.820
  644.514    8.020  372.327  216.605   65.550
  644.764    9.206  370.053  216.640   62.233
  645.014   10.489  368.423  216.640   62.250
  645.264   11.379  366.473  216.720   63.696
  645.514   12.170  363.560  216.245   65.378
  645.764   12.665  365.787  215.783   57.298
  646.014   12.962  369.621  215.321   57.080
  646.264   13.063  372.491  214.850   55.903
  646.514   13.065  377.611  214.885   59.013
  646.764   12.968  378.874  215.432   57.365
  647.014   12.280  375.637  215.463   60.237
  647.264   11.690  370.150  213.992   58.348
  647.514   10.706  366.915  214.032   56.221
  647.764   10.313  366.249  213.570   54.812
  648.014   10.313  367.833  213.108   56.498
  648.264   10.417  369.418  212.637   57.222
  648.514   10.615  370.361  212.682   59.385
  648.764   11.011  369.696  212.206   61.541
  649.014   11.210  367.104  211.740   62.274
  649.264   11.508  362.900  211.278   62.288
  649.514   11.707  361.915  210.309   64.924
  649.764   11.807  362.214  210.349   61.367
  650.014   11.809  363.799  210.882   62.337
  650.264   11.811  360.883  209.923   64.021
  650.514   11.813  358.291  208.959   60.942
  650.764   11.519  356.339  208.483   59.051
  651.014   11.028  354.711  208.523   57.640
  651.264   10.734  353.401  208.559   59.799
  651.514   10.637  354.986  209.101   59.816
  651.764   10.541  357.216  210.140   63.403
  652.014   10.543  358.158  210.678   62.942
  652.264   10.249  357.813  211.215   69.147
  652.514    9.363  356.503  211.752   66.548
  652.764    8.773  355.196  212.796   64.658
  653.014    7.986  358.069  213.347   63.721
  653.264    7.593  360.615  213.871   66.117
  653.514    7.398  358.666  214.409   65.899
  653.764    7.400  358.963  213.951   68.059
  654.014    7.994  357.337  213.987   69.499
  654.264    8.390  355.385  214.018   63.803
  654.514    8.786  358.255  215.061   61.916
  654.764    8.887  360.161  216.607   60.978
  655.014    8.791  360.455  218.651   60.755
  655.264    8.693  361.719  221.698   66.724
  655.514    8.301  362.983  220.318   62.457
  655.764    7.711  360.712  225.343   61.042
  656.014    7.023  359.078  230.863   66.061
  656.264    6.532  358.098  230.400   70.122
  656.514    6.237  356.146  229.932   76.091
  656.764    6.042  358.695  229.464   72.060
  657.014    5.945  361.565  229.503   73.504
  657.264    5.849  362.507  229.535   73.757
  657.514    5.850  363.768  229.071   72.111
  657.764    5.951  363.744  228.104   70.936
  658.014    6.052  365.331  227.636   69.045
  658.264    6.053  365.631  227.165   69.299
  658.514    6.055  363.355  228.697   69.078
  658.764    5.959  361.405  234.217   66.237
  659.014    5.665  359.134  243.733   71.014
  659.264    5.470  359.107  252.247   70.558
  659.514    5.471  359.731  261.264   76.761
  659.764    5.473  361.318  265.287   71.539
  660.014    5.377  362.903  267.314   73.223
  660.264    5.280  363.843  268.846   73.241
  660.514    5.282  364.140  268.877   70.638
  660.764    5.086  365.079  268.912   68.271
  661.014    5.285  366.991  266.952   64.956
  661.264    5.781  369.213  259.498   64.497
  661.514    6.472  368.551  250.544   61.654
  661.764    7.461  365.957  247.585   59.765
  662.014    8.843  362.719  247.117   58.590
  662.264   10.226  361.094  246.162   60.275
  662.514   11.510  359.466  246.193   61.719
  662.764   12.005  357.835  247.223   62.925
  663.014   12.105  356.520  248.252   59.849
  663.264   12.206  355.221  248.778   59.865
  663.514   12.207  353.590  250.314   59.166
  663.764   12.207  351.959  251.340   61.087
  664.014   12.211  349.367  252.369   64.435
  664.264   12.213  343.883  253.901   60.880
  664.514   12.215  342.898  255.928   60.419
  664.764   12.217  339.982  258.965   67.817
  665.014   12.219  328.393  260.489   72.358
  665.264   12.221  306.520  258.026   66.182
  665.514   12.223  304.571  252.069   62.866
  665.764   12.225  318.686  245.613   60.263
  666.014   12.227  347.582  242.651   60.279
  666.264   11.735  364.268  240.690   59.343
  666.514   10.751  368.745  242.218   59.360
  666.764    9.668  378.041  245.243   57.711
  667.014    8.388  378.341  248.276   59.153
  667.264    7.009  366.107  251.797   57.026
  667.514    6.025  352.590  259.815   52.997
  667.764    5.337  340.678  267.831   58.488
  668.014    4.846  335.513  278.348   62.315
  668.264    4.650  341.274  281.872   63.282
  668.514    4.554  341.895  284.403   65.917
  668.764    4.457  339.943  287.428   61.171
  669.014    4.360  341.528  287.954   55.712
  669.264    4.460  343.434  287.494   56.683
  669.514    4.561  344.052  286.028   54.792
  669.764    4.563  343.391  285.062   54.570
  670.014    4.565  346.580  283.604   58.637
  670.264    4.566  347.840  282.633   56.508
  670.514    4.568  347.495  279.670   57.952
  670.764    4.768  347.157  276.213   59.638
  671.014    4.868  349.061  265.183   56.795
  671.264    4.870  352.252  264.210   58.715
  671.514    4.872  359.299  263.744   60.875
  671.764    4.874  367.310  260.772   61.129
  672.014    4.974  374.354  260.306   61.861
  672.264    5.666  374.009  259.342   62.352
  672.514    6.852  371.738  258.369   61.656
  672.764    8.136  377.824  258.404   60.719
  673.014    9.715  380.373  257.947   59.783
  673.264   11.492  381.636  257.978   56.702
  673.514   13.467  381.933  257.516   52.910
  673.764   13.567  384.803  257.556   52.450
  674.014   13.175  383.175  257.587   51.753
  674.264   12.585  380.259  257.627   49.624
  674.514   12.192  377.024  258.670   46.547
  674.764   12.095  374.108  260.212   48.233
  675.014   12.098  372.477  262.761   52.054
