~VERSION INFORMATION
 VERS.                 2.0:   CWLS LOG ASCII STANDARD -VERSION 2.0
 WRAP.                  NO:   ONE LINE PER DEPTH STEP
~WELL INFORMATION BLOCK
#MNEM.UNIT           DATA                    DESCRIPTION OF MNEMONIC
#---------    -------------------            -------------------------------
# Generated from Intellog Unique Number	CW_70_72/WELL/3020
NULL.         -999.25                        : NULL_VALUE
WELL.         SUNDANCE ET AL CALLS 10-08     : Well_name    - WELL              
LOC .         10-08-070-23W4                 : Location     - LOCATION          
UWI .         00/10-08-070-23W4/0            : Uwi          - UNIQUE WELL ID    
ENTR.         jj                             : Entered      - ENTERED BY        
SRVC.         SCHLUMBERGER                   : Scn          - SERVICE COMPANY   
DATE.         17 MAR 76                      : Date         - LOG DATE
STRT.M        396.24                         : top_depth    - START DEPTH       
STOP.M        575.99                         : bot_depth    - STOP DEPTH        
STEP.M        0.25                           : increment    - STEP LENGTH       
~CURVE INFORMATION BLOCK
#MNEM UNIT       ERCB CURVE CODE    CURVE DESCRIPTION
#-----------   ------------------   ----------------------------------
DEPT.M        00 001 00 00         : DEPTH        - DEPTH                       
ILD .OHMM     00 120 00 00         : RESD         - DEEP RESISTIVITY (DIL)      
CALI.MM       00 280 01 00         : CAL          - CALIPER                     
GR  .API      00 310 00 00         : GR           - GAMMA RAY                   
NPHI.V/V      00 330 00 00         : PHIN         - NEUTRON POROSITY (SANDSTONE)
DPHI.V/V      00 890 00 00         : PHID         - DENSITY POROSITY (SANDSTONE)
~PARAMETER INFORMATION       
#MNEM.UNIT           DATA             DESCRIPTION OF MNEMONIC
#---------         -----------     ------------------------------
GL  .M        615.391              : gl           - GROUND LEVEL ELEVATION      
EREF.M        618.744              : kb           - ELEVATION OF DEPTH REFERENCE
DATM.M        615.391              : datum        - DATUM ELEVATION             
TDD .M        586.74               : tdd          - TOTAL DEPTH DRILLER         
RUN .         ONE                  : Run          - RUN NUMBER                  
BASE.         EDM                  : Branch       - HOME BASE OF LOGGING UNIT   
MUD .         GEL CHEM             : Mud_type     - MUD TYPE                    
MATR.         SANDSTONE            : Logunit      - NEUTRON MATRIX              
TMAX.C        26.1111              : BHT          - MAXIMUM RECORDED TEMPERATURE
BHTD.M        586.74               : BHTDEP       - MAXIMUM RECORDED TEMPERATURE
RMT .C        -17.7778             : MDTP         - TEMPERATURE OF MUD          
MUDD.KG/M     1068                 : MWT          - MUD DENSITY                 
NEUT.         1                    : NEUTRON      - NEUTRON TYPE                
RESI.         0                    : RESIST       - RESISTIVITY TYPE            
RM  .OHMM     2.65                 : RM           - RESISTIVITY OF MUD          
RMC .OHMM     0.25                 : RMC          - RESISTIVITY OF MUD CAKE     
RMF .OHMM     2.72                 : RMF          - RESISTIVITY OF MUD FILTRATE 
SUFT.C        -17.7778             : SUFT         - SURFACE TEMPERATURE         
~A  DEPTH     RESD      CAL       GR     PHIN     PHID
  396.240    2.860  155.695  127.223    0.513    0.191
  396.490    2.885  155.873  130.109    0.505    0.202
  396.740    2.853  156.384  129.113    0.499    0.188
  396.990    2.796  156.781  127.287    0.517    0.177
  397.240    2.749  156.957  129.260    0.511    0.196
  397.490    2.704  156.807  128.652    0.485    0.195
  397.740    2.693  156.435  131.083    0.478    0.198
  397.990    2.692  156.397  129.190    0.475    0.182
  398.240    2.727  156.451  125.022    0.478    0.190
  398.490    2.736  156.191  122.539    0.498    0.216
  398.740    2.746  155.823  125.356    0.548    0.242
  398.990    2.729  154.906  129.857    0.516    0.269
  399.240    2.700  154.531  131.903    0.498    0.204
  399.490    2.659  154.382  132.591    0.496    0.187
  399.740    2.602  154.569  128.621    0.509    0.194
  399.990    2.572  155.392  123.427    0.506    0.212
  400.240    2.604  157.544  105.675    0.512    0.215
  400.490    2.715  157.822   91.873    0.520    0.225
  400.740    2.963  156.251   82.079    0.528    0.213
  400.990    3.511  152.479   70.994    0.511    0.204
  401.240    4.146  149.373   63.206    0.415    0.232
  401.490    5.143  147.577   62.281    0.419    0.215
  401.740    5.705  145.903   64.845    0.428    0.272
  401.990    6.447  145.422   71.671    0.442    0.282
  402.240    6.455  144.935   80.445    0.438    0.266
  402.490    5.721  144.793   82.812    0.424    0.248
  402.740    5.192  145.284   81.695    0.413    0.241
  402.990    4.851  148.747   82.176    0.422    0.229
  403.240    4.625  154.619   86.361    0.450    0.204
  403.490    4.402  153.811   90.475    0.450    0.229
  403.740    4.181  149.281   98.788    0.449    0.217
  403.990    3.921  149.892  114.613    0.449    0.237
  404.240    3.663  153.353  124.228    0.427    0.254
  404.490    3.350  156.925  128.859    0.430    0.226
  404.740    3.175  159.854  130.577    0.472    0.198
  404.990    3.083  159.799  133.077    0.504    0.205
  405.240    3.162  157.895  132.404    0.532    0.207
  405.490    3.407  154.680  127.848    0.498    0.207
  405.740    3.739  152.333  121.617    0.446    0.186
  405.990    4.187  151.753  116.223    0.412    0.196
  406.240    4.510  152.037  110.955    0.422    0.217
  406.490    4.816  152.422  101.882    0.443    0.232
  406.740    5.247  152.930   94.157    0.469    0.256
  406.990    5.500  153.546   88.308    0.472    0.250
  407.240    5.884  153.847   82.658    0.444    0.242
  407.490    6.376  154.016   76.038    0.439    0.254
  407.740    6.783  154.297   70.060    0.439    0.235
  407.990    7.097  154.248   65.893    0.433    0.209
  408.240    6.440  154.110   68.650    0.405    0.191
  408.490    5.442  153.617   75.162    0.374    0.179
  408.740    4.975  152.817   83.997    0.375    0.186
  408.990    4.417  151.679   93.542    0.394    0.196
  409.240    3.986  150.646  102.764    0.426    0.211
  409.490    3.677  149.507  100.607    0.450    0.223
  409.740    3.487  152.095   95.994    0.442    0.241
  409.990    3.416  152.048   91.628    0.453    0.242
  410.240    3.391  151.585   88.566    0.456    0.241
  410.490    3.440  150.885   92.102    0.444    0.257
  410.740    3.567  150.834   97.580    0.420    0.247
  410.990    3.753  150.908   99.619    0.435    0.236
  411.240    3.814  150.636   95.975    0.447    0.230
  411.490    3.724  151.030   92.967    0.459    0.224
  411.740    3.584  151.984   94.889    0.460    0.230
  411.990    3.479  153.245   99.255    0.428    0.236
  412.240    3.371  155.064  102.400    0.423    0.210
  412.490    3.359  155.028  102.114    0.431    0.193
  412.740    3.389  153.331   98.988    0.429    0.203
  412.990    3.494  151.442   93.333    0.399    0.215
  413.240    3.623  150.731   91.886    0.389    0.224
  413.490    3.751  150.041  100.015    0.384    0.237
  413.740    3.833  149.455  105.880    0.386    0.217
  413.990    3.939  148.963  108.761    0.388    0.217
  414.240    4.032  148.932  110.547    0.394    0.216
  414.490    4.091  148.762  111.490    0.401    0.211
  414.740    4.037  148.400  112.759    0.414    0.216
  414.990    3.934  148.135  112.604    0.422    0.194
  415.240    3.623  148.199  102.161    0.422    0.191
  415.490    3.293  148.267   90.045    0.410    0.174
  415.740    2.913  148.461   78.118    0.390    0.225
  415.990    2.664  148.513   74.349    0.383    0.254
  416.240    2.462  148.477   66.235    0.388    0.258
  416.490    2.283  148.431   57.344    0.419    0.263
  416.740    2.216  148.289   64.761    0.380    0.274
  416.990    2.269  148.252   84.982    0.360    0.284
  417.240    2.432  148.313   94.655    0.340    0.302
  417.490    2.582  148.582  100.843    0.347    0.241
  417.740    2.798  150.192  102.366    0.362    0.207
  417.990    3.082  151.569  104.346    0.377    0.189
  418.240    3.327  154.054  107.432    0.383    0.171
  418.490    3.604  155.651  110.318    0.387    0.192
  418.740    3.891  156.473  111.644    0.380    0.191
  418.990    4.034  157.752  106.962    0.381    0.175
  419.240    4.123  158.587   99.759    0.390    0.185
  419.490    4.069  158.330   92.231    0.407    0.204
  419.740    3.972  157.292   91.364    0.404    0.205
  419.990    3.801  155.723  113.329    0.395    0.212
  420.240    3.431  154.691  123.783    0.398    0.231
  420.490    3.124  155.744  134.564    0.450    0.235
  420.740    2.815  158.435  142.422    0.516    0.231
  420.990    2.568  164.416  146.411    0.551    0.180
  421.240    2.289  166.562  146.774    0.538    0.197
  421.490    2.174  161.922  148.040    0.517    0.215
  421.740    2.229  165.055  151.765    0.510    0.186
  421.990    2.389  165.349  150.905    0.497    0.192
  422.240    2.641  160.372  143.310    0.471    0.204
  422.490    2.957  153.550  128.930    0.436    0.216
  422.740    3.498  150.541  121.072    0.417    0.228
  422.990    3.846  149.184  111.605    0.423    0.219
  423.240    4.061  148.709  100.973    0.437    0.218
  423.490    4.098  148.547   91.503    0.443    0.235
  423.740    3.985  148.840  102.021    0.415    0.208
  423.990    3.787  148.920  110.989    0.423    0.219
  424.240    3.709  148.763  105.405    0.440    0.228
  424.490    3.675  148.709   95.291    0.450    0.246
  424.740    3.674  148.772   88.924    0.464    0.251
  424.990    3.707  149.073   90.191    0.457    0.251
  425.240    3.774  148.703   95.532    0.445    0.246
  425.490    3.871  149.210  101.334    0.431    0.222
  425.740    3.971  149.162  104.022    0.441    0.235
  425.990    4.027  148.908  105.289    0.452    0.248
  426.240    4.087  148.960  107.723    0.463    0.237
  426.490    4.100  149.261  108.020    0.478    0.230
  426.740    4.129  149.329  109.869    0.441    0.221
  426.990    4.166  149.182  107.918    0.434    0.218
  427.240    4.190  149.134  106.849    0.441    0.225
  427.490    4.180  148.967  105.851    0.451    0.233
  427.740    4.096  148.608  104.209    0.450    0.231
  427.990    3.975  148.548  100.051    0.448    0.209
  428.240    3.543  148.739   98.599    0.443    0.221
  428.490    3.094  148.805  100.768    0.446    0.232
  428.740    2.833  148.978  108.054    0.465    0.245
  428.990    2.618  149.803  117.664    0.446    0.244
  429.240    2.557  155.792  124.758    0.439    0.195
  429.490    2.542  154.543  120.525    0.465    0.194
  429.740    2.564  150.560  110.154    0.489    0.223
  429.990    2.699  148.559  106.115    0.458    0.240
  430.240    2.850  148.180  113.466    0.445    0.254
  430.490    2.993  148.145  111.828    0.456    0.237
  430.740    3.149  148.099  111.925    0.420    0.217
  430.990    3.314  148.156  115.849    0.416    0.231
  431.240    3.423  148.339  120.930    0.449    0.254
  431.490    3.518  148.296  128.538    0.442    0.239
  431.740    3.576  148.906  138.796    0.431    0.218
  431.990    3.580  150.169  138.577    0.425    0.205
  432.240    3.566  151.883  131.116    0.427    0.185
  432.490    3.520  151.623  118.097    0.465    0.188
