~VERSION INFORMATION
 VERS.                 2.0:   CWLS LOG ASCII STANDARD -VERSION 2.0
 WRAP.                  NO:   ONE LINE PER DEPTH STEP
~WELL INFORMATION BLOCK
#MNEM.UNIT           DATA                    DESCRIPTION OF MNEMONIC
#---------    -------------------            -------------------------------
# Generated from Intellog Unique Number	CW_79_81/WELL/2482
WELL.         11-09-080-21W4                 : Well_name    - WELL
LOC .         00/11-09-080-21W4/0            : Location     - LOCATION
UWI .         00/11-09-080-21W4/0            : Uwi          - UNIQUE WELL ID
ENTR.         MAX                            : Entered      - ENTERED BY
SRVC.         WESTERN ATLAS                  : Scn          - SERVICE COMPANY
STRT.M        213.36                         : top_depth    - START DEPTH
STOP.M        447.86                         : bot_depth    - STOP DEPTH
STEP.M        0.25                           : increment    - STEP LENGTH
 NULL. -999.2500:NULL Value
~CURVE INFORMATION BLOCK
#MNEM UNIT       ERCB CURVE CODE    CURVE DESCRIPTION
#-----------   ------------------   ----------------------------------
DEPT.M        00 001 00 00         : DEPTH        - DEPTH
ILD .OHMM     00 120 00 00         : RESD         - DEEP RESISTIVITY (DIL)
NPHI.V/V      00 330 00 00         : PHIN         - NEUTRON POROSITY (SANDSTONE)
DPHI.V/V      00 890 00 00         : PHID         - DENSITY POROSITY (SANDSTONE)
GR  .API      00 310 00 00         : GR           - GAMMA RAY
CALI.MM       00 280 01 00         : CAL          - CALIPER
~PARAMETER INFORMATION
#MNEM.UNIT           DATA             DESCRIPTION OF MNEMONIC
#---------         -----------     ------------------------------
GL  .M        584.545              : gl           - GROUND LEVEL ELEVATION
EREF.M        588.051              : kb           - ELEVATION OF DEPTH REFERENCE
DATM.M        584.545              : datum        - DATUM ELEVATION
TDD .M        496.214              : tdd          - TOTAL DEPTH DRILLER
RUN .         ONE                  : Run          - RUN NUMBER
ENG .         BILL                 : Engineer     - RECORDING ENGINEER
WIT .         JIM                  : Witness      - WITNESSED BY
MUD .         GEL                  : Mud_type     - MUD TYPE
MATR.         SANDSTONE            : Logunit      - NEUTRON MATRIX
TMAX.C        19.4444              : BHT          - MAXIMUM RECORDED TEMPERATURE
BHTD.M        496.214              : BHTDEP       - MAXIMUM RECORDED TEMPERATURE
MATR.         1                    : LOGUNIT      - NEUTRON MATRIX
RMT .C        20                   : MDTP         - TEMPERATURE OF MUD
NEUT.         1                    : NEUTRON      - NEUTRON TYPE
RESI.         0                    : RESIST       - RESISTIVITY TYPE
RMC .OHMM     4                    : RMC          - RESISTIVITY OF MUD CAKE
RMF .OHMM     7.1                  : RMF          - RESISTIVITY OF MUD FILTRATE
SUFT.C        -6.66667             : SUFT         - SURFACE TEMPERATURE
~A  DEPTH     RESD     PHIN     PHID       GR      CAL
  213.360    4.116    0.420    0.278  118.292  181.349
  213.610    4.107    0.438    0.278  117.984  179.571
  213.860    4.101    0.432    0.273  118.766  180.041
  214.110    4.064    0.418    0.266  119.659  180.547
  214.360    3.997    0.410    0.256  120.021  180.155
  214.610    3.926    0.416    0.250  119.619  179.078
  214.860    3.887    0.425    0.253  120.302  180.214
  215.110    3.910    0.422    0.261  120.482  176.897
  215.360    3.998    0.420    0.275  119.592  176.002
  215.610    4.168    0.420    0.288  117.515  177.117
  215.860    4.457    0.421    0.297  115.081  178.124
  216.110    5.094    0.420    0.299  113.716  175.351
  216.360    6.075    0.420    0.294  111.929  176.108
  216.610    6.658    0.406    0.246  107.356  177.601
  216.860    6.927    0.398    0.192  110.626  182.134
  217.110    7.018    0.406    0.204  116.750  183.661
  217.360    6.924    0.424    0.256  122.755  180.656
  217.610    6.361    0.431    0.214  127.127  176.178
  217.860    5.845    0.426    0.173  124.350  176.506
  218.110    5.183    0.421    0.230  119.302  176.418
  218.360    4.706    0.423    0.257  118.884  176.920
  218.610    4.304    0.430    0.268  117.638  176.617
  218.860    3.953    0.434    0.272  115.090  175.211
  219.110    3.629    0.427    0.279  114.445  173.654
  219.360    3.437    0.422    0.290  107.943  174.401
  219.610    3.455    0.433    0.306  102.182  175.501
  219.860    3.898    0.434    0.313   95.348  176.005
  220.110    4.545    0.434    0.323   86.730  174.097
  220.360    5.426    0.435    0.340   77.873  169.875
  220.610    8.191    0.430    0.364   71.085  165.245
  220.860   12.315    0.395    0.384   63.598  164.714
  221.110   20.630    0.371    0.330   60.446  164.224
  221.360   27.687    0.360    0.317   59.432  163.719
  221.610   30.296    0.356    0.320   59.012  163.622
  221.860   30.800    0.354    0.324   58.419  163.834
  222.110   30.924    0.355    0.324   57.896  163.716
  222.360   30.634    0.355    0.321   59.080  163.615
  222.610   30.136    0.357    0.321   58.304  163.527
  222.860   29.316    0.359    0.324   58.249  163.425
  223.110   28.738    0.361    0.326   59.027  163.318
  223.360   28.582    0.361    0.329   59.979  163.213
  223.610   28.736    0.361    0.330   59.684  163.116
  223.860   29.746    0.358    0.331   61.677  163.006
  224.110   30.606    0.356    0.324   60.391  162.496
  224.360   31.081    0.354    0.321   58.844  162.004
  224.610   31.374    0.351    0.314   58.192  161.701
  224.860   31.498    0.348    0.297   57.895  161.410
  225.110   31.379    0.344    0.271   55.790  160.150
  225.360   31.091    0.334    0.283   57.463  158.362
  225.610   30.799    0.350    0.306   56.693  157.872
  225.860   30.192    0.357    0.335   56.814  157.978
  226.110   29.486    0.362    0.351   56.878  157.876
  226.360   28.952    0.370    0.352   57.058  157.273
  226.610   28.939    0.387    0.353   58.737  156.368
  226.860   29.107    0.392    0.356   59.191  156.257
  227.110   29.061    0.387    0.359   58.420  156.149
  227.360   28.691    0.384    0.361   58.719  156.057
  227.610   28.329    0.386    0.361   57.946  155.960
  227.860   28.078    0.391    0.360   56.755  155.855
  228.110   27.815    0.392    0.361   59.728  155.737
  228.360   27.764    0.379    0.363   65.374  155.636
  228.610   27.711    0.371    0.368   61.752  155.941
  228.860   27.665    0.371    0.371   60.794  156.253
  229.110   27.619    0.373    0.373   61.447  156.563
  229.360   27.669    0.369    0.369   62.285  156.967
  229.610   28.140    0.344    0.340   61.355  157.898
  229.860   28.744    0.310    0.289   60.559  159.064
  230.110   31.073    0.289    0.222   59.307  160.183
  230.360   35.196    0.258    0.093   57.343  160.692
  230.610   38.221    0.216    0.025   56.685  161.400
  230.860   36.856    0.180    0.038   57.755  162.311
  231.110   30.410    0.197    0.054   59.955  162.434
  231.360   26.910    0.279    0.070   62.866  161.473
  231.610   22.295    0.312    0.113   65.903  160.188
  231.860   18.281    0.338    0.255   69.297  158.580
  232.110   15.294    0.355    0.334   73.045  157.879
  232.360   12.765    0.365    0.316   76.374  158.591
  232.610    9.982    0.382    0.291   78.522  160.811
  232.860    8.901    0.390    0.284   82.423  162.386
  233.110    8.133    0.392    0.275   86.168  165.920
  233.360    7.013    0.396    0.271   89.565  168.240
  233.610    6.585    0.403    0.269   94.147  169.944
  233.860    6.863    0.407    0.268   97.238  170.740
  234.110    7.593    0.395    0.270   90.405  168.337
  234.360    8.186    0.380    0.286   82.665  162.796
  234.610    9.299    0.372    0.320   75.235  160.275
  234.860   11.229    0.380    0.331   72.257  160.477
  235.110   13.873    0.396    0.330   71.961  160.581
  235.360   15.930    0.412    0.329   73.102  159.978
  235.610   13.678    0.421    0.352   76.177  161.261
  235.860   10.173    0.432    0.415   82.306  166.200
  236.110    8.172    0.443    0.384   88.908  171.353
  236.360    7.149    0.452    0.326   95.332  180.400
  236.610    6.192    0.460    0.282  102.288  185.937
  236.860    5.458    0.466    0.270  107.695  186.659
  237.110    5.385    0.471    0.285  106.324  187.516
  237.360    5.458    0.476    0.299  104.537  188.263
  237.610    5.488    0.479    0.313  103.761  188.549
  237.860    5.457    0.470    0.321  103.172  190.969
  238.110    5.268    0.463    0.329  102.876  192.491
  238.360    4.953    0.463    0.336  102.873  192.200
  238.610    4.602    0.464    0.332  102.937  191.189
  238.860    4.457    0.453    0.318  102.388  190.648
  239.110    4.612    0.446    0.313  102.337  190.963
  239.360    4.699    0.453    0.316  102.098  191.271
  239.610    4.639    0.460    0.316  101.681  191.173
  239.860    4.440    0.459    0.315  101.089  191.179
  240.110    4.162    0.452    0.320  100.605  192.176
  240.360    4.061    0.458    0.323  102.036  189.549
  240.610    3.995    0.465    0.322  100.547  186.625
  240.860    4.016    0.465    0.313  100.488  187.338
  241.110    4.082    0.467    0.311  102.100  187.854
  241.360    4.129    0.474    0.317  104.188  187.261
  241.610    4.035    0.476    0.311  104.212  186.959
  241.860    3.906    0.461    0.303  104.647  183.923
  242.110    3.816    0.448    0.302  105.071  185.435
  242.360    3.748    0.447    0.300  105.125  184.224
  242.610    3.687    0.441    0.299  105.068  182.517
  242.860    3.640    0.428    0.300  104.780  181.419
  243.110    3.638    0.419    0.304  103.457  181.224
  243.360    3.659    0.427    0.310  101.912  182.799
  243.610    3.843    0.432    0.306  102.561  183.517
  243.860    4.124    0.429    0.301  103.754  183.917
  244.110    4.476    0.429    0.300  104.416  184.012
  244.360    4.864    0.431    0.304  104.125  183.912
  244.610    5.248    0.425    0.304  102.855  184.235
  244.860    5.360    0.420    0.289  101.545  186.239
  245.110    5.350    0.422    0.277  102.688  189.754
  245.360    5.400    0.434    0.274  103.108  190.545
  245.610    5.450    0.445    0.273  101.744  190.247
  245.860    5.491    0.448    0.268   99.013  190.667
  246.110    5.568    0.441    0.259   96.359  193.435
  246.360    5.600    0.438    0.251   94.071  191.667
  246.610    5.549    0.439    0.254   96.865  191.972
  246.860    5.500    0.437    0.266  100.903  192.270
  247.110    5.410    0.434    0.274  104.172  190.563
  247.360    5.283    0.429    0.274  105.129  187.556
  247.610    5.118    0.426    0.273  102.631  186.885
  247.860    4.919    0.416    0.268  102.312  188.041
  248.110    4.735    0.411    0.272  103.217  187.924
  248.360    4.531    0.407    0.274  103.756  188.433
  248.610    4.378    0.402    0.273  102.870  188.738
  248.860    4.292    0.397    0.270  100.497  188.834
  249.110    4.265    0.403    0.270   97.120  187.933
  249.360    4.321    0.412    0.273   94.838  179.887
  249.610    4.507    0.421    0.312   94.067  181.399
