~VERSION INFORMATION
 VERS.                 2.0:   CWLS LOG ASCII STANDARD -VERSION 2.0
 WRAP.                  NO:   ONE LINE PER DEPTH STEP
~WELL INFORMATION BLOCK
#MNEM.UNIT           DATA                    DESCRIPTION OF MNEMONIC
#---------    -------------------            -------------------------------
# Generated from Intellog Unique Number	CS_71_72/WELL/920
WELL.         AMOCO AEC IPIATIK              : Well_name    - WELL
LOC .         00/12-28-072-06W4/0            : Location     - LOCATION
UWI .         00/12-28-072-06W4/0            : Uwi          - UNIQUE WELL ID
ENTR.         SP                             : Entered      - ENTERED BY
SRVC.         SCHLUMBERGER                   : Scn          - SERVICE COMPANY
STRT.M        340                            : top_depth    - START DEPTH
STOP.M        565                            : bot_depth    - STOP DEPTH
STEP.M        0.25                           : increment    - STEP LENGTH
 NULL. -999.2500:NULL Value
~CURVE INFORMATION BLOCK
#MNEM UNIT       ERCB CURVE CODE    CURVE DESCRIPTION
#-----------   ------------------   ----------------------------------
DEPT.M        00 001 00 00         : DEPTH        - DEPTH
ILD .OHMM     00 120 00 00         : RESD         - DEEP RESISTIVITY (DIL)
DPHI.V/V      00 890 00 00         : PHID         - DENSITY POROSITY (LIMESTONE)
NPHI.V/V      00 330 00 00         : PHIN         - NEUTRON POROSITY (LIMESTONE)
GR  .API      00 310 00 00         : GR           - GAMMA RAY
~PARAMETER INFORMATION
#MNEM.UNIT           DATA             DESCRIPTION OF MNEMONIC
#---------         -----------     ------------------------------
GL  .M        713.57               : gl           - GROUND LEVEL ELEVATION
EREF.M        713.07               : kb           - ELEVATION OF DEPTH REFERENCE
DATM.M        713.57               : datum        - DATUM ELEVATION
TDD .M        580.9                : tdd          - TOTAL DEPTH DRILLER
RUN .         ONE                  : Run          - RUN NUMBER
ENG .         BILL                 : Engineer     - RECORDING ENGINEER
WIT .         JIM                  : Witness      - WITNESSED BY
MUD .         GEL                  : Mud_type     - MUD TYPE
MATR.         LIMESTONE            : Logunit      - NEUTRON MATRIX
TMAX.C        22                   : BHT          - MAXIMUM RECORDED TEMPERATURE
BHTD.M        580.9                : BHTDEP       - MAXIMUM RECORDED TEMPERATURE
MATR.         1                    : LOGUNIT      - NEUTRON MATRIX
RMT .C        25                   : MDTP         - TEMPERATURE OF MUD
NEUT.         1                    : NEUTRON      - NEUTRON TYPE
RESI.         0                    : RESIST       - RESISTIVITY TYPE
RMC .OHMM     0.25                 : RMC          - RESISTIVITY OF MUD CAKE
RMF .OHMM     0.25                 : RMF          - RESISTIVITY OF MUD FILTRATE
SUFT.C        15                   : SUFT         - SURFACE TEMPERATURE
~A  DEPTH     RESD     PHID     PHIN       GR
# ...
  514.000    6.552    0.199    0.383   56.252
  514.250    7.056    0.193    0.384   54.449
  514.500    7.322    0.199    0.401   53.256
  514.750    7.458    0.196    0.409   52.662
  515.000    8.032    0.158    0.364   56.311
  515.250    8.182    0.148    0.375   59.958
  515.500    8.489    0.180    0.384   60.572
  515.750    8.488    0.195    0.395   62.403
  516.000    8.329    0.199    0.411   61.810
  516.250    8.021    0.186    0.408   60.617
  516.500    8.020    0.169    0.408   61.242
  516.750    7.870    0.165    0.412   61.856
  517.000    7.868    0.174    0.435   64.292
  517.250    7.865    0.182    0.443   65.516
  517.500    7.863    0.183    0.455   65.535
  517.750    7.861    0.177    0.431   64.939
  518.000    7.859    0.165    0.392   63.744
  518.250    7.857    0.160    0.389   61.944
  518.500    8.001    0.159    0.384   60.752
  518.750    7.999    0.160    0.380   59.553
  519.000    7.998    0.159    0.373   56.548
  519.250    7.996    0.159    0.371   56.557
  519.500    8.144    0.158    0.375   58.993
  519.750    7.992    0.158    0.373   62.643
  520.000    7.697    0.178    0.378   63.258
  520.250    7.553    0.191    0.386   63.876
  520.500    7.412    0.209    0.395   64.496
  520.750    7.274    0.223    0.405   64.514
  521.000    7.138    0.235    0.440   65.140
  521.250    7.135    0.179    0.417   66.363
  521.500    7.133    0.174    0.400   66.979
  521.750    7.132    0.183    0.397   68.198
  522.000    7.130    0.191    0.398   68.212
  522.250    7.262    0.188    0.393   63.389
  522.500    7.396    0.161    0.409   62.196
  522.750    7.533    0.145    0.422   65.837
  523.000    7.673    0.144    0.433   70.087
  523.250    7.814    0.147    0.423   72.523
  523.500    7.812    0.149    0.406   73.745
  523.750    7.958    0.162    0.399   70.735
  524.000    7.956    0.174    0.397   67.725
  524.250    8.103    0.184    0.411   69.561
  524.500    8.099    0.180    0.423   69.570
  524.750    8.098    0.150    0.424   68.981
  525.000    8.096    0.141    0.419   66.577
  525.250    8.094    0.130    0.411   64.170
  525.500    8.092    0.152    0.409   61.165
  525.750    7.941    0.171    0.412   61.180
  526.000    7.939    0.165    0.429   64.220
  526.250    7.936    0.163    0.439   66.648
  526.500    7.934    0.158    0.436   70.300
  526.750    7.786    0.154    0.420   70.915
  527.000    7.783    0.160    0.412   70.331
  527.250    7.638    0.170    0.416   70.342
  527.500    7.495    0.174    0.409   70.356
  527.750    7.354    0.166    0.407   69.767
  528.000    7.352    0.159    0.418   69.786
  528.250    7.351    0.152    0.414   70.404
  528.500    7.349    0.146    0.398   71.020
  528.750    7.347    0.142    0.391   71.636
  529.000    7.482    0.135    0.411   73.470
  529.250    7.622    0.130    0.424   74.688
  529.500    7.763    0.152    0.426   77.123
  529.750    7.760    0.156    0.431   78.353
  530.000    7.759    0.160    0.433   78.365
  530.250    7.613    0.166    0.426   78.377
  530.500    7.612    0.168    0.424   79.606
  530.750    7.469    0.173    0.428   80.828
  531.000    7.467    0.160    0.426   81.447
  531.250    7.465    0.150    0.427   79.650
  531.500    7.462    0.145    0.436   76.641
  531.750    7.601    0.174    0.432   74.836
  532.000    7.599    0.162    0.428   74.249
  532.250    7.885    0.156    0.413   68.214
  532.500    8.335    0.152    0.384   59.155
  532.750    8.812    0.145    0.340   50.097
  533.000    9.145    0.119    0.313   46.483
  533.250    9.849    0.169    0.339   51.336
  533.500   10.031    0.168    0.354   57.400
  533.750    9.662    0.151    0.368   62.258
  534.000    8.638    0.149    0.381   65.905
  534.250    8.321    0.174    0.386   67.124
  534.500    7.866    0.181    0.392   67.749
  534.750    7.577    0.190    0.411   67.153
  535.000    7.297    0.199    0.426   65.353
  535.250    7.296    0.220    0.444   54.479
  535.500    7.713    0.240    0.455   38.769
  535.750    9.117    0.262    0.469   29.710
  536.000   11.610    0.306    0.461   22.470
  536.250   13.225    0.331    0.436   18.855
  536.500   17.480    0.344    0.433   16.454
  536.750   23.540    0.340    0.419   15.255
  537.000   32.902    0.333    0.405   15.272
  537.250   43.493    0.331    0.399   16.497
  537.500   54.367    0.324    0.406   17.717
  537.750   51.398    0.314    0.416   18.946
  538.000   46.809    0.315    0.420   18.957
  538.250   44.255    0.321    0.431   18.369
  538.500   41.840    0.331    0.435   17.777
  538.750   40.304    0.336    0.438   15.384
  539.000   38.822    0.338    0.441   15.394
  539.250   37.389    0.339    0.453   14.799
  539.500   36.692    0.337    0.441   15.415
  539.750   36.685    0.320    0.424   17.250
  540.000   36.672    0.310    0.400   19.074
  540.250   35.988    0.298    0.386   22.724
  540.500   34.662    0.289    0.406   25.154
  540.750   32.167    0.299    0.414   30.011
  541.000   26.202    0.288    0.416   37.282
  541.250   21.746    0.281    0.406   45.162
  541.500   17.386    0.281    0.402   51.223
  541.750   14.428    0.280    0.397   57.284
  542.000   11.974    0.297    0.413   54.276
  542.250   10.124    0.322    0.431   51.869
  542.500    8.402    0.329    0.434   50.673
  542.750    6.718    0.317    0.416   50.690
  543.000    5.680    0.315    0.404   52.518
  543.250    4.714    0.318    0.419   55.559
  543.500    4.214    0.311    0.425   58.605
  543.750    3.839    0.311    0.426   59.221
  544.000    3.497    0.314    0.410   59.837
  544.250    3.245    0.310    0.403   58.041
  544.500    3.125    0.293    0.414   56.237
  544.750    3.010    0.272    0.402   59.878
  545.000    3.066    0.260    0.388   69.581
  545.250    3.181    0.245    0.386   72.007
  545.500    3.491    0.237    0.398   75.649
  545.750    3.830    0.228    0.416   78.084
  546.000    3.975    0.263    0.423   74.469
  546.250    4.202    0.294    0.445   55.129
  546.500    4.201    0.307    0.427   52.728
  546.750    3.756    0.319    0.415   51.531
  547.000    3.358    0.321    0.400   49.126
  547.250    3.116    0.306    0.395   46.120
  547.500    2.892    0.294    0.401   44.318
  547.750    2.734    0.294    0.412   42.515
  548.000    2.683    0.289    0.411   41.324
  548.250    2.632    0.286    0.396   40.126
  548.500    2.583    0.280    0.389   38.327
  548.750    2.535    0.274    0.400   35.925
  549.000    2.582    0.273    0.407   34.727
  549.250    2.581    0.275    0.402   41.397
  549.500    2.729    0.272    0.399   48.675
  549.750    2.885    0.253    0.399   51.102
  550.000    3.165    0.244    0.401   55.955
  550.250    3.672    0.232    0.415   62.021
  550.500    3.883    0.215    0.421   65.666
  550.750    4.421    0.208    0.423   68.103
  551.000    4.675    0.202    0.413   68.718
  551.250    5.129    0.194    0.408   69.342
  551.500    5.525    0.188    0.416   68.749
  551.750    5.840    0.202    0.416   68.158
  552.000    6.060    0.214    0.413   66.356
  552.250    6.059    0.217    0.426   60.928
  552.500    5.946    0.225    0.430   57.313
  552.750    5.415    0.231    0.422   50.677
  553.000    4.665    0.245    0.419   47.668
  553.250    4.170    0.254    0.413   45.868
  553.500    3.943    0.267    0.413   44.671
  553.750    3.659    0.281    0.427   42.267
  554.000    3.332    0.281    0.436   40.468
  554.250    3.093    0.282    0.437   39.270
  554.500    2.924    0.285    0.439   38.682
  554.750    2.764    0.294    0.449   38.095
  555.000    2.662    0.302    0.449   38.110
  555.250    2.564    0.307    0.439   36.916
  555.500    2.470    0.307    0.429   35.721
  555.750    2.379    0.307    0.428   35.731
  556.000    2.335    0.311    0.429   36.957
  556.250    2.291    0.318    0.430   41.813
  556.500    2.290    0.309    0.418   49.083
  556.750    2.333    0.288    0.424   58.174
  557.000    2.376    0.253    0.463   61.812
  557.250    2.466    0.199    0.461   69.084
