~VERSION INFORMATION
 VERS.                 2.0:   CWLS LOG ASCII STANDARD -VERSION 2.0
 WRAP.                  NO:   ONE LINE PER DEPTH STEP
~WELL INFORMATION BLOCK
#MNEM.UNIT           DATA                    DESCRIPTION OF MNEMONIC
#---------    -------------------            -------------------------------
# Generated from Intellog Unique Number	CW_70_72/WELL/3022
NULL.         -999.25                        : NULL_VALUE
WELL.         SUNDANCE CANAL 10-20           : Well_name    - WELL              
LOC .         10-20-070-23W4                 : Location     - LOCATION          
UWI .         00/10-20-070-23W4/0            : Uwi          - UNIQUE WELL ID    
ENTR.         jj                             : Entered      - ENTERED BY        
SRVC.         WESTERN ATLAS                  : Scn          - SERVICE COMPANY   
DATE.         18 FEB 77                      : Date         - LOG DATE          
STRT.M        396.24                         : top_depth    - START DEPTH       
STOP.M        579.24                         : bot_depth    - STOP DEPTH        
STEP.M        0.25                           : increment    - STEP LENGTH       
~CURVE INFORMATION BLOCK
#MNEM UNIT       ERCB CURVE CODE    CURVE DESCRIPTION
#-----------   ------------------   ----------------------------------
DEPT.M        00 001 00 00         : DEPTH        - DEPTH                       
ILD .OHMM     00 120 00 00         : RESD         - DEEP RESISTIVITY (DIL)      
CALI.MM       00 280 01 00         : CAL          - CALIPER                     
GR  .API      00 310 00 00         : GR           - GAMMA RAY                   
NPHI.V/V      00 330 00 00         : PHIN         - NEUTRON POROSITY (SANDSTONE)
DPHI.V/V      00 890 00 00         : PHID         - DENSITY POROSITY (SANDSTONE)
~PARAMETER INFORMATION       
#MNEM.UNIT           DATA             DESCRIPTION OF MNEMONIC
#---------         -----------     ------------------------------
GL  .M        626.059              : gl           - GROUND LEVEL ELEVATION      
EREF.M        629.717              : kb           - ELEVATION OF DEPTH REFERENCE
DATM.M        626.059              : datum        - DATUM ELEVATION             
TDD .M        588.264              : tdd          - TOTAL DEPTH DRILLER         
RUN .         ONE                  : Run          - RUN NUMBER                  
ENG .         DALY                 : Engineer     - RECORDING ENGINEER          
BASE.         EDM                  : Branch       - HOME BASE OF LOGGING UNIT   
MUD .         GEL BENDEX           : Mud_type     - MUD TYPE                    
MATR.         SANDSTONE            : Logunit      - NEUTRON MATRIX              
TMAX.C        23.8889              : BHT          - MAXIMUM RECORDED TEMPERATURE
BHTD.M        589.483              : BHTDEP       - MAXIMUM RECORDED TEMPERATURE
RMT .C        14.4444              : MDTP         - TEMPERATURE OF MUD          
MUDD.KG/M     1104                 : MWT          - MUD DENSITY                 
NEUT.         1                    : NEUTRON      - NEUTRON TYPE                
RESI.         0                    : RESIST       - RESISTIVITY TYPE            
RM  .OHMM     6.64                 : RM           - RESISTIVITY OF MUD          
RMC .OHMM     0.25                 : RMC          - RESISTIVITY OF MUD CAKE     
RMF .OHMM     5.99                 : RMF          - RESISTIVITY OF MUD FILTRATE 
SUFT.C        -17                  : SUFT         - SURFACE TEMPERATURE         
~A  DEPTH     RESD      CAL       GR     PHIN     PHID
# ...
  542.240    5.254  162.863   49.440    0.408    0.111
  542.490    5.234  162.473   73.765    0.401    0.126
  542.740    5.213  162.189   93.653    0.402    0.114
  542.990    5.238  162.519  107.158    0.418    0.097
  543.240    5.325  163.156  108.326    0.431    0.101
  543.490    5.401  164.722  101.533    0.447    0.112
  543.740    5.562  165.878  100.878    0.434    0.109
  543.990    5.790  165.901  108.061    0.438    0.101
  544.240    6.200  165.919  110.261    0.441    0.097
  544.490    6.612  162.648  103.164    0.423    0.104
  544.740    7.091  160.817   97.341    0.395    0.129
  544.990    7.662  160.021   90.122    0.400    0.141
  545.240    8.171  159.731   85.941    0.410    0.150
  545.490    8.714  160.473   86.199    0.389    0.163
  545.740    9.276  161.522   92.653    0.395    0.161
  545.990   10.005  163.502   95.584    0.390    0.144
  546.240   10.888  164.552   74.080    0.371    0.126
  546.490   12.324  164.884   60.297    0.248    0.071
  546.740   13.845  165.110   59.762    0.207    0.001
  546.990   14.680  165.439   73.392    0.215   -0.013
  547.240   11.577  166.185   81.974    0.251    0.020
  547.490    8.947  165.998   94.142    0.411    0.052
  547.740    7.841  165.198   96.525    0.444    0.083
  547.990    6.636  164.189   96.235    0.428    0.099
  548.240    6.023  163.183   97.280    0.407    0.107
  548.490    5.612  162.587   98.144    0.396    0.097
  548.740    5.456  161.889   98.886    0.384    0.065
  548.990    5.433  161.396  100.297    0.406    0.084
  549.240    5.481  160.802  101.039    0.405    0.093
  549.490    5.633  160.415  102.936    0.410    0.085
  549.740    5.866  160.537   99.487    0.417    0.105
  549.990    6.221  163.132   93.786    0.403    0.130
  550.240    6.772  164.595   91.671    0.373    0.116
  550.490    7.195  165.747   93.812    0.353    0.084
  550.740    7.491  166.180   97.957    0.359    0.055
  550.990    7.545  166.718  102.165    0.398    0.063
  551.240    7.172  166.122  101.872    0.401    0.078
  551.490    6.549  165.117  101.035    0.393    0.093
  551.740    6.261  163.905  106.033    0.387    0.109
  551.990    6.030  162.279  105.922    0.423    0.102
  552.240    5.940  160.244  107.517    0.421    0.094
  552.490    6.003  158.924  110.203    0.406    0.088
  552.740    6.135  158.332  101.100    0.389    0.082
  552.990    6.532  159.895   98.317    0.367    0.072
  553.240    7.005  161.151  100.641    0.355    0.065
  553.490    7.200  161.690  102.414    0.366    0.077
  553.740    6.847  162.225  105.527    0.396    0.100
  553.990    6.693  163.069  109.977    0.405    0.118
  554.240    6.652  165.152  107.255    0.400    0.100
  554.490    6.837  165.790  103.074    0.348    0.087
  554.740    7.387  165.610   98.347    0.310    0.068
  554.990    7.984  164.703  101.034    0.298    0.045
  555.240    7.993  163.591  107.246    0.315    0.055
  555.490    7.700  161.866  106.955    0.350    0.085
  555.740    7.375  160.757  105.814    0.373    0.083
  555.990    6.987  160.260  107.467    0.380    0.079
  556.240    6.680  159.563  110.458    0.387    0.082
  556.490    6.766  158.970  114.786    0.394    0.099
  556.740    6.979  159.090  114.134    0.383    0.104
  556.990    7.014  159.834  116.941    0.373    0.114
  557.240    6.379  163.152  121.330    0.378    0.132
  557.490    5.945  165.539  126.142    0.383    0.126
  557.740    6.019  167.618  123.785    0.388    0.117
  557.990    6.233  167.850  113.163    0.393    0.111
  558.240    6.345  167.353  106.309    0.352    0.091
  558.490    6.437  167.169  104.739    0.335    0.055
  558.740    6.519  167.500  112.717    0.345    0.036
  558.990    6.541  168.040  115.221    0.370    0.074
  559.240    6.465  167.545  114.140    0.390    0.090
  559.490    6.310  167.052  108.075    0.404    0.070
  559.740    5.988  166.250  105.356    0.380    0.100
  559.990    5.456  165.347  104.695    0.353    0.110
  560.240    4.835  164.237  105.986    0.333    0.088
  560.490    4.285  162.918  112.136    0.358    0.066
  560.740    3.707  162.119  121.509    0.384    0.112
  560.990    3.172  161.010  125.170    0.490    0.142
  561.240    3.038  159.697  119.286    0.458    0.142
  561.490    3.419  159.508  115.470    0.462    0.132
  561.740    4.000  159.531  111.351    0.474    0.108
  561.990    4.724  162.332  106.015    0.430    0.088
  562.240    5.517  165.240  100.499    0.367    0.061
  562.490    6.140  165.670  103.124    0.372    0.035
  562.740    6.127  166.102  107.634    0.382    0.031
  562.990    5.912  166.125  110.625    0.396    0.050
  563.240    5.684  166.045  113.373    0.385    0.080
  563.490    5.609  166.066  113.568    0.377    0.060
  563.740    5.690  165.367  115.831    0.374    0.039
  563.990    5.214  162.921  121.072    0.386    0.015
  564.240    5.135  162.734  120.719    0.411    0.085
  564.490    5.199  165.433  119.943    0.412    0.093
  564.740    5.384  168.336  119.408    0.405    0.085
  564.990    5.904  169.698  113.282    0.397    0.090
  565.240    6.572  169.926  104.057    0.391    0.098
  565.490    7.073  169.535   96.472    0.372    0.074
  565.740    7.445  169.250   87.672    0.332    0.046
  565.990    7.610  168.961   86.591    0.258    0.017
  566.240    7.303  168.983  100.705    0.252   -0.010
  566.490    6.754  169.005  107.890    0.311   -0.013
  566.740    5.747  168.719  114.893    0.353    0.083
  566.990    4.962  168.537  117.823    0.375    0.087
  567.240    5.392  168.660  117.593    0.395    0.099
  567.490    5.625  168.578  116.574    0.408    0.095
  567.740    5.134  168.189  115.856    0.415    0.082
  567.990    4.218  167.186  115.565    0.392    0.077
  568.240    3.432  166.480  115.820    0.401    0.053
  568.490    2.768  166.813  116.382    0.423    0.081
  568.740    3.354  167.659  116.699    0.429    0.082
  568.990    4.050  167.372  116.469    0.424    0.068
  569.240    4.721  166.671  117.028    0.405    0.057
  569.490    5.264  166.075  118.985    0.396    0.054
  569.740    5.729  166.303  123.678    0.401    0.078
  569.990    6.260  166.429  127.458    0.422    0.095
  570.240    6.565  166.244  130.389    0.410    0.106
  570.490    5.786  166.061  132.044    0.399    0.097
  570.740    6.126  166.290  130.903    0.397    0.090
  570.990    6.366  166.624  124.837    0.395    0.089
  571.240    6.434  167.056  115.732    0.389    0.085
  571.490    6.245  167.074  110.519    0.384    0.068
  571.740    6.207  166.788  110.774    0.378    0.051
  571.990    6.343  165.267  111.882    0.365    0.035
  572.240    6.667  163.538  109.220    0.344    0.045
  572.490    5.726  163.870  115.736    0.330    0.052
  572.740    5.354  165.436  123.408    0.346    0.080
  572.990    5.092  165.460  130.046    0.367    0.053
  573.240    5.013  165.069  132.734    0.391    0.077
  573.490    4.992  164.368  132.685    0.415    0.065
  573.740    5.046  167.379  126.621    0.415    0.067
  573.990    5.216  166.984  121.345    0.397    0.057
  574.240    5.399  165.158  121.299    0.368    0.047
  574.490    5.976  164.971  122.586    0.416    0.016
  574.740    5.326  167.466  124.727    0.421    0.039
  574.990    4.685  168.617  121.701    0.395    0.097
  575.240    4.269  168.228  121.838    0.371    0.067
  575.490    5.378  167.529  118.628    0.378    0.034
  575.740    7.476  166.524  104.297    0.375    0.034
  575.990    9.110  165.617   91.363    0.369    0.025
  576.240   10.798  163.788   55.456    0.323   -0.014
  576.490   12.494  162.162   35.777    0.265   -0.019
  576.740   14.087  161.051   21.691    0.240   -0.024
  576.990   14.856  160.664   21.278    0.222   -0.025
  577.240   13.893  160.479   21.048    0.210   -0.026
  577.490   12.568  160.602   21.060    0.195   -0.026
  577.740   11.471  161.451   22.227    0.205   -0.025
  577.990   10.608  161.983   26.434    0.202   -0.027
  578.240   10.013  162.008   26.811    0.196   -0.029
  578.490    9.520  161.822   24.880    0.211   -0.033
