~VERSION INFORMATION
 VERS.                 2.0:   CWLS LOG ASCII STANDARD -VERSION 2.0
 WRAP.                  NO:   ONE LINE PER DEPTH STEP
~WELL INFORMATION BLOCK
#MNEM.UNIT           DATA                    DESCRIPTION OF MNEMONIC
#---------    -------------------            -------------------------------
# Generated from Intellog Unique Number	CS_77_79/WELL/1008
WELL.         PCI PCEJ CHARD                 : Well_name    - WELL
LOC .         00/11-33-079-07W4/0            : Location     - LOCATION
UWI .         00/11-33-079-07W4/0            : Uwi          - UNIQUE WELL ID
ENTR.         JHS                            : Entered      - ENTERED BY
SRVC.         SCHLUMBERGER                   : Scn          - SERVICE COMPANY
STRT.M        140                            : top_depth    - START DEPTH
STOP.M        380                            : bot_depth    - STOP DEPTH
STEP.M        0.25                           : increment    - STEP LENGTH
 NULL. -999.2500:NULL Value
~CURVE INFORMATION BLOCK
#MNEM UNIT       ERCB CURVE CODE    CURVE DESCRIPTION
#-----------   ------------------   ----------------------------------
DEPT.M        00 001 00 00         : DEPTH        - DEPTH
DPHI.V/V      00 890 00 00         : PHID         - DENSITY POROSITY (LIMESTONE)
NPHI.V/V      00 330 00 00         : PHIN         - NEUTRON POROSITY (LIMESTONE)
GR  .API      00 310 00 00         : GR           - GAMMA RAY
ILD .OHMM     00 120 00 00         : RESD         - DEEP RESISTIVITY (DIL)
RHOB.KG/M3    00 350 00 00         : DENS         - BULK DENSITY
~PARAMETER INFORMATION
#MNEM.UNIT           DATA             DESCRIPTION OF MNEMONIC
#---------         -----------     ------------------------------
GL  .M        589.9                : gl           - GROUND LEVEL ELEVATION
EREF.M        593.55               : kb           - ELEVATION OF DEPTH REFERENCE
DATM.M        593.55               : datum        - DATUM ELEVATION
TDD .M        406                  : tdd          - TOTAL DEPTH DRILLER
RUN .         ONE                  : Run          - RUN NUMBER
ENG .         BILL                 : Engineer     - RECORDING ENGINEER
WIT .         JIM                  : Witness      - WITNESSED BY
MUD .         GEL                  : Mud_type     - MUD TYPE
MATR.         LIMESTONE            : Logunit      - NEUTRON MATRIX
TMAX.C        23                   : BHT          - MAXIMUM RECORDED TEMPERATURE
BHTD.M        406                  : BHTDEP       - MAXIMUM RECORDED TEMPERATURE
MATR.         1                    : LOGUNIT      - NEUTRON MATRIX
RMT .C        25                   : MDTP         - TEMPERATURE OF MUD
NEUT.         1                    : NEUTRON      - NEUTRON TYPE
RESI.         0                    : RESIST       - RESISTIVITY TYPE
RMC .OHMM     0.25                 : RMC          - RESISTIVITY OF MUD CAKE
RMF .OHMM     0.25                 : RMF          - RESISTIVITY OF MUD FILTRATE
SUFT.C        15                   : SUFT         - SURFACE TEMPERATURE
~A  DEPTH     PHID     PHIN       GR     RESD     DENS
# ...
  176.500    0.380    0.432   75.452   20.933    0.000
  176.750    0.384    0.452   77.291   20.544    0.000
  177.000    0.389    0.475   77.301   20.164    0.000
  177.250    0.390    0.459   74.266   19.790    0.000
  177.500    0.377    0.477   71.228   19.792    0.000
  177.750    0.347    0.475   74.899   19.795    0.000
  178.000    0.331    0.465   79.786   20.176    0.000
  178.250    0.324    0.472   82.238   20.563    0.000
  178.500    0.321    0.469   78.591   20.566    0.000
  178.750    0.325    0.462   75.552   20.961    0.000
  179.000    0.331    0.460   73.124   21.364    0.000
  179.250    0.318    0.440   65.212   21.367    0.000
  179.500    0.284    0.408   65.220   20.970    0.000
  179.750    0.277    0.369   74.990   20.196    0.000
  180.000    0.290    0.384   74.390   18.730    0.000
  180.250    0.319    0.455   71.354   16.727    0.000
  180.500    0.341    0.473   71.974   14.116    0.000
  180.750    0.336    0.497   90.278   10.438    0.000
  181.000    0.268    0.526  110.413    7.574    0.000
  181.250    0.247    0.570  113.473    6.272    0.000
  181.500    0.201    0.527  108.608    5.394    0.000
  181.750    0.180    0.516  108.007    4.909    0.000
  182.000    0.199    0.532  108.630    4.640    0.000
  182.250    0.256    0.525  106.201    4.385    0.000
  182.500    0.252    0.557  104.993    4.067    0.000
  182.750    0.236    0.581  108.665    4.145    0.000
  183.000    0.250    0.610  106.849    4.470    0.000
  183.250    0.295    0.617  103.199    5.200    0.000
  183.500    0.318    0.542   94.063    6.902    0.000
  183.750    0.310    0.429   79.439    9.696    0.000
  184.000    0.308    0.425   62.986   17.409    0.000
  184.250    0.331    0.407   44.704   22.677    0.000
  184.500    0.353    0.398   29.471   26.880    0.000
  184.750    0.354    0.400   25.215   28.992    0.000
  185.000    0.361    0.403   27.058   29.549    0.000
  185.250    0.367    0.402   28.286   29.001    0.000
  185.500    0.357    0.399   27.078   28.463    0.000
  185.750    0.349    0.400   24.040   27.935    0.000
  186.000    0.352    0.402   25.883   27.416    0.000
  186.250    0.363    0.410   29.551   26.908    0.000
  186.500    0.324    0.425   36.882   26.911    0.000
  186.750    0.300    0.435   41.769   26.412    0.000
  187.000    0.298    0.448   47.269   24.963    0.000
  187.250    0.323    0.446   49.723   24.041    0.000
  187.500    0.345    0.453   51.562   22.720    0.000
  187.750    0.344    0.449   56.450   21.882    0.000
  188.000    0.349    0.454   61.340   21.477    0.000
  188.250    0.356    0.447   62.574   21.078    0.000
  188.500    0.349    0.443   60.755   21.081    0.000
  188.750    0.325    0.468   57.108   21.486    0.000
  189.000    0.317    0.470   54.068   21.898    0.000
  189.250    0.321    0.464   50.421   21.902    0.000
  189.500    0.337    0.472   51.042   21.905    0.000
  189.750    0.352    0.464   55.324   21.096    0.000
  190.000    0.352    0.448   62.041   19.565    0.000
  190.250    0.331    0.434   73.639   16.826    0.000
  190.500    0.318    0.440   84.626   13.418    0.000
  190.750    0.305    0.454   95.003   10.904    0.000
  191.000    0.282    0.459  105.991    8.861    0.000
  191.250    0.261    0.513  112.100    7.766    0.000
  191.500    0.233    0.546  110.892    7.339    0.000
  191.750    0.196    0.547  107.244    7.203    0.000
  192.000    0.186    0.531  109.696    7.341    0.000
  192.250    0.207    0.504  111.539    7.625    0.000
  192.500    0.236    0.498  107.892    8.224    0.000
  192.750    0.243    0.498  107.290    9.566    0.000
  193.000    0.257    0.495  104.253   10.918    0.000
  193.250    0.289    0.463   95.118   13.696    0.000
  193.500    0.360    0.443   94.518   16.543    0.000
  193.750    0.358    0.443   96.362   19.608    0.000
  194.000    0.358    0.468   90.274   20.366    0.000
  194.250    0.328    0.478   84.797   18.887    0.000
  194.500    0.307    0.485   84.198   15.940    0.000
  194.750    0.296    0.495   90.308   14.783    0.000
  195.000    0.291    0.498   93.369   14.237    0.000
  195.250    0.298    0.480   91.553   14.239    0.000
  195.500    0.312    0.507   87.903   14.512    0.000
  195.750    0.315    0.498   87.915   14.791    0.000
  196.000    0.318    0.451   83.658   15.075    0.000
  196.250    0.306    0.439   78.181   16.570    0.000
  196.500    0.290    0.453   73.315   18.212    0.000
  196.750    0.300    0.475   66.618   19.643    0.000
  197.000    0.326    0.432   50.164   21.591    0.000
  197.250    0.343    0.392   39.809   22.852    0.000
  197.500    0.345    0.376   33.722   24.186    0.000
  197.750    0.338    0.367   37.393   24.651    0.000
  198.000    0.328    0.371   56.918   23.741    0.000
  198.250    0.306    0.400   64.248   21.607    0.000
  198.500    0.287    0.451   58.161   20.420    0.000
  198.750    0.292    0.447   57.561   18.236    0.000
  199.000    0.305    0.463   65.500   16.913    0.000
  199.250    0.320    0.444   70.389   15.685    0.000
  199.500    0.307    0.430   77.720   14.008    0.000
  199.750    0.282    0.476   83.829   13.239    0.000
  200.000    0.286    0.479   82.620   12.750    0.000
  200.250    0.298    0.446   79.585   12.280    0.000
  200.500    0.287    0.438   78.984   11.827    0.000
  200.750    0.265    0.448   79.605   11.390    0.000
  201.000    0.285    0.471   83.275   10.366    0.000
  201.250    0.288    0.504   88.165    9.614    0.000
  201.500    0.270    0.497   94.276    8.586    0.000
  201.750    0.261    0.475   97.945    8.114    0.000
  202.000    0.272    0.490  102.226    7.815    0.000
  202.250    0.263    0.537  104.066    8.116    0.000
  202.500    0.247    0.519  104.686    8.921    0.000
  202.750    0.253    0.486   98.600   10.575    0.000
  203.000    0.319    0.451   85.195   11.622    0.000
  203.250    0.345    0.429   65.085   14.039    0.000
  203.500    0.356    0.442   64.485   15.431    0.000
  203.750    0.349    0.482   68.768   16.026    0.000
  204.000    0.322    0.450   71.826   16.029    0.000
  204.250    0.304    0.434   76.715   15.437    0.000
  204.500    0.320    0.455   80.387   14.317    0.000
  204.750    0.340    0.478   78.568   13.788    0.000
  205.000    0.337    0.488   78.580   13.533    0.000
  205.250    0.335    0.505   86.519   13.281    0.000
  205.500    0.285    0.493   85.919   12.088    0.000
  205.750    0.138    0.476   83.492   11.001    0.000
  206.000    0.142    0.484   93.260   10.011    0.000
  206.250    0.228    0.504  101.198    9.826    0.000
  206.500    0.265    0.484  103.040    9.827    0.000
  206.750    0.273    0.485  101.222   10.207    0.000
  207.000    0.305    0.495   96.966   10.803    0.000
  207.250    0.317    0.468   92.101   12.566    0.000
  207.500    0.296    0.462   90.279   13.811    0.000
  207.750    0.294    0.452   86.631   14.345    0.000
  208.000    0.306    0.455   82.375   14.078    0.000
  208.250    0.309    0.463   86.656   13.817    0.000
  208.500    0.310    0.455   86.666   13.561    0.000
  208.750    0.297    0.457   86.068   13.060    0.000
  209.000    0.280    0.464   89.129   12.818    0.000
  209.250    0.289    0.453   97.069   12.820    0.000
  209.500    0.300    0.442   98.907   12.822    0.000
  209.750    0.263    0.480   98.311   12.584    0.000
  210.000    0.248    0.513   92.833   12.120    0.000
  210.250    0.273    0.530   87.965   11.672    0.000
  210.500    0.303    0.543   81.879   10.826    0.000
  210.750    0.283    0.514   80.671   10.426    0.000
  211.000    0.246    0.475   84.952    9.669    0.000
  211.250    0.209    0.442   86.794    9.138    0.000
  211.500    0.203    0.452   89.242    8.161    0.000
  211.750    0.266    0.484   95.352    7.860    0.000
  212.000    0.285    0.502   95.364    8.011    0.000
  212.250    0.279    0.541   87.447    8.972    0.000
  212.500    0.292    0.520   71.604   11.255    0.000
  212.750    0.303    0.437   61.249   13.595    0.000
