~VERSION INFORMATION
 VERS.                 2.0:   CWLS LOG ASCII STANDARD -VERSION 2.0
 WRAP.                  NO:   ONE LINE PER DEPTH STEP
~WELL INFORMATION BLOCK
#MNEM.UNIT           DATA                    DESCRIPTION OF MNEMONIC
#---------    -------------------            -------------------------------
# Generated from Intellog Unique Number	CW_82_90/WELL/3456
WELL.         COSEKA RES                     : Well_name    - WELL
LOC .         00/14-34-090-20W4/0            : Location     - LOCATION
UWI .         00/14-34-090-20W4/0            : Uwi          - UNIQUE WELL ID
ENTR.         MAX                            : Entered      - ENTERED BY
SRVC.         COMPUTALOG                     : Scn          - SERVICE COMPANY
STRT.M        145                            : top_depth    - START DEPTH
STOP.M        230                            : bot_depth    - STOP DEPTH
STEP.M        0.25                           : increment    - STEP LENGTH
 NULL. -999.2500:NULL Value
~CURVE INFORMATION BLOCK
#MNEM UNIT       ERCB CURVE CODE    CURVE DESCRIPTION
#-----------   ------------------   ----------------------------------
DEPT.M        00 001 00 00         : DEPTH        - DEPTH
GR  .API      00 310 00 00         : GR           - GAMMA RAY
CALI.MM       00 280 01 00         : CAL          - CALIPER
DPHI.V/V      00 890 00 00         : PHID         - DENSITY POROSITY (SANDSTONE)
NPHI.V/V      00 330 00 00         : PHIN         - NEUTRON POROSITY (SANDSTONE)
ILD .OHMM     00 120 00 00         : RESD         - DEEP RESISTIVITY (DIL)
~PARAMETER INFORMATION
#MNEM.UNIT           DATA             DESCRIPTION OF MNEMONIC
#---------         -----------     ------------------------------
GL  .M        515.45               : gl           - GROUND LEVEL ELEVATION
EREF.M        518.65               : kb           - ELEVATION OF DEPTH REFERENCE
DATM.M        515.45               : datum        - DATUM ELEVATION
TDD .M        231                  : tdd          - TOTAL DEPTH DRILLER
RUN .         ONE                  : Run          - RUN NUMBER
ENG .         BILL                 : Engineer     - RECORDING ENGINEER
WIT .         JIM                  : Witness      - WITNESSED BY
MUD .         GEL                  : Mud_type     - MUD TYPE
MATR.         SANDSTONE            : Logunit      - NEUTRON MATRIX
TMAX.C        17                   : BHT          - MAXIMUM RECORDED TEMPERATURE
BHTD.M        231                  : BHTDEP       - MAXIMUM RECORDED TEMPERATURE
MATR.         1                    : LOGUNIT      - NEUTRON MATRIX
RMT .C        16                   : MDTP         - TEMPERATURE OF MUD
NEUT.         1                    : NEUTRON      - NEUTRON TYPE
RESI.         0                    : RESIST       - RESISTIVITY TYPE
RMC .OHMM     2.5                  : RMC          - RESISTIVITY OF MUD CAKE
RMF .OHMM     3.1                  : RMF          - RESISTIVITY OF MUD FILTRATE
SUFT.C        -10                  : SUFT         - SURFACE TEMPERATURE
~A  DEPTH       GR      CAL     PHID     PHIN     RESD
# ...
  181.500   97.690  157.878    0.168    0.431    8.910
  181.750   90.876  157.836    0.151    0.377   11.068
  182.000   85.533  158.782    0.194    0.386   12.440
  182.250   86.692  158.750    0.214    0.405   12.996
  182.500   87.853  158.220    0.210    0.411   12.977
  182.750   89.895  158.173    0.201    0.411   12.723
  183.000   92.825  159.129    0.198    0.420   12.024
  183.250   95.761  159.584    0.195    0.425   11.365
  183.500   99.282  159.546    0.189    0.432   11.348
  183.750  101.327  160.001    0.183    0.432   12.078
  184.000   99.237  159.964    0.175    0.425   13.948
  184.250   91.830  159.921    0.139    0.382   15.669
  184.500   81.472  159.879    0.042    0.339   15.934
  184.750   76.135  159.846    0.014    0.283   16.958
  185.000   80.541  159.814    0.107    0.284   17.403
  185.250   94.394  158.792    0.171    0.346   16.747
  185.500   92.898  157.765    0.215    0.388   16.272
  185.750   91.692  157.728    0.224    0.369   15.808
  186.000   88.719  157.691    0.229    0.348   15.495
  186.250   86.925  157.653    0.235    0.353   15.188
  186.500   85.722  157.611    0.239    0.368   15.169
  186.750   83.624  157.573    0.232    0.371   16.141
  187.000   82.426  157.048    0.206    0.364   17.815
  187.250   79.746  156.514    0.181    0.356   19.481
  187.500   73.522  155.989    0.141    0.349   21.888
  187.750   67.889  155.947    0.136    0.338   25.054
  188.000   59.891  156.899    0.112    0.314   28.678
  188.250   55.735  157.353    0.060    0.241   30.788
  188.500   53.350  157.808    0.050    0.231   31.589
  188.750   51.846  157.770    0.066    0.234   30.975
  189.000   51.235  157.733    0.101    0.255   30.086
  189.250   50.034  158.183    0.129    0.272   28.189
  189.500   50.602  159.125    0.134    0.258   27.137
  189.750   51.168  159.088    0.081    0.222   29.139
  190.000   50.555  159.059    0.031    0.211   33.960
  190.250   52.006  159.022    0.008    0.221   37.468
  190.500   54.942  158.980    0.014    0.230   35.105
  190.750   61.120  158.445    0.040    0.235   29.752
  191.000   66.115  157.916    0.091    0.263   26.145
  191.250   67.867  156.894    0.189    0.350   24.941
  191.500   66.660  155.872    0.171    0.359   23.359
  191.750   63.095  155.835    0.143    0.320   21.297
  192.000   64.256  155.802    0.175    0.335   19.408
  192.250   72.797  155.765    0.179    0.370   18.184
  192.500   83.405  155.727    0.168    0.406   17.183
  192.750   82.201  155.690    0.127    0.378   16.542
  193.000   77.156  155.652    0.079    0.296   16.369
  193.250   73.297  155.615    0.033    0.295   16.339
  193.500   72.684  155.577    0.109    0.332   16.161
  193.750   82.702  155.530    0.148    0.367   15.707
  194.000   90.947  155.994    0.177    0.392   15.259
  194.250   95.056  156.937    0.177    0.394   14.690
  194.500   93.852  157.391    0.168    0.401   14.530
  194.750   92.058  157.358    0.151    0.409   14.509
  195.000   92.331  157.316    0.158    0.413   14.483
  195.250   91.718  157.279    0.170    0.423   14.199
  195.500   89.926  157.246    0.149    0.416   14.176
  195.750   85.176  156.712    0.126    0.396   14.153
  196.000   86.926  155.680    0.112    0.394   14.262
  196.250   87.201  155.652    0.120    0.400   14.236
  196.500   87.766  155.606    0.142    0.399   14.210
  196.750   91.881  156.065    0.180    0.403   13.807
  197.000   92.744  156.027    0.178    0.409   13.411
  197.250   90.652  156.487    0.169    0.413   13.148
  197.500   90.331  156.941    0.162    0.419   12.895
  197.750   90.607  157.884    0.167    0.417   12.755
  198.000   92.058  158.338    0.175    0.410   12.737
  198.250   93.810  158.798    0.195    0.408   12.950
  198.500   96.150  160.232    0.197    0.406   13.044
  198.750   98.194  160.686    0.194    0.401   12.902
  199.000   99.055  161.141    0.177    0.407   13.123
  199.250   96.673  160.616    0.168    0.410   13.832
  199.500   93.698  160.579    0.136    0.409   14.324
  199.750   89.834  159.060    0.118    0.409   14.567
  200.000   89.814  158.526    0.098    0.412   14.411
  200.250   92.154  158.498    0.120    0.412   13.874
  200.500   97.742  158.460    0.181    0.411   12.993
  200.750  102.444  157.921    0.192    0.410   12.504
  201.000  103.597  157.884    0.185    0.418   12.147
  201.250  100.037  157.851    0.168    0.425   12.018
  201.500   89.974  157.809    0.113    0.415   12.223
  201.750   86.108  158.268    0.108    0.403   12.653
  202.000   89.336  158.713    0.162    0.399   12.521
  202.250   94.336  158.685    0.177    0.400   12.387
  202.500   98.448  158.648    0.176    0.407   12.595
  202.750  103.147  158.606    0.168    0.413   12.687
  203.000  106.080  158.568    0.094    0.417   13.377
  203.250  105.172  159.023    0.066    0.385   14.108
  203.500   92.449  159.482    0.056    0.351   14.743
  203.750   93.608  159.932    0.100    0.339   15.124
  204.000  101.853  160.387    0.135    0.358   15.944
  204.250  102.126  159.857    0.180    0.379   16.365
  204.500   95.017  159.820    0.145    0.366   16.335
  204.750   87.317  158.798    0.006    0.327   16.161
  205.000   89.657  157.781    0.073    0.309   15.700
  205.250   97.902  157.247    0.121    0.373   15.117
  205.500  105.262  156.712    0.157    0.394   13.777
  205.750  107.306  156.187    0.185    0.394   12.786
  206.000  107.874  156.633    0.185    0.392   12.652
  206.250  110.211  156.605    0.182    0.405   12.747
  206.500  110.487  157.059    0.172    0.412   12.611
  206.750  106.035  158.001    0.164    0.411   12.138
  207.000  106.013  158.953    0.172    0.430   10.966
  207.250  108.057  159.900    0.178    0.468    9.549
  207.500  114.236  160.354    0.177    0.479    9.110
  207.750  116.871  160.307    0.151    0.469    9.345
  208.000  110.647  160.279    0.114    0.410   10.036
  208.250   95.858  160.242    0.002    0.351   10.681
  208.500   86.681  159.712    0.035    0.307   11.158
  208.750   99.061  158.686    0.150    0.367   10.942
  209.000  112.624  158.152    0.183    0.416    9.794
  209.250  110.535  158.114    0.170    0.424    8.374
  209.500  101.356  158.086    0.143    0.421    8.062
  209.750   98.673  157.064    0.106    0.410    8.424
  210.000  106.921  157.022    0.153    0.422    8.564
  210.250  110.737  156.483    0.181    0.422    8.867
  210.500  112.191  155.958    0.176    0.418    9.098
  210.750  110.099  155.921    0.163    0.418    9.508
  211.000  110.375  155.883    0.167    0.420    9.933
  211.250  111.531  156.338    0.174    0.424   10.099
  211.500  111.511  156.305    0.154    0.411   10.550
  211.750  105.878  156.755    0.105    0.388   11.126
  212.000  100.836  156.717    0.033    0.342   12.280
  212.250   94.609  157.172    0.073    0.303   13.927
  212.500  100.791  157.139    0.100    0.332   15.229
  212.750  107.264  158.086    0.134    0.354   16.057
  213.000  106.947  158.536    0.173    0.373   17.246
  213.250  101.311  158.995    0.175    0.384   19.917
  213.500   93.611  158.456    0.183    0.386   23.643
  213.750   78.824  157.936    0.245    0.389   33.670
  214.000   61.082  157.407    0.280    0.390   46.649
  214.250   42.454  156.877    0.300    0.391   61.768
  214.500   39.183  156.338    0.304    0.376   70.034
  214.750   39.746  155.804    0.306    0.387   71.205
  215.000   40.024  155.776    0.305    0.410   72.410
  215.250   40.002  155.738    0.303    0.427   75.658
  215.500   39.976  155.696    0.308    0.430   77.626
  215.750   39.363  156.151    0.316    0.421   78.940
  216.000   38.750  156.610    0.312    0.419   79.517
  216.250   37.549  157.055    0.299    0.427   81.585
  216.500   34.571  157.022    0.285    0.409   82.966
  216.750   33.069  157.477    0.262    0.382   83.589
  217.000   38.072  158.419    0.178    0.373   79.018
  217.250   42.772  158.391    0.202    0.392   53.329
  217.500   45.995  159.830    0.237    0.383   42.399
  217.750   49.226  160.777    0.208    0.360   30.497
