~VERSION INFORMATION
 VERS.                 2.0:   CWLS LOG ASCII STANDARD -VERSION 2.0
 WRAP.                  NO:   ONE LINE PER DEPTH STEP
~WELL INFORMATION BLOCK
#MNEM.UNIT           DATA                    DESCRIPTION OF MNEMONIC
#---------    -------------------            -------------------------------
# Generated from Intellog Unique Number	CS_73_76/WELL/3246
WELL.         STANDARD OIL COMPANY           : Well_name    - WELL
LOC .         00/10-27-076-11W4/0            : Location     - LOCATION
UWI .         00/10-27-076-11W4/0            : Uwi          - UNIQUE WELL ID
ENTR.         SP                             : Entered      - ENTERED BY
SRVC.         SCHLUMBERGER                   : Scn          - SERVICE COMPANY
STRT.M        268.224                        : top_depth    - START DEPTH
STOP.M        502.724                        : bot_depth    - STOP DEPTH
STEP.M        0.25                           : increment    - STEP LENGTH
 NULL. -999.2500:NULL Value
~CURVE INFORMATION BLOCK
#MNEM UNIT       ERCB CURVE CODE    CURVE DESCRIPTION
#-----------   ------------------   ----------------------------------
DEPT.M        00 001 00 00         : DEPTH        - DEPTH
GR  .API      00 310 00 00         : GR           - GAMMA RAY
DPHI.V/V      00 890 00 00         : PHID         - DENSITY POROSITY (SANDSTONE)
NPHI.V/V      00 330 00 00         : PHIN         - NEUTRON POROSITY (SANDSTONE)
ILD .OHMM     00 120 00 00         : RESD         - DEEP RESISTIVITY (DIL)
~PARAMETER INFORMATION
#MNEM.UNIT           DATA             DESCRIPTION OF MNEMONIC
#---------         -----------     ------------------------------
GL  .M        665.165              : gl           - GROUND LEVEL ELEVATION
EREF.M        668.426              : kb           - ELEVATION OF DEPTH REFERENCE
DATM.M        665.165              : datum        - DATUM ELEVATION
TDD .M        531.266              : tdd          - TOTAL DEPTH DRILLER
RUN .         ONE                  : Run          - RUN NUMBER
ENG .         BILL                 : Engineer     - RECORDING ENGINEER
WIT .         JIM                  : Witness      - WITNESSED BY
MUD .         GEL                  : Mud_type     - MUD TYPE
MATR.         SANDSTONE            : Logunit      - NEUTRON MATRIX
TMAX.C        22.7778              : BHT          - MAXIMUM RECORDED TEMPERATURE
BHTD.M        531.266              : BHTDEP       - MAXIMUM RECORDED TEMPERATURE
MATR.         1                    : LOGUNIT      - NEUTRON MATRIX
RMT .C        25                   : MDTP         - TEMPERATURE OF MUD
NEUT.         1                    : NEUTRON      - NEUTRON TYPE
RESI.         0                    : RESIST       - RESISTIVITY TYPE
RMC .OHMM     0.25                 : RMC          - RESISTIVITY OF MUD CAKE
RMF .OHMM     0.25                 : RMF          - RESISTIVITY OF MUD FILTRATE
SUFT.C        15                   : SUFT         - SURFACE TEMPERATURE
~A  DEPTH       GR     PHID     PHIN     RESD
# ...
  442.224   64.209    0.262    0.424   15.592
  442.474   63.136    0.261    0.417   17.011
  442.724   62.129    0.258    0.431   18.061
  442.974   62.407    0.253    0.447   18.461
  443.224   64.149    0.244    0.467   18.025
  443.474   65.047    0.234    0.466   16.892
  443.724   67.066    0.238    0.467   15.687
  443.974   68.325    0.234    0.475   15.341
  444.224   69.908    0.221    0.476   15.562
  444.474   69.978    0.199    0.471   16.075
  444.724   69.253    0.184    0.473   16.216
  444.974   67.639    0.161    0.462   16.226
  445.224   67.535    0.149    0.450   16.240
  445.474   68.184    0.121    0.438   16.240
  445.724   67.753    0.168    0.461   17.233
  445.974   67.572    0.214    0.473   19.430
  446.224   68.143    0.217    0.487   21.330
  446.474   68.644    0.244    0.505   25.036
  446.724   66.085    0.259    0.504   28.918
  446.974   63.703    0.269    0.498   34.839
  447.224   59.892    0.271    0.487   38.434
  447.474   59.199    0.287    0.495   39.274
  447.724   60.527    0.289    0.470   35.745
  447.974   64.640    0.275    0.473   32.542
  448.224   69.608    0.264    0.479   29.280
  448.474   73.128    0.259    0.467   25.814
  448.724   76.090    0.257    0.454   23.246
  448.974   78.430    0.261    0.457   21.106
  449.224   79.530    0.270    0.469   19.522
  449.474   84.733    0.255    0.471   17.435
  449.724   89.630    0.237    0.465   15.275
  449.974   92.940    0.211    0.460   12.846
  450.224   96.142    0.213    0.457   11.635
  450.474  100.208    0.225    0.468   10.788
  450.724  105.122    0.219    0.465   10.730
  450.974  107.832    0.210    0.477   11.834
  451.224  103.603    0.198    0.478   14.492
  451.474   97.465    0.207    0.480   16.414
  451.724   89.155    0.209    0.480   17.974
  451.974   77.526    0.222    0.445   19.603
  452.224   65.762    0.229    0.412   20.080
  452.474   64.426    0.233    0.413   19.715
  452.724   73.015    0.231    0.416   18.398
  452.974   78.924    0.201    0.419   17.518
  453.224   81.269    0.172    0.425   17.049
  453.474   82.178    0.169    0.430   16.834
  453.724   81.539    0.200    0.426   17.021
  453.974   82.042    0.187    0.419   17.836
  454.224   80.660    0.216    0.422   18.925
  454.474   75.928    0.223    0.424   20.534
  454.724   71.013    0.215    0.424   21.823
  454.974   66.272    0.210    0.438   23.424
  455.224   62.374    0.235    0.452   26.019
  455.474   58.849    0.257    0.451   27.971
  455.724   64.818    0.267    0.417   29.738
  455.974   66.612    0.258    0.402   31.766
  456.224   63.007    0.238    0.415   34.351
  456.474   54.070    0.224    0.428   38.749
  456.724   46.684    0.259    0.436   41.010
  456.974   45.123    0.274    0.425   44.735
  457.224   52.191    0.272    0.407   44.404
  457.474   64.041    0.268    0.401   41.694
  457.724   68.254    0.258    0.414   33.627
  457.974   69.856    0.244    0.430   27.955
  458.224   70.298    0.234    0.454   24.003
  458.474   69.488    0.225    0.465   19.659
  458.724   66.353    0.234    0.467   16.543
  458.974   60.266    0.219    0.478   15.085
  459.224   59.972    0.247    0.460   15.141
  459.474   61.967    0.257    0.451   17.558
  459.724   60.308    0.231    0.417   21.135
  459.974   54.687    0.236    0.447   27.906
  460.224   47.880    0.241    0.439   42.546
  460.474   40.831    0.270    0.427   76.003
  460.724   35.523    0.284    0.409  143.437
  460.974   38.642    0.283    0.405  277.554
  461.224   42.018    0.291    0.400  609.366
  461.474   44.488    0.294    0.413  706.662
  461.724   45.789    0.304    0.413  191.656
  461.974   47.933    0.294    0.413  150.887
  462.224   50.303    0.285    0.419  124.634
  462.474   54.967    0.279    0.444  108.039
  462.724   57.898    0.280    0.465   96.072
  462.974   61.540    0.296    0.486   92.138
  463.224   63.020    0.305    0.487   89.458
  463.474   66.009    0.311    0.481   86.850
  463.724   65.514    0.298    0.489   83.050
  463.974   64.413    0.290    0.487   77.146
  464.224   63.402    0.284    0.490   71.029
  464.474   65.993    0.295    0.491   66.027
  464.724   65.501    0.288    0.479   60.073
  464.974   64.541    0.279    0.469   53.109
  465.224   64.731    0.283    0.497   46.845
  465.474   67.228    0.280    0.509   41.601
  465.724   69.600    0.278    0.500   35.025
  465.974   73.228    0.270    0.498   28.874
  466.224   77.052    0.258    0.494   22.195
  466.474   82.857    0.246    0.487   17.944
  466.724   89.627    0.239    0.477   14.527
  466.974   93.281    0.221    0.473   12.283
  467.224   94.823    0.204    0.461   10.473
  467.474   96.699    0.175    0.477    9.881
  467.724   98.987    0.186    0.482    9.410
  467.974   99.064    0.183    0.475    9.028
  468.224   94.801    0.170    0.467    8.740
  468.474   93.056    0.165    0.463    8.757
  468.724   90.942    0.178    0.469    8.485
  468.974   91.841    0.190    0.477    8.422
  469.224   92.757    0.194    0.471    8.152
  469.474   94.570    0.212    0.457    8.189
  469.724   97.087    0.203    0.449    8.633
  469.974   98.063    0.194    0.460    9.031
  470.224   95.130    0.184    0.475    9.871
  470.474   89.457    0.158    0.469   11.175
  470.724   75.980    0.160    0.453   12.530
  470.974   67.324    0.175    0.441   14.431
  471.224   66.405    0.160    0.432   16.404
  471.474   68.514    0.153    0.415   17.460
  471.724   71.769    0.142    0.401   17.534
  471.974   73.991    0.123    0.430   15.606
  472.224   76.538    0.163    0.452   15.629
  472.474   79.076    0.213    0.439   14.604
  472.724   79.988    0.203    0.439   13.318
  472.974   78.483    0.192    0.444   12.162
  473.224   73.669    0.183    0.451   11.369
  473.474   66.456    0.189    0.461   11.670
  473.724   62.214    0.225    0.467   13.197
  473.974   55.987    0.255    0.466   15.672
  474.224   51.287    0.267    0.452   23.964
  474.474   50.089    0.269    0.433   31.271
  474.724   52.837    0.271    0.430   39.010
  474.974   57.837    0.272    0.450   42.526
  475.224   59.973    0.272    0.469   37.654
  475.474   61.326    0.259    0.470   30.161
  475.724   62.127    0.237    0.462   22.700
  475.974   65.428    0.233    0.472   19.280
  476.224   74.278    0.221    0.427   17.206
  476.474   83.914    0.175    0.405   14.022
  476.724   91.938    0.157    0.416   12.058
  476.974   96.695    0.165    0.438   10.975
  477.224   94.376    0.173    0.468   10.236
  477.474   90.471    0.187    0.456    9.700
  477.724   87.811    0.201    0.441    9.515
  477.974   86.755    0.187    0.428    9.560
  478.224   87.337    0.187    0.423    9.873
  478.474   88.338    0.191    0.429   10.199
  478.724   88.454    0.184    0.446   10.294
  478.974   87.490    0.172    0.440   10.451
  479.224   85.893    0.179    0.438   10.682
  479.474   83.559    0.186    0.436   10.673
  479.724   83.066    0.189    0.438   11.014
  479.974   82.684    0.194    0.444   11.355
  480.224   77.589    0.207    0.450   11.707
  480.474   74.269    0.204    0.465   11.912
  480.724   72.384    0.199    0.453   12.218
  480.974   75.743    0.215    0.438   12.599
  481.224   80.062    0.225    0.424   12.616
  481.474   84.676    0.215    0.424   12.276
  481.724   88.168    0.218    0.416   11.750
  481.974   89.234    0.198    0.420   11.106
  482.224   89.459    0.192    0.432   11.521
  482.474   89.490    0.194    0.429   11.278
  482.724   89.889    0.189    0.445   11.679
  482.974   82.971    0.176    0.455   13.959
  483.224   75.184    0.167    0.448   18.230
  483.474   69.389    0.155    0.427   24.140
  483.724   65.453    0.140    0.399   32.953
  483.974   68.765    0.169    0.406   43.288
  484.224   76.559    0.255    0.427   54.995
  484.474   82.596    0.272    0.447   64.916
  484.724   87.556    0.275    0.461   66.852
  484.974   91.562    0.265    0.456   60.866
  485.224   95.147    0.271    0.435   51.501
  485.474   94.900    0.281    0.443   42.647
