~VERSION INFORMATION
 VERS.                 2.0:   CWLS LOG ASCII STANDARD -VERSION 2.0
 WRAP.                  NO:   ONE LINE PER DEPTH STEP
~WELL INFORMATION BLOCK
#MNEM.UNIT           DATA                    DESCRIPTION OF MNEMONIC
#---------    -------------------            -------------------------------
# Generated from Intellog Unique Number	CW_79_81/WELL/2470
NULL.         -999.25                        : NULL_VALUE
WELL.         CHEVRON FINA MUSKWA            : Well_name    - WELL              
LOC .         10-18-081-04W5                 : Location     - LOCATION          
UWI .         00/10-18-081-04W5/0            : Uwi          - UNIQUE WELL ID    
ENTR.         MAX                            : Entered      - ENTERED BY        
SRVC.         SCHLUMBERGER                   : Scn          - SERVICE COMPANY   
DATE.         06 MAR 74                      : Date         - LOG DATE
STRT.M        298.704                        : top_depth    - START DEPTH       
STOP.M        542.204                        : bot_depth    - STOP DEPTH        
STEP.M        0.25                           : increment    - STEP LENGTH       
~CURVE INFORMATION BLOCK
#MNEM UNIT       ERCB CURVE CODE    CURVE DESCRIPTION
#-----------   ------------------   ----------------------------------
DEPT.M        00 001 00 00         : DEPTH        - DEPTH                       
ILD .OHMM     00 120 00 00         : RESD         - DEEP RESISTIVITY (DIL)      
NPHI.V/V      00 330 00 00         : PHIN         - NEUTRON POROSITY (SANDSTONE)
DPHI.V/V      00 890 00 00         : PHID         - DENSITY POROSITY (SANDSTONE)
GR  .API      00 310 00 00         : GR           - GAMMA RAY                   
CALI.MM       00 280 01 00         : CAL          - CALIPER                     
~PARAMETER INFORMATION       
#MNEM.UNIT           DATA             DESCRIPTION OF MNEMONIC
#---------         -----------     ------------------------------
GL  .M        596.189              : gl           - GROUND LEVEL ELEVATION      
EREF.M        599.999              : kb           - ELEVATION OF DEPTH REFERENCE
DATM.M        596.189              : datum        - DATUM ELEVATION             
TDD .M        541.934              : tdd          - TOTAL DEPTH DRILLER         
RUN .         ONE                  : Run          - RUN NUMBER                  
ENG .         BILL                 : Engineer     - RECORDING ENGINEER          
WIT .         JIM                  : Witness      - WITNESSED BY                
MUD .         GEL                  : Mud_type     - MUD TYPE                    
MATR.         SANDSTONE            : Logunit      - NEUTRON MATRIX              
TMAX.C        28.3333              : BHT          - MAXIMUM RECORDED TEMPERATURE
BHTD.M        541.934              : BHTDEP       - MAXIMUM RECORDED TEMPERATURE
MATR.         1                    : LOGUNIT      - NEUTRON MATRIX              
RMT .C        20.5556              : MDTP         - TEMPERATURE OF MUD          
NEUT.         1                    : NEUTRON      - NEUTRON TYPE                
RESI.         0                    : RESIST       - RESISTIVITY TYPE            
RMC .OHMM     7.58                 : RMC          - RESISTIVITY OF MUD CAKE     
RMF .OHMM     8.19                 : RMF          - RESISTIVITY OF MUD FILTRATE 
SUFT.C        -15                  : SUFT         - SURFACE TEMPERATURE         
~A  DEPTH     RESD     PHIN     PHID       GR      CAL
# ...
  517.704    9.082    0.372    0.162  101.025  208.264
  517.954    8.888    0.372    0.201   97.004  210.684
  518.204    8.892    0.364    0.220   97.424  212.501
  518.454    9.027    0.359    0.224   99.327  213.717
  518.704    9.231    0.356    0.217  101.466  214.332
  518.954    9.442    0.348    0.195  103.826  214.428
  519.204    9.447    0.345    0.187  101.364  214.856
  519.454    9.246    0.351    0.178   95.919  215.269
  519.704    9.049    0.356    0.177   92.962  215.380
  519.954    8.923    0.361    0.180   91.784  215.391
  520.204    8.879    0.366    0.186   91.613  215.403
  520.454    8.870    0.377    0.201   91.866  215.419
  520.704    8.807    0.376    0.213   93.108  215.430
  520.954    8.812    0.357    0.221   96.195  215.038
  521.204    8.864    0.342    0.208   97.684  214.949
  521.454    8.933    0.331    0.178   97.454  214.960
  521.704    8.986    0.324    0.149   94.737  215.169
  521.954    8.978    0.318    0.152   87.563  216.153
  522.204    8.914    0.320    0.167   84.853  217.002
  522.454    8.789    0.320    0.152   81.068  217.817
  522.704    8.665    0.313    0.150   78.349  218.028
  522.954    8.543    0.308    0.149   79.302  218.240
  523.204    8.392    0.311    0.145   84.580  218.553
  523.454    8.041    0.335    0.141   94.021  218.565
  523.704    7.516    0.358    0.136   99.707  218.576
  523.954    6.932    0.391    0.140  104.454  218.587
  524.204    6.252    0.385    0.153  105.825  218.599
  524.454    5.760    0.365    0.165  105.121  218.009
  524.704    5.467    0.346    0.161  102.817  216.814
  524.954    5.315    0.336    0.120   97.719  215.540
  525.204    5.524    0.330    0.102   93.528  215.134
  525.454    5.899    0.344    0.124   88.795  214.745
  525.704    6.302    0.348    0.135   81.394  214.053
  525.954    6.570    0.343    0.148   73.225  213.260
  526.204    6.657    0.331    0.167   67.540  212.669
  526.454    6.720    0.317    0.184   69.513  212.767
  526.704    6.775    0.305    0.196   72.236  213.196
  526.954    6.828    0.309    0.193   75.086  213.608
  527.204    6.881    0.312    0.185   77.404  214.022
  527.454    6.910    0.313    0.183   79.780  214.635
  527.704    6.913    0.311    0.183   82.690  215.550
  527.954    6.917    0.310    0.168   87.379  217.019
  528.204    6.920    0.314    0.154   91.830  218.284
  528.454    6.873    0.317    0.148   95.156  218.697
  528.704    6.752    0.329    0.142   97.949  219.710
  528.954    6.534    0.345    0.135  100.207  220.924
  529.204    6.160    0.366    0.133  102.464  222.440
  529.454    5.466    0.411    0.149  106.235  225.281
  529.704    4.995    0.452    0.154  108.465  227.382
  529.954    4.608    0.448    0.159  110.130  229.401
  530.204    4.252    0.449    0.157  111.796  230.216
  530.454    3.772    0.461    0.142  111.448  230.628
  530.704    3.321    0.480    0.118  108.255  231.741
  530.954    3.099    0.497    0.102  101.932  235.385
  531.204    3.030    0.489    0.128   98.730  237.486
  531.454    3.009    0.474    0.096  100.631  238.301
  531.704    2.940    0.466    0.116  101.289  238.814
  531.954    2.878    0.460    0.128  102.362  239.026
  532.204    2.837    0.455    0.116  104.206  238.035
  532.454    2.781    0.451    0.109  105.431  234.115
  532.704    2.699    0.453    0.108  103.214  234.546
  532.954    2.584    0.459    0.140  100.140  228.939
  533.204    2.529    0.463    0.147   95.288  224.233
  533.454    2.594    0.459    0.142   89.370  222.237
  533.704    2.796    0.446    0.136   79.485  222.550
  533.954    3.200    0.415    0.148   59.150  220.224
  534.204    3.796    0.370    0.182   59.404  208.529
  534.454    4.142    0.356    0.196   69.126  208.940
  534.704    4.287    0.378    0.163   77.252  210.858
  534.954    4.321    0.406    0.129   81.881  212.475
  535.204    4.314    0.422    0.108   80.293  212.989
  535.454    4.292    0.421    0.101   67.046  212.516
  535.704    4.327    0.410    0.167   57.671  212.107
  535.954    4.489    0.393    0.207   57.437  210.513
  536.204    4.759    0.379    0.236   60.227  208.919
  536.454    5.050    0.360    0.241   64.855  209.932
  536.704    5.318    0.341    0.222   69.722  215.158
  536.954    5.685    0.343    0.195   73.601  226.212
  537.204    6.142    0.380    0.208   77.558  231.242
  537.454    6.512    0.408    0.213   83.016  227.642
  537.704    6.870    0.428    0.214   86.341  226.448
  537.954    7.259    0.433    0.212   86.350  226.860
  538.204    7.728    0.421    0.215   82.507  228.175
  538.454    8.412    0.392    0.240   73.448  230.130
  538.704    8.879    0.342    0.259   66.047  231.813
  538.954    9.758    0.288    0.269   61.550  232.227
  539.204   10.842    0.238    0.267   56.520  227.525
  539.454   12.427    0.183    0.261   49.891  219.107
  539.704   14.714    0.127    0.249   42.193  207.980
  539.954   18.002    0.083    0.206   34.477  192.573
  540.204   22.213    0.059    0.132   29.053  181.714
  540.454   33.337    0.057    0.052   26.688  175.703
  540.704   41.514    0.065    0.039   25.746  171.201
  540.954   45.275    0.075    0.051   25.634  168.602
  541.204   47.683    0.086    0.067   25.937  167.808
  541.454   50.608    0.105    0.088   26.665  168.474
  541.704   52.609    0.109    0.088   27.907  169.743
  541.954   54.190    0.116    0.081   28.388  170.553
  542.204   56.123    0.123    0.086   28.868  171.366
