~VERSION INFORMATION
 VERS.                 2.0:   CWLS LOG ASCII STANDARD -VERSION 2.0
 WRAP.                  NO:   ONE LINE PER DEPTH STEP
~WELL INFORMATION BLOCK
#MNEM.UNIT           DATA                    DESCRIPTION OF MNEMONIC
#---------    -------------------            -------------------------------
# Generated from Intellog Unique Number	CS_77_79/WELL/986
WELL.         PCI PCEJ LEISMER               : Well_name    - WELL
LOC .         00/11-03-079-07W4/0            : Location     - LOCATION
UWI .         00/11-03-079-07W4/0            : Uwi          - UNIQUE WELL ID
ENTR.         JHS                            : Entered      - ENTERED BY
SRVC.         SCHLUMBERGER                   : Scn          - SERVICE COMPANY
STRT.M        125                            : top_depth    - START DEPTH
STOP.M        355                            : bot_depth    - STOP DEPTH
STEP.M        0.25                           : increment    - STEP LENGTH
 NULL. -999.2500:NULL Value
~CURVE INFORMATION BLOCK
#MNEM UNIT       ERCB CURVE CODE    CURVE DESCRIPTION
#-----------   ------------------   ----------------------------------
DEPT.M        00 001 00 00         : DEPTH        - DEPTH
DPHI.V/V      00 890 00 00         : PHID         - DENSITY POROSITY (LIMESTONE)
NPHI.V/V      00 330 00 00         : PHIN         - NEUTRON POROSITY (LIMESTONE)
GR  .API      00 310 00 00         : GR           - GAMMA RAY
ILD .OHMM     00 120 00 00         : RESD         - DEEP RESISTIVITY (DIL)
RHOB.KG/M3    00 350 00 00         : DENS         - BULK DENSITY
~PARAMETER INFORMATION
#MNEM.UNIT           DATA             DESCRIPTION OF MNEMONIC
#---------         -----------     ------------------------------
GL  .M        554.2                : gl           - GROUND LEVEL ELEVATION
EREF.M        557.3                : kb           - ELEVATION OF DEPTH REFERENCE
DATM.M        557.3                : datum        - DATUM ELEVATION
TDD .M        361                  : tdd          - TOTAL DEPTH DRILLER
RUN .         ONE                  : Run          - RUN NUMBER
ENG .         BILL                 : Engineer     - RECORDING ENGINEER
WIT .         JIM                  : Witness      - WITNESSED BY
MUD .         GEL                  : Mud_type     - MUD TYPE
MATR.         LIMESTONE            : Logunit      - NEUTRON MATRIX
TMAX.C        24                   : BHT          - MAXIMUM RECORDED TEMPERATURE
BHTD.M        361                  : BHTDEP       - MAXIMUM RECORDED TEMPERATURE
MATR.         1                    : LOGUNIT      - NEUTRON MATRIX
RMT .C        25                   : MDTP         - TEMPERATURE OF MUD
NEUT.         1                    : NEUTRON      - NEUTRON TYPE
RESI.         0                    : RESIST       - RESISTIVITY TYPE
RMC .OHMM     0.25                 : RMC          - RESISTIVITY OF MUD CAKE
RMF .OHMM     0.25                 : RMF          - RESISTIVITY OF MUD FILTRATE
SUFT.C        15                   : SUFT         - SURFACE TEMPERATURE
~A  DEPTH     PHID     PHIN       GR     RESD     DENS
# ...
  271.000    0.271    0.525   85.799    4.790 2245.950
  271.250    0.279    0.504   90.132    5.069 2233.410
  271.500    0.281    0.506   90.144    5.468 2229.240
  271.750    0.284    0.527   89.536    5.898 2225.080
  272.000    0.276    0.523   92.632    6.242 2237.710
  272.250    0.259    0.482   92.644    6.607 2267.120
  272.500    0.261    0.448   91.419    6.608 2262.970
  272.750    0.270    0.431   92.049    6.485 2248.320
  273.000    0.275    0.443   88.972    5.903 2239.960
  273.250    0.271    0.460   85.277    5.173 2246.300
  273.500    0.272    0.496   80.968    4.533 2244.240
  273.750    0.267    0.513   82.828    3.973 2252.660
  274.000    0.281    0.493   83.457    3.417 2229.630
  274.250    0.323    0.513   79.146    3.169 2158.320
  274.500    0.334    0.555   78.538    2.624 2139.490
  274.750    0.326    0.612   82.874    2.434 2152.110
  275.000    0.320    0.607   82.885    2.300 2162.640
  275.250    0.325    0.563   81.658    2.301 2154.280
  275.500    0.330    0.541   77.348    2.301 2145.930
  275.750    0.324    0.563   73.038    2.301 2156.460
  276.000    0.305    0.591   73.047    2.302 2187.980
  276.250    0.299    0.614   76.761    2.391 2198.500
  276.500    0.303    0.627   86.033    2.483 2192.240
  276.750    0.306    0.628   86.043    2.729 2185.990
  277.000    0.305    0.618   83.584    3.000 2188.130
  277.250    0.286    0.585   83.593    3.297 2221.740
  277.500    0.279    0.533   83.608    3.693 2232.290
  277.750    0.274    0.477   83.000    4.136 2240.710
  278.000    0.268    0.495   86.095    4.722 2251.230
  278.250    0.267    0.481   86.722    5.092 2253.370
  278.500    0.271    0.449   83.031    5.813 2247.110
  278.750    0.250    0.449   78.720    6.270 2282.820
  279.000    0.223    0.430   77.496    6.390 2329.020
  279.250    0.206    0.412   85.531    6.039 2358.430
  279.500    0.256    0.426   91.718    5.293 2272.450
  279.750    0.275    0.494   90.492    4.727 2238.920
  280.000    0.269    0.493   89.268    4.384 2249.450
  280.250    0.264    0.473   90.511    3.990 2257.870
  280.500    0.261    0.462   88.670    3.843 2264.210
  280.750    0.261    0.463   89.297    3.701 2264.250
  281.000    0.257    0.493   89.308    3.632 2270.590
  281.250    0.254    0.499   86.234    3.565 2274.830
  281.500    0.256    0.497   87.477    3.565 2272.760
  281.750    0.261    0.496   90.575    3.434 2264.400
  282.000    0.265    0.507   91.821    3.370 2256.050
  282.250    0.269    0.505   91.215    3.308 2249.800
  282.500    0.272    0.502   89.990    3.186 2245.640
  282.750    0.273    0.508   88.765    3.186 2243.570
  283.000    0.275    0.521   89.393    3.247 2239.410
  283.250    0.276    0.541   88.788    3.437 2237.370
  283.500    0.268    0.550   86.328    3.923 2252.080
  283.750    0.262    0.540   83.253    4.478 2262.620
  284.000    0.265    0.475   80.792    5.111 2256.370
  284.250    0.268    0.448   83.271    5.513 2252.200
  284.500    0.268    0.448   83.900    5.619 2252.250
  284.750    0.264    0.463   83.910    5.620 2258.570
  285.000    0.254    0.481   87.009    5.728 2275.400
  285.250    0.242    0.504   87.635    6.063 2296.420
  285.500    0.236    0.491   83.942    6.664 2306.950
  285.750    0.179    0.475   76.545    7.752 2403.500
  286.000    0.135    0.391   64.827    8.520 2479.080
  286.250    0.190    0.382   66.691    9.190 2384.700
  286.500    0.242    0.357   66.701    9.366 2296.610
  286.750    0.294    0.331   63.624   10.102 2206.430
  287.000    0.334    0.306   62.399   10.693 2139.320
  287.250    0.339    0.309   61.175   11.106 2130.970
  287.500    0.325    0.317   58.716   11.107 2154.090
  287.750    0.305    0.330   58.729   10.697 2187.700
  288.000    0.294    0.347   64.295   10.303 2206.630
  288.250    0.291    0.358   68.009   10.500    0.000
  288.500    0.281    0.364   68.638   11.114 2229.780
  288.750    0.267    0.368   69.880   12.686 2252.900
  289.000    0.266    0.357   71.127   14.480 2255.040
  289.250    0.354    0.244   64.345   15.916 2104.000
  289.500    0.403    0.149   43.367   15.621 2020.110
  289.750    0.416    0.110   42.766   13.950 1999.170
  290.000    0.410    0.183   45.241   11.773 2009.700
  290.250    0.387    0.250   48.340    7.208 2047.510
  290.500    0.355    0.310   48.349    6.560 2102.100
  290.750    0.349    0.378   44.038    6.439 2112.630
  291.000    0.344    0.396   39.729    6.688 2121.070
  291.250    0.343    0.387   43.441    7.490 2123.200
  291.500    0.335    0.376   49.627    9.758 2137.930
  291.750    0.330    0.364   49.636   12.953 2146.350
  292.000    0.341    0.365   46.559   15.944 2127.520
  292.250    0.338    0.392   42.251   19.259 2131.740
  292.500    0.328    0.406   40.408   23.707 2148.590
  292.750    0.331    0.417   37.331   27.575 2144.410
  293.000    0.341    0.406   33.639   31.475 2127.670
  293.250    0.332    0.403   37.970   32.691 2142.400
  293.500    0.317    0.408   49.092   32.084 2167.610
  293.750    0.312    0.423   55.279   31.489 2176.040
  294.000    0.311    0.408   53.437   32.706 2178.180
  294.250    0.310    0.390   52.828   39.507 2180.320
  294.500    0.310    0.403   54.690   44.252 2180.360
  294.750    0.321    0.410   55.936   45.103 2161.510
  295.000    0.332    0.420   54.714   38.063 2142.680
  295.250    0.331    0.418   53.487   33.356 2144.800
  295.500    0.321    0.404   57.203   27.624 2161.630
  295.750    0.315    0.397   62.152   24.210 2172.160
  296.000    0.318    0.393   66.484   22.033 2165.900
  296.250    0.312    0.402   68.349   20.051 2176.440
  296.500    0.312    0.438   68.974   15.111 2176.470
  296.750    0.319    0.452   81.947   12.279 2163.920
  297.000    0.291    0.432   95.540   10.169 2212.220
  297.250    0.263    0.405  106.044    9.611 2260.510
  297.500    0.241    0.393  114.697    9.612 2298.320
  297.750    0.251    0.457  107.919    9.984 2281.580
  298.000    0.265    0.455   99.903   10.567 2256.430
  298.250    0.273    0.432   86.950   11.184 2243.880
  298.500    0.254    0.409   86.344   12.293 2275.400
  298.750    0.261    0.426   82.033   13.259 2262.850
  299.000    0.274    0.437   73.400   14.034 2241.900
  299.250    0.242    0.410   71.558   14.854 2296.500
  299.500    0.226    0.383   74.039   15.722 2323.810
  299.750    0.239    0.389   71.582   16.024 2300.770
  300.000    0.283    0.415   71.931   14.862 2225.310
  300.250    0.271    0.421   75.655   13.780 2246.390
  300.500    0.248    0.399   81.839   12.302 2286.360
  300.750    0.237    0.407   86.787   10.778 2305.350
  301.000    0.245    0.401   81.900    9.806 2290.800
  301.250    0.238    0.367   84.406    9.441 2303.500
  301.500    0.234    0.366   85.661    9.090 2309.900
  301.750    0.241    0.402   77.700    9.261 2297.420
  302.000    0.244    0.395   73.435    9.259 2293.340
  302.250    0.237    0.372   72.231    9.085 2303.960
  302.500    0.237    0.366   72.266    9.083 2304.070
  302.750    0.235    0.353   72.914    9.255 2308.390
  303.000    0.229    0.357   70.488    9.253 2318.980
  303.250    0.245    0.391   68.676    9.428 2291.820
  303.500    0.258    0.397   68.096    9.426 2268.860
  303.750    0.249    0.406   65.053    9.424 2283.650
  304.000    0.270    0.414   63.242    9.423 2248.100
  304.250    0.274    0.409   70.657    9.421 2241.910
  304.500    0.250    0.380   75.604    9.420 2281.900
  304.750    0.233    0.375   76.254    9.418 2311.390
  305.000    0.232    0.390   71.984    9.240 2313.620
  305.250    0.255    0.407   65.254    9.066 2273.840
  305.500    0.322    0.414   52.378    8.895 2158.560
  305.750    0.332    0.417   46.876    8.894 2141.930
  306.000    0.321    0.407   54.295    9.062 2160.890
  306.250    0.298    0.396   60.477    9.957 2200.870
  306.500    0.288    0.406   63.587   11.798 2217.810
  306.750    0.303    0.414   62.383   13.719 2192.720
  307.000    0.328    0.418   60.573   17.530 2148.760
  307.250    0.336    0.418   57.529   22.402 2136.290
