~VERSION INFORMATION
 VERS.                 2.0:   CWLS LOG ASCII STANDARD -VERSION 2.0
 WRAP.                  NO:   ONE LINE PER DEPTH STEP
~WELL INFORMATION BLOCK
#MNEM.UNIT           DATA                    DESCRIPTION OF MNEMONIC
#---------    -------------------            -------------------------------
# Generated from Intellog Unique Number	CX_WELLS/WELL/2813
WELL.         THORNBURY                      : Well_name    - WELL
LOC .         00/14-01-081-12W4/0            : Location     - LOCATION
UWI .         00/14-01-081-12W400            : Uwi          - UNIQUE WELL ID
ENTR.         T                              : Entered      - ENTERED BY
SRVC.         SCHLUMBERGER                   : Scn          - SERVICE COMPANY
STRT.M        275                            : top_depth    - START DEPTH
STOP.M        500                            : bot_depth    - STOP DEPTH
STEP.M        0.25                           : increment    - STEP LENGTH
 NULL. -999.2500:NULL Value
~CURVE INFORMATION BLOCK
#MNEM UNIT       ERCB CURVE CODE    CURVE DESCRIPTION
#-----------   ------------------   ----------------------------------
DEPT.M        00 001 00 00         : DEPTH        - DEPTH
GR  .API      00 310 00 00         : GR           - GAMMA RAY
NPHI.V/V      00 330 00 00         : PHIN         - NEUTRON POROSITY (SANDSTONE)
DPHI.V/V      00 890 00 00         : PHID         - DENSITY POROSITY (SANDSTONE)
ILD .OHMM     00 120 00 00         : RESD         - DEEP RESISTIVITY (OTHER)
~PARAMETER INFORMATION
#MNEM.UNIT           DATA             DESCRIPTION OF MNEMONIC
#---------         -----------     ------------------------------
GL  .M        704.3                : gl           - GROUND LEVEL ELEVATION
EREF.M        704.8                : kb           - ELEVATION OF DEPTH REFERENCE
DATM.M        704.8                : datum        - DATUM ELEVATION
TDD .M        515                  : tdd          - TOTAL DEPTH DRILLER
RUN .         ONE                  : Run          - RUN NUMBER
ENG .         BILL                 : Engineer     - RECORDING ENGINEER
WIT .         JIM                  : Witness      - WITNESSED BY
MUD .         GEL                  : Mud_type     - MUD TYPE
MATR.         SANDSTONE            : Logunit      - NEUTRON MATRIX
TMAX.C        26                   : BHT          - MAXIMUM RECORDED TEMPERATURE
BHTD.M        515                  : BHTDEP       - MAXIMUM RECORDED TEMPERATURE
MATR.         1                    : LOGUNIT      - NEUTRON MATRIX
RMT .C        15.6                 : MDTP         - TEMPERATURE OF MUD
NEUT.         1                    : NEUTRON      - NEUTRON TYPE
RESI.         5                    : RESIST       - RESISTIVITY TYPE
RMC .OHMM     4.5                  : RMC          - RESISTIVITY OF MUD CAKE
RMF .OHMM     3.9                  : RMF          - RESISTIVITY OF MUD FILTRATE
SUFT.C        4                    : SUFT         - SURFACE TEMPERATURE
~A  DEPTH       GR     PHIN     PHID     RESD
# ...
  318.500   84.048    0.474    0.269   10.725
  318.750   82.180    0.467    0.274   10.932
  319.000   80.313    0.459    0.303   11.143
  319.250   77.196    0.444    0.314   11.358
  319.500   73.455    0.443    0.321   11.574
  319.750   70.338    0.448    0.331   11.797
  320.000   67.221    0.451    0.337   12.249
  320.250   70.974    0.454    0.344   12.484
  320.500   75.976    0.481    0.349   12.726
  320.750   77.230    0.478    0.361   12.971
  321.000   77.859    0.473    0.367   13.471
  321.250   77.866    0.457    0.373   13.729
  321.500   77.247    0.453    0.328   13.993
  321.750   72.881    0.446    0.325   14.262
  322.000   69.140    0.433    0.325   14.536
  322.250   64.774    0.411    0.328   14.818
  322.500   59.160    0.404    0.336   15.101
  322.750   56.045    0.407    0.339   15.395
  323.000   54.800    0.409    0.343   15.395
  323.250   54.180    0.415    0.349   16.292
  323.500   52.939    0.420    0.353   17.551
  323.750   52.319    0.422    0.356   17.891
  324.000   52.324    0.418    0.355   18.233
  324.250   51.705    0.412    0.357   18.245
  324.500   51.086    0.400    0.358   17.921
  324.750   51.092    0.392    0.358   17.930
  325.000   50.473    0.386    0.359   17.612
  325.250   50.479    0.383    0.359   17.293
  325.500   51.111    0.379    0.360   17.304
  325.750   51.118    0.380    0.360   16.992
  326.000   51.120    0.388    0.360   16.691
  326.250   51.751    0.395    0.362   16.699
  326.500   51.756    0.407    0.362   16.401
  326.750   52.387    0.410    0.362   16.413
  327.000   53.016    0.400    0.360   16.417
  327.250   53.647    0.399    0.359   16.428
  327.500   54.282    0.410    0.357   16.434
  327.750   54.286    0.418    0.357   16.447
  328.000   54.290    0.423    0.357   16.759
  328.250   54.295    0.415    0.357   16.767
  328.500   54.924    0.403    0.357   17.094
  328.750   54.931    0.399    0.358   17.105
  329.000   55.561    0.401    0.359   17.112
  329.250   56.192    0.411    0.360   16.810
  329.500   56.196    0.426    0.362   16.816
  329.750   56.829    0.437    0.363   16.512
  330.000   57.456    0.439    0.366   16.520
  330.250   58.086    0.442    0.368   16.531
  330.500   58.092    0.447    0.368   16.239
  330.750   58.097    0.445    0.369   16.245
  331.000   58.104    0.437    0.368   16.252
  331.250   57.488    0.431    0.366   16.266
  331.500   57.492    0.434    0.365   16.270
  331.750   56.873    0.438    0.364   15.979
  332.000   55.628    0.443    0.363   15.988
  332.250   54.385    0.447    0.363   15.996
  332.500   52.517    0.453    0.363   16.006
  332.750   50.649    0.458    0.364   16.312
  333.000   48.781    0.453    0.365   16.630
  333.250   47.540    0.449    0.366   16.634
  333.500   47.544    0.448    0.368   16.956
  333.750   47.551    0.444    0.368   16.965
  334.000   47.555    0.447    0.368   16.971
  334.250   47.561    0.454    0.368   16.984
  334.500   47.569    0.460    0.369   16.991
  334.750   47.572    0.464    0.369   16.999
  335.000   46.328    0.466    0.368   17.008
  335.250   46.337    0.469    0.366   17.017
  335.500   46.965    0.470    0.364   17.027
  335.750   48.222    0.463    0.363   17.036
  336.000   48.225    0.444    0.361   17.043
  336.250   48.855    0.433    0.360   17.053
  336.500   46.987    0.434    0.360   17.062
  336.750   44.495    0.440    0.360   17.071
  337.000   43.253    0.451    0.360   17.082
  337.250   44.511    0.459    0.359   16.776
  337.500   45.139    0.464    0.359   16.787
  337.750   45.769    0.469    0.358   16.791
  338.000   46.398    0.471    0.358   16.802
  338.250   47.029    0.472    0.358   16.811
  338.500   47.034    0.461    0.358   16.512
  338.750   47.664    0.448    0.358   16.521
  339.000   47.670    0.440    0.359   16.531
  339.250   47.675    0.438    0.355   16.535
  339.500   47.685    0.433    0.353   16.546
  339.750   48.312    0.433    0.353   16.554
  340.000   48.316    0.441    0.353   16.563
  340.250   48.324    0.449    0.354   16.569
  340.500   48.328    0.460    0.354   16.584
  340.750   48.333    0.450    0.355   16.588
  341.000   48.341    0.448    0.354   16.292
  341.250   48.345    0.445    0.351   16.302
  341.500   48.975    0.445    0.350   16.310
  341.750   48.980    0.450    0.349   16.624
  342.000   50.238    0.455    0.351   16.946
  342.250   50.865    0.452    0.353   16.953
  342.500   50.872    0.451    0.351   16.963
  342.750   50.253    0.449    0.349   16.970
  343.000   49.635    0.448    0.349   16.981
  343.250   50.267    0.449    0.349   16.989
  343.500   50.894    0.454    0.346   16.996
  343.750   52.773    0.456    0.344   16.692
  344.000   54.652    0.454    0.338   16.703
  344.250   56.535    0.447    0.333   16.709
  344.500   56.538    0.445    0.335   16.720
  344.750   56.542    0.450    0.338   16.732
  345.000   55.924    0.454    0.339   16.737
  345.250   55.933    0.459    0.336   16.440
  345.500   55.935    0.463    0.333   16.148
  345.750   56.565    0.456    0.325   16.152
  346.000   58.444    0.446    0.319   14.729
  346.250   59.699    0.449    0.312   12.705
  346.500   61.579    0.455    0.304   10.759
  346.750   63.458    0.461    0.296    9.812
  347.000   64.088    0.468    0.291   11.177
  347.250   64.094    0.477    0.292   16.507
  347.500   61.601    0.481    0.292   23.930
  347.750   58.486    0.425    0.266   27.265
  348.000   55.992    0.376    0.198   28.309
  348.250   51.626    0.325    0.030   28.327
  348.500   47.884    0.283   -0.009   27.821
  348.750   43.520    0.231   -0.004   24.904
  349.000   43.525    0.188    0.001   22.711
  349.250   48.527    0.201    0.010   21.095
  349.500   57.901    0.238    0.059   19.237
  349.750   59.157    0.342    0.134   17.224
  350.000   59.784    0.362    0.282   16.604
  350.250   61.665    0.387    0.316   16.309
  350.500   62.919    0.413    0.323   16.015
  350.750   63.549    0.423    0.324   16.026
  351.000   63.556    0.429    0.324   15.739
  351.250   62.936    0.437    0.324   14.895
  351.500   62.318    0.446    0.325   13.585
  351.750   62.325    0.445    0.329   12.617
  352.000   62.328    0.446    0.328   11.508
  352.250   62.333    0.447    0.325   11.092
  352.500   62.963    0.451    0.319   10.894
  352.750   64.845    0.455    0.307   10.901
  353.000   66.099    0.462    0.318   10.706
  353.250   64.231    0.481    0.328   10.515
  353.500   61.739    0.499    0.330   10.327
  353.750   62.368    0.500    0.330    9.775
  354.000   67.369    0.469    0.325    9.598
  354.250   70.497    0.466    0.314    9.085
  354.500   71.754    0.471    0.308    8.759
  354.750   70.509    0.480    0.319    8.763
  355.000   68.018    0.492    0.320    8.932
  355.250   66.152    0.488    0.321    9.450
  355.500   66.154    0.487    0.325    9.809
  355.750   66.161    0.482    0.335   10.376
  356.000   66.167    0.478    0.340   11.605
  356.250   64.300    0.474    0.343   12.049
  356.500   63.057    0.471    0.343   12.510
  356.750   62.436    0.469    0.341   12.752
  357.000   61.817    0.464    0.339   12.996
  357.250   62.449    0.459    0.335   13.748
  357.500   62.454    0.458    0.332   14.011
  357.750   62.460    0.453    0.331   14.548
  358.000   62.467    0.451    0.329   14.829
  358.250   62.469    0.447    0.329   14.563
  358.500   62.478    0.446    0.326   11.883
  358.750   63.108    0.451    0.322    9.171
  359.000   64.985    0.456    0.305    7.911
  359.250   67.489    0.457    0.271    8.214
  359.500   74.364    0.453    0.259    8.529
  359.750   74.995    0.449    0.263    8.856
  360.000   71.878    0.456    0.271    9.367
  360.250   70.009    0.462    0.299    9.727
  360.500   67.518    0.470    0.321    9.912
  360.750   65.027    0.478    0.337   10.487
  361.000   63.159    0.485    0.345   10.890
  361.250   61.292    0.488    0.346   11.097
  361.500   60.673    0.480    0.346   11.310
  361.750   60.677    0.477    0.347   11.528
