~VERSION INFORMATION
 VERS.                 2.0:   CWLS LOG ASCII STANDARD -VERSION 2.0
 WRAP.                  NO:   ONE LINE PER DEPTH STEP
~WELL INFORMATION BLOCK
#MNEM.UNIT           DATA                    DESCRIPTION OF MNEMONIC
#---------    -------------------            -------------------------------
# Generated from Intellog Unique Number	CW_73_75/WELL/1042
WELL.         AMOCO MARTEN HILLS 83 11-19    : Well_name    - WELL
LOC .         00/11-19-075-01W5/0            : Location     - LOCATION
UWI .         00/11-19-075-01W5/0            : Uwi          - UNIQUE WELL ID
ENTR.         JAYE                           : Entered      - ENTERED BY
SRVC.         SCHLUMBERGER                   : Scn          - SERVICE COMPANY
DATE.         13 FEB 77                      : Date         - LOG DATE
STRT.M        560.832                        : top_depth    - START DEPTH
STOP.M        749.832                        : bot_depth    - STOP DEPTH
STEP.M        0.25                           : increment    - STEP LENGTH
 NULL. -999.2500:NULL Value
~CURVE INFORMATION BLOCK
#MNEM UNIT       ERCB CURVE CODE    CURVE DESCRIPTION
#-----------   ------------------   ----------------------------------
DEPT.M        00 001 00 00         : DEPTH        - DEPTH
ILD .OHMM     00 120 00 00         : RESD         - DEEP RESISTIVITY (DIL)
NPHI.V/V      00 330 00 00         : PHIN         - NEUTRON POROSITY (SANDSTONE)
DPHI.V/V      00 890 00 00         : PHID         - DENSITY POROSITY (SANDSTONE)
GR  .API      00 310 00 00         : GR           - GAMMA RAY
CALI.MM       00 280 01 00         : CAL          - CALIPER
~PARAMETER INFORMATION
#MNEM.UNIT           DATA             DESCRIPTION OF MNEMONIC
#---------         -----------     ------------------------------
GL  .M        840.791              : gl           - GROUND LEVEL ELEVATION
EREF.M        845.515              : kb           - ELEVATION OF DEPTH REFERENCE
DATM.M        840.791              : datum        - DATUM ELEVATION
TDD .M        748.223              : tdd          - TOTAL DEPTH DRILLER
RUN .         ONE                  : Run          - RUN NUMBER
ENG .         PIMM                 : Engineer     - RECORDING ENGINEER
WIT .         BRAUN                : Witness      - WITNESSED BY
BASE.         EDM                  : Branch       - HOME BASE OF LOGGING UNIT
MUD .         GEL                  : Mud_type     - MUD TYPE
MATR.         SANDSTONE            : Logunit      - NEUTRON MATRIX
TMAX.C        33.3333              : BHT          - MAXIMUM RECORDED TEMPERATURE
BHTD.M        748.284              : BHTDEP       - MAXIMUM RECORDED TEMPERATURE
RMT .C        22.2222              : MDTP         - TEMPERATURE OF MUD
MUDD.KG/M     1152                 : MWT          - MUD DENSITY
NEUT.         1                    : NEUTRON      - NEUTRON TYPE
RESI.         0                    : RESIST       - RESISTIVITY TYPE
RM  .OHMM     3.83                 : RM           - RESISTIVITY OF MUD
RMC .OHMM     0                    : RMC          - RESISTIVITY OF MUD CAKE
RMF .OHMM     0                    : RMF          - RESISTIVITY OF MUD FILTRATE
SUFT.C        -17.7778             : SUFT         - SURFACE TEMPERATURE
~A  DEPTH     RESD     PHIN     PHID       GR      CAL
# ...
  706.832    8.885    0.413    0.231   62.517  219.810
  707.082    9.248    0.387    0.254   63.133  219.715
  707.332    9.804    0.376    0.255   63.749  219.826
  707.582   10.764    0.369    0.229   62.653  220.039
  707.832   11.972    0.350    0.210   62.474  220.980
  708.082   12.809    0.350    0.197   61.621  221.608
  708.332   12.968    0.359    0.197   58.750  222.340
  708.582   12.377    0.365    0.188   56.736  223.177
  708.832   11.388    0.376    0.194   56.373  223.495
  709.082   10.417    0.384    0.216   58.335  223.916
  709.332   10.185    0.388    0.240   61.031  224.338
  709.582    9.993    0.383    0.230   64.216  224.863
  709.832   10.062    0.378    0.220   65.689  225.285
  710.082   10.569    0.378    0.233   64.408  225.810
  710.332   11.371    0.379    0.232   61.354  225.816
  710.582   12.079    0.375    0.198   60.074  226.135
  710.832   12.409    0.372    0.189   60.567  226.245
  711.082   12.334    0.379    0.190   62.101  226.460
  711.332   12.103    0.383    0.201   64.063  226.675
  711.582   11.832    0.377    0.199   65.535  226.786
  711.832   11.653    0.374    0.204   66.273  227.000
  712.082   11.647    0.377    0.202   66.033  227.525
  712.332   11.770    0.378    0.234   64.753  227.843
  712.582   12.071    0.359    0.224   63.228  227.851
  712.832   12.656    0.337    0.197   63.109  227.237
  713.082   13.542    0.314    0.199   62.869  226.829
  713.332   14.436    0.292    0.165   61.895  226.526
  713.582   15.276    0.276    0.116   57.617  225.912
  713.832   15.841    0.268    0.093   53.583  225.401
  714.082   16.067    0.274    0.084   54.506  224.890
  714.332   15.737    0.324    0.118   57.935  224.484
  714.582   15.103    0.361    0.141   61.488  224.594
  714.832   14.049    0.341    0.191   65.591  224.911
  715.082   12.713    0.321    0.152   66.329  225.126
  715.332    9.982    0.327    0.160   67.251  225.652
  715.582    8.282    0.402    0.193   71.537  225.969
  715.832    7.564    0.404    0.219   76.191  226.392
  716.082    8.048    0.380    0.193   77.052  226.916
  716.332    8.643    0.348    0.176   73.080  227.338
  716.582    9.316    0.325    0.149   66.845  227.863
  716.832    9.732    0.341    0.103   63.606  228.491
  717.082    9.324    0.368    0.132   68.444  229.743
  717.332    8.267    0.370    0.139   74.321  230.890
  717.582    7.412    0.358    0.153   81.910  231.621
  717.832    6.499    0.350    0.189   86.503  232.354
  718.082    6.124    0.363    0.152   84.305  233.190
  718.332    5.943    0.372    0.115   82.963  233.714
  718.582    5.885    0.393    0.092   81.927  233.722
  718.832    5.882    0.416    0.162   83.584  233.626
  719.082    5.869    0.400    0.199   86.096  233.633
  719.332    5.909    0.387    0.210   89.955  232.915
  719.582    5.938    0.394    0.201   93.812  231.576
  719.832    5.946    0.405    0.175   91.309  229.926
  720.082    5.954    0.400    0.171   89.845  229.519
  720.332    6.050    0.390    0.182   89.299  230.251
  720.582    6.485    0.383    0.168   89.486  231.397
  720.832    7.199    0.393    0.144   91.264  230.887
  721.082    8.022    0.365    0.156   85.458  227.269
  721.332    9.188    0.358    0.159   75.857  225.826
  721.582   10.352    0.349    0.139   81.306  225.211
  721.832   11.261    0.340    0.190   86.388  225.012
  722.082   11.548    0.365    0.224   85.047  224.812
  722.332   11.290    0.366    0.237   84.133  224.405
  722.582   10.598    0.359    0.209   83.832  224.309
  722.832   10.267    0.355    0.199   84.081  224.005
  723.082   10.243    0.347    0.189   83.718  223.701
  723.332   10.583    0.318    0.173   82.804  223.502
  723.582   11.261    0.295    0.155   81.096  223.405
  723.832   11.807    0.266    0.134   74.921  224.034
  724.082   11.953    0.297    0.070   74.804  224.870
  724.332   11.815    0.330    0.132   79.151  225.913
  724.582   11.940    0.351    0.192   81.542  227.785
  724.832   12.823    0.364    0.191   80.873  229.864
  725.082   14.961    0.269    0.188   75.004  230.803
  725.332   17.552    0.216    0.125   69.931  229.982
  725.582   19.994    0.195    0.078   67.366  227.400
  725.832   20.020    0.219    0.026   68.410  224.817
  726.082   17.364    0.252    0.070   71.779  223.581
  726.332   13.810    0.313    0.160   76.066  222.967
  726.582   11.630    0.345    0.230   80.597  223.286
  726.832   10.620    0.345    0.221   84.027  224.017
  727.082    9.574    0.345    0.198   85.867  224.646
  727.332    8.776    0.348    0.211   86.788  225.482
  727.582    8.269    0.353    0.222   88.016  226.111
  727.832    7.864    0.365    0.230   89.611  227.465
  728.082    7.759    0.386    0.189   91.512  228.611
  728.332    7.942    0.406    0.188   92.556  229.448
  728.582    8.205    0.415    0.186   92.193  229.972
  728.832    8.308    0.388    0.179   86.997  229.773
  729.082    8.474    0.381    0.169   82.413  227.191
  729.332    8.739    0.386    0.167   83.213  226.058
  729.582    9.145    0.401    0.202   83.829  225.651
  729.832    9.482    0.397    0.193   83.161  225.452
  730.082    9.654    0.332    0.162   80.596  226.080
  730.332    9.579    0.292    0.142   78.397  227.331
  730.582    9.433    0.280    0.084   72.040  228.167
  730.832    9.205    0.317    0.070   74.002  228.484
  731.082    8.835    0.384    0.119   77.065  228.802
  731.332    8.526    0.371    0.173   81.351  229.328
  731.582    8.351    0.354    0.144   76.461  229.438
  731.832    8.148    0.346    0.099   74.264  229.446
  732.082    8.100    0.356    0.081   74.696  229.246
  732.332    8.110    0.358    0.112   77.514  228.942
  732.582    8.077    0.353    0.125   80.272  228.743
  732.832    8.028    0.363    0.134   81.683  228.749
  733.082    7.964    0.368    0.141   81.075  228.032
  733.332    7.916    0.361    0.149   80.529  227.832
  733.582    7.854    0.350    0.150   80.411  227.528
  733.832    7.835    0.336    0.115   80.660  227.639
  734.082    7.904    0.323    0.090   84.641  228.372
  734.332    7.841    0.354    0.114   87.276  228.896
  734.582    7.567    0.369    0.156   86.301  229.422
  734.832    7.276    0.352    0.082   81.717  229.947
  735.082    7.049    0.338    0.057   77.378  230.162
  735.332    6.840    0.367    0.092   78.055  230.377
  735.582    6.799    0.388    0.162   81.240  230.695
  735.832    6.671    0.382    0.185   87.056  230.599
  736.082    6.534    0.372    0.174   90.425  230.708
  736.332    6.341    0.361    0.184   91.592  231.234
  736.582    6.085    0.348    0.143   92.514  232.588
  736.832    5.745    0.345    0.129   93.436  233.320
  737.082    5.246    0.364    0.156   94.480  233.742
  737.332    4.791    0.383    0.186   98.094  234.163
  737.582    4.095    0.405    0.204   94.121  235.828
  737.832    3.139    0.489    0.224   87.886  239.565
  738.082    2.538    0.537    0.245   80.916  242.575
  738.332    2.565    0.507    0.222   73.702  245.069
  738.582    3.031    0.367    0.215   66.732  242.487
  738.832    3.576    0.351    0.209   69.367  239.697
  739.082    4.321    0.327    0.141   70.595  231.210
  739.332    5.569    0.311    0.122   73.108  227.695
  739.582    6.892    0.317    0.053   76.599  228.221
  739.832    6.926    0.337    0.065   84.311  229.056
  740.082    6.599    0.381    0.081   87.925  229.686
  740.332    6.252    0.393    0.149   87.501  229.692
  740.582    5.731    0.398    0.150   80.959  230.218
  740.832    5.253    0.385    0.168   69.279  233.126
  741.082    5.107    0.325    0.170   51.727  229.921
  741.332    5.161    0.290    0.132   48.978  234.384
  741.582    5.666    0.214    0.189   47.330  238.430
  741.832    6.922    0.207    0.272   46.295  233.776
  742.082    8.710    0.211    0.343   45.749  223.838
  742.332   11.668    0.212    0.356   44.529  221.981
  742.582   15.601    0.212    0.365   42.455  221.574
  742.832   23.126    0.211    0.361   41.296  220.857
  743.082   28.515    0.207    0.359   40.138  220.346
