~VERSION INFORMATION
 VERS.                 2.0:   CWLS LOG ASCII STANDARD -VERSION 2.0
 WRAP.                  NO:   ONE LINE PER DEPTH STEP
~WELL INFORMATION BLOCK
#MNEM.UNIT           DATA                    DESCRIPTION OF MNEMONIC
#---------    -------------------            -------------------------------
# Generated from Intellog Unique Number	CW_79_81/WELL/2473
WELL.         HB GODIN                       : Well_name    - WELL
LOC .         00/10-23-081-02W5/0            : Location     - LOCATION
UWI .         00/10-23-081-02W5/0            : Uwi          - UNIQUE WELL ID
ENTR.         MAX                            : Entered      - ENTERED BY
SRVC.         SCHLUMBERGER                   : Scn          - SERVICE COMPANY
STRT.M        243.84                         : top_depth    - START DEPTH
STOP.M        460.09                         : bot_depth    - STOP DEPTH
STEP.M        0.25                           : increment    - STEP LENGTH
 NULL. -999.2500:NULL Value
~CURVE INFORMATION BLOCK
#MNEM UNIT       ERCB CURVE CODE    CURVE DESCRIPTION
#-----------   ------------------   ----------------------------------
DEPT.M        00 001 00 00         : DEPTH        - DEPTH
ILD .OHMM     00 120 00 00         : RESD         - DEEP RESISTIVITY (DIL)
NPHI.V/V      00 330 00 00         : PHIN         - NEUTRON POROSITY (SANDSTONE)
DPHI.V/V      00 890 00 00         : PHID         - DENSITY POROSITY (SANDSTONE)
GR  .API      00 310 00 00         : GR           - GAMMA RAY
CALI.MM       00 280 01 00         : CAL          - CALIPER
~PARAMETER INFORMATION
#MNEM.UNIT           DATA             DESCRIPTION OF MNEMONIC
#---------         -----------     ------------------------------
GL  .M        586.435              : gl           - GROUND LEVEL ELEVATION
EREF.M        590.093              : kb           - ELEVATION OF DEPTH REFERENCE
DATM.M        586.435              : datum        - DATUM ELEVATION
TDD .M        445.008              : tdd          - TOTAL DEPTH DRILLER
RUN .         ONE                  : Run          - RUN NUMBER
ENG .         BILL                 : Engineer     - RECORDING ENGINEER
WIT .         JIM                  : Witness      - WITNESSED BY
MUD .         GEL                  : Mud_type     - MUD TYPE
MATR.         SANDSTONE            : Logunit      - NEUTRON MATRIX
TMAX.C        23.8889              : BHT          - MAXIMUM RECORDED TEMPERATURE
BHTD.M        445.008              : BHTDEP       - MAXIMUM RECORDED TEMPERATURE
MATR.         1                    : LOGUNIT      - NEUTRON MATRIX
RMT .C        18.8889              : MDTP         - TEMPERATURE OF MUD
NEUT.         1                    : NEUTRON      - NEUTRON TYPE
RESI.         0                    : RESIST       - RESISTIVITY TYPE
RMC .OHMM     3.22                 : RMC          - RESISTIVITY OF MUD CAKE
RMF .OHMM     3.22                 : RMF          - RESISTIVITY OF MUD FILTRATE
SUFT.C        -20.5556             : SUFT         - SURFACE TEMPERATURE
~A  DEPTH     RESD     PHIN     PHID       GR      CAL
  243.840    2.655    0.549    0.267   83.344  215.639
  244.090    2.736    0.556    0.256   80.680  215.670
  244.340    2.873    0.547    0.257   78.403  215.692
  244.590    3.107    0.522    0.265   75.375  214.923
  244.840    3.546    0.474    0.276   70.886  212.870
  245.090    4.788    0.381    0.283   62.219  208.424
  245.340    6.324    0.324    0.297   52.730  203.911
  245.590    8.745    0.360    0.317   48.768  202.747
  245.840   11.824    0.430    0.349   49.193  201.883
  246.090   13.633    0.473    0.360   49.559  200.524
  246.340   13.076    0.475    0.347   48.286  199.163
  246.590   12.233    0.477    0.338   46.959  199.502
  246.840   11.695    0.502    0.352   48.438  199.115
  247.090   11.444    0.484    0.348   47.515  199.145
  247.340   10.954    0.471    0.341   46.069  199.464
  247.590   10.492    0.463    0.336   45.381  200.280
  247.840   10.139    0.462    0.335   45.922  201.198
  248.090    9.836    0.464    0.335   47.395  201.228
  248.340    9.763    0.459    0.331   47.654  201.257
  248.590    9.763    0.447    0.331   47.670  201.678
  248.840    9.658    0.444    0.332   48.738  201.503
  249.090    9.485    0.451    0.332   49.804  201.331
  249.340    9.333    0.468    0.330   51.045  201.458
  249.590    9.375    0.491    0.324   54.066  201.882
  249.840    9.590    0.488    0.325   55.054  201.911
  250.090    8.916    0.508    0.326   57.410  201.930
  250.340    7.471    0.503    0.312   61.693  201.659
  250.590    6.100    0.491    0.297   66.037  202.477
  250.840    4.812    0.492    0.285   69.505  204.680
  251.090    3.459    0.523    0.265   72.972  207.728
  251.340    3.071    0.535    0.244   77.373  208.992
  251.590    2.962    0.517    0.256   75.047  210.208
  251.840    2.904    0.506    0.260   70.617  209.340
  252.090    2.873    0.502    0.269   68.293  206.789
  252.340    2.883    0.506    0.283   69.010  204.140
  252.590    3.020    0.520    0.287   70.334  204.008
  252.840    3.185    0.522    0.285   69.860  203.209
  253.090    3.519    0.522    0.282   64.963  204.820
  253.340    4.317    0.519    0.281   60.768  206.131
  253.590    5.311    0.507    0.283   57.040  206.155
  253.840    6.327    0.494    0.289   54.072  204.894
  254.090    9.006    0.504    0.302   52.490  203.261
  254.340   12.473    0.500    0.313   51.532  202.869
  254.590   15.087    0.501    0.306   49.209  202.498
  254.840   18.926    0.490    0.296   46.180  203.317
  255.090   23.110    0.448    0.280   40.930  204.333
  255.340   26.752    0.395    0.257   34.102  204.457
  255.590   32.844    0.393    0.247   28.458  202.010
  255.840   38.270    0.434    0.310   28.229  199.558
  256.090   40.822    0.457    0.337   28.011  199.984
  256.340   44.244    0.472    0.351   27.440  201.000
  256.590   47.931    0.472    0.365   26.869  200.629
  256.840   52.221    0.458    0.377   26.591  198.971
  257.090   60.974    0.436    0.369   26.892  198.455
  257.340   68.885    0.418    0.347   27.151  199.717
  257.590   70.394    0.430    0.348   27.401  203.705
  257.840   72.324    0.444    0.341   28.526  204.422
  258.090   74.975    0.455    0.336   29.242  202.466
  258.340   77.624    0.462    0.338   29.083  199.719
  258.590   77.955    0.470    0.348   28.400  199.681
  258.840   76.793    0.462    0.352   28.414  201.360
  259.090   73.517    0.461    0.345   28.428  201.388
  259.340   68.065    0.466    0.341   28.795  201.410
  259.590   60.475    0.469    0.335   29.278  201.432
  259.840   51.847    0.470    0.330   29.701  201.457
  260.090   41.922    0.465    0.332   29.904  201.077
  260.340   35.622    0.456    0.340   29.675  199.040
  260.590   28.301    0.461    0.338   29.456  198.273
  260.840   23.227    0.467    0.335   28.888  199.882
  261.090   20.349    0.471    0.335   28.435  201.293
  261.340   18.776    0.466    0.341   28.272  201.517
  261.590   17.577    0.445    0.357   28.291  200.906
  261.840   17.446    0.475    0.365   28.305  199.694
  262.090   16.824    0.485    0.356   28.087  200.508
  262.340   16.405    0.475    0.350   27.694  201.030
  262.590   16.112    0.466    0.343   27.475  201.054
  262.840   15.852    0.465    0.335   27.722  200.682
  263.090   15.419    0.468    0.330   29.409  200.401
  263.340   14.963    0.466    0.341   33.081  200.839
  263.590   14.325    0.464    0.355   36.135  200.864
  263.840   13.792    0.469    0.355   37.961  200.889
  264.090   13.549    0.477    0.345   38.560  200.913
  264.340   13.573    0.485    0.330   37.990  200.936
  264.590   13.673    0.491    0.317   36.078  200.884
  264.840   13.673    0.488    0.327   34.631  200.500
  265.090   13.674    0.478    0.337   35.347  200.524
  265.340   13.526    0.480    0.344   36.416  200.549
  265.590   13.381    0.483    0.348   37.250  200.376
  265.840   13.285    0.484    0.349   37.558  200.005
  266.090   13.268    0.479    0.349   37.245  199.392
  266.340   13.676    0.475    0.345   36.773  198.185
  266.590   14.692    0.469    0.350   36.085  198.205
  266.840   15.461    0.463    0.344   33.994  199.716
  267.090   15.806    0.457    0.331   31.552  200.337
  267.340   15.720    0.452    0.316   29.578  199.569
  267.590   15.314    0.452    0.305   28.709  198.970
  267.840   14.973    0.461    0.301   28.968  199.826
  268.090   14.545    0.462    0.335   28.516  199.851
  268.340   14.364    0.460    0.352   27.713  199.874
  268.590   14.313    0.455    0.354   26.909  199.698
  268.840   14.339    0.449    0.350   26.515  199.326
  269.090   14.444    0.440    0.346   27.241  198.797
  269.340   14.444    0.422    0.341   28.475  197.995
  269.590   14.237    0.431    0.334   28.491  197.631
  269.840   14.110    0.450    0.332   28.330  198.448
  270.090   14.009    0.467    0.331   28.227  199.265
  270.340   13.934    0.472    0.331   28.417  199.588
  270.590   13.913    0.463    0.333   29.332  199.616
  270.840   13.809    0.460    0.337   30.325  199.642
  271.090   13.710    0.459    0.337   31.040  199.664
  271.340   13.686    0.465    0.333   31.756  199.688
  271.590   13.686    0.472    0.332   32.472  199.913
  271.840   13.662    0.478    0.336   33.247  200.236
  272.090   13.502    0.480    0.341   34.444  200.263
  272.340   13.202    0.474    0.341   35.678  200.289
  272.590   11.481    0.467    0.336   36.862  200.319
  272.840    9.708    0.460    0.331   38.223  200.341
  273.090    8.625    0.450    0.328   39.642  200.167
  273.340    8.057    0.439    0.320   41.178  200.194
  273.590    7.513    0.434    0.290   43.361  201.415
  273.840    7.077    0.443    0.280   44.837  201.441
  274.090    6.579    0.450    0.273   45.787  201.067
  274.340    6.187    0.455    0.275   48.318  200.996
  274.590    5.927    0.462    0.275   51.374  201.221
  274.840    5.873    0.478    0.270   55.657  201.838
  275.090    6.253    0.511    0.266   63.774  203.221
  275.340    6.644    0.512    0.273   64.520  204.069
  275.590    6.790    0.502    0.265   61.728  203.698
  275.840    6.607    0.502    0.248   62.445  205.109
  276.090    6.088    0.499    0.242   64.332  206.522
  276.340    5.327    0.496    0.251   66.452  207.242
  276.590    4.307    0.513    0.265   70.008  208.248
  276.840    3.660    0.529    0.268   73.681  211.157
  277.090    3.402    0.513    0.269   76.501  211.979
  277.340    3.344    0.505    0.272   78.622  210.419
  277.590    3.428    0.505    0.272   79.689  209.255
  277.840    3.690    0.510    0.268   79.352  208.984
  278.090    4.474    0.505    0.270   76.584  207.576
  278.340    5.548    0.498    0.286   73.186  206.364
  278.590    6.711    0.490    0.295   68.755  205.995
  278.840    7.352    0.482    0.295   65.906  205.921
  279.090    7.242    0.474    0.300   63.582  205.945
  279.340    6.678    0.467    0.308   61.316  205.969
  279.590    6.120    0.462    0.298   59.131  206.086
  279.840    6.074    0.451    0.294   58.658  206.522
  280.090    6.525    0.463    0.300   58.906  206.547
