~VERSION INFORMATION
 VERS.                 2.0:   CWLS LOG ASCII STANDARD -VERSION 2.0
 WRAP.                  NO:   ONE LINE PER DEPTH STEP
~WELL INFORMATION BLOCK
#MNEM.UNIT           DATA                    DESCRIPTION OF MNEMONIC
#---------    -------------------            -------------------------------
# Generated from Intellog Unique Number	CW_73_75/WELL/2741
WELL.         TRICENT ER AL MITSUE 10-17     : Well_name    - WELL
LOC .         00/10-17-073-04W5/0            : Location     - LOCATION
UWI .         00/10-17-073-04W5/0            : Uwi          - UNIQUE WELL ID
ENTR.         JAYE                           : Entered      - ENTERED BY
SRVC.         SCHLUMBERGER                   : Scn          - SERVICE COMPANY
DATE.         14 MAR 80                      : Date         - LOG DATE
STRT.M        365                            : top_depth    - START DEPTH
STOP.M        595                            : bot_depth    - STOP DEPTH
STEP.M        0.25                           : increment    - STEP LENGTH
 NULL. -999.2500:NULL Value
~CURVE INFORMATION BLOCK
#MNEM UNIT       ERCB CURVE CODE    CURVE DESCRIPTION
#-----------   ------------------   ----------------------------------
DEPT.M        00 001 00 00         : DEPTH        - DEPTH
DPHI.V/V      00 890 00 00         : PHID         - DENSITY POROSITY (SANDSTONE)
NPHI.V/V      00 330 00 00         : PHIN         - NEUTRON POROSITY (SANDSTONE)
GR  .API      00 310 00 00         : GR           - GAMMA RAY
CALI.MM       00 280 01 00         : CAL          - CALIPER
ILD .OHMM     00 120 00 00         : RESD         - DEEP RESISTIVITY (DIL)
~PARAMETER INFORMATION
#MNEM.UNIT           DATA             DESCRIPTION OF MNEMONIC
#---------         -----------     ------------------------------
GL  .M        580.4                : gl           - GROUND LEVEL ELEVATION
EREF.M        585                  : kb           - ELEVATION OF DEPTH REFERENCE
DATM.M        580.4                : datum        - DATUM ELEVATION
TDD .M        1650                 : tdd          - TOTAL DEPTH DRILLER
RUN .         ONE                  : Run          - RUN NUMBER
ENG .         HOOK                 : Engineer     - RECORDING ENGINEER
WIT .         ZBIOI                : Witness      - WITNESSED BY
BASE.         5720                 : Branch       - HOME BASE OF LOGGING UNIT
MUD .         GEL CHEM             : Mud_type     - MUD TYPE
MATR.         SANDSTONE            : Logunit      - NEUTRON MATRIX
TMAX.C        48                   : BHT          - MAXIMUM RECORDED TEMPERATURE
BHTD.M        1651                 : BHTDEP       - MAXIMUM RECORDED TEMPERATURE
RMT .C        20                   : MDTP         - TEMPERATURE OF MUD
MUDD.KG/M     1070                 : MWT          - MUD DENSITY
NEUT.         1                    : NEUTRON      - NEUTRON TYPE
RESI.         0                    : RESIST       - RESISTIVITY TYPE
RM  .OHMM     1.18                 : RM           - RESISTIVITY OF MUD
RMC .OHMM     0                    : RMC          - RESISTIVITY OF MUD CAKE
RMF .OHMM     0.616                : RMF          - RESISTIVITY OF MUD FILTRATE
SUFT.C        0                    : SUFT         - SURFACE TEMPERATURE
~A  DEPTH     PHID     PHIN       GR      CAL     RESD
# ...
  401.500    0.359    0.451   60.810  224.812    5.066
  401.750    0.348    0.446   62.153  223.740    5.117
  402.000    0.347    0.443   65.408  222.168    4.961
  402.250    0.343    0.432   66.376  220.594    4.826
  402.500    0.337    0.423   64.441  219.215    4.748
  402.750    0.330    0.440   63.125  218.053    4.823
  403.000    0.323    0.448   63.231  218.018    4.982
  403.250    0.326    0.440   65.066  217.379    5.070
  403.500    0.351    0.457   66.034  217.238    4.887
  403.750    0.412    0.489   66.016  218.851    4.355
  404.000    0.443    0.505   67.602  225.102    3.745
  404.250    0.453    0.473   71.850  245.776    3.368
  404.500    0.437    0.462   75.167  354.735    3.519
  404.750    0.419    0.455   76.815  371.084    3.852
  405.000    0.397    0.447   73.336  333.965    4.255
  405.250    0.366    0.434   67.633  251.210    4.563
  405.500    0.306    0.433   61.000  239.132    4.839
  405.750    0.307    0.438   56.466  229.619    4.989
  406.000    0.323    0.426   52.555  221.038    5.105
  406.250    0.326    0.419   53.281  221.003    5.224
  406.500    0.332    0.415   53.443  221.910    5.267
  406.750    0.338    0.419   53.061  221.765    5.201
  407.000    0.339    0.433   52.972  221.218    5.052
  407.250    0.343    0.443   52.334  220.575    4.951
  407.500    0.339    0.446   51.762  220.538    4.799
  407.750    0.331    0.450   51.312  220.518    4.705
  408.000    0.324    0.456   51.166  220.682    4.707
  408.250    0.318    0.453   51.520  221.164    4.702
  408.500    0.329    0.449   52.364  222.679    4.679
  408.750    0.325    0.446   53.826  224.194    4.681
  409.000    0.312    0.458   55.660  224.156    4.685
  409.250    0.310    0.458   57.373  219.490    4.670
  409.500    0.310    0.451   57.971  213.687    4.690
  409.750    0.321    0.446   57.087  207.272    4.782
  410.000    0.333    0.451   55.587  205.485    4.857
  410.250    0.352    0.457   53.900  205.967    4.924
  410.500    0.343    0.462   52.702  206.349    4.964
  410.750    0.353    0.473   51.451  206.835    5.005
  411.000    0.344    0.484   51.367  206.182    5.036
  411.250    0.353    0.495   52.027  204.096    5.058
  411.500    0.326    0.493   53.060  199.214    5.080
  411.750    0.331    0.469   54.152  184.458    5.073
  412.000    0.331    0.447   55.868  196.886    5.095
  412.250    0.327    0.457   56.530  208.702    5.137
  412.500    0.321    0.451   54.904  211.456    5.170
  412.750    0.309    0.445   51.606  212.560    5.163
  413.000    0.298    0.439   51.896  213.352    5.137
  413.250    0.319    0.434   56.141  213.421    5.103
  413.500    0.331    0.437   57.730  213.288    5.105
  413.750    0.320    0.470   56.107  213.150    5.099
  414.000    0.311    0.467   55.219  212.290    5.102
  414.250    0.320    0.454   55.633  211.128    5.096
  414.500    0.322    0.446   56.662  209.752    5.119
  414.750    0.338    0.459   57.755  207.562    5.083
  415.000    0.352    0.479   58.353  206.499    5.087
  415.250    0.370    0.492   58.891  204.507    5.090
  415.500    0.376    0.496   56.772  199.428    5.093
  415.750    0.385    0.484   54.343  198.775    5.077
  416.000    0.383    0.467   53.153  205.136    5.042
  416.250    0.373    0.461   53.811  210.356    5.037
  416.500    0.363    0.468   55.154  215.165    5.002
  416.750    0.353    0.465   56.555  218.120    5.005
  417.000    0.348    0.457   57.465  219.634    5.008
  417.250    0.345    0.445   57.075  220.117    4.983
  417.500    0.352    0.434   54.083  220.288    4.884
  417.750    0.365    0.423   53.203  222.433    4.815
  418.000    0.368    0.415   53.737  224.662    4.720
  418.250    0.355    0.420   54.335  227.413    4.714
  418.500    0.359    0.441   54.565  227.179    4.717
  418.750    0.363    0.453   54.234  225.177    4.712
  419.000    0.356    0.457   52.737  222.779    4.679
  419.250    0.348    0.452   50.983  220.169    4.604
  419.500    0.345    0.444   50.840  217.262    4.522
  419.750    0.363    0.442   52.182  217.843    4.440
  420.000    0.373    0.441   52.657  224.605    4.320
  420.250    0.399    0.440   53.815  232.822    4.134
  420.500    0.440    0.476   55.152  245.458    4.014
  420.750    0.451    0.480   57.480  258.200    3.920
  421.000    0.446    0.461   60.061  272.072    3.886
  421.250    0.426    0.456   63.009  248.450    3.903
  421.500    0.390    0.453   64.780  243.786    3.920
  421.750    0.357    0.454   65.690  248.592    3.989
  422.000    0.364    0.453   66.103  256.496    4.113
  422.250    0.331    0.451   67.815  253.884    4.328
  422.500    0.317    0.449   70.761  244.684    4.581
  422.750    0.308    0.445   74.265  238.987    4.821
  423.000    0.302    0.445   77.829  233.398    5.027
  423.250    0.296    0.444   80.097  234.295    5.154
  423.500    0.287    0.441   82.619  235.607    5.275
  423.750    0.274    0.433   84.882  236.285    5.317
  424.000    0.263    0.430   87.334  235.640    5.300
  424.250    0.229    0.482   89.972  236.537    5.005
  424.500    0.263    0.567   92.428  239.690    4.647
  424.750    0.302    0.587   87.214  244.295    4.267
  425.000    0.365    0.611   80.952  249.523    4.022
  425.250    0.566    0.617   72.341  253.297    4.123
  425.500    0.494    0.605   67.316  252.647    4.331
  425.750    0.449    0.553   72.798  253.445    4.706
  426.000    0.392    0.521   77.912  257.841    5.018
  426.250    0.335    0.462   82.092  261.203    5.203
  426.500    0.295    0.452   83.557  252.725    5.100
  426.750    0.277    0.439   80.264  235.282    4.815
  427.000    0.284    0.430   77.711  228.660    4.650
  427.250    0.293    0.427   75.592  226.565    4.525
  427.500    0.296    0.441   73.531  227.362    4.436
  427.750    0.303    0.445   71.532  227.536    4.356
  428.000    0.311    0.433   69.720  226.266    4.270
  428.250    0.320    0.432   68.161  224.997    4.116
  428.500    0.321    0.439   66.843  224.037    3.952
  428.750    0.319    0.445   65.710  223.393    3.824
  429.000    0.324    0.444   64.087  223.458    3.763
  429.250    0.322    0.446   62.950  224.353    3.702
  429.500    0.327    0.455   61.450  225.457    3.629
  429.750    0.332    0.469   63.347  226.150    3.558
  430.000    0.329    0.482   66.479  226.524    3.533
  430.250    0.323    0.486   69.858  226.088    3.542
  430.500    0.320    0.479   73.856  226.055    3.564
  430.750    0.317    0.469   78.784  225.705    3.613
  431.000    0.310    0.458   82.038  225.166    3.739
  431.250    0.298    0.449   83.380  224.514    3.965
  431.500    0.280    0.444   83.978  224.172    4.397
  431.750    0.273    0.441   85.874  222.804    4.940
  432.000    0.269    0.438   80.171  221.332    5.752
  432.250    0.272    0.456   72.303  220.674    6.536
  432.500    0.282    0.464   65.300  220.034    6.701
  432.750    0.288    0.469   66.210  219.499    6.363
  433.000    0.285    0.469   68.349  219.551    5.756
  433.250    0.282    0.468   69.689  219.017    5.187
  433.500    0.300    0.464   71.280  218.972    4.648
  433.750    0.317    0.461   73.546  219.143    4.244
  434.000    0.322    0.454   74.026  219.323    4.030
  434.250    0.312    0.449   73.508  219.492    3.950
  434.500    0.306    0.444   72.754  219.468    3.902
  434.750    0.315    0.439   72.109  219.643    3.904
  435.000    0.318    0.438   70.359  219.194    3.935
  435.250    0.318    0.438   67.064  218.957    4.013
  435.500    0.308    0.435   65.133  218.715    4.098
  435.750    0.291    0.432   66.594  219.196    4.202
  436.000    0.281    0.437   70.778  221.431    4.292
  436.250    0.272    0.444   74.405  226.034    4.392
  436.500    0.258    0.454   77.109  227.660    4.436
  436.750    0.243    0.444   79.870  226.488    4.472
  437.000    0.234    0.433   81.457  226.972    4.500
  437.250    0.225    0.422   82.055  227.967    4.528
  437.500    0.214    0.420   81.665  229.793    4.531
  437.750    0.202    0.418   79.422  231.925    4.534
