~VERSION INFORMATION
 VERS.                 2.0:   CWLS LOG ASCII STANDARD -VERSION 2.0
 WRAP.                  NO:   ONE LINE PER DEPTH STEP
~WELL INFORMATION BLOCK
#MNEM.UNIT           DATA                    DESCRIPTION OF MNEMONIC
#---------    -------------------            -------------------------------
# Generated from Intellog Unique Number	CS_69_70/WELL/2879
WELL.         HUSKY OIL PRODUCTION LTD.      : Well_name    - WELL
LOC .         00/12-28-069-08W4/0            : Location     - LOCATION
UWI .         00/12-28-069-08W4/0            : Uwi          - UNIQUE WELL ID
ENTR.         JOETTE                         : Entered      - ENTERED BY
SRVC.         SCHLUMBERGER                   : Scn          - SERVICE COMPANY
DATE.         05/15/92                       : Date         - LOG DATE
STRT.M        325                            : top_depth    - START DEPTH
STOP.M        575                            : bot_depth    - STOP DEPTH
STEP.M        0.25                           : increment    - STEP LENGTH
 NULL. -999.2500:NULL Value
~CURVE INFORMATION BLOCK
#MNEM UNIT       ERCB CURVE CODE    CURVE DESCRIPTION
#-----------   ------------------   ----------------------------------
DEPT.M        00 001 00 00         : DEPTH        - DEPTH
GR  .API      00 310 00 00         : GR           - GAMMA RAY
CALI.MM       00 280 01 00         : CAL          - CALIPER
ILD .OHMM     00 120 00 00         : RESD         - DEEP RESISTIVITY (DIL)
DPHI.V/V      00 890 00 00         : PHID         - DENSITY POROSITY (SANDSTONE)
NPHI.V/V      00 330 00 00         : PHIN         - NEUTRON POROSITY (SANDSTONE)
~PARAMETER INFORMATION
#MNEM.UNIT           DATA             DESCRIPTION OF MNEMONIC
#---------         -----------     ------------------------------
GL  .M        662.9                : gl           - GROUND LEVEL ELEVATION
EREF.M        666.9                : kb           - ELEVATION OF DEPTH REFERENCE
DATM.M        666.9                : datum        - DATUM ELEVATION
TDD .M        580                  : tdd          - TOTAL DEPTH DRILLER
RUN .         ONE                  : Run          - RUN NUMBER
ENG .         BILL                 : Engineer     - RECORDING ENGINEER
WIT .         JIM                  : Witness      - WITNESSED BY
MUD .         GEL                  : Mud_type     - MUD TYPE
MATR.         SANDSTONE            : Logunit      - NEUTRON MATRIX
TMAX.C        26                   : BHT          - MAXIMUM RECORDED TEMPERATURE
BHTD.M        580                  : BHTDEP       - MAXIMUM RECORDED TEMPERATURE
RMT .C        18                   : MDTP         - TEMPERATURE OF MUD
MUDD.KG/M     1080                 : MWT          - MUD DENSITY
NEUT.         1                    : NEUTRON      - NEUTRON TYPE
RESI.         0                    : RESIST       - RESISTIVITY TYPE
RM  .OHMM     8.55                 : RM           - RESISTIVITY OF MUD
RMC .OHMM     8.57                 : RMC          - RESISTIVITY OF MUD CAKE
RMF .OHMM     8.57                 : RMF          - RESISTIVITY OF MUD FILTRATE
SUFT.C        4                    : SUFT         - SURFACE TEMPERATURE
~A  DEPTH       GR      CAL     RESD     PHID     PHIN
# ...
  398.000   64.268  154.616    7.992    0.319    0.468
  398.250   59.509  152.718    7.853    0.333    0.468
  398.500   55.352  149.842    7.863    0.346    0.482
  398.750   53.007  148.949    7.869    0.356    0.465
  399.000   56.109  151.074    7.737    0.360    0.444
  399.250   59.797  155.238    8.811    0.357    0.431
  399.500   58.055  156.301    8.658    0.358    0.428
  399.750   55.709  157.419    8.354    0.367    0.466
  400.000   54.570  157.533    8.207    0.381    0.461
  400.250   54.638  156.640    8.216    0.380    0.440
  400.500   55.292  156.753    8.224    0.379    0.435
  400.750   55.360  156.866    8.232    0.379    0.435
  401.000   53.618  157.008    8.243    0.376    0.431
  401.250   50.668  157.149    8.249    0.367    0.423
  401.500   49.529  156.285    8.108    0.359    0.424
  401.750   50.804  155.336    8.118    0.358    0.428
  402.000   52.079  154.443    8.125    0.368    0.426
  402.250   52.181  152.573    8.125    0.381    0.426
  402.500   52.215  150.703    7.849    0.386    0.435
  402.750   52.886  150.788    7.855    0.381    0.441
  403.000   54.781  151.935    8.008    0.377    0.444
  403.250   58.487  152.998    8.008    0.377    0.450
  403.500   59.158  154.145    8.028    0.382    0.444
  403.750   58.640  154.258    8.032    0.383    0.442
  404.000   58.070  154.371    7.897    0.378    0.448
  404.250   57.535  153.507    7.903    0.368    0.452
  404.500   57.602  153.592    7.913    0.362    0.448
  404.750   57.067  153.733    7.921    0.361    0.453
  405.000   53.514  154.852    7.927    0.357    0.460
  405.250   52.375  157.954    7.937    0.353    0.434
  405.500   54.270  158.096    7.941    0.359    0.425
  405.750   55.545  158.237    7.952    0.359    0.421
  406.000   56.820  157.288    7.958    0.353    0.425
  406.250   59.302  156.424    7.968    0.347    0.437
  406.500   56.352  155.560    7.976    0.348    0.437
  406.750   54.610  154.610    7.984    0.360    0.434
  407.000   54.695  152.769    7.992    0.363    0.433
  407.250   57.763  151.820    8.000    0.363    0.434
  407.500   59.641  151.961    8.010    0.358    0.435
  407.750   57.899  151.040    8.168    0.353    0.438
  408.000   55.553  151.153    8.802    0.353    0.439
  408.250   56.224  151.266    9.668    0.360    0.440
  408.500   57.499  150.374   10.811    0.359    0.442
  408.750   56.360  152.527   12.783    0.338    0.444
  409.000   55.238  153.646   16.280    0.297    0.402
  409.250   56.496  157.782   20.348    0.190    0.242
  409.500   51.133  160.912   20.368    0.116    0.197
  409.750   48.200  160.048   15.448    0.025    0.164
  410.000   48.872  160.133   12.851    0.107    0.204
  410.250   51.353  158.291   10.891    0.158    0.246
  410.500   54.438  157.342    9.404    0.275    0.329
  410.750   58.127  155.444    9.070    0.314    0.384
  411.000   59.402  153.545    8.751    0.335    0.405
  411.250   57.659  152.681    8.442    0.330    0.399
  411.500   57.124  152.794    8.146    0.323    0.418
  411.750   60.209  153.913    8.000    0.327    0.424
  412.000   62.708  155.032    7.862    0.332    0.424
  412.250   62.172  155.117    7.870    0.329    0.429
  412.500   60.430  155.258    7.878    0.326    0.438
  412.750   64.118  155.371    7.888    0.322    0.460
  413.000   71.427  154.479    7.751    0.317    0.465
  413.250   75.116  153.643    7.479    0.314    0.471
  413.500   70.373  152.722    7.345    0.311    0.471
  413.750   74.045  152.807    7.353    0.308    0.447
  414.000   78.991  152.920    7.782    0.303    0.440
  414.250   78.422  153.062    8.237    0.301    0.432
  414.500   77.886  153.146    8.397    0.300    0.427
  414.750   77.954  154.265    8.410    0.294    0.427
  415.000   76.815  157.424    8.417    0.299    0.437
  415.250   75.073  158.543    8.423    0.263    0.443
  415.500   73.330  159.662    8.593    0.237    0.434
  415.750   72.812  159.775    8.600    0.248    0.428
  416.000   72.879  158.882    8.606    0.257    0.434
  416.250   71.120  158.018    8.615    0.268    0.430
  416.500   75.412  158.103    8.468    0.269    0.424
  416.750   75.514  159.222    8.477    0.265    0.414
  417.000   74.341  160.369    8.487    0.262    0.408
  417.250   73.202  160.511    8.492    0.261    0.436
  417.500   72.063  160.567    8.500    0.288    0.447
  417.750   73.338  158.697    8.355    0.308    0.442
  418.000   73.423  155.821    8.210    0.311    0.439
  418.250   73.508  153.895    8.068    0.305    0.427
  418.500   73.576  151.968    7.781    0.299    0.422
  418.750   73.643  149.064    7.506    0.282    0.430
  419.000   74.918  149.206    7.240    0.270    0.433
  419.250   73.762  150.325    6.984    0.269    0.436
  419.500   76.847  151.415    6.739    0.277    0.438
  419.750   80.553  152.534    6.746    0.281    0.429
  420.000   77.587  153.653    6.882    0.286    0.430
  420.250   79.482  154.772    7.016    0.254    0.439
  420.500   82.567  155.947    7.565    0.243    0.447
  420.750   81.428  156.032    7.854    0.239    0.444
  421.000   80.926  156.174    8.629    0.233    0.441
  421.250   82.167  157.293    8.961    0.224    0.438
  421.500   84.649  157.377    9.137    0.216    0.443
  421.750   82.906  158.553    8.650    0.185    0.396
  422.000   71.492  158.610    7.331    0.103    0.278
  422.250   66.146  158.751    6.820    0.172    0.387
  422.500   76.472  158.836    6.698    0.218    0.431
  422.750   84.402  159.006    6.830    0.231    0.428
  423.000   82.056  160.068    7.099    0.247    0.430
  423.250   82.727  161.215    7.104    0.251    0.451
  423.500   83.985  161.328    7.108    0.252    0.455
  423.750   88.311  164.515    7.117    0.254    0.461
  424.000   90.776  165.606    6.993    0.257    0.429
  424.250   86.033  166.725    6.872    0.238    0.430
  424.500   86.704  167.872    6.509    0.244    0.459
  424.750   89.186  167.985    6.050    0.249    0.472
  425.000   89.237  169.047    5.421    0.244    0.460
  425.250   89.322  169.161    5.231    0.243    0.446
  425.500   90.580  170.279    5.139    0.239    0.443
  425.750   92.458  171.398    4.956    0.235    0.458
  426.000   90.129  173.551    4.608    0.261    0.478
  426.250   88.387  176.682    4.282    0.309    0.475
  426.500   86.627  180.818    3.909    0.319    0.466
  426.750   84.885  187.022    3.566    0.304    0.459
  427.000   85.556  188.084    3.195    0.272    0.467
  427.250   89.262  186.186    2.810    0.267    0.490
  427.500   91.743  187.305    2.711    0.265    0.497
  427.750   91.811  191.469    2.976    0.276    0.499
  428.000   87.672  190.577    3.329    0.290    0.509
  428.250   88.343  189.684    3.793    0.319    0.523
  428.500   89.618  190.803    4.485    0.336    0.552
  428.750   85.445  191.922    5.304    0.349    0.561
  429.000   79.495  190.024    5.722    0.304    0.528
  429.250   80.770  181.085    5.726    0.292    0.475
  429.500   82.632  170.107    5.729    0.272    0.435
  429.750   83.303  163.208    5.632    0.256    0.440
  430.000   84.578  162.316    5.635    0.242    0.443
  430.250   88.283  162.429    5.539    0.235    0.443
  430.500   88.334  162.542    5.546    0.246    0.444
  430.750   84.781  162.627    5.549    0.250    0.441
  431.000   88.487  160.785    5.660    0.264    0.439
  431.250   83.727  157.881    5.770    0.341    0.499
  431.500   79.554  155.926    6.105    0.374    0.505
  431.750   71.777  152.017    6.460    0.400    0.491
  432.000   68.225  148.107    6.965    0.351    0.475
  432.250   64.085  146.208    7.108    0.328    0.474
  432.500   59.309  146.378    7.114    0.326    0.473
  432.750   56.393  147.525    6.988    0.330    0.465
  433.000   57.668  148.588    6.866    0.331    0.453
  433.250   59.512  150.741    6.747    0.328    0.440
  433.500   60.821  150.882    6.508    0.323    0.437
  433.750   60.286  150.939    6.516    0.318    0.445
  434.000   61.526  151.080    6.402    0.322    0.442
  434.250   65.215  151.193    6.412    0.323    0.441
