~VERSION INFORMATION
 VERS.                 2.0:   CWLS LOG ASCII STANDARD -VERSION 2.0
 WRAP.                  NO:   ONE LINE PER DEPTH STEP
~WELL INFORMATION BLOCK
#MNEM.UNIT           DATA                    DESCRIPTION OF MNEMONIC
#---------    -------------------            -------------------------------
# Generated from Intellog Unique Number	CN_91_93/WELL/2707
WELL.         10-14-091-20W4                 : Well_name    - WELL
LOC .         00/10-14-091-20W4/0            : Location     - LOCATION
UWI .         00/10-14-091-20W4/0            : Uwi          - UNIQUE WELL ID
ENTR.         JOETTE                         : Entered      - ENTERED BY
SRVC.         SCHLUMBERGER                   : Scn          - SERVICE COMPANY
DATE.         02/09/92                       : Date         - LOG DATE
STRT.F        230                            : top_depth    - START DEPTH
STOP.F        759.856                        : bot_depth    - STOP DEPTH
STEP.F        0.82                           : increment    - STEP LENGTH
 NULL. -999.2500:NULL Value
~CURVE INFORMATION BLOCK
#MNEM UNIT       ERCB CURVE CODE    CURVE DESCRIPTION
#-----------   ------------------   ----------------------------------
DEPT.F        00 001 00 00         : DEPTH        - DEPTH
GR  .API      00 310 00 00         : GR           - GAMMA RAY
CALI.IN       00 280 01 00         : CAL          - CALIPER
NPHI.V/V      00 330 00 00         : PHIN         - NEUTRON POROSITY (SANDSTONE)
DPHI.V/V      00 890 00 00         : PHID         - DENSITY POROSITY (SANDSTONE)
ILD .OHMM     00 120 00 00         : RESD         - DEEP RESISTIVITY (DIL)
~PARAMETER INFORMATION
#MNEM.UNIT           DATA             DESCRIPTION OF MNEMONIC
#---------         -----------     ------------------------------
GL  .M        508.102              : gl           - GROUND LEVEL ELEVATION
EREF.M        508.559              : kb           - ELEVATION OF DEPTH REFERENCE
DATM.M        508.559              : datum        - DATUM ELEVATION
TDD .M        234.696              : tdd          - TOTAL DEPTH DRILLER
RUN .         ONE                  : Run          - RUN NUMBER
ENG .         BILL                 : Engineer     - RECORDING ENGINEER
WIT .         JIM                  : Witness      - WITNESSED BY
MUD .         GEL                  : Mud_type     - MUD TYPE
MATR.         SANDSTONE            : Logunit      - NEUTRON MATRIX
TMAX.F        60                   : BHT          - MAXIMUM RECORDED TEMPERATURE
BHTD.F        770                  : BHTDEP       - MAXIMUM RECORDED TEMPERATURE
RMT .F        77                   : MDTP         - TEMPERATURE OF MUD
MUDD.LB/G     9.66666              : MWT          - MUD DENSITY
NEUT.         1                    : NEUTRON      - NEUTRON TYPE
RESI.         0                    : RESIST       - RESISTIVITY TYPE
RM  .OHMM     4.5                  : RM           - RESISTIVITY OF MUD
RMC .OHMM     4.5                  : RMC          - RESISTIVITY OF MUD CAKE
RMF .OHMM     4.5                  : RMF          - RESISTIVITY OF MUD FILTRATE
SUFT.F        39.2                 : SUFT         - SURFACE TEMPERATURE
~A  DEPTH       GR      CAL     PHIN     PHID     RESD
  230.000   66.901    9.584    0.360    0.189   20.114
  230.820   65.974    9.523    0.361    0.197   18.723
  231.640   64.114    9.585    0.370    0.182   19.061
  232.461   67.231    9.710    0.363    0.174   21.036
  233.281   68.794    9.815    0.356    0.176   22.802
  234.101   66.625    9.836    0.363    0.188   23.007
  234.921   66.630    9.753    0.367    0.177   23.007
  235.741   68.193    9.692    0.328    0.171   22.397
  236.562   66.956    9.650    0.320    0.174   22.000
  237.382   65.717    9.713    0.319    0.156   20.662
  238.202   66.348    9.797    0.322    0.154   18.556
  239.022   66.665    9.942    0.326    0.200   18.390
  239.843   66.361   10.026    0.338    0.207   19.061
  240.663   69.479   10.026    0.360    0.207   14.569
  241.483   68.866   10.006    0.359    0.258   11.963
  242.303   70.115   10.027    0.363    0.297   11.336
  243.123   93.461   10.090    0.460    0.335    9.392
  243.944   97.823   10.111    0.545    0.387    7.922
  244.764   95.029   10.174    0.562    0.428    7.575
  245.584   77.300   10.382    0.571    0.466    6.742
  246.404   70.461   10.735    0.553    0.510    6.742
  247.224   61.444   11.295    0.522    0.483    8.211
  248.045   38.738   11.752    0.489    0.417   13.931
  248.865   34.699   12.312    0.433    0.360   22.802
  249.685   34.083   12.935    0.399    0.255   22.599
  250.505   42.181   12.542    0.381    0.259   20.295
  251.325   54.945   11.173    0.415    0.273   18.556
  252.146   66.465   10.593    0.439    0.267   17.585
  252.966   79.851   10.510    0.426    0.268   18.226
  253.786   81.725   10.614    0.448    0.294   19.757
  254.606   81.423   10.656    0.462    0.308   21.225
  255.427   80.184   10.678    0.470    0.313   22.599
  256.247   78.945   10.823    0.500    0.309   23.007
  257.067   77.086   11.010    0.478    0.310   22.599
  257.887   74.914   11.218    0.460    0.320   21.416
  258.707   71.809   11.405    0.484    0.320   20.295
  259.528   67.460   11.406    0.507    0.320   18.064
  260.348   66.534   11.531    0.518    0.346   16.223
  261.168   77.742   11.490    0.509    0.345   14.569
  261.988   92.997   11.241    0.527    0.328   12.288
  262.808   97.049   11.262    0.590    0.343   10.000
  263.629   93.633   11.139    0.602    0.335   10.000
  264.449   93.953   11.139    0.565    0.334    9.822
  265.269   96.136   11.181    0.549    0.346    9.061
  266.089   98.011   11.181    0.566    0.356    8.285
  266.909   98.017   11.244    0.573    0.359    7.575
  267.730   98.023   11.390    0.577    0.344    7.781
  268.550   94.919   11.452    0.521    0.337    9.648
  269.370   89.014   11.494    0.527    0.359   12.288
  270.190   88.398   11.661    0.552    0.442   17.743
  271.010   63.824   11.931    0.540    0.476   23.423
  271.831   56.051   12.595    0.550    0.496   34.742
  272.651   49.835   13.031    0.581    0.519   41.560
  273.471   45.174   13.488    0.601    0.533   45.050
  274.291   42.693   14.235    0.616    0.556   44.648
  275.112   41.455   15.045    0.629    0.551   41.560
  275.932   40.839   15.481    0.622    0.530   40.097
  276.752   39.913   15.606    0.606    0.491   42.312
  277.572   38.987   15.710    0.574    0.490   44.648
  278.392   38.682   15.856    0.556    0.349   41.190
  279.213   38.689   15.960    0.532    0.343   45.456
  280.033   39.318   16.043    0.560    0.404   41.934
  280.853   40.881   16.044    0.569    0.384   43.464
  281.673   43.377   15.982    0.574    0.322   46.694
  282.493   50.229   15.879    0.554    0.314   45.865
  283.314   53.660   15.775    0.518    0.346   41.934
  284.134   55.535   15.693    0.536    0.376   43.077
  284.954   56.164   15.507    0.551    0.372   45.865
  285.774   55.859   15.134    0.462    0.347   50.164
  286.594   54.931   14.740    0.441    0.330   50.164
  287.415   52.450   14.098    0.459    0.331   48.398
  288.235   49.657   13.476    0.509    0.355   49.716
  289.055   47.796   12.397    0.551    0.373   48.398
  289.875   45.625   12.149    0.573    0.394   45.050
  290.696   44.698   12.544    0.582    0.387   39.739
  291.516   44.083   12.440    0.547    0.369   32.924
  292.336   44.090   13.022    0.544    0.410   25.849
  293.156   45.031   13.873    0.593    0.462   20.114
  293.976   52.816   14.080    0.615    0.511   19.061
  294.797   66.514   13.624    0.602    0.450   15.934
  295.617   69.321   12.795    0.608    0.275   12.967
  296.437   81.152   12.173    0.612    0.255   11.135
  297.257   87.694    8.585    0.609    0.270    8.065
  298.077   88.633    8.669    0.599    0.288    7.575
  298.898   89.264    8.607    0.607    0.276    8.285
  299.718   87.403    8.524    0.611    0.285    9.225
  300.538   88.032    8.940    0.596    0.213   11.235
  301.358   68.436    9.127    0.485    0.188   13.201
  302.178   60.043    9.231    0.433    0.142   12.070
  302.999   72.184    9.273    0.450    0.133   10.181
  303.819   84.015    9.232    0.486    0.278    9.308
  304.639   91.178    9.170    0.511    0.281    7.051
  305.459   93.364    9.191    0.532    0.312    5.894
  306.280   91.504    9.213    0.564    0.325    5.687
  307.100   89.954    9.317    0.522    0.294    5.687
  307.920   89.340    9.338    0.505    0.237    5.790
  308.740   85.924    9.401    0.513    0.231    6.055
  309.560   82.819    9.318    0.536    0.233    6.742
  310.381   86.248    8.821    0.481    0.209    7.993
  311.201   71.942    8.634    0.468    0.245    9.061
  312.021   69.460    8.490    0.512    0.317    9.911
  312.841   71.022    8.490    0.513    0.320   10.552
  313.661   69.474    8.387    0.486    0.304   11.235
  314.482   71.347    8.304    0.489    0.281   11.541
  315.302   68.242    8.367    0.493    0.251   11.235
  316.122   64.205    8.513    0.486    0.202   10.743
  316.942   83.816    8.679    0.493    0.196   10.090
  317.762   90.978    8.825    0.481    0.235    8.511
  318.583   90.675    8.929    0.470    0.256    6.988
  319.403   97.527    8.950    0.507    0.235    6.447
  320.223   97.222    8.972    0.507    0.241    6.055
  321.043   96.608    8.951    0.514    0.256    5.790
  321.864   98.791    8.910    0.502    0.257    5.636
  322.684  100.977    8.848    0.521    0.277    5.487
  323.504  101.917    8.766    0.525    0.267    5.438
  324.324  101.302    8.725    0.531    0.253    5.438
  325.144   98.508    8.725    0.548    0.247    5.487
  325.965   96.337    8.705    0.546    0.244    5.738
  326.785   94.166    8.726    0.565    0.253    5.947
  327.605   93.240    8.726    0.525    0.256    6.109
  328.425   96.047    8.769    0.478    0.241    6.164
  329.245   94.499    8.811    0.511    0.226    6.220
  330.066   98.239    8.811    0.522    0.208    6.332
  330.886   97.312    8.770    0.518    0.222    6.505
  331.706   87.985    8.708    0.505    0.236    6.505
  332.526   87.991    8.709    0.492    0.251    6.505
  333.346   91.111    8.751    0.503    0.249    6.389
  334.167   93.918    8.834    0.517    0.258    6.164
  334.987   93.924    8.918    0.514    0.271    6.001
  335.807   92.998    8.918    0.506    0.277    5.894
  336.627   91.449    8.981    0.494    0.245    5.947
  337.448   90.212    9.147    0.502    0.232    6.220
  338.268   90.218    9.168    0.516    0.247    6.682
  339.088   92.715    9.107    0.507    0.257    6.988
  339.908   94.899    8.900    0.493    0.235    7.051
  340.728   95.841    8.734    0.486    0.231    6.164
  341.549   90.246    8.672    0.484    0.214    4.754
  342.369   85.585    8.652    0.503    0.182    4.425
  343.189   90.259    8.652    0.552    0.163    3.938
  344.009  101.157    8.653    0.589    0.255    3.766
  344.829  101.165    8.653    0.604    0.272    3.869
  345.650  101.171    8.675    0.597    0.287    4.119
  346.470  100.245    8.696    0.580    0.279    4.346
  347.290  100.562    8.717    0.552    0.274    4.628
  348.110  110.216    8.739    0.553    0.257    5.016
  348.930  108.044    8.760    0.545    0.256    5.341
