~VERSION INFORMATION
 VERS.                 2.0:   CWLS LOG ASCII STANDARD -VERSION 2.0
 WRAP.                  NO:   ONE LINE PER DEPTH STEP
~WELL INFORMATION BLOCK
#MNEM.UNIT           DATA                    DESCRIPTION OF MNEMONIC
#---------    -------------------            -------------------------------
# Generated from Intellog Unique Number	CS_67_68/WELL/2193
WELL.         10-08-067-03W4                 : Well_name    - WELL
LOC .         00/10-08-067-03W4/0            : Location     - LOCATION
UWI .         00/10-08-067-03W4/0            : Uwi          - UNIQUE WELL ID
ENTR.         SP                             : Entered      - ENTERED BY
SRVC.         SCHLUMBERGER                   : Scn          - SERVICE COMPANY
STRT.M        340                            : top_depth    - START DEPTH
STOP.M        576                            : bot_depth    - STOP DEPTH
STEP.M        0.25                           : increment    - STEP LENGTH
 NULL. -999.2500:NULL Value
~CURVE INFORMATION BLOCK
#MNEM UNIT       ERCB CURVE CODE    CURVE DESCRIPTION
#-----------   ------------------   ----------------------------------
DEPT.M        00 001 00 00         : DEPTH        - DEPTH
ILD .OHMM     00 120 00 00         : RESD         - DEEP RESISTIVITY (DIL)
DPHI.V/V      00 890 00 00         : PHID         - DENSITY POROSITY (LIMESTONE)
NPHI.V/V      00 330 00 00         : PHIN         - NEUTRON POROSITY (LIMESTONE)
GR  .API      00 310 00 00         : GR           - GAMMA RAY
CALI.MM       00 280 01 00         : CAL          - CALIPER
~PARAMETER INFORMATION
#MNEM.UNIT           DATA             DESCRIPTION OF MNEMONIC
#---------         -----------     ------------------------------
GL  .M        673.54               : gl           - GROUND LEVEL ELEVATION
EREF.M        678.04               : kb           - ELEVATION OF DEPTH REFERENCE
DATM.M        678.04               : datum        - DATUM ELEVATION
TDD .M        584                  : tdd          - TOTAL DEPTH DRILLER
RUN .         ONE                  : Run          - RUN NUMBER
ENG .         BILL                 : Engineer     - RECORDING ENGINEER
WIT .         JIM                  : Witness      - WITNESSED BY
MUD .         GEL                  : Mud_type     - MUD TYPE
MATR.         LIMESTONE            : Logunit      - NEUTRON MATRIX
TMAX.C        18.3                 : BHT          - MAXIMUM RECORDED TEMPERATURE
BHTD.M        584.5                : BHTDEP       - MAXIMUM RECORDED TEMPERATURE
MATR.         1                    : LOGUNIT      - NEUTRON MATRIX
RMT .C        25                   : MDTP         - TEMPERATURE OF MUD
NEUT.         1                    : NEUTRON      - NEUTRON TYPE
RESI.         0                    : RESIST       - RESISTIVITY TYPE
RMC .OHMM     0.25                 : RMC          - RESISTIVITY OF MUD CAKE
RMF .OHMM     0.25                 : RMF          - RESISTIVITY OF MUD FILTRATE
SUFT.C        15                   : SUFT         - SURFACE TEMPERATURE
~A  DEPTH     RESD     PHID     PHIN       GR      CAL
  340.000    2.579    0.243    0.531   98.232  184.858
  340.250    2.664    0.233    0.564   95.115  185.149
  340.500    2.700    0.225    0.534   97.789  184.526
  340.750    2.707    0.233    0.505   99.307  184.108
  341.000    2.653    0.245    0.500  100.824  183.079
  341.250    2.619    0.238    0.516  101.121  180.829
  341.500    2.635    0.231    0.543  101.783  179.701
  341.750    2.712    0.228    0.557  102.325  179.484
  342.000    2.796    0.227    0.569  102.562  180.183
  342.250    2.883    0.229    0.550  100.542  180.170
  342.500    2.972    0.231    0.527  101.448  180.259
  342.750    3.064    0.232    0.532  102.356  180.449
  343.000    3.130    0.238    0.523  100.519  180.842
  343.250    3.155    0.229    0.526   98.804  181.031
  343.500    3.139    0.220    0.513   99.161  181.021
  343.750    3.200    0.228    0.504   97.447  180.297
  344.000    3.268    0.245    0.523   90.367  179.980
  344.250    3.357    0.203    0.544   87.005  178.748
  344.500    3.403    0.188    0.522   94.010  181.072
  344.750    3.424    0.222    0.486   98.819  184.312
  345.000    3.380    0.235    0.480   97.653  187.550
  345.250    3.338    0.235    0.462   96.973  188.655
  345.500    3.296    0.223    0.473   97.028  187.932
  345.750    3.212    0.218    0.492   97.629  185.378
  346.000    3.124    0.225    0.492   99.452  182.213
  346.250    3.045    0.229    0.503  101.761  180.577
  346.500    3.006    0.230    0.515  104.315  178.531
  346.750    3.002    0.228    0.523  101.990  177.503
  347.000    3.066    0.230    0.525  100.275  176.677
  347.250    3.161    0.242    0.542   99.719  176.868
  347.500    3.228    0.248    0.563  102.760  177.971
  347.750    3.291    0.245    0.520  121.655  177.959
  348.000    3.293    0.246    0.498  128.842  178.354
  348.250    3.185    0.251    0.486  127.676  178.850
  348.500    3.103    0.254    0.482  110.900  179.341
  348.750    3.082    0.242    0.481  102.173  180.042
  349.000    3.048    0.235    0.498   98.811  181.044
  349.250    2.776    0.227    0.506   98.134  181.237
  349.500    2.752    0.220    0.514   99.467  180.818
  349.750    2.957    0.220    0.524   98.423  178.265
  350.000    3.159    0.232    0.524   88.355  172.053
  350.250    3.433    0.248    0.491   80.908  166.654
  350.500    3.985    0.261    0.443   75.352  162.678
  350.750    4.463    0.276    0.413   70.649  160.632
  351.000    5.122    0.292    0.371   72.165  160.009
  351.250    5.629    0.296    0.369   73.865  159.997
  351.500    6.059    0.292    0.375   74.649  159.070
  351.750    6.189    0.286    0.380   75.374  158.142
  352.000    6.216    0.283    0.384   76.830  157.418
  352.250    6.254    0.297    0.391   77.189  157.813
  352.500    6.328    0.300    0.411   75.534  158.410
  352.750    6.438    0.306    0.439   74.185  159.106
  353.000    6.688    0.315    0.434   71.921  159.400
  353.250    6.974    0.321    0.446   71.548  159.591
  353.500    7.163    0.325    0.432   73.858  159.881
  353.750    7.289    0.322    0.414   76.655  160.277
  354.000    7.403    0.317    0.393   79.513  160.770
  354.250    7.647    0.311    0.391   81.395  160.961
  354.500    8.048    0.306    0.420   74.742  160.951
  354.750    8.471    0.313    0.440   63.941  161.036
  355.000    8.917    0.320    0.424   64.665  161.128
  355.250    9.193    0.321    0.411   76.486  161.319
  355.500    9.408    0.316    0.439   82.089  161.203
  355.750    9.501    0.309    0.467   71.411  161.395
  356.000    9.541    0.303    0.465   62.989  161.484
  356.250    9.350    0.302    0.441   67.675  161.572
  356.500    8.792    0.293    0.434   73.156  161.967
  356.750    8.190    0.284    0.451   76.198  162.256
  357.000    7.715    0.284    0.466   73.080  162.246
  357.250    7.504    0.299    0.477   72.645  162.232
  357.500    7.479    0.307    0.474   74.162  162.323
  357.750    7.400    0.303    0.464   76.533  162.307
  358.000    7.251    0.295    0.455   79.512  162.602
  358.250    6.767    0.282    0.450   79.933  162.894
  358.500    6.339    0.275    0.455   78.400  162.879
  358.750    5.905    0.273    0.452   81.381  163.173
  359.000    5.668    0.282    0.447   85.032  163.058
  359.250    5.380    0.277    0.439   86.060  163.453
  359.500    5.155    0.270    0.436   85.014  163.541
  359.750    5.005    0.259    0.436   87.020  163.936
  360.000    5.035    0.243    0.432   89.329  164.328
  360.250    5.452    0.240    0.423   90.969  164.926
  360.500    5.947    0.245    0.416   91.205  165.321
  360.750    6.342    0.261    0.414   79.490  165.816
  361.000    6.802    0.279    0.398   73.751  166.616
  361.250    6.420    0.289    0.373   79.474  170.770
  361.500    5.803    0.306    0.429   86.418  175.637
  361.750    5.024    0.308    0.536   94.216  181.822
  362.000    4.541    0.271    0.524   98.172  185.571
  362.250    4.484    0.314    0.511   93.469  189.722
  362.500    4.818    0.334    0.501   85.962  191.845
  362.750    5.416    0.343    0.503   80.100  184.312
  363.000    6.020    0.315    0.541   74.543  170.987
  363.250    6.792    0.289    0.497   72.097  163.352
  363.500    7.766    0.293    0.460   72.333  162.221
  363.750    8.616    0.316    0.449   70.374  162.005
  364.000    9.505    0.315    0.451   64.085  161.890
  364.250   10.194    0.322    0.442   61.762  161.775
  364.500   10.730    0.330    0.461   59.192  161.154
  364.750   11.147    0.325    0.482   56.806  160.937
  365.000   11.110    0.325    0.471   55.214  160.618
  365.250   10.908    0.327    0.471   54.414  160.404
  365.500   10.629    0.315    0.478   56.114  159.984
  365.750   10.281    0.338    0.471   58.667  159.770
  366.000    9.795    0.385    0.476   58.294  159.453
  366.250    9.073    0.406    0.493   57.310  159.440
  366.500    8.201    0.349    0.474   59.373  159.322
  366.750    7.511    0.323    0.475   60.405  159.211
  367.000    6.945    0.311    0.488   62.348  158.892
  367.250    6.692    0.320    0.485   64.231  158.474
  367.500    6.644    0.319    0.474   65.687  158.563
  367.750    6.598    0.279    0.440   67.080  158.754
  368.000    6.576    0.268    0.453   65.427  158.839
  368.250    6.591    0.269    0.468   63.408  158.828
  368.500    6.732    0.281    0.477   63.583  158.612
  368.750    7.086    0.295    0.463   65.953  158.703
  369.000    7.571    0.301    0.448   65.337  158.485
  369.250    8.167    0.309    0.438   58.987  158.474
  369.500    8.547    0.324    0.443   54.223  158.258
  369.750    9.065    0.344    0.479   53.606  158.243
  370.000    9.433    0.360    0.480   57.013  158.334
  370.250    9.893    0.306    0.450   57.859  158.321
  370.500   10.161    0.286    0.433   56.203  158.409
  370.750   10.339    0.296    0.416   56.381  158.296
  371.000   10.189    0.313    0.433   58.629  158.384
  371.250    9.142    0.316    0.462   59.780  158.269
  371.500    8.404    0.296    0.478   58.919  158.360
  371.750    8.022    0.282    0.467   59.093  158.142
  372.000    7.729    0.273    0.448   59.023  158.030
  372.250    7.618    0.274    0.433   58.469  157.812
  372.500    7.708    0.280    0.430   56.266  157.903
  372.750    7.784    0.291    0.436   54.186  157.889
  373.000    7.876    0.306    0.465   58.264  157.978
  373.250    7.924    0.318    0.465   62.278  157.965
  373.500    7.766    0.327    0.460   64.528  157.953
  373.750    7.468    0.336    0.454   65.863  157.939
  374.000    7.920    0.343    0.489   61.037  157.827
  374.250    8.608    0.221    0.514   58.042  157.709
  374.500    9.094    0.162    0.299   54.192  157.700
  374.750    9.464    0.138    0.236   52.539  157.686
  375.000    9.630    0.126    0.341   63.263  157.875
  375.250    9.193    0.212    0.400   76.000  158.068
  375.500    8.124    0.236    0.419   83.432  158.458
  375.750    6.954    0.249    0.436   82.814  158.956
  376.000    6.274    0.260    0.453   80.062  160.265
  376.250    5.955    0.253    0.425   84.322  162.183
