~VERSION INFORMATION
 VERS.                 2.0:   CWLS LOG ASCII STANDARD -VERSION 2.0
 WRAP.                  NO:   ONE LINE PER DEPTH STEP
~WELL INFORMATION BLOCK
#MNEM.UNIT           DATA                    DESCRIPTION OF MNEMONIC
#---------    -------------------            -------------------------------
# Generated from Intellog Unique Number	CS_71_72/WELL/866
WELL.         PEX PHILLIPS AEC GRIST         : Well_name    - WELL
LOC .         00/10-23-071-07W4/0            : Location     - LOCATION
UWI .         00/10-23-071-07W4/0            : Uwi          - UNIQUE WELL ID
ENTR.         SP                             : Entered      - ENTERED BY
SRVC.         SCHLUMBERGER                   : Scn          - SERVICE COMPANY
STRT.M        300                            : top_depth    - START DEPTH
STOP.M        520                            : bot_depth    - STOP DEPTH
STEP.M        0.25                           : increment    - STEP LENGTH
 NULL. -999.2500:NULL Value
~CURVE INFORMATION BLOCK
#MNEM UNIT       ERCB CURVE CODE    CURVE DESCRIPTION
#-----------   ------------------   ----------------------------------
DEPT.M        00 001 00 00         : DEPTH        - DEPTH
ILD .OHMM     00 120 00 00         : RESD         - DEEP RESISTIVITY (DIL)
DPHI.V/V      00 890 00 00         : PHID         - DENSITY POROSITY (LIMESTONE)
NPHI.V/V      00 330 00 00         : PHIN         - NEUTRON POROSITY (LIMESTONE)
GR  .API      00 310 00 00         : GR           - GAMMA RAY
~PARAMETER INFORMATION
#MNEM.UNIT           DATA             DESCRIPTION OF MNEMONIC
#---------         -----------     ------------------------------
GL  .M        662.4                : gl           - GROUND LEVEL ELEVATION
EREF.M        666.2                : kb           - ELEVATION OF DEPTH REFERENCE
DATM.M        662.4                : datum        - DATUM ELEVATION
TDD .M        529                  : tdd          - TOTAL DEPTH DRILLER
RUN .         ONE                  : Run          - RUN NUMBER
ENG .         BILL                 : Engineer     - RECORDING ENGINEER
WIT .         JIM                  : Witness      - WITNESSED BY
MUD .         GEL                  : Mud_type     - MUD TYPE
MATR.         LIMESTONE            : Logunit      - NEUTRON MATRIX
TMAX.C        24                   : BHT          - MAXIMUM RECORDED TEMPERATURE
BHTD.M        529                  : BHTDEP       - MAXIMUM RECORDED TEMPERATURE
MATR.         1                    : LOGUNIT      - NEUTRON MATRIX
RMT .C        25                   : MDTP         - TEMPERATURE OF MUD
NEUT.         1                    : NEUTRON      - NEUTRON TYPE
RESI.         0                    : RESIST       - RESISTIVITY TYPE
RMC .OHMM     0.25                 : RMC          - RESISTIVITY OF MUD CAKE
RMF .OHMM     0.25                 : RMF          - RESISTIVITY OF MUD FILTRATE
SUFT.C        15                   : SUFT         - SURFACE TEMPERATURE
~A  DEPTH     RESD     PHID     PHIN       GR
# ...
  387.000    7.723    0.310    0.444   59.029
  387.250    7.681    0.312    0.460   57.933
  387.500    7.583    0.314    0.479   61.542
  387.750    7.430    0.314    0.479   62.828
  388.000    7.225    0.315    0.471   63.382
  388.250    6.639    0.306    0.458   65.463
  388.500    5.755    0.295    0.450   69.376
  388.750    4.832    0.294    0.456   73.717
  389.000    4.072    0.278    0.461   78.241
  389.250    3.659    0.263    0.457   81.910
  389.500    3.407    0.271    0.455   84.784
  389.750    3.319    0.278    0.455   86.987
  390.000    3.234    0.280    0.457   88.335
  390.250    3.192    0.270    0.467   88.950
  390.500    3.169    0.263    0.480   83.763
  390.750    3.189    0.262    0.496   82.729
  391.000    3.213    0.264    0.519   84.016
  391.250    3.344    0.265    0.504   79.806
  391.500    3.428    0.271    0.469   79.016
  391.750    3.554    0.260    0.474   82.075
  392.000    3.671    0.253    0.499   83.239
  392.250    3.893    0.264    0.488   79.335
  392.500    4.043    0.286    0.491   73.842
  392.750    4.160    0.299    0.499   69.571
  393.000    4.170    0.283    0.489   72.385
  393.250    4.024    0.269    0.483   77.031
  393.500    3.677    0.265    0.495   81.983
  393.750    3.200    0.278    0.524   85.346
  394.000    2.880    0.296    0.543   89.992
  394.250    2.708    0.314    0.557   90.363
  394.500    2.937    0.323    0.565   83.099
  394.750    3.481    0.328    0.514   76.202
  395.000    4.195    0.301    0.461   70.770
  395.250    5.271    0.282    0.446   71.996
  395.500    6.462    0.270    0.453   79.879
  395.750    7.334    0.289    0.465   85.014
  396.000    7.719    0.306    0.461   84.163
  396.250    7.678    0.307    0.445   79.220
  396.500    7.480    0.308    0.438   75.193
  396.750    7.193    0.315    0.447   71.289
  397.000    7.087    0.317    0.457   68.850
  397.250    7.157    0.304    0.462   67.877
  397.500    7.461    0.309    0.448   67.698
  397.750    8.124    0.313    0.439   67.703
  398.000    8.946    0.315    0.437   66.914
  398.250    9.777    0.220    0.438   64.903
  398.500   10.309    0.152    0.358   63.074
  398.750   10.450    0.150    0.278   62.346
  399.000   10.355    0.217    0.304   63.632
  399.250   10.280    0.274    0.393   67.729
  399.500   10.698    0.278    0.429   67.916
  399.750   11.496    0.276    0.398   64.379
  400.000   12.307    0.043    0.374   62.061
  400.250   12.567    0.010    0.207   53.759
  400.500   12.643   -0.001    0.186   47.167
  400.750   11.817    0.059    0.227   64.701
  401.000    9.253    0.120    0.351   77.469
  401.250    7.886    0.180    0.425   86.025
  401.500    7.139    0.210    0.457   88.594
  401.750    6.749    0.222    0.469   87.194
  402.000    6.514    0.225    0.468   81.823
  402.250    6.358    0.225    0.462   77.247
  402.500    6.230    0.235    0.477   79.572
  402.750    6.208    0.218    0.496   83.729
  403.000    6.198    0.203    0.505   83.734
  403.250    6.224    0.212    0.503   81.540
  403.500    6.284    0.235    0.500   80.688
  403.750    6.310    0.234    0.495   83.013
  404.000    6.312    0.242    0.487   82.346
  404.250    6.232    0.267    0.473   83.083
  404.500    6.094    0.249    0.452   84.004
  404.750    6.004    0.206    0.441   82.665
  405.000    5.817    0.190    0.453   80.714
  405.250    5.614    0.198    0.477   83.772
  405.500    5.367    0.212    0.501   86.891
  405.750    4.933    0.219    0.485   85.552
  406.000    4.465    0.239    0.508   80.976
  406.250    4.127    0.280    0.532   79.087
  406.500    3.865    0.322    0.536   79.274
  406.750    3.702    0.371    0.540   79.645
  407.000    3.586    0.405    0.568   80.566
  407.250    3.514    0.288    0.590   82.035
  407.500    3.482    0.270    0.556   83.628
  407.750    3.463    0.261    0.535   83.571
  408.000    3.458    0.282    0.551   82.171
  408.250    3.407    0.315    0.555   81.381
  408.500    3.332    0.342    0.567   81.202
  408.750    3.259    0.345    0.584   82.000
  409.000    3.175    0.362    0.599   82.676
  409.250    3.152    0.437    0.570   80.665
  409.500    3.374    0.500    0.576   79.448
  409.750    3.730    0.528    0.588   81.040
  410.000    4.061    0.324    0.522   82.877
  410.250    4.480    0.284    0.472   82.820
  410.500    4.706    0.342    0.481   80.137
  410.750    4.944    0.449    0.513   77.271
  411.000    5.136    0.338    0.541   74.710
  411.250    5.166    0.274    0.544   73.187
  411.500    5.033    0.253    0.501   76.734
  411.750    4.830    0.269    0.483   82.662
  412.000    4.549    0.312    0.478   83.033
  412.250    4.432    0.361    0.500   80.656
  412.500    4.917    0.388    0.523   78.461
  412.750    5.644    0.307    0.529   73.641
  413.000    6.227    0.280    0.494   70.408
  413.250    6.805    0.260    0.481   64.672
  413.500    7.354    0.135    0.442   61.744
  413.750    7.468    0.101    0.310   61.992
  414.000    7.060    0.153    0.395   68.959
  414.250    6.224    0.214    0.444   74.216
  414.500    5.530    0.276    0.468   75.870
  414.750    5.159    0.289    0.485   74.775
  415.000    4.886    0.295    0.491   73.618
  415.250    4.851    0.300    0.488   70.447
  415.500    4.935    0.309    0.466   68.924
  415.750    5.022    0.309    0.438   71.739
  416.000    5.090    0.310    0.422   72.780
  416.250    5.188    0.311    0.430   69.487
  416.500    5.268    0.311    0.452   66.498
  416.750    5.360    0.307    0.467   68.030
  417.000    5.485    0.303    0.479   68.401
  417.250    5.633    0.293    0.491   67.855
  417.500    5.721    0.287    0.472   66.760
  417.750    5.765    0.292    0.459   69.941
  418.000    5.800    0.288    0.464   72.082
  418.250    5.812    0.268    0.468   75.691
  418.500    5.846    0.254    0.450   78.323
  418.750    5.804    0.254    0.437   79.057
  419.000    5.687    0.242    0.430   81.079
  419.250    5.336    0.227    0.424   81.081
  419.500    5.121    0.255    0.441   80.108
  419.750    5.289    0.456    0.476   79.685
  420.000    5.546    0.538    0.523   79.018
  420.250    5.782    0.454    0.516   78.472
  420.500    5.961    0.253    0.449   79.699
  420.750    6.076    0.236    0.430   80.863
  421.000    6.124    0.221    0.426   80.989
  421.250    6.068    0.210    0.421   78.306
  421.500    5.912    0.209    0.432   78.494
  421.750    5.675    0.239    0.446   80.697
  422.000    5.591    0.271    0.457   79.846
  422.250    5.306    0.275    0.470   77.285
  422.500    5.072    0.293    0.458   74.847
  422.750    4.670    0.375    0.469   73.629
  423.000    4.268    0.476    0.497   72.901
  423.250    4.034    0.514    0.518   72.661
  423.500    3.960    0.499    0.514   73.031
  423.750    3.984    0.456    0.518   73.158
  424.000    4.092    0.445    0.546   69.314
  424.250    4.202    0.425    0.477   69.930
  424.500    4.094    0.354    0.457   75.553
  424.750    3.516    0.353    0.456   77.878
  425.000    3.065    0.364    0.490   78.859
  425.250    2.642    0.368    0.522   77.459
  425.500    2.396    0.351    0.545   77.585
  425.750    2.287    0.379    0.524   78.872
  426.000    2.283    0.379    0.519   77.594
  426.250    2.284    0.332    0.510   74.117
  426.500    2.289    0.324    0.528   73.266
  426.750    2.289    0.340    0.561   75.225
  427.000    2.282    0.360    0.597   77.978
  427.250    2.282    0.384    0.572   80.243
  427.500    2.357    0.368    0.562   81.163
  427.750    2.416    0.359    0.555   81.350
  428.000    2.621    0.404    0.526   80.805
  428.250    2.838    0.458    0.507   78.611
  428.500    3.245    0.450    0.495   76.355
  428.750    3.703    0.438    0.540   74.038
  429.000    4.179    0.488    0.550   77.157
  429.250    4.619    0.457    0.493   78.322
  429.500    4.992    0.243    0.444   81.990
  429.750    5.324    0.226    0.434   86.026
  430.000    5.551    0.222    0.446   86.641
  430.250    5.679    0.222    0.461   86.096
