~VERSION INFORMATION
 VERS.                 2.0:   CWLS LOG ASCII STANDARD -VERSION 2.0
 WRAP.                  NO:   ONE LINE PER DEPTH STEP
~WELL INFORMATION BLOCK
#MNEM.UNIT           DATA                    DESCRIPTION OF MNEMONIC
#---------    -------------------            -------------------------------
# Generated from Intellog Unique Number	CS_69_70/WELL/902
NULL.         -999.25                        : NULL_VALUE
WELL.         BVX ET AL HEART LAKE           : Well_name    - WELL              
LOC .         00/13-18-070-10W4/0            : Location     - LOCATION          
UWI .         00/13-18-070-10W4/0            : Uwi          - UNIQUE WELL ID    
ENTR.         SP                             : Entered      - ENTERED BY        
SRVC.         SCHLUMBERGER                   : Scn          - SERVICE COMPANY   
STRT.M        295                            : top_depth    - START DEPTH       
STOP.M        530                            : bot_depth    - STOP DEPTH        
STEP.M        0.25                           : increment    - STEP LENGTH       
~CURVE INFORMATION BLOCK
#MNEM UNIT       ERCB CURVE CODE    CURVE DESCRIPTION
#-----------   ------------------   ----------------------------------
DEPT.M        00 001 00 00         : DEPTH        - DEPTH                       
DPHI.V/V      00 890 00 00         : PHID         - DENSITY POROSITY (LIMESTONE)
NPHI.V/V      00 330 00 00         : PHIN         - NEUTRON POROSITY (LIMESTONE)
GR  .API      00 310 00 00         : GR           - GAMMA RAY                   
ILD .OHMM     00 120 00 00         : RESD         - DEEP RESISTIVITY (DIL)      
~PARAMETER INFORMATION       
#MNEM.UNIT           DATA             DESCRIPTION OF MNEMONIC
#---------         -----------     ------------------------------
GL  .M        632.82               : gl           - GROUND LEVEL ELEVATION      
EREF.M        635.5                : kb           - ELEVATION OF DEPTH REFERENCE
DATM.M        632.82               : datum        - DATUM ELEVATION             
TDD .M        545                  : tdd          - TOTAL DEPTH DRILLER         
RUN .         ONE                  : Run          - RUN NUMBER                  
ENG .         BILL                 : Engineer     - RECORDING ENGINEER          
WIT .         JIM                  : Witness      - WITNESSED BY                
MUD .         GEL                  : Mud_type     - MUD TYPE                    
MATR.         LIMESTONE            : Logunit      - NEUTRON MATRIX              
TMAX.C        23                   : BHT          - MAXIMUM RECORDED TEMPERATURE
BHTD.M        545                  : BHTDEP       - MAXIMUM RECORDED TEMPERATURE
MATR.         1                    : LOGUNIT      - NEUTRON MATRIX              
RMT .C        25                   : MDTP         - TEMPERATURE OF MUD          
NEUT.         1                    : NEUTRON      - NEUTRON TYPE                
RESI.         0                    : RESIST       - RESISTIVITY TYPE            
RMC .OHMM     0.25                 : RMC          - RESISTIVITY OF MUD CAKE     
RMF .OHMM     0.25                 : RMF          - RESISTIVITY OF MUD FILTRATE 
SUFT.C        15                   : SUFT         - SURFACE TEMPERATURE         
~A  DEPTH     PHID     PHIN       GR     RESD
# ...
  469.000    0.216    0.360   89.010    6.245
  469.250    0.208    0.353   96.370    6.919
  469.500    0.186    0.359   98.365    7.736
  469.750    0.199    0.374   92.707    8.763
  470.000    0.223    0.387   81.685   10.018
  470.250    0.241    0.378   75.544   11.753
  470.500    0.256    0.373   72.236   12.829
  470.750    0.278    0.391   73.207   11.928
  471.000    0.269    0.399   76.408   10.826
  471.250    0.279    0.391   79.067    9.863
  471.500    0.262    0.382   80.400    9.086
  471.750    0.235    0.383   82.576    8.385
  472.000    0.231    0.381   84.571    7.809
  472.250    0.244    0.396   85.964    6.999
  472.500    0.247    0.410   87.900    6.652
  472.750    0.258    0.400   88.931    6.500
  473.000    0.250    0.387   90.264    6.387
  473.250    0.267    0.394   91.898    6.393
  473.500    0.260    0.410   94.013    6.556
  473.750    0.253    0.392   96.431    6.647
  474.000    0.241    0.378   99.451    6.754
  474.250    0.232    0.379  104.279    6.859
  474.500    0.228    0.376  112.241    7.205
  474.750    0.224    0.381  114.899    7.411
  475.000    0.221    0.389  105.987    7.740
  475.250    0.238    0.384   99.425    7.881
  475.500    0.247    0.374   90.994    7.788
  475.750    0.249    0.375   82.623    7.733
  476.000    0.246    0.392   77.146    7.100
  476.250    0.254    0.393   73.718    6.860
  476.500    0.255    0.369   75.653    6.274
  476.750    0.241    0.378   77.830    6.141
  477.000    0.229    0.389   80.488    6.026
  477.250    0.226    0.366   83.749    6.040
  477.500    0.210    0.350   83.334    6.124
  477.750    0.199    0.358   78.579    6.209
  478.000    0.189    0.352   85.034    6.262
  478.250    0.182    0.341  100.952    6.267
  478.500    0.174    0.355  105.479    6.296
  478.750    0.174    0.374  100.363    6.409
  479.000    0.188    0.373   94.523    6.486
  479.250    0.187    0.355   88.926    6.492
  479.500    0.180    0.344   85.316    6.461
  479.750    0.175    0.339   86.889    6.913
  480.000    0.176    0.347   89.609    7.574
  480.250    0.178    0.353   85.818    8.237
  480.500    0.180    0.356   79.075    8.651
  480.750    0.192    0.363   70.886    8.723
  481.000    0.213    0.370   66.372    8.461
  481.250    0.251    0.349   78.011    7.766
  481.500    0.223    0.333   83.622    7.247
  481.750    0.204    0.349   86.643    6.914
  482.000    0.209    0.363   85.383    6.706
  482.250    0.215    0.380   84.968    6.602
  482.500    0.214    0.377   89.737    6.536
  482.750    0.206    0.341   92.636    6.495
  483.000    0.195    0.338   94.089    6.489
  483.250    0.187    0.343   94.819    6.470
  483.500    0.174    0.347   95.247    6.488
  483.750    0.182    0.351   91.216    6.519
  484.000    0.186    0.347   90.560    6.621
  484.250    0.200    0.339   89.302    6.918
  484.500    0.202    0.330   89.308    7.024
  484.750    0.205    0.324   91.605    7.478
  485.000    0.210    0.332   92.275    7.650
  485.250    0.201    0.337   88.003    7.841
  485.500    0.208    0.346   85.659    8.204
  485.750    0.228    0.352   84.520    8.631
  486.000    0.227    0.358   81.936    9.580
  486.250    0.234    0.376   77.663   10.731
  486.500    0.248    0.395   74.657   11.375
  486.750    0.257    0.408   72.012   11.640
  487.000    0.264    0.413   69.668   11.607
  487.250    0.267    0.406   69.133   11.282
  487.500    0.276    0.398   70.164   10.646
  487.750    0.263    0.394   75.414    9.736
  488.000    0.254    0.386   80.965    9.067
  488.250    0.221    0.378   89.048    8.307
  488.500    0.206    0.376   92.490    7.997
  488.750    0.198    0.385   91.774    7.728
  489.000    0.202    0.393   89.852    7.595
  489.250    0.213    0.397   87.570    7.743
  489.500    0.203    0.416   86.189    7.967
  489.750    0.185    0.403   85.774    8.139
  490.000    0.201    0.416   87.046    8.242
  490.250    0.172    0.387   87.715    8.264
  490.500    0.161    0.382   83.866    8.335
  490.750    0.195    0.392   80.738    8.035
  491.000    0.214    0.397   76.466    7.911
  491.250    0.232    0.407   70.566    7.772
  491.500    0.247    0.403   65.632    7.415
  491.750    0.252    0.391   63.228    6.895
  492.000    0.257    0.381   68.598    6.306
  492.250    0.268    0.368   76.017    5.960
  492.500    0.259    0.361   81.870    5.421
  492.750    0.216    0.368   83.805    5.217
  493.000    0.232    0.383   79.955    4.798
  493.250    0.207    0.401   73.273    4.420
  493.500    0.218    0.424   68.638    4.154
  493.750    0.241    0.411   64.848    3.869
  494.000    0.273    0.377   62.987    3.678
  494.250    0.282    0.357   69.081    3.634
  494.500    0.237    0.350   75.296    3.845
  494.750    0.193    0.346   79.160    4.083
  495.000    0.173    0.358   80.973    4.201
  495.250    0.211    0.375   79.233    4.159
  495.500    0.230    0.386   79.058    4.042
  495.750    0.262    0.375   99.736    4.053
  496.000    0.237    0.372  109.868    4.241
  496.250    0.208    0.403  111.563    4.578
  496.500    0.178    0.399  109.400    5.091
  496.750    0.154    0.376  107.900    5.558
  497.000    0.139    0.355  108.811    6.114
  497.250    0.132    0.341  111.348    6.383
  497.500    0.125    0.328  113.886    6.896
  497.750    0.145    0.329  111.603    6.902
  498.000    0.158    0.329  104.741    6.793
  498.250    0.156    0.328   99.805    6.648
  498.500    0.136    0.325   96.797    6.415
  498.750    0.123    0.325   96.624    6.327
  499.000    0.130    0.341   95.304    6.183
  499.250    0.122    0.365   90.551    6.010
  499.500    0.144    0.381   86.881    5.913
  499.750    0.171    0.368   83.031    5.447
  500.000    0.228    0.362   69.493    4.694
  500.250    0.238    0.354   69.161    4.474
  500.500    0.233    0.347   73.121    4.352
  500.750    0.209    0.345   75.750    4.352
  501.000    0.209    0.346   78.621    4.441
  501.250    0.157    0.336   80.883    4.566
  501.500    0.042    0.321   84.300    4.773
  501.750    0.020    0.309   86.140    5.293
  502.000    0.020    0.312   87.443    5.668
  502.250    0.037    0.314   87.353    6.216
  502.500    0.058    0.307   87.392    6.693
  502.750    0.067    0.319   87.780    7.233
  503.000    0.075    0.326   90.047    7.519
  503.250    0.053    0.331   91.893    7.674
  503.500    0.062    0.322   91.562    7.730
  503.750    0.070    0.312   90.567    7.631
  504.000    0.062    0.305   90.360    7.561
  504.250    0.053    0.313   91.965    7.505
  504.500    0.048    0.318   93.141    7.505
  504.750    0.063    0.327   95.053    7.505
  505.000    0.072    0.336   96.591    7.478
  505.250    0.071    0.342   97.827    7.423
  505.500    0.068    0.347   96.777    7.341
  505.750    0.058    0.337   98.739    7.341
  506.000    0.042    0.327   98.770    7.409
  506.250    0.023    0.321   95.120    7.436
  506.500    0.047    0.324   93.343    7.505
  506.750    0.072    0.327   94.523    7.505
  507.000    0.082    0.330   96.486    7.505
  507.250    0.071    0.335   94.050    7.478
  507.500    0.056    0.348   92.448    7.450
  507.750    0.054    0.359   93.385    7.409
  508.000    0.060    0.347   95.230    7.409
  508.250    0.065    0.340   97.254    7.382
  508.500    0.059    0.334   96.322    7.368
  508.750    0.058    0.328   95.689    7.260
  509.000    0.064    0.326   97.778    7.220
  509.250    0.069    0.324   99.015    7.180
  509.500    0.064    0.331   99.656    7.140
  509.750    0.052    0.339  100.414    7.101
  510.000    0.057    0.343  101.288    7.048
  510.250    0.075    0.345  102.407    6.971
  510.500    0.089    0.351  103.647    6.881
  510.750    0.100    0.346  104.047    6.743
  511.000    0.082    0.339  104.079    6.681
  511.250    0.068    0.336  101.691    6.583
  511.500    0.079    0.331  101.181    6.486
  511.750    0.087    0.336  102.727    6.403
  512.000    0.094    0.354  103.722    6.309
  512.250    0.099    0.364  103.574    6.182
