~VERSION INFORMATION
 VERS.                 2.0:   CWLS LOG ASCII STANDARD -VERSION 2.0
 WRAP.                  NO:   ONE LINE PER DEPTH STEP
~WELL INFORMATION BLOCK
#MNEM.UNIT           DATA                    DESCRIPTION OF MNEMONIC
#---------    -------------------            -------------------------------
# Generated from Intellog Unique Number	CW_82_90/WELL/3453
WELL.         SIEBENS WOODEN                 : Well_name    - WELL
LOC .         00/11-24-088-22W4/0            : Location     - LOCATION
UWI .         00/11-24-088-22W4/0            : Uwi          - UNIQUE WELL ID
ENTR.         MAX                            : Entered      - ENTERED BY
SRVC.         SCHLUMBERGER                   : Scn          - SERVICE COMPANY
STRT.M        76.2                           : top_depth    - START DEPTH
STOP.M        271.2                          : bot_depth    - STOP DEPTH
STEP.M        0.25                           : increment    - STEP LENGTH
 NULL. -999.2500:NULL Value
~CURVE INFORMATION BLOCK
#MNEM UNIT       ERCB CURVE CODE    CURVE DESCRIPTION
#-----------   ------------------   ----------------------------------
DEPT.M        00 001 00 00         : DEPTH        - DEPTH
ILD .OHMM     00 120 00 00         : RESD         - DEEP RESISTIVITY (DIL)
NPHI.V/V      00 330 00 00         : PHIN         - NEUTRON POROSITY (SANDSTONE)
DPHI.V/V      00 890 00 00         : PHID         - DENSITY POROSITY (SANDSTONE)
CALI.MM       00 280 01 00         : CAL          - CALIPER
GR  .API      00 310 00 00         : GR           - GAMMA RAY
~PARAMETER INFORMATION
#MNEM.UNIT           DATA             DESCRIPTION OF MNEMONIC
#---------         -----------     ------------------------------
GL  .M        523.646              : gl           - GROUND LEVEL ELEVATION
EREF.M        525.78               : kb           - ELEVATION OF DEPTH REFERENCE
DATM.M        523.646              : datum        - DATUM ELEVATION
TDD .M        272.491              : tdd          - TOTAL DEPTH DRILLER
RUN .         ONE                  : Run          - RUN NUMBER
ENG .         BILL                 : Engineer     - RECORDING ENGINEER
WIT .         JIM                  : Witness      - WITNESSED BY
MUD .         GEL                  : Mud_type     - MUD TYPE
MATR.         SANDSTONE            : Logunit      - NEUTRON MATRIX
TMAX.C        16.1111              : BHT          - MAXIMUM RECORDED TEMPERATURE
BHTD.M        272.491              : BHTDEP       - MAXIMUM RECORDED TEMPERATURE
MATR.         1                    : LOGUNIT      - NEUTRON MATRIX
RMT .C        12.2222              : MDTP         - TEMPERATURE OF MUD
NEUT.         1                    : NEUTRON      - NEUTRON TYPE
RESI.         0                    : RESIST       - RESISTIVITY TYPE
RMC .OHMM     6.47                 : RMC          - RESISTIVITY OF MUD CAKE
RMF .OHMM     6.61                 : RMF          - RESISTIVITY OF MUD FILTRATE
SUFT.C        -12.2222             : SUFT         - SURFACE TEMPERATURE
~A  DEPTH     RESD     PHIN     PHID      CAL       GR
# ...
  222.200   24.193    0.309    0.079  218.257   60.067
  222.450   27.432    0.325    0.103  218.729   58.581
  222.700   32.246    0.321    0.112  218.195   59.151
  222.950   37.561    0.285    0.021  216.183   59.425
  223.200   38.576    0.226    0.016  215.648   62.345
  223.450   37.201    0.259    0.063  216.117   67.325
  223.700   29.166    0.358    0.114  215.092   73.478
  223.950   20.898    0.406    0.173  214.561   78.751
  224.200   16.237    0.431    0.212  214.536   82.845
  224.450   14.570    0.434    0.225  213.511   81.944
  224.700   14.049    0.442    0.242  212.984   80.163
  224.950   13.919    0.462    0.249  212.951   77.795
  225.200   13.789    0.476    0.255  212.424   73.660
  225.450   13.785    0.476    0.274  212.892   71.585
  225.700   13.780    0.452    0.268  212.863   71.274
  225.950   14.026    0.443    0.257  211.835   71.551
  226.200   14.666    0.443    0.240  211.301   70.948
  226.450   15.899    0.435    0.201  211.275   69.165
  226.700   18.521    0.394    0.124  211.249   65.622
  226.950   25.369    0.305    0.060  215.197   60.021
  227.200   36.023    0.240    0.016  214.670   53.537
  227.450   46.332    0.230    0.016  212.145   51.754
  227.700   41.575    0.235    0.017  211.622   56.734
  227.950   34.715    0.269    0.026  211.593   60.831
  228.200   26.730    0.313    0.063  210.564   64.923
  228.450   19.677    0.402    0.095  209.544   68.728
  228.700   15.567    0.381    0.171  209.009   75.763
  228.950   14.094    0.368    0.153  208.976   76.628
  229.200   13.714    0.383    0.187  211.442   78.667
  229.450   13.344    0.423    0.212  215.891   80.705
  229.700   12.985    0.444    0.198  218.840   80.095
  229.950   12.863    0.445    0.189  220.307   78.025
  230.200   13.092    0.427    0.182  221.269   79.183
  230.450   13.088    0.416    0.171  221.737   82.688
  230.700   12.734    0.417    0.160  222.703   86.199
  230.950   12.616    0.429    0.208  223.168   87.945
  231.200   12.611    0.442    0.217  223.640   87.634
  231.450   12.607    0.433    0.215  224.602   87.026
  231.700   12.949    0.418    0.203  224.075   86.421
  231.950   13.179    0.415    0.198  223.541   89.343
  232.200   13.535    0.413    0.196  224.016   86.385
  232.450   13.775    0.413    0.159  223.980   83.135
  232.700   13.772    0.415    0.099  222.959   81.940
  232.950   13.521    0.416    0.066  217.456   80.747
  233.200   13.396    0.411    0.103  220.910   81.612
  233.450   13.151    0.412    0.153  223.862   82.182
  233.700   12.913    0.427    0.137  224.330   82.458
  233.950   12.793    0.434    0.167  224.297   82.733
  234.200   13.021    0.432    0.175  224.268   83.301
  234.450   13.373    0.430    0.154  224.239   83.869
  234.700   13.734    0.428    0.196  223.712   84.150
  234.950   14.233    0.422    0.154  223.679   82.659
  235.200   15.016    0.409    0.134  223.152   79.118
  235.450   14.743    0.384    0.115  222.621   75.864
  235.700   14.476    0.380    0.090  222.595   78.489
  235.950   14.342    0.423    0.182  223.558   81.414
  236.200   13.829    0.429    0.177  224.523   86.684
  236.450   13.578    0.423    0.167  224.494   89.018
  236.700   13.819    0.419    0.127  224.461   85.768
  236.950   14.193    0.410    0.110  224.926   82.220
  237.200   14.709    0.386    0.093  224.399   79.856
  237.450   15.242    0.359    0.091  217.407   80.424
  237.700   15.513    0.403    0.148  215.877   83.052
  237.950   15.370    0.387    0.122  210.872   80.977
  238.200   14.956    0.361    0.056  209.350   76.256
  238.450   14.949    0.370    0.047  215.785   76.826
  238.700   13.782    0.419    0.122  218.742   82.686
  238.950   12.591    0.412    0.136  221.701   90.897
  239.200   12.363    0.397    0.159  223.662   90.584
  239.450   12.470    0.391    0.184  224.127   89.682
  239.700   12.466    0.407    0.194  224.595   89.371
  239.950   12.239    0.422    0.180  224.559   89.646
  240.200   12.236    0.432    0.172  224.537   90.214
  240.450   12.340    0.439    0.164  224.500   90.788
  240.700   12.789    0.421    0.164  224.474   90.771
  240.950   13.254    0.405    0.115  223.943   85.462
  241.200   13.984    0.373    0.100  222.919   81.331
  241.450   14.491    0.385    0.192  222.392   84.840
  241.700   14.487    0.403    0.177  222.359   89.818
  241.950   14.745    0.400    0.160  222.330   92.443
  242.200   15.280    0.391    0.164  222.300   91.838
  242.450   16.122    0.383    0.177  222.267   90.643
  242.700   17.477    0.363    0.152  222.735   89.451
  242.950   17.788    0.355    0.142  223.698   88.843
  243.200   17.308    0.344    0.148  223.672   88.238
  243.450   16.541    0.336    0.139  221.151   88.515
  243.700   15.248    0.372    0.161  223.610   92.022
  243.950   14.313    0.392    0.178  224.074   94.357
  244.200   13.556    0.410    0.197  224.546   96.982
  244.450   12.955    0.411    0.202  224.019   96.967
  244.700   12.719    0.401    0.193  223.986   93.421
  244.950   13.181    0.416    0.205  222.954   92.229
  245.200   13.176    0.422    0.182  220.942   93.970
  245.450   12.821    0.413    0.162  216.430   94.839
  245.700   11.609    0.416    0.160  212.420   96.876
  245.950    9.520    0.461    0.187  207.913   99.207
  246.200    8.466    0.495    0.202  203.398  100.953
  246.450    7.734    0.484    0.221  200.877  103.581
  246.700    7.392    0.461    0.226  200.353  107.090
  246.950    8.085    0.448    0.204  202.314  108.833
  247.200    9.168    0.431    0.202  207.257  105.586
  247.450   10.396    0.440    0.209  213.203  100.571
  247.700   11.680    0.418    0.188  219.141   97.027
  247.950   13.009    0.407    0.176  223.590   94.659
  248.200   14.229    0.405    0.186  226.542   91.993
  248.450   14.224    0.415    0.200  228.503   87.863
  248.700   13.594    0.427    0.201  229.963   86.375
  248.950   12.531    0.422    0.197  230.439   88.704
  249.200   11.762    0.413    0.195  230.406   90.160
  249.450   11.445    0.406    0.195  230.870   93.081
  249.700   11.137    0.405    0.195  230.844   94.235
  249.950   11.335    0.408    0.184  230.815   93.044
  250.200   11.852    0.411    0.158  230.778   91.262
  250.450   12.394    0.395    0.142  230.749   90.365
  250.700   13.077    0.383    0.080  230.226   84.175
  250.950   13.922    0.352    0.051  229.695   80.335
  251.200   13.426    0.381    0.170  228.663   87.666
  251.450   11.940    0.419    0.187  228.144   90.293
  251.700   10.714    0.424    0.193  227.613   90.566
  251.950    9.877    0.430    0.198  227.082   90.548
  252.200    9.524    0.437    0.192  227.057   90.533
  252.450    9.267    0.437    0.147  227.020   90.511
  252.700    9.017    0.437    0.124  226.994   89.909
  252.950    8.695    0.440    0.093  227.455   88.714
  253.200    8.461    0.447    0.142  227.931   92.812
  253.450    8.086    0.462    0.167  228.893  100.142
  253.700    7.868    0.445    0.143  231.849  103.058
  253.950    7.794    0.429    0.129  232.811  103.627
  254.200    8.224    0.417    0.138  232.284  104.201
  254.450    9.325    0.429    0.170  231.252  105.063
  254.700   10.386    0.413    0.153  230.729  105.338
  254.950   11.882    0.397    0.143  229.708  104.143
  255.200   13.232    0.395    0.131  228.684  102.367
  255.450   13.837    0.392    0.096  228.153   98.233
  255.700   13.709    0.381    0.057  227.125   93.220
  255.950   13.581    0.370    0.064  224.611   90.260
  256.200   13.576    0.375    0.121  210.646   97.004
  256.450   13.450    0.409    0.137  210.119  103.451
  256.700   12.970    0.400    0.132  219.544  109.605
  256.950   12.507    0.386    0.139  224.483  116.640
  257.200   11.951    0.389    0.144  223.959  123.381
  257.450   12.056    0.414    0.168  223.930  131.592
  257.700   12.494    0.375    0.186  224.398  138.333
  257.950   13.065    0.363    0.188  224.358  145.366
  258.200   13.909    0.356    0.154  224.336  146.228
  258.450   14.676    0.335    0.123  224.303  144.744
