~VERSION INFORMATION
 VERS.                 2.0:   CWLS LOG ASCII STANDARD -VERSION 2.0
 WRAP.                  NO:   ONE LINE PER DEPTH STEP
~WELL INFORMATION BLOCK
#MNEM.UNIT           DATA                    DESCRIPTION OF MNEMONIC
#---------    -------------------            -------------------------------
# Generated from Intellog Unique Number	CW_79_81/WELL/2486
WELL.         11-26-080-24W4                 : Well_name    - WELL
LOC .         00/11-26-080-24W4/0            : Location     - LOCATION
UWI .         00/11-26-080-24W4/0            : Uwi          - UNIQUE WELL ID
ENTR.         MAX                            : Entered      - ENTERED BY
SRVC.         COMPUTALOG                     : Scn          - SERVICE COMPANY
STRT.M        225                            : top_depth    - START DEPTH
STOP.M        450                            : bot_depth    - STOP DEPTH
STEP.M        0.25                           : increment    - STEP LENGTH
 NULL. -999.2500:NULL Value
~CURVE INFORMATION BLOCK
#MNEM UNIT       ERCB CURVE CODE    CURVE DESCRIPTION
#-----------   ------------------   ----------------------------------
DEPT.M        00 001 00 00         : DEPTH        - DEPTH
ILD .OHMM     00 120 00 00         : RESD         - DEEP RESISTIVITY (DIL)
NPHI.V/V      00 330 00 00         : PHIN         - NEUTRON POROSITY (SANDSTONE)
DPHI.V/V      00 890 00 00         : PHID         - DENSITY POROSITY (SANDSTONE)
GR  .API      00 310 00 00         : GR           - GAMMA RAY
CALI.MM       00 280 01 00         : CAL          - CALIPER
~PARAMETER INFORMATION
#MNEM.UNIT           DATA             DESCRIPTION OF MNEMONIC
#---------         -----------     ------------------------------
GL  .M        568.3                : gl           - GROUND LEVEL ELEVATION
EREF.M        572.95               : kb           - ELEVATION OF DEPTH REFERENCE
DATM.M        568.3                : datum        - DATUM ELEVATION
TDD .M        450                  : tdd          - TOTAL DEPTH DRILLER
RUN .         ONE                  : Run          - RUN NUMBER
ENG .         BILL                 : Engineer     - RECORDING ENGINEER
WIT .         JIM                  : Witness      - WITNESSED BY
MUD .         GEL                  : Mud_type     - MUD TYPE
MATR.         SANDSTONE            : Logunit      - NEUTRON MATRIX
TMAX.C        34                   : BHT          - MAXIMUM RECORDED TEMPERATURE
BHTD.M        450                  : BHTDEP       - MAXIMUM RECORDED TEMPERATURE
MATR.         1                    : LOGUNIT      - NEUTRON MATRIX
RMT .C        15.5                 : MDTP         - TEMPERATURE OF MUD
NEUT.         1                    : NEUTRON      - NEUTRON TYPE
RESI.         0                    : RESIST       - RESISTIVITY TYPE
RMC .OHMM     1.9                  : RMC          - RESISTIVITY OF MUD CAKE
RMF .OHMM     4.5                  : RMF          - RESISTIVITY OF MUD FILTRATE
SUFT.C        -20                  : SUFT         - SURFACE TEMPERATURE
~A  DEPTH     RESD     PHIN     PHID       GR      CAL
# ...
  371.000   19.632    0.388    0.245   62.976  225.997
  371.250   21.050    0.374    0.211   66.777  225.991
  371.500   19.650    0.388    0.190   72.122  225.985
  371.750   15.851    0.418    0.211   74.604  225.977
  372.000   13.845    0.429    0.228   76.334  225.970
  372.250   12.761    0.436    0.230   76.330  225.965
  372.500   12.376    0.438    0.225   75.436  226.255
  372.750   12.417    0.436    0.230   73.411  226.447
  373.000   12.734    0.433    0.243   71.148  226.440
  373.250   13.437    0.427    0.234   70.123  226.515
  373.500   14.728    0.419    0.204   67.395  226.923
  373.750   15.050    0.398    0.186   65.965  227.312
  374.000   14.881    0.395    0.205   70.062  227.405
  374.250   14.607    0.407    0.227   75.052  227.399
  374.500   14.145    0.422    0.237   77.663  227.491
  374.750   12.958    0.421    0.234   75.944  227.879
  375.000   12.472    0.412    0.231   75.693  227.873
  375.250   12.287    0.416    0.229   75.927  227.867
  375.500   12.038    0.415    0.226   76.160  227.860
  375.750   11.904    0.411    0.223   77.702  227.655
  376.000   11.901    0.406    0.217   80.076  227.352
  376.250   11.878    0.416    0.211   80.379  227.345
  376.500   11.784    0.430    0.214   77.155  227.338
  376.750   11.781    0.425    0.218   75.724  227.332
  377.000   11.906    0.419    0.201   74.651  227.326
  377.250   12.034    0.418    0.181   72.983  227.319
  377.500   12.097    0.419    0.169   71.671  227.510
  377.750   12.092    0.415    0.176   74.312  228.378
  378.000   12.088    0.414    0.193   78.023  228.784
  378.250   11.908    0.415    0.209   77.306  229.174
  378.500   11.796    0.415    0.213   77.837  229.564
  378.750   11.707    0.413    0.213   79.498  229.757
  379.000   11.640    0.408    0.210   81.099  229.750
  379.250   11.653    0.403    0.204   80.133  229.741
  379.500   11.738    0.403    0.203   78.891  229.736
  379.750   11.821    0.430    0.210   77.698  229.333
  380.000   11.839    0.441    0.215   78.111  229.227
  380.250   11.835    0.439    0.213   79.772  229.221
  380.500   11.809    0.434    0.204   82.264  229.215
  380.750   11.665    0.448    0.190   84.964  229.372
  381.000   11.399    0.448    0.196   84.217  230.192
  381.250   11.312    0.426    0.192   83.025  230.582
  381.500   11.288    0.421    0.188   81.654  230.378
  381.750   11.367    0.425    0.188   80.817  229.380
  382.000   11.572    0.428    0.189   80.576  227.986
  382.250   11.947    0.414    0.189   80.186  227.105
  382.500   12.127    0.405    0.194   79.438  226.684
  382.750   12.212    0.419    0.205   81.337  226.678
  383.000   12.163    0.428    0.209   80.917  227.860
  383.250   11.982    0.426    0.210   80.675  229.439
  383.500   11.719    0.415    0.211   81.860  230.819
  383.750   11.409    0.411    0.209   84.421  231.688
  384.000   11.149    0.417    0.199   84.170  232.095
  384.250   10.983    0.414    0.192   83.928  231.691
  384.500   11.120    0.412    0.188   83.687  231.586
  384.750   11.281    0.409    0.184   83.326  231.580
  385.000   11.214    0.406    0.179   83.441  231.771
  385.250   10.631    0.410    0.180   85.636  232.804
  385.500   10.156    0.419    0.186   87.118  234.035
  385.750    9.860    0.423    0.202   86.401  234.426
  386.000    9.625    0.415    0.210   86.041  234.221
  386.250    9.622    0.413    0.204   84.492  233.620
  386.500    9.867    0.418    0.192   82.942  232.921
  386.750   10.369    0.415    0.195   85.365  232.682
  387.000   11.105    0.402    0.205   85.608  233.501
  387.250   12.455    0.397    0.207   83.227  233.097
  387.500   14.490    0.397    0.212   79.241  232.101
  387.750   16.638    0.397    0.220   76.502  231.104
  388.000   18.643    0.396    0.230   75.844  230.405
  388.250   21.753    0.395    0.243   76.078  229.917
  388.500   21.581    0.403    0.261   76.074  229.499
  388.750   19.308    0.416    0.276   73.692  229.096
  389.000   16.398    0.445    0.262   70.419  228.693
  389.250   15.212    0.444    0.218   66.373  228.489
  389.500   15.621    0.413    0.173   62.684  228.284
  389.750   17.317    0.401    0.201   61.886  227.402
  390.000   21.344    0.418    0.262   63.864  226.981
  390.250   22.448    0.416    0.263   66.714  226.976
  390.500   22.241    0.412    0.251   68.137  226.969
  390.750   21.755    0.407    0.227   68.252  226.962
  391.000   21.393    0.402    0.201   67.772  226.956
  391.250   20.794    0.396    0.188   68.451  227.032
  391.500   20.166    0.393    0.222   70.677  227.437
  391.750   20.013    0.401    0.246   73.288  227.430
  392.000   19.861    0.395    0.247   74.117  227.425
  392.250   19.565    0.388    0.237   73.399  227.419
  392.500   19.242    0.391    0.227   71.612  227.314
  392.750   19.492    0.412    0.231   69.418  226.828
  393.000   20.875    0.418    0.256   69.167  226.407
  393.250   23.249    0.413    0.276   68.687  226.004
  393.500   27.533    0.401    0.273   66.425  225.900
  393.750   31.268    0.387    0.253   63.330  225.893
  394.000   32.944    0.360    0.221   60.057  225.886
  394.250   36.344    0.289    0.171   56.169  225.962
  394.500   39.837    0.256    0.079   52.202  226.369
  394.750   44.681    0.226    0.059   48.394  226.759
  395.000   48.362    0.228    0.061   45.655  226.256
  395.250   48.532    0.257    0.090   45.295  225.655
  395.500   44.676    0.302    0.143   48.501  225.253
  395.750   36.766    0.356    0.218   57.284  224.849
  396.000   29.416    0.399    0.249   61.986  224.843
  396.250   24.218    0.423    0.260   64.836  225.232
  396.500   22.933    0.421    0.244   65.545  225.325
  396.750   23.090    0.397    0.218   64.590  225.318
  397.000   23.640    0.368    0.191   63.160  225.410
  397.250   23.695    0.356    0.173   63.452  225.965
  397.500   23.155    0.360    0.188   64.935  226.784
  397.750   22.314    0.378    0.209   67.070  227.174
  398.000   21.506    0.397    0.222   66.532  227.564
  398.250   21.115    0.398    0.212   64.864  227.756
  398.500   20.952    0.382    0.185   64.027  227.948
  398.750   20.024    0.377    0.164   67.242  228.816
  399.000   18.561    0.395    0.163   71.450  229.222
  399.250   17.238    0.407    0.200   75.250  229.215
  399.500   15.652    0.408    0.205   76.732  229.209
  399.750   14.237    0.396    0.197   76.847  229.203
  400.000   13.148    0.379    0.189   76.130  229.196
  400.250   12.287    0.371    0.185   74.402  229.271
  400.500   11.737    0.374    0.183   72.912  229.677
  400.750   11.563    0.386    0.185   71.719  229.672
  401.000   11.329    0.391    0.185   73.558  229.962
  401.250   11.162    0.389    0.185   77.716  230.154
  401.500   11.057    0.388    0.183   82.764  230.148
  401.750   10.859    0.405    0.182   86.911  230.140
  402.000   10.692    0.416    0.181   88.641  230.133
  402.250   10.533    0.416    0.166   81.742  230.127
  402.500   10.550    0.413    0.147   78.944  230.121
  402.750   10.585    0.417    0.150   79.653  229.917
  403.000   10.581    0.428    0.174   82.027  229.613
  403.250   10.578    0.426    0.197   83.221  229.605
  403.500   10.574    0.419    0.201   84.456  229.598
  403.750   10.570    0.414    0.196   82.074  229.987
  404.000   10.567    0.417    0.185   80.584  230.081
  404.250   10.564    0.418    0.175   79.986  230.273
  404.500   10.561    0.415    0.166   80.101  230.563
  404.750   10.557    0.414    0.153   80.621  230.555
  405.000   10.553    0.424    0.170   80.865  230.550
  405.250   10.473    0.423    0.170   78.959  231.336
  405.500   10.336    0.418    0.154   78.302  231.824
  405.750   10.221    0.408    0.143   79.487  232.016
  406.000   10.199    0.395    0.148   81.979  232.010
  406.250   10.422    0.376    0.167   84.263  232.002
  406.500   10.825    0.363    0.161   85.002  231.996
  406.750   11.061    0.370    0.167   84.048  232.385
  407.000   11.424    0.374    0.172   82.380  232.478
  407.250   11.887    0.373    0.173   80.117  232.472
