~VERSION INFORMATION
 VERS.                 2.0:   CWLS LOG ASCII STANDARD -VERSION 2.0
 WRAP.                  NO:   ONE LINE PER DEPTH STEP
~WELL INFORMATION BLOCK
#MNEM.UNIT           DATA                    DESCRIPTION OF MNEMONIC
#---------    -------------------            -------------------------------
# Generated from Intellog Unique Number	CC_80_83/WELL/2326
WELL.         NOVALTA NEWBY                  : Well_name    - WELL
LOC .         00/12-07-083-04W4/0            : Location     - LOCATION
UWI .         00/12-07-083-04W4/0            : Uwi          - UNIQUE WELL ID
ENTR.         DW                             : Entered      - ENTERED BY
SRVC.         SCHLUMBERGER                   : Scn          - SERVICE COMPANY
STRT.M        70                             : top_depth    - START DEPTH
STOP.M        279.75                         : bot_depth    - STOP DEPTH
STEP.M        0.25                           : increment    - STEP LENGTH
 NULL. -999.2500:NULL Value
~CURVE INFORMATION BLOCK
#MNEM UNIT       ERCB CURVE CODE    CURVE DESCRIPTION
#-----------   ------------------   ----------------------------------
DEPT.M        00 001 00 00         : DEPTH        - DEPTH
GR  .API      00 310 00 00         : GR           - GAMMA RAY
DPHI.V/V      00 890 00 00         : PHID         - DENSITY POROSITY (SANDSTONE)
NPHI.V/V      00 330 00 00         : PHIN         - NEUTRON POROSITY (SANDSTONE)
ILD .OHMM     00 120 00 00         : RESD         - DEEP RESISTIVITY (DIL)
~PARAMETER INFORMATION
#MNEM.UNIT           DATA             DESCRIPTION OF MNEMONIC
#---------         -----------     ------------------------------
GL  .M        462.29               : gl           - GROUND LEVEL ELEVATION
EREF.M        465.29               : kb           - ELEVATION OF DEPTH REFERENCE
DATM.M        465.29               : datum        - DATUM ELEVATION
TDD .M        288.9                : tdd          - TOTAL DEPTH DRILLER
RUN .         ONE                  : Run          - RUN NUMBER
ENG .         BILL                 : Engineer     - RECORDING ENGINEER
WIT .         JIM                  : Witness      - WITNESSED BY
MUD .         GEL                  : Mud_type     - MUD TYPE
MATR.         SANDSTONE            : Logunit      - NEUTRON MATRIX
TMAX.C        19                   : BHT          - MAXIMUM RECORDED TEMPERATURE
BHTD.M        288.9                : BHTDEP       - MAXIMUM RECORDED TEMPERATURE
MATR.         1                    : LOGUNIT      - NEUTRON MATRIX
RMT .C        25                   : MDTP         - TEMPERATURE OF MUD
NEUT.         1                    : NEUTRON      - NEUTRON TYPE
RESI.         0                    : RESIST       - RESISTIVITY TYPE
RMC .OHMM     0.25                 : RMC          - RESISTIVITY OF MUD CAKE
RMF .OHMM     0.25                 : RMF          - RESISTIVITY OF MUD FILTRATE
SUFT.C        15                   : SUFT         - SURFACE TEMPERATURE
~A  DEPTH       GR     PHID     PHIN     RESD
# ...
  113.500   39.195    0.343    0.336   13.621
  113.750   44.864    0.359    0.367   13.442
  114.000   50.058    0.369    0.404   12.903
  114.250   56.202    0.364    0.416   12.241
  114.500   64.181    0.354    0.394   11.798
  114.750   70.386    0.361    0.363   11.725
  115.000   71.434    0.371    0.358   11.930
  115.250   68.500    0.350    0.386   12.131
  115.500   59.458    0.339    0.389   12.180
  115.750   55.898    0.335    0.361   12.043
  116.000   59.330    0.329    0.370   11.290
  116.250   61.816    0.329    0.415   10.330
  116.500   62.169    0.336    0.418   10.254
  116.750   62.717    0.335    0.408   10.427
  117.000   62.056    0.345    0.379   10.509
  117.250   55.773    0.368    0.378   11.070
  117.500   52.369    0.385    0.396   11.571
  117.750   58.948    0.378    0.391   11.432
  118.000   64.674    0.353    0.381   11.257
  118.250   59.332    0.331    0.392   11.093
  118.500   53.708    0.328    0.380   10.782
  118.750   50.727    0.350    0.364   10.432
  119.000   52.949    0.373    0.369   10.122
  119.250   59.704    0.376    0.379   10.091
  119.500   65.907    0.357    0.382   10.431
  119.750   71.514    0.327    0.398   10.433
  120.000   55.143    0.358    0.401   10.547
  120.250   37.784    0.396    0.366   10.690
  120.500   38.829    0.402    0.330   10.489
  120.750   54.076    0.377    0.351    9.913
  121.000   64.131    0.327    0.404    9.313
  121.250   46.487    0.332    0.392    9.104
  121.500   39.590    0.343    0.362    9.470
  121.750   43.957    0.338    0.351    9.866
  122.000   48.678    0.334    0.359   10.167
  122.250   53.162    0.338    0.371   10.454
  122.500   56.077    0.340    0.372   10.417
  122.750   56.325    0.340    0.370   10.082
  123.000   54.382    0.366    0.381    9.931
  123.250   50.583    0.392    0.390    9.564
  123.500   49.852    0.389    0.391    9.242
  123.750   53.806    0.368    0.392    9.311
  124.000   57.335    0.349    0.383    9.296
  124.250   60.184    0.335    0.354    9.268
  124.500   60.032    0.329    0.332    9.530
  124.750   57.265    0.321    0.337    9.722
  125.000   46.804    0.349    0.372    9.526
  125.250   32.308    0.423    0.394    9.270
  125.500   28.260    0.474    0.360    8.949
  125.750   29.066    0.470    0.344    7.627
  126.000   26.449    0.332    0.407    7.019
  126.250   74.451    0.256    0.468    5.872
  126.500  121.225    0.276    0.498    4.483
  126.750  114.576    0.282    0.512    3.972
  127.000  110.693    0.279    0.501    3.556
  127.250  105.302    0.276    0.497    3.273
  127.500  103.760    0.276    0.493    3.139
  127.750  103.481    0.282    0.501    3.098
  128.000  103.605    0.294    0.515    3.145
  128.250  100.460    0.301    0.520    3.254
  128.500   86.610    0.303    0.513    3.483
  128.750   72.305    0.325    0.485    4.223
  129.000   67.445    0.349    0.450    5.501
  129.250   64.550    0.363    0.427    6.596
  129.500   60.304    0.371    0.412    7.163
  129.750   58.614    0.375    0.387    7.440
  130.000   59.926    0.379    0.366    7.534
  130.250   62.650    0.380    0.377    7.294
  130.500   63.558    0.369    0.402    7.234
  130.750   64.170    0.357    0.401    7.248
  131.000   65.316    0.354    0.383    7.285
  131.250   64.393    0.353    0.383    7.409
  131.500   60.596    0.353    0.405    7.527
  131.750   59.141    0.351    0.425    7.768
  132.000   61.041    0.349    0.419    7.932
  132.250   59.428    0.326    0.405    7.981
  132.500   55.863    0.323    0.405    7.921
  132.750   55.896    0.358    0.413    7.786
  133.000   58.121    0.367    0.404    7.665
  133.250   60.333    0.356    0.384    7.533
  133.500   61.086    0.346    0.389    7.526
  133.750   61.659    0.339    0.400    7.452
  134.000   61.633    0.335    0.399    7.361
  134.250   60.384    0.337    0.395    7.380
  134.500   59.403    0.347    0.393    7.375
  134.750   58.867    0.353    0.386    7.371
  135.000   58.794    0.358    0.379    7.388
  135.250   61.393    0.360    0.378    7.304
  135.500   64.861    0.359    0.377    7.218
  135.750   63.467    0.358    0.385    7.237
  136.000   58.196    0.360    0.407    7.232
  136.250   59.634    0.361    0.409    7.220
  136.500   59.691    0.349    0.407    7.326
  136.750   57.692    0.342    0.408    7.378
  137.000   60.022    0.343    0.409    7.367
  137.250   64.966    0.341    0.413    7.355
  137.500   64.417    0.335    0.413    7.227
  137.750   61.448    0.341    0.398    6.997
  138.000   58.002    0.353    0.399    6.865
  138.250   58.890    0.357    0.413    6.755
  138.500   61.202    0.352    0.405    6.690
  138.750   61.463    0.350    0.376    6.694
  139.000   62.573    0.352    0.370    6.696
  139.250   62.647    0.353    0.383    6.897
  139.500   62.470    0.347    0.396    7.153
  139.750   63.148    0.364    0.403    7.241
  140.000   65.799    0.383    0.418    7.197
  140.250   69.380    0.371    0.429    7.025
  140.500   71.271    0.352    0.400    6.692
  140.750   71.230    0.345    0.377    6.580
  141.000   67.122    0.343    0.374    6.477
  141.250   68.206    0.351    0.392    6.437
  141.500   72.452    0.358    0.417    6.426
  141.750   72.253    0.353    0.415    6.471
  142.000   70.688    0.348    0.379    6.685
  142.250   71.102    0.347    0.364    6.695
  142.500   71.879    0.346    0.377    6.677
  142.750   71.611    0.340    0.405    6.693
  143.000   69.767    0.334    0.413    6.660
  143.250   67.141    0.335    0.404    6.721
  143.500   65.757    0.342    0.423    7.067
  143.750   66.237    0.342    0.430    7.327
  144.000   66.734    0.342    0.409    7.248
  144.250   67.708    0.332    0.402    7.206
  144.500   68.226    0.320    0.415    7.129
  144.750   67.494    0.323    0.416    6.901
  145.000   67.023    0.335    0.401    6.803
  145.250   66.592    0.341    0.396    6.591
  145.500   65.429    0.342    0.409    6.447
  145.750   65.534    0.343    0.427    6.420
  146.000   67.045    0.342    0.426    6.428
  146.250   68.581    0.338    0.418    6.422
  146.500   70.139    0.337    0.430    6.424
  146.750   72.090    0.342    0.433    6.434
  147.000   75.156    0.338    0.435    6.327
  147.250   77.356    0.330    0.420    6.348
  147.500   74.252    0.331    0.403    6.438
  147.750   70.985    0.339    0.404    6.413
  148.000   76.347    0.339    0.402    6.418
  148.250   79.778    0.336    0.395    6.515
  148.500   80.685    0.331    0.398    6.624
  148.750   80.551    0.327    0.408    6.717
  149.000   79.645    0.325    0.410    6.846
  149.250   78.806    0.325    0.400    6.907
  149.500   78.260    0.327    0.393    6.786
  149.750   75.609    0.328    0.401    6.780
  150.000   74.748    0.332    0.403    6.787
  150.250   76.172    0.337    0.385    6.782
  150.500   77.209    0.340    0.374    6.782
  150.750   77.002    0.339    0.389    6.782
  151.000   77.043    0.335    0.409    6.780
  151.250   77.069    0.332    0.420    6.770
  151.500   76.778    0.329    0.404    6.866
  151.750   75.746    0.322    0.383    6.923
  152.000   76.759    0.316    0.377    6.886
  152.250   80.091    0.320    0.384    6.725
  152.500   82.630    0.331    0.403    6.404
  152.750   86.123    0.329    0.438    6.266
  153.000   84.729    0.327    0.460    6.496
  153.250   81.794    0.334    0.441    6.855
  153.500   83.453    0.333    0.417    7.123
  153.750   87.505    0.319    0.421    7.351
  154.000   87.018    0.310    0.421    7.578
  154.250   83.793    0.311    0.405    7.587
  154.500   82.850    0.313    0.393    7.568
  154.750   84.415    0.314    0.421    7.593
  155.000   86.625    0.314    0.433    7.528
  155.250   86.674    0.314    0.403    7.428
  155.500   85.170    0.313    0.396    7.432
  155.750   90.079    0.310    0.400    7.296
  156.000   94.548    0.311    0.420    7.403
  156.250   89.325    0.316    0.418    7.316
  156.500   81.941    0.320    0.406    7.098
  156.750   80.849    0.322    0.422    6.980
