~VERSION INFORMATION
 VERS.                 2.0:   CWLS LOG ASCII STANDARD -VERSION 2.0
 WRAP.                  NO:   ONE LINE PER DEPTH STEP
~WELL INFORMATION BLOCK
#MNEM.UNIT           DATA                    DESCRIPTION OF MNEMONIC
#---------    -------------------            -------------------------------
# Generated from Intellog Unique Number	CS_73_76/WELL/840
WELL.         ARGO PETOLEUM CORPORATION      : Well_name    - WELL
LOC .         00/10-36-073-11W4/0            : Location     - LOCATION
UWI .         00/10-36-073-11W4/0            : Uwi          - UNIQUE WELL ID
ENTR.         SP                             : Entered      - ENTERED BY
SRVC.         SCHLUMBERGER                   : Scn          - SERVICE COMPANY
STRT.M        298.704                        : top_depth    - START DEPTH
STOP.M        517.954                        : bot_depth    - STOP DEPTH
STEP.M        0.25                           : increment    - STEP LENGTH
 NULL. -999.2500:NULL Value
~CURVE INFORMATION BLOCK
#MNEM UNIT       ERCB CURVE CODE    CURVE DESCRIPTION
#-----------   ------------------   ----------------------------------
DEPT.M        00 001 00 00         : DEPTH        - DEPTH
GR  .API      00 310 00 00         : GR           - GAMMA RAY
DPHI.V/V      00 890 00 00         : PHID         - DENSITY POROSITY (SANDSTONE)
NPHI.V/V      00 330 00 00         : PHIN         - NEUTRON POROSITY (SANDSTONE)
ILD .OHMM     00 120 00 00         : RESD         - DEEP RESISTIVITY (DIL)
~PARAMETER INFORMATION
#MNEM.UNIT           DATA             DESCRIPTION OF MNEMONIC
#---------         -----------     ------------------------------
GL  .M        654.406              : gl           - GROUND LEVEL ELEVATION
EREF.M        657.606              : kb           - ELEVATION OF DEPTH REFERENCE
DATM.M        654.406              : datum        - DATUM ELEVATION
TDD .M        523.951              : tdd          - TOTAL DEPTH DRILLER
RUN .         ONE                  : Run          - RUN NUMBER
ENG .         BILL                 : Engineer     - RECORDING ENGINEER
WIT .         JIM                  : Witness      - WITNESSED BY
MUD .         GEL                  : Mud_type     - MUD TYPE
MATR.         SANDSTONE            : Logunit      - NEUTRON MATRIX
TMAX.C        16.6667              : BHT          - MAXIMUM RECORDED TEMPERATURE
BHTD.M        523.951              : BHTDEP       - MAXIMUM RECORDED TEMPERATURE
MATR.         1                    : LOGUNIT      - NEUTRON MATRIX
RMT .C        25                   : MDTP         - TEMPERATURE OF MUD
NEUT.         1                    : NEUTRON      - NEUTRON TYPE
RESI.         0                    : RESIST       - RESISTIVITY TYPE
RMC .OHMM     0.25                 : RMC          - RESISTIVITY OF MUD CAKE
RMF .OHMM     0.25                 : RMF          - RESISTIVITY OF MUD FILTRATE
SUFT.C        15                   : SUFT         - SURFACE TEMPERATURE
~A  DEPTH       GR     PHID     PHIN     RESD
# ...
  385.704   82.387    0.286    0.520   13.787
  385.954   84.124    0.272    0.502   11.457
  386.204   90.360    0.260    0.495    7.301
  386.454   94.757    0.265    0.541    4.139
  386.704   95.471    0.262    0.569    3.172
  386.954   95.107    0.236    0.611    2.673
  387.204   97.115    0.248    0.618    2.285
  387.454   98.076    0.243    0.597    2.417
  387.704   97.471    0.249    0.574    2.833
  387.954   92.481    0.258    0.550    3.601
  388.204   86.738    0.269    0.539    4.741
  388.454   78.910    0.276    0.560    6.384
  388.704   73.499    0.279    0.554    7.585
  388.954   69.141    0.287    0.557    8.566
  389.204   68.800    0.297    0.575    9.137
  389.454   67.982    0.289    0.574    8.455
  389.704   68.714    0.269    0.534    8.335
  389.954   69.904    0.257    0.533    8.275
  390.204   67.786    0.218    0.528    8.766
  390.454   65.714    0.135    0.503    9.488
  390.704   63.427    0.068    0.263   10.679
  390.954   64.094    0.211    0.294   11.888
  391.204   63.915    0.255    0.397   12.655
  391.454   69.128    0.284    0.457   13.640
  391.704   72.544    0.287    0.488    9.975
  391.954   73.485    0.289    0.477    8.625
  392.204   72.623    0.284    0.502    7.966
  392.454   74.777    0.263    0.524    7.571
  392.704   75.691    0.268    0.563    7.474
  392.954   75.781    0.263    0.579    7.314
  393.204   75.799    0.255    0.563    7.327
  393.454   76.532    0.259    0.560    7.331
  393.704   79.411    0.249    0.534    7.369
  393.954   81.681    0.234    0.522    7.460
  394.204   84.674    0.218    0.539    7.374
  394.454   85.847    0.221    0.533    7.332
  394.704   85.891    0.232    0.541    7.204
  394.954   84.008    0.236    0.537    6.992
  395.204   82.090    0.239    0.535    6.800
  395.454   80.669    0.252    0.541    6.698
  395.704   79.984    0.253    0.557    6.681
  395.954   79.346    0.240    0.567    6.675
  396.204   77.912    0.223    0.588    6.772
  396.454   78.084    0.213    0.563    6.798
  396.704   79.443    0.199    0.526    6.800
  396.954   81.164    0.203    0.510    6.931
  397.204   80.661    0.192    0.501    6.924
  397.454   81.783    0.184    0.515    6.916
  397.704   82.063    0.195    0.534    7.058
  397.954   82.902    0.209    0.559    7.046
  398.204   82.028    0.209    0.567    7.044
  398.454   78.137    0.192    0.570    7.033
  398.704   75.662    0.169    0.535    7.194
  398.954   72.856    0.147    0.383    7.397
  399.204   69.629    0.150    0.372    7.787
  399.454   76.847    0.205    0.517    8.006
  399.704   79.826    0.213    0.522    7.908
  399.954   79.996    0.221    0.508    7.428
  400.204   81.252    0.217    0.496    6.912
  400.454   82.596    0.208    0.526    6.656
  400.704   81.910    0.199    0.573    6.525
  400.954   83.512    0.198    0.561    6.538
  401.204   84.612    0.214    0.556    6.536
  401.454   83.467    0.207    0.566    6.534
  401.704   81.909    0.213    0.554    6.544
  401.954   83.005    0.222    0.547    6.404
  402.204   84.928    0.209    0.535    6.416
  402.454   86.334    0.197    0.530    6.319
  402.704   87.318    0.218    0.550    6.257
  402.954   85.995    0.215    0.557    6.183
  403.204   84.779    0.210    0.560    6.101
  403.454   85.836    0.202    0.552    6.071
  403.704   87.201    0.196    0.517    6.067
  403.954   88.906    0.213    0.541    6.066
  404.204   89.215    0.190    0.567    6.065
  404.454   90.747    0.168    0.554    6.064
  404.704   90.343    0.184    0.550    6.063
  404.954   87.695    0.202    0.520    6.062
  405.204   86.762    0.213    0.515    6.064
  405.454   86.458    0.202    0.516    6.101
  405.704   86.119    0.197    0.519    6.296
  405.954   86.062    0.208    0.533    6.396
  406.204   86.894    0.214    0.492    6.563
  406.454   88.481    0.211    0.483    6.759
  406.704   91.054    0.212    0.533    6.207
  406.954   94.715    0.232    0.579    5.239
  407.204   94.944    0.259    0.605    4.097
  407.454   95.471    0.292    0.605    3.267
  407.704   93.091    0.266    0.605    2.482
  407.954   90.156    0.263    0.608    2.083
  408.204   87.110    0.253    0.606    1.887
  408.454   84.955    0.232    0.605    1.759
  408.704   84.947    0.230    0.604    2.139
  408.954   85.467    0.229    0.603    2.732
  409.204   84.390    0.206    0.603    3.393
  409.454   82.422    0.214    0.603    4.069
  409.704   81.608    0.221    0.603    4.787
  409.954   82.658    0.234    0.603    5.211
  410.204   83.261    0.232    0.610    5.653
  410.454   83.972    0.233    0.524    5.837
  410.704   82.878    0.222    0.514    5.733
  410.954   81.684    0.207    0.522    5.551
  411.204   82.681    0.207    0.530    5.501
  411.454   81.624    0.221    0.557    5.408
  411.704   80.215    0.217    0.550    5.410
  411.954   77.915    0.218    0.548    5.411
  412.204   76.882    0.243    0.497    5.413
  412.454   75.125    0.250    0.482    5.443
  412.704   74.510    0.265    0.481    5.508
  412.954   72.480    0.277    0.507    5.575
  413.204   71.152    0.284    0.514    5.598
  413.454   68.716    0.279    0.517    5.706
  413.704   68.383    0.268    0.513    5.768
  413.954   68.708    0.266    0.519    5.807
  414.204   70.242    0.255    0.497    5.910
  414.454   72.100    0.235    0.478    5.970
  414.704   75.490    0.220    0.469    6.026
  414.954   78.865    0.222    0.492    6.028
  415.204   81.385    0.238    0.536    6.026
  415.454   82.250    0.228    0.562    6.025
  415.704   81.752    0.227    0.568    6.036
  415.954   82.478    0.235    0.558    5.901
  416.204   82.850    0.234    0.563    5.916
  416.454   81.133    0.220    0.532    5.809
  416.704   81.730    0.236    0.519    5.693
  416.954   81.689    0.236    0.495    5.609
  417.204   80.487    0.226    0.478    5.441
  417.454   78.478    0.217    0.528    5.278
  417.704   75.495    0.237    0.570    5.124
  417.954   73.323    0.286    0.599    5.013
  418.204   70.389    0.277    0.575    4.915
  418.454   68.526    0.283    0.571    4.921
  418.704   66.966    0.304    0.582    4.921
  418.954   66.425    0.291    0.574    4.919
  419.204   65.752    0.271    0.548    5.073
  419.454   63.852    0.253    0.527    5.252
  419.704   63.488    0.260    0.501    5.473
  419.954   64.523    0.264    0.522    5.507
  420.204   64.846    0.272    0.504    5.627
  420.454   66.953    0.295    0.485    5.777
  420.704   66.791    0.294    0.487    5.961
  420.954   65.816    0.299    0.515    6.008
  421.204   64.761    0.285    0.531    5.915
  421.454   65.568    0.276    0.540    5.866
  421.704   66.494    0.268    0.533    5.683
  421.954   65.420    0.284    0.549    5.534
  422.204   65.168    0.277    0.533    5.491
  422.454   64.739    0.260    0.525    5.379
  422.704   65.341    0.277    0.547    5.389
  422.954   66.132    0.279    0.522    5.269
  423.204   66.548    0.268    0.541    5.280
  423.454   66.855    0.271    0.567    5.331
  423.704   68.037    0.278    0.540    5.373
  423.954   69.425    0.270    0.533    5.365
  424.204   71.848    0.270    0.553    5.472
  424.454   74.358    0.262    0.525    5.577
  424.704   71.626    0.261    0.500    5.568
  424.954   68.986    0.256    0.496    5.561
  425.204   70.740    0.242    0.484    5.673
  425.454   73.050    0.225    0.477    5.672
  425.704   72.416    0.235    0.490    5.699
  425.954   72.467    0.240    0.510    5.775
  426.204   73.371    0.246    0.520    5.777
  426.454   75.052    0.235    0.510    5.792
  426.704   75.484    0.232    0.520    5.882
  426.954   74.756    0.241    0.513    5.933
  427.204   75.555    0.259    0.505    5.982
  427.454   76.404    0.244    0.496    5.984
  427.704   78.789    0.248    0.483    5.982
  427.954   79.638    0.243    0.470    5.982
  428.204   80.250    0.242    0.485    5.990
  428.454   79.313    0.240    0.502    5.833
  428.704   79.600    0.229    0.509    5.660
  428.954   80.215    0.222    0.500    5.613
