~VERSION INFORMATION
 VERS.                 2.0:   CWLS LOG ASCII STANDARD -VERSION 2.0
 WRAP.                  NO:   ONE LINE PER DEPTH STEP
~WELL INFORMATION BLOCK
#MNEM.UNIT           DATA                    DESCRIPTION OF MNEMONIC
#---------    -------------------            -------------------------------
# Generated from Intellog Unique Number	CX_WELLS/WELL/2321
WELL.         11-35-088-17W4                 : Well_name    - WELL
LOC .         00/11-35-088-17W4/0            : Location     - LOCATION
UWI .         00/11-35-088-17W400            : Uwi          - UNIQUE WELL ID
ENTR.         DW                             : Entered      - ENTERED BY
SRVC.         SCHLUMBERGER                   : Scn          - SERVICE COMPANY
STRT.M        96                             : top_depth    - START DEPTH
STOP.M        230                            : bot_depth    - STOP DEPTH
STEP.M        0.25                           : increment    - STEP LENGTH
 NULL. -999.2500:NULL Value
~CURVE INFORMATION BLOCK
#MNEM UNIT       ERCB CURVE CODE    CURVE DESCRIPTION
#-----------   ------------------   ----------------------------------
DEPT.M        00 001 00 00         : DEPTH        - DEPTH
GR  .API      00 310 00 00         : GR           - GAMMA RAY
NPHI.V/V      00 330 00 00         : PHIN         - NEUTRON POROSITY (SANDSTONE)
DPHI.V/V      00 890 00 00         : PHID         - DENSITY POROSITY (SANDSTONE)
ILD .OHMM     00 120 00 00         : RESD         - DEEP RESISTIVITY (DIL)
~PARAMETER INFORMATION
#MNEM.UNIT           DATA             DESCRIPTION OF MNEMONIC
#---------         -----------     ------------------------------
GL  .M        499.57               : gl           - GROUND LEVEL ELEVATION
EREF.M        502.47               : kb           - ELEVATION OF DEPTH REFERENCE
DATM.M        502.47               : datum        - DATUM ELEVATION
TDD .M        235                  : tdd          - TOTAL DEPTH DRILLER
RUN .         ONE                  : Run          - RUN NUMBER
ENG .         BILL                 : Engineer     - RECORDING ENGINEER
WIT .         JIM                  : Witness      - WITNESSED BY
MUD .         GEL                  : Mud_type     - MUD TYPE
MATR.         SANDSTONE            : Logunit      - NEUTRON MATRIX
TMAX.C        25                   : BHT          - MAXIMUM RECORDED TEMPERATURE
BHTD.M        235                  : BHTDEP       - MAXIMUM RECORDED TEMPERATURE
MATR.         1                    : LOGUNIT      - NEUTRON MATRIX
RMT .C        25                   : MDTP         - TEMPERATURE OF MUD
NEUT.         1                    : NEUTRON      - NEUTRON TYPE
RESI.         0                    : RESIST       - RESISTIVITY TYPE
RMC .OHMM     0.25                 : RMC          - RESISTIVITY OF MUD CAKE
RMF .OHMM     0.25                 : RMF          - RESISTIVITY OF MUD FILTRATE
SUFT.C        15                   : SUFT         - SURFACE TEMPERATURE
~A  DEPTH       GR     PHIN     PHID     RESD
# ...
  183.000  103.014    0.427    0.151   13.014
  183.250  101.847    0.427    0.147   11.905
  183.500   99.438    0.430    0.176   11.293
  183.750  100.101    0.436    0.191   10.905
  184.000  105.682    0.442    0.204   10.352
  184.250  110.034    0.449    0.211   10.176
  184.500  110.083    0.463    0.191    8.971
  184.750  106.445    0.476    0.118    8.504
  185.000  104.036    0.474    0.095    8.067
  185.250   98.554    0.461    0.114    8.551
  185.500   91.228    0.435    0.168    9.581
  185.750   85.758    0.444    0.185   10.163
  186.000   88.868    0.450    0.192    9.304
  186.250   95.678    0.457    0.190    8.978
  186.500  102.500    0.459    0.184    8.676
  186.750  108.708    0.459    0.169    8.389
  187.000  108.745    0.457    0.148    8.407
  187.250  103.275    0.452    0.131    8.587
  187.500  101.468    0.443    0.108    8.778
  187.750  105.218    0.437    0.085    8.967
  188.000  109.569    0.433    0.147    8.985
  188.250  111.462    0.435    0.165    9.023
  188.500  111.524    0.435    0.184    9.035
  188.750  111.586    0.429    0.197    8.900
  189.000  111.610    0.425    0.201    9.085
  189.250  112.274    0.417    0.199    9.123
  189.500  112.938    0.408    0.193    9.306
  189.750  109.914    0.401    0.181    9.878
  190.000  103.203    0.391    0.159   10.083
  190.250  100.794    0.367    0.117   11.091
  190.500   97.156    0.349    0.072   12.669
  190.750   95.988    0.351    0.093   13.420
  191.000  103.400    0.367    0.161   12.739
  191.250  106.535    0.382    0.178   11.645
  191.500  105.355    0.398    0.188   11.245
  191.750  104.188    0.400    0.190   10.867
  192.000  103.622    0.405    0.191   10.126
  192.250  104.286    0.408    0.182   10.147
  192.500  103.721    0.391    0.174    9.989
  192.750  100.697    0.381    0.165   10.786
  193.000   98.276    0.368    0.154   11.872
  193.250   95.264    0.342    0.141   13.059
  193.500   94.072    0.325    0.097   14.101
  193.750   91.663    0.342    0.088   14.947
  194.000   91.098    0.381    0.117   15.586
  194.250   92.401    0.390    0.176   15.597
  194.500   93.040    0.393    0.194   15.640
  194.750   93.089    0.393    0.187   15.694
  195.000   91.295    0.395    0.181   15.438
  195.250   86.440    0.401    0.187   14.396
  195.500   82.789    0.409    0.193   14.152
  195.750   76.692    0.413    0.203   13.197
  196.000   69.981    0.410    0.215   12.972
  196.250   60.811    0.394    0.231   13.008
  196.500   51.014    0.371    0.245   15.696
  196.750   31.396    0.355    0.259   31.256
  197.000   23.480    0.361    0.275   58.841
  197.250   24.733    0.370    0.285  100.980
  197.500   26.012    0.379    0.293  152.243
  197.750   27.291    0.382    0.299  177.023
  198.000   27.340    0.383    0.298  187.775
  198.250   26.160    0.381    0.298  191.810
  198.500   24.980    0.381    0.301  192.340
  198.750   24.427    0.380    0.301  193.005
  199.000   25.103    0.379    0.300  189.989
  199.250   25.767    0.382    0.303  193.939
  199.500   26.444    0.387    0.307  194.609
  199.750   27.095    0.400    0.303  198.654
  200.000   27.747    0.412    0.302  203.063
  200.250   29.050    0.418    0.299  207.428
  200.500   29.714    0.416    0.299  212.032
  200.750   30.353    0.411    0.300  212.324
  201.000   31.042    0.408    0.300  212.911
  201.250   31.079    0.403    0.300  209.585
  201.500   31.743    0.404    0.300  206.310
  201.750   31.792    0.402    0.305  199.364
  202.000   32.468    0.392    0.306  196.385
  202.250   32.505    0.387    0.300  189.641
  202.500   31.940    0.387    0.295  179.896
  202.750   32.002    0.387    0.294  170.651
  203.000   32.039    0.391    0.293  161.882
  203.250   32.088    0.390    0.289  150.747
  203.500   32.137    0.392    0.288  154.094
  203.750   32.187    0.402    0.293  157.405
  204.000   31.007    0.410    0.294  157.731
  204.250   30.466    0.419    0.289  146.882
  204.500   33.589    0.415    0.277  131.810
  204.750   37.940    0.406    0.251  111.897
  205.000   44.136    0.387    0.217   96.699
  205.250   50.343    0.416    0.239   61.053
  205.500   51.007    0.426    0.257   48.997
  205.750   51.671    0.433    0.277   44.790
  206.000   53.552    0.431    0.280   42.488
  206.250   57.289    0.428    0.278   40.333
  206.500   61.641    0.425    0.269   38.948
  206.750   69.078    0.425    0.253   34.951
  207.000   71.585    0.426    0.238   30.246
  207.250   73.479    0.427    0.228   27.630
  207.500   79.674    0.427    0.215   24.778
  207.750   87.111    0.425    0.207   20.270
  208.000   92.077    0.420    0.194   16.881
  208.250   98.273    0.426    0.174   12.589
  208.500  104.468    0.443    0.168    9.558
  208.750  113.135    0.461    0.195    6.034
  209.000  118.101    0.486    0.213    4.754
  209.250  123.682    0.500    0.224    3.962
  209.500  122.502    0.516    0.218    3.555
  209.750  118.863    0.522    0.209    3.632
  210.000  114.610    0.500    0.195    4.072
  210.250  112.828    0.448    0.181    4.316
  210.500  112.263    0.436    0.172    4.572
  210.750  112.312    0.426    0.183    5.624
  211.000  112.362    0.423    0.195    6.539
  211.250  108.723    0.440    0.203    7.604
  211.500   83.561    0.455    0.220    9.181
  211.750   75.006    0.450    0.238   11.078
  212.000   71.994    0.433    0.230   14.139
  212.250   72.044    0.407    0.221   17.060
  212.500   72.081    0.389    0.219   21.775
  212.750   70.913    0.393    0.231   24.855
  213.000   69.118    0.399    0.273   29.461
  213.250   56.863    0.405    0.279   33.651
  213.500   53.852    0.415    0.294   35.670
  213.750   53.889    0.424    0.301   36.437
  214.000   54.553    0.426    0.305   38.623
  214.250   58.314    0.422    0.305   40.190
  214.500   60.183    0.418    0.302   38.098
  214.750   63.305    0.418    0.295   30.596
  215.000   67.681    0.420    0.288   24.554
  215.250   67.104    0.427    0.282   17.647
  215.500   62.236    0.437    0.272   14.172
  215.750   58.598    0.438    0.306   16.176
  216.000   54.960    0.437    0.309   20.633
  216.250   52.538    0.432    0.308   28.358
  216.500   50.756    0.416    0.299   39.703
  216.750   50.805    0.407    0.292   47.028
  217.000   45.950    0.406    0.281   48.038
  217.250   42.926    0.400    0.275   49.987
  217.500   41.132    0.393    0.268   57.137
  217.750   40.566    0.385    0.270   62.805
  218.000   40.014    0.379    0.275   69.084
  218.250   40.038    0.373    0.279   78.855
  218.500   40.087    0.378    0.282   80.550
  218.750   40.751    0.385    0.284   82.338
  219.000   43.886    0.385    0.285   82.623
  219.250   45.767    0.384    0.284   79.896
  219.500   50.745    0.384    0.281   77.099
  219.750   54.483    0.383    0.275   71.747
  220.000   56.990    0.382    0.273   63.204
  220.250   60.125    0.380    0.269   53.655
  220.500   62.018    0.379    0.261   48.183
  220.750   63.297    0.377    0.259   44.869
  221.000   64.588    0.374    0.256   41.811
  221.250   65.879    0.373    0.256   41.101
  221.500   65.903    0.371    0.255   39.717
  221.750   66.579    0.371    0.252   39.855
  222.000   66.616    0.377    0.251   39.205
  222.250   67.293    0.382    0.252   37.885
  222.500   67.944    0.382    0.253   35.963
  222.750   68.608    0.378    0.251   35.401
  223.000   70.514    0.373    0.249   35.499
  223.250   73.022    0.372    0.246   34.944
  223.500   75.529    0.371    0.242   33.768
  223.750   77.435    0.375    0.237   32.054
  224.000   78.713    0.380    0.230   31.510
  224.250   80.606    0.381    0.225   30.428
  224.500   83.114    0.381    0.216   29.404
  224.750   86.237    0.380    0.230   30.056
  225.000   88.130    0.376    0.259   30.702
  225.250   90.638    0.371    0.261   31.948
  225.500   94.387    0.365    0.252   32.635
  225.750   96.882    0.362    0.242   32.747
  226.000  101.861    0.355    0.230   31.645
  226.250  105.598    0.358    0.218   30.018
