~VERSION INFORMATION
 VERS.                 2.0:   CWLS LOG ASCII STANDARD -VERSION 2.0
 WRAP.                  NO:   ONE LINE PER DEPTH STEP
~WELL INFORMATION BLOCK
#MNEM.UNIT           DATA                    DESCRIPTION OF MNEMONIC
#---------    -------------------            -------------------------------
# Generated from Intellog Unique Number	CS_67_68/WELL/2204
WELL.         11-05-067-07W4                 : Well_name    - WELL
LOC .         00/11-05-067-07W4/0            : Location     - LOCATION
UWI .         00/11-05-067-07W4/0            : Uwi          - UNIQUE WELL ID
ENTR.         SP                             : Entered      - ENTERED BY
SRVC.         SCHLUMBERGER                   : Scn          - SERVICE COMPANY
STRT.M        315                            : top_depth    - START DEPTH
STOP.M        540                            : bot_depth    - STOP DEPTH
STEP.M        0.25                           : increment    - STEP LENGTH
 NULL. -999.2500:NULL Value
~CURVE INFORMATION BLOCK
#MNEM UNIT       ERCB CURVE CODE    CURVE DESCRIPTION
#-----------   ------------------   ----------------------------------
DEPT.M        00 001 00 00         : DEPTH        - DEPTH
ILD .OHMM     00 120 00 00         : RESD         - DEEP RESISTIVITY (DIL)
DPHI.V/V      00 890 00 00         : PHID         - DENSITY POROSITY (LIMESTONE)
NPHI.V/V      00 330 00 00         : PHIN         - NEUTRON POROSITY (LIMESTONE)
GR  .API      00 310 00 00         : GR           - GAMMA RAY
CALI.MM       00 280 01 00         : CAL          - CALIPER
~PARAMETER INFORMATION
#MNEM.UNIT           DATA             DESCRIPTION OF MNEMONIC
#---------         -----------     ------------------------------
GL  .M        621.33               : gl           - GROUND LEVEL ELEVATION
EREF.M        625.23               : kb           - ELEVATION OF DEPTH REFERENCE
DATM.M        625.23               : datum        - DATUM ELEVATION
TDD .M        550                  : tdd          - TOTAL DEPTH DRILLER
RUN .         ONE                  : Run          - RUN NUMBER
ENG .         BILL                 : Engineer     - RECORDING ENGINEER
WIT .         JIM                  : Witness      - WITNESSED BY
MUD .         GEL                  : Mud_type     - MUD TYPE
MATR.         LIMESTONE            : Logunit      - NEUTRON MATRIX
TMAX.C        25                   : BHT          - MAXIMUM RECORDED TEMPERATURE
BHTD.M        549.5                : BHTDEP       - MAXIMUM RECORDED TEMPERATURE
MATR.         1                    : LOGUNIT      - NEUTRON MATRIX
RMT .C        25                   : MDTP         - TEMPERATURE OF MUD
NEUT.         1                    : NEUTRON      - NEUTRON TYPE
RESI.         0                    : RESIST       - RESISTIVITY TYPE
RMC .OHMM     0.25                 : RMC          - RESISTIVITY OF MUD CAKE
RMF .OHMM     0.25                 : RMF          - RESISTIVITY OF MUD FILTRATE
SUFT.C        15                   : SUFT         - SURFACE TEMPERATURE
~A  DEPTH     RESD     PHID     PHIN       GR      CAL
# ...
  461.000    3.462    0.294    0.546   84.211  163.877
  461.250    3.399    0.297    0.546   84.178  161.994
  461.500    3.606    0.208    0.506   84.942  160.195
  461.750    4.244    0.213    0.465   85.888  159.749
  462.000    5.658    0.228    0.452   87.139  159.583
  462.250    7.195    0.221    0.450   88.508  159.543
  462.500   10.036    0.222    0.453   89.401  159.589
  462.750   14.318    0.249    0.458   90.529  159.748
  463.000   16.289    0.269    0.470   90.498  159.693
  463.250   16.025    0.174    0.483   85.277  159.542
  463.500    9.910    0.115    0.487   77.184  159.577
  463.750    4.759    0.093    0.384   68.907  159.642
  464.000    4.102    0.061    0.232   61.671  159.481
  464.250    3.842    0.032    0.206   48.877  159.130
  464.500    3.780    0.001    0.196   52.324  158.769
  464.750    3.958    0.101    0.334   58.402  158.411
  465.000    4.279    0.184    0.371   66.370  158.362
  465.250    4.696    0.226    0.405   75.621  158.314
  465.500    5.039    0.263    0.424   83.162  158.363
  465.750    5.256    0.272    0.438   87.896  155.657
  466.000    5.380    0.277    0.445   89.207  153.678
  466.250    5.404    0.280    0.445   86.000  151.888
  466.500    5.090    0.250    0.441   80.895  152.049
  466.750    4.979    0.194    0.435   75.802  155.251
  467.000    5.184    0.096    0.423   71.313  157.642
  467.250    5.626    0.075    0.399   76.284  160.033
  467.500    5.935    0.140    0.365   81.266  161.916
  467.750    5.927    0.171    0.351   89.778  161.148
  468.000    5.033    0.193    0.395   94.578  159.059
  468.250    3.823    0.208    0.438   98.699  157.690
  468.500    3.138    0.192    0.436   92.255  156.102
  468.750    2.513    0.146    0.396   93.015  156.567
  469.000    2.279    0.116    0.337   96.712  158.242
  469.250    2.131    0.103    0.383  100.528  159.101
  469.500    2.092    0.164    0.405  103.609  159.357
  469.750    2.122    0.209    0.424  101.318  159.313
  470.000    2.115    0.237    0.436   96.588  162.110
  470.250    2.109    0.249    0.549   92.280  169.997
  470.500    2.139    0.259    0.585   92.188  218.901
  470.750    2.193    0.231    0.572   93.248  212.020
  471.000    2.244    0.240    0.561   93.891  208.512
  471.250    2.381    0.243    0.555   94.844  211.723
  471.500    2.525    0.245    0.553   96.096  213.505
  471.750    2.756    0.227    0.557   97.407  211.008
  472.000    3.183    0.235    0.548   98.476  207.595
  472.250    3.761    0.236    0.543   99.117  203.461
  472.500    4.336    0.228    0.541   99.330  201.893
  472.750    4.849    0.225    0.532   97.709  200.311
  473.000    5.373    0.236    0.511   92.122  195.372
  473.250    5.765    0.244    0.491   74.870  187.579
  473.500    5.597    0.263    0.455   61.953  181.333
  473.750    5.373    0.277    0.425   57.705  169.574
  474.000    5.080    0.261    0.400   55.539  159.346
  474.250    5.083    0.202    0.381   56.485  153.897
  474.500    5.213    0.167    0.364   58.285  155.170
  474.750    5.478    0.142    0.341   59.720  155.627
  475.000    5.823    0.192    0.375   62.795  155.267
  475.250    6.166    0.222    0.383   64.726  154.812
  475.500    5.998    0.225    0.390   66.831  154.860
  475.750    5.545    0.201    0.398   68.141  155.724
  476.000    5.106    0.136    0.335   62.496  157.096
  476.250    4.553    0.093    0.287   54.953  156.945
  476.500    4.346    0.120    0.329   58.400  154.440
  476.750    4.681    0.201    0.435   69.119  153.278
  477.000    5.080    0.256    0.477   77.453  164.213
  477.250    5.524    0.288    0.503   89.272  167.626
  477.500    5.860    0.284    0.470   91.924  166.656
  477.750    6.264    0.266    0.445   91.712  161.514
  478.000    6.412    0.257    0.425   90.154  155.650
  478.250    6.225    0.255    0.416   85.116  153.368
  478.500    6.009    0.257    0.406   89.236  152.706
  478.750    5.934    0.266    0.392   93.538  153.263
  479.000    5.995    0.260    0.383   96.686  154.433
  479.250    6.009    0.251    0.383   98.851  155.710
  479.500    5.890    0.251    0.387   94.547  156.878
  479.750    5.782    0.256    0.394   93.905  158.553
  480.000    5.775    0.244    0.400   99.187  161.557
  480.250    6.316    0.221    0.411  104.532  166.594
  480.500    6.575    0.221    0.418  109.501  167.250
  480.750    6.768    0.210    0.407  110.941  165.268
  481.000    7.006    0.185    0.380   98.203  161.251
  481.250    7.211    0.265    0.400   89.988  164.455
  481.500    7.381    0.298    0.404   85.808  173.560
  481.750    7.386    0.247    0.381   79.183  166.180
  482.000    7.376    0.225    0.358   75.114  157.676
  482.250    7.339    0.225    0.354   73.624  153.762
  482.500    7.414    0.238    0.356   72.495  153.607
  482.750    7.419    0.246    0.366   70.754  153.040
  483.000    7.423    0.257    0.364   65.775  152.382
  483.250    7.330    0.272    0.353   70.324  151.826
  483.500    7.091    0.265    0.351   77.010  151.363
  483.750    6.807    0.229    0.349   81.743  151.403
  484.000    6.658    0.195    0.340   84.581  151.970
  484.250    6.488    0.179    0.330   81.740  153.654
  484.500    6.100    0.147    0.344   81.098  158.790
  484.750    5.845    0.208    0.368   82.719  163.827
  485.000    5.663    0.201    0.383   84.455  164.081
  485.250    5.657    0.176    0.365   85.954  160.044
  485.500    5.617    0.184    0.353   80.791  158.684
  485.750    5.454    0.203    0.345   75.752  158.534
  486.000    5.265    0.217    0.342   72.730  157.972
  486.250    5.083    0.230    0.340   72.882  155.680
  486.500    4.944    0.240    0.340   71.141  153.083
  486.750    4.873    0.250    0.334   66.590  152.212
  487.000    4.913    0.254    0.351   66.548  151.961
  487.250    5.048    0.265    0.373   66.956  152.103
  487.500    5.245    0.279    0.388   66.864  152.158
  487.750    5.736    0.292    0.410   66.100  152.517
  488.000    5.993    0.308    0.428   61.608  155.011
  488.250    6.205    0.291    0.366   58.343  157.397
  488.500    6.314    0.263    0.370   64.294  157.349
  488.750    6.403    0.264    0.368   72.204  156.886
  489.000    6.418    0.255    0.358   78.523  156.942
  489.250    6.374    0.241    0.356   87.166  157.293
  489.500    6.439    0.225    0.363   95.257  157.449
  489.750    6.691    0.208    0.358   99.557  157.292
  490.000    6.926    0.204    0.356  101.482  156.625
  490.250    7.197    0.203    0.357   95.590  155.959
  490.500    7.550    0.194    0.356   90.794  155.605
  490.750    7.846    0.186    0.348   88.257  156.067
  491.000    7.999    0.190    0.350   90.242  156.627
  491.250    8.219    0.201    0.358   93.389  156.877
  491.500    8.802    0.192    0.374   94.702  156.625
  491.750    9.480    0.217    0.384   80.686  155.957
  492.000   10.154    0.244    0.391   69.417  155.395
  492.250   10.451    0.265    0.410   63.096  155.128
  492.500   10.517    0.288    0.423   56.590  154.883
  492.750    9.576    0.300    0.402   55.644  154.732
  493.000    8.476    0.304    0.383   63.611  154.375
  493.250    7.076    0.287    0.374   69.932  153.922
  493.500    6.020    0.276    0.390   70.082  153.448
  493.750    5.288    0.288    0.406   67.415  153.106
  494.000    4.805    0.298    0.419   65.676  152.740
  494.250    4.359    0.296    0.403   64.557  152.584
  494.500    3.962    0.287    0.380   68.495  152.234
  494.750    3.697    0.281    0.378   60.157  151.879
  495.000    3.671    0.291    0.382   54.018  151.405
  495.250    3.708    0.302    0.375   53.314  151.158
  495.500    3.824    0.304    0.381   59.636  150.806
  495.750    4.182    0.301    0.386   69.618  150.540
  496.000    4.538    0.287    0.371   75.636  150.704
  496.250    4.851    0.263    0.359   80.123  153.093
  496.500    5.245    0.229    0.349   83.025  154.666
  496.750    5.512    0.088    0.306   81.343  155.328
  497.000    5.706    0.024    0.301   86.627  155.584
  497.250    5.753    0.130    0.320   97.586  155.937
