~VERSION INFORMATION
 VERS.                 2.0:   CWLS LOG ASCII STANDARD -VERSION 2.0
 WRAP.                  NO:   ONE LINE PER DEPTH STEP
~WELL INFORMATION BLOCK
#MNEM.UNIT           DATA                    DESCRIPTION OF MNEMONIC
#---------    -------------------            -------------------------------
# Generated from Intellog Unique Number	CS_67_68/WELL/2206
WELL.         DOME CAVALIER GRASSLAND        : Well_name    - WELL
LOC .         00/11-10-067-18W4/0            : Location     - LOCATION
UWI .         00/11-10-067-18W4/0            : Uwi          - UNIQUE WELL ID
ENTR.         SUSAN                          : Entered      - ENTERED BY
SRVC.         SCHLUMBERGER                   : Scn          - SERVICE COMPANY
STRT.M        375                            : top_depth    - START DEPTH
STOP.M        571                            : bot_depth    - STOP DEPTH
STEP.M        0.25                           : increment    - STEP LENGTH
 NULL. -999.2500:NULL Value
~CURVE INFORMATION BLOCK
#MNEM UNIT       ERCB CURVE CODE    CURVE DESCRIPTION
#-----------   ------------------   ----------------------------------
DEPT.M        00 001 00 00         : DEPTH        - DEPTH
ILD .OHMM     00 120 00 00         : RESD         - DEEP RESISTIVITY (DIL)
DPHI.V/V      00 890 00 00         : PHID         - DENSITY POROSITY (LIMESTONE)
NPHI.V/V      00 330 00 00         : PHIN         - NEUTRON POROSITY (LIMESTONE)
GR  .API      00 310 00 00         : GR           - GAMMA RAY
CALI.MM       00 280 01 00         : CAL          - CALIPER
~PARAMETER INFORMATION
#MNEM.UNIT           DATA             DESCRIPTION OF MNEMONIC
#---------         -----------     ------------------------------
GL  .M        598.39               : gl           - GROUND LEVEL ELEVATION
EREF.M        602                  : kb           - ELEVATION OF DEPTH REFERENCE
DATM.M        602                  : datum        - DATUM ELEVATION
TDD .M        574                  : tdd          - TOTAL DEPTH DRILLER
RUN .         ONE                  : Run          - RUN NUMBER
ENG .         BILL                 : Engineer     - RECORDING ENGINEER
WIT .         JIM                  : Witness      - WITNESSED BY
MUD .         GEL                  : Mud_type     - MUD TYPE
MATR.         LIMESTONE            : Logunit      - NEUTRON MATRIX
TMAX.C        24                   : BHT          - MAXIMUM RECORDED TEMPERATURE
BHTD.M        573                  : BHTDEP       - MAXIMUM RECORDED TEMPERATURE
MATR.         1                    : LOGUNIT      - NEUTRON MATRIX
RMT .C        25                   : MDTP         - TEMPERATURE OF MUD
NEUT.         1                    : NEUTRON      - NEUTRON TYPE
RESI.         0                    : RESIST       - RESISTIVITY TYPE
RMC .OHMM     0.25                 : RMC          - RESISTIVITY OF MUD CAKE
RMF .OHMM     0.25                 : RMF          - RESISTIVITY OF MUD FILTRATE
SUFT.C        15                   : SUFT         - SURFACE TEMPERATURE
~A  DEPTH     RESD     PHID     PHIN       GR      CAL
# ...
  448.000    1.999    0.285    0.361   84.219  178.913
  448.250    1.849    0.290    0.356   85.943  179.423
  448.500    1.672    0.290    0.350   88.100  179.830
  448.750    1.597    0.285    0.343   88.652  180.237
  449.000    1.644    0.276    0.339   83.654  180.233
  449.250    1.731    0.265    0.351   85.995  180.126
  449.500    1.826    0.251    0.359   90.372  179.608
  449.750    1.941    0.241    0.368   92.528  179.604
  450.000    2.035    0.237    0.362   91.416  179.497
  450.250    2.159    0.238    0.356   89.069  179.082
  450.500    2.278    0.244    0.352   90.239  179.078
  450.750    2.376    0.248    0.348   89.311  178.868
  451.000    2.417    0.228    0.343   88.569  179.276
  451.250    2.464    0.215    0.352   92.390  180.402
  451.500    2.474    0.205    0.374   94.485  181.221
  451.750    2.395    0.199    0.381   96.703  181.319
  452.000    2.250    0.208    0.368   99.352  181.520
  452.250    2.081    0.217    0.360  100.399  181.208
  452.500    1.969    0.223    0.350   93.612  180.176
  452.750    1.929    0.223    0.339   82.569  178.528
  453.000    1.959    0.198    0.330   78.187  178.112
  453.250    2.035    0.180    0.321   81.145  178.211
  453.500    2.114    0.192    0.309   83.610  178.207
  453.750    2.269    0.219    0.298   84.348  178.409
  454.000    2.269    0.236    0.321   76.451  178.918
  454.250    2.751    0.217    0.333   85.022  179.222
  454.500    3.228    0.173    0.307   90.940  179.218
  454.750    3.839    0.149    0.276   93.096  179.420
  455.000    4.239    0.148    0.255   87.543  178.902
  455.250    4.128    0.180    0.264   78.042  178.487
  455.500    3.711    0.211    0.310   79.890  178.072
  455.750    3.230    0.233    0.342   83.218  178.478
  456.000    2.838    0.240    0.364   86.546  180.017
  456.250    2.542    0.240    0.348   89.134  181.966
  456.500    2.471    0.243    0.336   90.489  182.990
  456.750    2.480    0.249    0.330   90.980  183.910
  457.000    2.524    0.244    0.325   89.559  184.215
  457.250    2.587    0.240    0.324   91.222  184.520
  457.500    2.683    0.236    0.329   92.638  184.516
  457.750    2.825    0.238    0.337   93.807  185.025
  458.000    2.940    0.229    0.342   94.483  185.021
  458.250    3.078    0.222    0.339   92.322  184.400
  458.500    3.235    0.217    0.337   95.342  184.293
  458.750    3.380    0.214    0.331   99.040  183.980
  459.000    3.478    0.211    0.324  102.183  184.183
  459.250    3.505    0.205    0.318  103.168  184.590
  459.500    3.539    0.199    0.335  102.487  185.511
  459.750    3.500    0.192    0.354  100.449  185.918
  460.000    3.376    0.188    0.362   99.953  185.708
  460.250    3.195    0.192    0.364   99.272  184.882
  460.500    3.099    0.196    0.370   97.666  183.541
  460.750    3.035    0.185    0.356   95.381  182.406
  461.000    2.979    0.155    0.299   92.172  181.785
  461.250    3.077    0.142    0.284   89.703  181.987
  461.500    3.483    0.132    0.273   85.259  182.806
  461.750    3.905    0.139    0.290   81.001  183.521
  462.000    4.127    0.160    0.318   77.483  183.208
  462.250    4.042    0.171    0.338   83.155  182.998
  462.500    3.825    0.170    0.337   88.888  182.789
  462.750    3.579    0.172    0.331   94.437  182.271
  463.000    3.453    0.175    0.325  100.356  181.342
  463.250    3.369    0.181    0.319   95.974  180.824
  463.500    3.369    0.189    0.329   91.839  181.026
  463.750    3.415    0.198    0.341   94.365  182.049
  464.000    3.467    0.206    0.345  100.407  183.895
  464.250    3.562    0.207    0.333  103.365  184.920
  464.500    3.693    0.198    0.336  104.165  184.813
  464.750    3.729    0.192    0.350  102.374  185.014
  465.000    3.780    0.188    0.360  102.310  185.010
  465.250    3.794    0.184    0.367  103.047  185.109
  465.500    3.781    0.179    0.357  103.415  185.105
  465.750    3.795    0.171    0.349  101.747  186.129
  466.000    3.810    0.164    0.342   97.551  186.844
  466.250    3.855    0.156    0.336   92.305  186.840
  466.500    3.885    0.152    0.335   88.726  186.733
  466.750    3.900    0.148    0.336   92.794  186.832
  467.000    3.864    0.148    0.337  101.180  186.931
  467.250    3.791    0.156    0.343  107.037  187.132
  467.500    3.699    0.166    0.364  110.489  186.923
  467.750    3.527    0.175    0.382  111.473  187.330
  468.000    3.332    0.186    0.404  112.149  187.840
  468.250    3.112    0.197    0.417  116.156  188.658
  468.500    2.962    0.185    0.403  115.166  189.476
  468.750    2.895    0.178    0.385  111.155  189.781
  469.000    2.901    0.171    0.368  107.945  189.674
  469.250    3.049    0.168    0.356  108.066  189.464
  469.500    3.247    0.165    0.353  109.050  189.255
  469.750    3.399    0.165    0.351  110.035  188.633
  470.000    3.545    0.166    0.340  110.957  187.499
  470.250    3.600    0.167    0.325  110.215  185.953
  470.500    3.519    0.170    0.314  105.093  184.201
  470.750    3.382    0.172    0.334   98.985  183.375
  471.000    3.312    0.167    0.351   93.493  182.548
  471.250    3.287    0.170    0.351   95.588  182.441
  471.500    3.332    0.176    0.346  100.643  182.437
  471.750    3.416    0.178    0.341  104.279  182.331
  472.000    3.617    0.175    0.336  106.929  181.915
  472.250    3.772    0.165    0.329  108.037  181.191
  472.500    3.919    0.163    0.322  100.510  180.262
  472.750    4.048    0.178    0.319   94.278  179.334
  473.000    4.034    0.185    0.320   93.350  178.918
  473.250    3.832    0.191    0.323   97.172  178.914
  473.500    3.585    0.187    0.331  100.808  178.909
  473.750    3.348    0.181    0.340  103.643  178.700
  474.000    3.187    0.183    0.349  106.293  178.594
  474.250    3.063    0.189    0.362  101.973  178.589
  474.500    3.011    0.189    0.358   95.062  178.688
  474.750    2.938    0.183    0.351   89.818  178.889
  475.000    2.899    0.178    0.359   93.454  179.091
  475.250    2.894    0.174    0.367   96.906  178.882
  475.500    2.978    0.172    0.362  100.974  178.877
  475.750    3.059    0.180    0.352  104.734  178.874
  476.000    3.166    0.187    0.349  104.608  178.664
  476.250    3.271    0.193    0.350  102.323  178.351
  476.500    3.353    0.199    0.347  101.088  178.038
  476.750    3.424    0.207    0.341   99.913  177.932
  477.000    3.425    0.213    0.342   98.368  177.928
  477.250    3.323    0.223    0.347   96.454  177.821
  477.500    3.211    0.234    0.342   93.121  177.508
  477.750    3.062    0.247    0.336   89.356  177.093
  478.000    2.806    0.259    0.330   86.270  176.781
  478.250    2.571    0.272    0.331   80.778  176.571
  478.500    2.320    0.283    0.340   75.534  176.259
  478.750    2.122    0.291    0.347   67.574  176.151
  479.000    1.922    0.297    0.351   62.268  175.737
  479.250    1.781    0.302    0.353   61.155  174.911
  479.500    1.670    0.300    0.354   64.483  174.392
  479.750    1.586    0.299    0.348   66.763  174.182
  480.000    1.501    0.298    0.339   61.641  174.178
  480.250    1.462    0.296    0.331   58.678  174.277
  480.500    1.440    0.284    0.324   63.857  175.096
  480.750    1.451    0.234    0.320   63.916  176.119
  481.000    1.543    0.154    0.293   63.729  177.041
  481.250    1.776    0.119    0.248   65.207  178.578
  481.500    2.245    0.104    0.209   63.107  179.705
  481.750    2.971    0.088    0.184   57.862  180.935
  482.000    4.014    0.073    0.169   53.295  182.164
  482.250    5.786    0.054    0.155   48.852  183.188
  482.500    8.831    0.048    0.147   44.841  183.287
  482.750   21.736    0.055    0.143   49.649  183.900
  483.000   26.958    0.064    0.150   55.197  184.204
  483.250   29.206    0.072    0.157   58.464  183.583
  483.500   22.121    0.082    0.165   58.523  181.728
  483.750   14.332    0.096    0.172   56.732  179.669
  484.000    9.574    0.133    0.200   55.866  178.020
  484.250    7.320    0.179    0.228   61.599  177.605
