~VERSION INFORMATION
 VERS.                 2.0:   CWLS LOG ASCII STANDARD -VERSION 2.0
 WRAP.                  NO:   ONE LINE PER DEPTH STEP
~WELL INFORMATION BLOCK
#MNEM.UNIT           DATA                    DESCRIPTION OF MNEMONIC
#---------    -------------------            -------------------------------
# Generated from Intellog Unique Number	CS_71_72/WELL/886
WELL.         SULPETRO LIMITED               : Well_name    - WELL
LOC .         00/11-05-071-10W4/0            : Location     - LOCATION
UWI .         00/11-05-071-10W4/0            : Uwi          - UNIQUE WELL ID
ENTR.         SP                             : Entered      - ENTERED BY
SRVC.         SCHLUMBERGER                   : Scn          - SERVICE COMPANY
STRT.M        300                            : top_depth    - START DEPTH
STOP.M        535                            : bot_depth    - STOP DEPTH
STEP.M        0.25                           : increment    - STEP LENGTH
 NULL. -999.2500:NULL Value
~CURVE INFORMATION BLOCK
#MNEM UNIT       ERCB CURVE CODE    CURVE DESCRIPTION
#-----------   ------------------   ----------------------------------
DEPT.M        00 001 00 00         : DEPTH        - DEPTH
ILD .OHMM     00 120 00 00         : RESD         - DEEP RESISTIVITY (DIL)
DPHI.V/V      00 890 00 00         : PHID         - DENSITY POROSITY (LIMESTONE)
NPHI.V/V      00 330 00 00         : PHIN         - NEUTRON POROSITY (LIMESTONE)
GR  .API      00 310 00 00         : GR           - GAMMA RAY
~PARAMETER INFORMATION
#MNEM.UNIT           DATA             DESCRIPTION OF MNEMONIC
#---------         -----------     ------------------------------
GL  .M        651.97               : gl           - GROUND LEVEL ELEVATION
EREF.M        654.8                : kb           - ELEVATION OF DEPTH REFERENCE
DATM.M        651.97               : datum        - DATUM ELEVATION
TDD .M        539                  : tdd          - TOTAL DEPTH DRILLER
RUN .         ONE                  : Run          - RUN NUMBER
ENG .         BILL                 : Engineer     - RECORDING ENGINEER
WIT .         JIM                  : Witness      - WITNESSED BY
MUD .         GEL                  : Mud_type     - MUD TYPE
MATR.         LIMESTONE            : Logunit      - NEUTRON MATRIX
TMAX.C        25                   : BHT          - MAXIMUM RECORDED TEMPERATURE
BHTD.M        539                  : BHTDEP       - MAXIMUM RECORDED TEMPERATURE
MATR.         1                    : LOGUNIT      - NEUTRON MATRIX
RMT .C        25                   : MDTP         - TEMPERATURE OF MUD
NEUT.         1                    : NEUTRON      - NEUTRON TYPE
RESI.         0                    : RESIST       - RESISTIVITY TYPE
RMC .OHMM     0.25                 : RMC          - RESISTIVITY OF MUD CAKE
RMF .OHMM     0.25                 : RMF          - RESISTIVITY OF MUD FILTRATE
SUFT.C        15                   : SUFT         - SURFACE TEMPERATURE
~A  DEPTH     RESD     PHID     PHIN       GR
  300.000    2.730    0.223    0.441  103.104
  300.250    2.776    0.216    0.442  106.417
  300.500    2.839    0.211    0.450  112.854
  300.750    2.947    0.207    0.415  116.780
  301.000    2.963    0.210    0.384  118.746
  301.250    2.980    0.214    0.334  100.816
  301.500    2.963    0.214    0.367   97.212
  301.750    2.957    0.222    0.394  100.893
  302.000    2.940    0.228    0.450  109.717
  302.250    2.896    0.223    0.421  114.071
  302.500    2.869    0.215    0.387  118.120
  302.750    2.885    0.216    0.386  118.372
  303.000    2.950    0.206    0.404  115.441
  303.250    3.039    0.170    0.418  113.367
  303.500    3.137    0.163    0.406  115.518
  303.750    3.232    0.212    0.417  114.853
  304.000    3.305    0.225    0.424  109.778
  304.250    3.305    0.218    0.450  110.092
  304.500    3.323    0.215    0.423  111.937
  304.750    3.398    0.215    0.404  112.250
  305.000    3.514    0.213    0.406  111.768
  305.250    3.593    0.210    0.432  111.165
  305.500    3.647    0.207    0.449  111.234
  305.750    3.681    0.203    0.418  113.446
  306.000    3.660    0.198    0.396  115.167
  306.250    3.633    0.194    0.377  113.950
  306.500    3.585    0.193    0.390  115.489
  306.750    3.525    0.193    0.381  116.660
  307.000    3.499    0.195    0.360  113.055
  307.250    3.505    0.203    0.348  112.818
  307.500    3.557    0.207    0.398  114.050
  307.750    3.741    0.204    0.465  109.343
  308.000    3.883    0.203    0.431  102.800
  308.250    3.993    0.200    0.392   98.767
  308.500    4.091    0.179    0.361   96.510
  308.750    4.068    0.161    0.345   95.905
  309.000    3.846    0.177    0.352  104.178
  309.250    3.555    0.192    0.380  108.839
  309.500    3.387    0.200    0.421  105.602
  309.750    3.725    0.204    0.367  103.650
  310.000    4.765    0.225    0.320   86.943
  310.250    6.281    0.247    0.205   74.890
  310.500    8.358    0.239    0.192   76.245
  310.750   11.287    0.244    0.184   82.008
  311.000   14.795    0.274    0.202   86.179
  311.250   15.882    0.306    0.202   89.677
  311.500   15.298    0.338    0.191   91.643
  311.750   14.847    0.328    0.183   93.488
  312.000   14.598    0.293    0.249   95.883
  312.250   14.247    0.271    0.263   98.770
  312.500   13.295    0.268    0.265  101.103
  312.750   12.019    0.235    0.260  103.682
  313.000   10.866    0.208    0.262  105.037
  313.250   10.159    0.190    0.315  110.984
  313.500    9.462    0.179    0.336  115.216
  313.750    8.846    0.173    0.350  115.285
  314.000    8.333    0.172    0.333  119.089
  314.250    9.147    0.195    0.320  117.871
  314.500    9.674    0.208    0.307  113.655
  314.750    9.583    0.217    0.296  112.071
  315.000    8.926    0.212    0.310  110.487
  315.250    8.439    0.199    0.366  109.698
  315.500    8.236    0.182    0.381  109.706
  315.750    8.677    0.168    0.352  106.898
  316.000    9.472    0.173    0.329  101.947
  316.250   10.794    0.188    0.308  101.831
  316.500   12.579    0.201    0.286   93.451
  316.750   15.273    0.211    0.265   82.193
  317.000   18.338    0.230    0.228   77.916
  317.250   22.855    0.287    0.181   81.046
  317.500   27.289    0.329    0.147   76.095
  317.750   32.159    0.370    0.127   71.939
  318.000   35.303    0.377    0.113   68.824
  318.250   33.627    0.369    0.106   72.076
  318.500   28.371    0.348    0.162   78.819
  318.750   23.406    0.276    0.205   86.051
  319.000   20.270    0.253    0.241   92.610
  319.250   18.257    0.227    0.161   92.128
  319.500   21.077    0.242    0.093   77.320
  319.750   33.299    0.341    0.076   67.103
  320.000   55.638    0.386    0.063   55.906
  320.250  104.177    0.384    0.058   50.037
  320.500  131.550    0.372    0.064   51.698
  320.750  139.116    0.362    0.068   52.378
  321.000  131.529    0.357    0.070   46.325
  321.250  126.462    0.360    0.068   43.517
  321.500  136.766    0.357    0.070   44.320
  321.750  144.364    0.350    0.073   44.941
  322.000  147.346    0.346    0.075   44.580
  322.250  149.832    0.358    0.076   50.649
  322.500  157.567    0.374    0.074   56.106
  322.750  166.010    0.400    0.074   59.665
  323.000  169.440    0.413    0.076   57.040
  323.250  175.217    0.417    0.078   57.109
  323.500  183.233    0.422    0.081   57.852
  323.750  191.615    0.432    0.081   56.267
  324.000  189.466    0.442    0.072   48.805
  324.250  179.801    0.448    0.065   43.609
  324.500  177.122    0.447    0.059   42.576
  324.750  183.503    0.436    0.056   48.033
  325.000  174.469    0.430    0.057   50.122
  325.250  157.724    0.429    0.057   47.742
  325.500  145.004    0.434    0.057   42.546
  325.750  126.754    0.442    0.057   46.900
  326.000  112.471    0.446    0.059   48.990
  326.250   93.483    0.435    0.061   47.590
  326.500   75.556    0.429    0.064   44.720
  326.750   61.409    0.433    0.076   42.952
  327.000   50.380    0.400    0.093   42.776
  327.250   39.299    0.371    0.189   42.661
  327.500   31.001    0.354    0.232   41.324
  327.750   25.960    0.345    0.240   40.412
  328.000   22.357    0.340    0.234   39.929
  328.250   20.098    0.338    0.232   42.753
  328.500   18.756    0.337    0.235   46.131
  328.750   19.036    0.339    0.239   47.422
  329.000   18.964    0.343    0.243   49.881
  329.250   18.962    0.349    0.256   50.866
  329.500   18.961    0.352    0.267   49.710
  329.750   18.959    0.354    0.257   47.086
  330.000   18.958    0.353    0.249   47.889
  330.250   18.956    0.349    0.242   49.918
  330.500   18.709    0.344    0.248   50.599
  330.750   18.327    0.341    0.269   48.157
  331.000   17.853    0.335    0.287   43.941
  331.250   17.229    0.335    0.303   42.418
  331.500   16.690    0.339    0.312   45.058
  331.750   16.137    0.341    0.322   46.229
  332.000   15.342    0.326    0.335   44.400
  332.250   14.834    0.307    0.346   40.918
  332.500   14.504    0.299    0.337   39.518
  332.750   14.831    0.299    0.315   42.954
  333.000   14.942    0.301    0.298   45.533
  333.250   15.165    0.302    0.297   44.500
  333.500   15.249    0.302    0.311   42.120
  333.750   15.277    0.299    0.316   42.803
  334.000   15.276    0.296    0.330   43.911
  334.250   15.388    0.291    0.329   45.143
  334.500   15.416    0.289    0.318   45.153
  334.750   15.415    0.288    0.307   42.832
  335.000   15.414    0.291    0.320   39.105
  335.250   15.355    0.297    0.347   38.440
  335.500   15.297    0.301    0.360   38.998
  335.750   15.239    0.299    0.366   39.989
  336.000   15.181    0.298    0.359   40.485
  336.250   15.151    0.297    0.351   41.227
  336.500   15.150    0.298    0.343   42.217
  336.750   15.120    0.301    0.320   42.468
  337.000   15.091    0.297    0.301   42.719
  337.250   15.062    0.291    0.312   42.052
  337.500   15.004    0.290    0.324   44.878
  337.750   14.975    0.296    0.314   46.048
  338.000   14.891    0.296    0.304   44.403
  338.250   14.861    0.290    0.302   43.430
  338.500   14.777    0.285    0.316   45.826
  338.750   14.694    0.286    0.313   48.161
  339.000   14.583    0.297    0.323   50.250
  339.250   14.473    0.305    0.311   51.299
  339.500   14.284    0.309    0.322   51.307
  339.750   14.177    0.307    0.317   49.232
  340.000   14.018    0.302    0.310   51.199
  340.250   13.887    0.297    0.307   53.166
  340.500   13.808    0.293    0.328   54.276
  340.750   13.756    0.301    0.338   53.916
  341.000   13.678    0.311    0.337   50.373
  341.250   13.626    0.319    0.333   44.565
  341.500   13.599    0.322    0.323   41.572
  341.750   13.573    0.321    0.318   41.274
  342.000   13.546    0.319    0.325   47.832
  342.250   13.904    0.317    0.345   46.493
  342.500   13.903    0.314    0.353   48.277
  342.750   13.902    0.310    0.341   51.714
  343.000   13.901    0.305    0.332   53.557
  343.250   13.925    0.303    0.327   52.586
