~VERSION INFORMATION
 VERS.                 2.0:   CWLS LOG ASCII STANDARD -VERSION 2.0
 WRAP.                  NO:   ONE LINE PER DEPTH STEP
~WELL INFORMATION BLOCK
#MNEM.UNIT           DATA                    DESCRIPTION OF MNEMONIC
#---------    -------------------            -------------------------------
# Generated from Intellog Unique Number	CW_70_72/WELL/1076
NULL.         -999.25                        : NULL_VALUE
WELL.         CABRE ET AK NUTSYE 16-27       : Well_name    - WELL              
LOC .         16-27-071-03W5                 : Location     - LOCATION          
UWI .         00/16-27-071-03W5/0            : Uwi          - UNIQUE WELL ID    
ENTR.         JAYE                           : Entered      - ENTERED BY        
SRVC.         COMPUTALOG                     : Scn          - SERVICE COMPANY   
DATE.         19 NOV 85                      : Date         - LOG DATE          
STRT.M        440                            : top_depth    - START DEPTH       
STOP.M        650                            : bot_depth    - STOP DEPTH        
STEP.M        0.25                           : increment    - STEP LENGTH       
~CURVE INFORMATION BLOCK
#MNEM UNIT       ERCB CURVE CODE    CURVE DESCRIPTION
#-----------   ------------------   ----------------------------------
DEPT.M        00 001 00 00         : DEPTH        - DEPTH                       
DPHI.V/V      00 890 00 00         : PHID         - DENSITY POROSITY (SANDSTONE)
NPHI.V/V      00 330 00 00         : PHIN         - NEUTRON POROSITY (SANDSTONE)
GR  .API      00 310 00 00         : GR           - GAMMA RAY                   
CALI.MM       00 280 01 00         : CAL          - CALIPER                     
ILD .OHMM     00 120 00 00         : RESD         - DEEP RESISTIVITY (DIL)      
~PARAMETER INFORMATION       
#MNEM.UNIT           DATA             DESCRIPTION OF MNEMONIC
#---------         -----------     ------------------------------
GL  .M        635.2                : gl           - GROUND LEVEL ELEVATION      
EREF.M        638.78               : kb           - ELEVATION OF DEPTH REFERENCE
DATM.M        635.2                : datum        - DATUM ELEVATION             
TDD .M        660                  : tdd          - TOTAL DEPTH DRILLER         
RUN .         ONE                  : Run          - RUN NUMBER                  
ENG .         AHLOY                : Engineer     - RECORDING ENGINEER          
WIT .         BLOTT                : Witness      - WITNESSED BY                
BASE.         EDMONTON             : Branch       - HOME BASE OF LOGGING UNIT   
MUD .         GEL CHEN             : Mud_type     - MUD TYPE                    
MATR.         SANDSTONE            : Logunit      - NEUTRON MATRIX              
TMAX.C        27                   : BHT          - MAXIMUM RECORDED TEMPERATURE
BHTD.M        659.1                : BHTDEP       - MAXIMUM RECORDED TEMPERATURE
RMT .C        16.7                 : MDTP         - TEMPERATURE OF MUD          
MUDD.KG/M     1140                 : MWT          - MUD DENSITY                 
NEUT.         1                    : NEUTRON      - NEUTRON TYPE                
RESI.         0                    : RESIST       - RESISTIVITY TYPE            
RM  .OHMM     3                    : RM           - RESISTIVITY OF MUD          
RMC .OHMM     3.7                  : RMC          - RESISTIVITY OF MUD CAKE     
RMF .OHMM     3.2                  : RMF          - RESISTIVITY OF MUD FILTRATE 
SUFT.C        0                    : SUFT         - SURFACE TEMPERATURE         
~A  DEPTH     PHID     PHIN       GR      CAL     RESD
# ...
  476.500    0.279    0.380   61.950  143.818    2.814
  476.750    0.284    0.374   63.927  143.847    2.823
  477.000    0.281    0.367   65.967  145.028    2.800
  477.250    0.269    0.360   69.464  148.743    2.788
  477.500    0.285    0.358   69.731  152.881    2.760
  477.750    0.301    0.363   68.480  152.800    2.773
  478.000    0.297    0.370   69.379  152.931    2.788
  478.250    0.277    0.381   71.989  153.058    2.807
  478.500    0.276    0.386   74.917  153.081    2.816
  478.750    0.276    0.390   77.399  153.211    2.830
  479.000    0.255    0.397   82.100  153.233    2.850
  479.250    0.247    0.390   82.432  151.571    2.881
  479.500    0.254    0.374   78.708  150.117    2.923
  479.750    0.263    0.385   76.506  149.503    2.955
  480.000    0.267    0.412   80.447  151.006    2.970
  480.250    0.251    0.396   82.233  152.612    3.008
  480.500    0.252    0.380   79.779  153.374    3.041
  480.750    0.245    0.362   78.652  153.713    3.085
  481.000    0.235    0.366   80.946  153.948    3.142
  481.250    0.222    0.393   87.545  153.870    3.200
  481.500    0.216    0.416   91.549  153.889    3.254
  481.750    0.221    0.412   89.093  154.334    3.283
  482.000    0.240    0.402   82.395  154.990    3.243
  482.250    0.262    0.385   73.860  155.224    2.998
  482.500    0.287    0.375   68.808  154.404    2.879
  482.750    0.295    0.372   66.289  152.316    2.801
  483.000    0.299    0.367   68.140  150.443    2.747
  483.250    0.302    0.376   66.825  150.992    2.683
  483.500    0.304    0.382   69.180  153.547    2.676
  483.750    0.293    0.362   69.765  149.454    2.726
  484.000    0.279    0.342   66.169  147.156    2.906
  484.250    0.260    0.349   67.009  150.664    3.152
  484.500    0.244    0.381   71.960  153.010    3.571
  484.750    0.213    0.364   74.000  153.348    4.203
  485.000    0.166    0.339   63.566  155.165    4.790
  485.250    0.116    0.317   53.574  157.721    5.244
  485.500    0.125    0.303   47.573  156.057    4.493
  485.750    0.168    0.322   45.941  153.336    3.798
  486.000    0.277    0.351   48.678  152.093    3.253
  486.250    0.312    0.354   52.554  151.799    2.940
  486.500    0.307    0.356   56.557  148.234    2.796
  486.750    0.308    0.360   59.990  144.880    2.736
  487.000    0.299    0.369   65.134  143.534    2.793
  487.250    0.279    0.388   69.835  143.240    2.860
  487.500    0.276    0.381   71.116  143.684    2.964
  487.750    0.298    0.375   68.089  144.656    3.013
  488.000    0.302    0.367   65.000  150.487    2.966
  488.250    0.304    0.360   63.812  153.886    2.859
  488.500    0.310    0.357   64.205  155.598    2.771
  488.750    0.318    0.390   61.243  155.833    2.687
  489.000    0.326    0.389   58.280  155.962    2.595
  489.250    0.334    0.373   56.142  155.668    2.496
  489.500    0.342    0.361   55.080  155.058    2.406
  489.750    0.349    0.360   53.700  154.766    2.319
  490.000    0.352    0.362   54.285  151.939    2.210
  490.250    0.350    0.362   53.477  146.895    2.154
  490.500    0.349    0.367   51.716  149.559    2.084
  490.750    0.350    0.374   50.400  152.746    2.024
  491.000    0.354    0.384   50.731  154.143    1.974
  491.250    0.353    0.382   50.301  154.274    1.950
  491.500    0.338    0.373   49.429  154.930    1.945
  491.750    0.325    0.370   50.267  155.164    1.944
  492.000    0.311    0.381   50.661  155.291    1.932
  492.250    0.327    0.381   48.584  155.631    1.931
  492.500    0.338    0.371   50.182  157.132    1.926
  492.750    0.330    0.356   52.411  158.104    1.936
  493.000    0.314    0.368   53.566  158.973    1.942
  493.250    0.318    0.372   54.150  160.053    1.944
  493.500    0.329    0.370   54.860  161.028    1.958
  493.750    0.334    0.366   53.987  161.261    1.960
  494.000    0.331    0.359   53.811  159.384    1.962
  494.250    0.326    0.353   55.599  158.245    1.961
  494.500    0.330    0.371   58.084  159.959    1.964
  494.750    0.336    0.388   59.236  162.196    1.974
  495.000    0.332    0.397   59.756  162.009    1.976
  495.250    0.318    0.386   55.908  160.978    1.979
  495.500    0.310    0.375   55.290  160.370    1.978
  495.750    0.316    0.379   57.329  160.499    1.987
  496.000    0.326    0.378   58.800  160.626    2.001
  496.250    0.332    0.377   60.397  160.545    2.027
  496.500    0.312    0.387   64.463  160.673    2.157
  496.750    0.261    0.399   70.240  161.539    2.397
  497.000    0.229    0.397   77.726  162.303    2.727
  497.250    0.191    0.387   84.832  162.958    3.102
  497.500    0.185    0.382   89.531  163.403    3.501
  497.750    0.199    0.384   92.333  163.427    3.740
  498.000    0.212    0.388   92.220  161.867    3.846
  498.250    0.249    0.396   89.701  159.464    3.850
  498.500    0.318    0.430   84.079  157.377    3.834
  498.750    0.337    0.456   77.950  155.395    3.788
  499.000    0.296    0.443   81.321  157.951    3.749
  499.250    0.254    0.427   85.389  161.351    3.683
  499.500    0.224    0.399   89.836  163.487    3.674
  499.750    0.213    0.375   93.331  164.036    3.686
  500.000    0.221    0.373   95.624  163.847    3.718
  500.250    0.223    0.375   96.525  163.558    3.737
  500.500    0.222    0.376   97.173  163.579    3.720
  500.750    0.216    0.376   97.376  163.708    3.655
  501.000    0.209    0.375   95.237  163.838    3.530
  501.250    0.223    0.370   89.742  163.016    3.402
  501.500    0.250    0.380   82.601  159.238    3.224
  501.750    0.274    0.390   77.614  155.253    3.066
  502.000    0.276    0.398   79.399  156.332    2.956
  502.250    0.278    0.401   80.553  156.776    2.887
  502.500    0.292    0.394   73.855  156.062    2.842
  502.750    0.299    0.384   71.905  155.134    2.808
  503.000    0.303    0.377   71.349  154.737    2.768
  503.250    0.307    0.378   70.224  154.763    2.730
  503.500    0.305    0.379   66.566  154.570    2.703
  503.750    0.290    0.374   62.083  154.280    2.701
  504.000    0.272    0.377   59.501  153.879    2.705
  504.250    0.260    0.389   61.035  153.906    2.709
  504.500    0.272    0.394   63.962  154.033    2.712
  504.750    0.272    0.386   66.192  154.583    2.720
  505.000    0.264    0.377   66.206  155.765    2.729
  505.250    0.266    0.368   60.774  157.479    2.742
  505.500    0.275    0.384   60.788  159.616    2.751
  505.750    0.283    0.399   61.752  160.800    2.744
  506.000    0.287    0.392   63.729  160.504    2.732
  506.250    0.281    0.378   65.326  158.629    2.720
  506.500    0.270    0.361   61.920  156.327    2.723
  506.750    0.265    0.350   60.669  154.139    2.742
  507.000    0.299    0.372   61.886  153.314    2.788
  507.250    0.311    0.380   64.559  153.129    2.850
  507.500    0.307    0.378   67.928  154.945    2.976
  507.750    0.295    0.375   69.146  155.815    3.119
  508.000    0.293    0.372   67.197  155.310    3.268
  508.250    0.295    0.376   66.706  154.276    3.439
  508.500    0.291    0.381   67.162  153.455    3.563
  508.750    0.285    0.375   69.329  152.633    3.692
  509.000    0.290    0.365   69.533  151.714    3.870
  509.250    0.282    0.352   66.444  151.733    4.070
  509.500    0.259    0.354   63.672  152.176    4.439
  509.750    0.232    0.352   61.596  153.676    4.982
  510.000    0.181    0.334   58.887  159.398    5.809
  510.250    0.146    0.301   56.115  162.695    6.995
  510.500    0.112    0.235   54.736  163.458    9.002
  510.750    0.079    0.183   57.030  163.690   12.198
  511.000    0.052    0.162   57.234  162.979   14.941
  511.250    0.032    0.146   54.335  162.474   17.619
  511.500    0.019    0.131   51.563  162.389   19.402
  511.750    0.018    0.128   50.059  161.991   20.219
  512.000    0.019    0.128   49.248  162.119   20.713
  512.250    0.017    0.118   48.440  162.566   20.776
  512.500    0.013    0.118   47.631  162.695   20.648
  512.750    0.008    0.119   47.518  162.507   20.789
