~VERSION INFORMATION
 VERS.                 2.0:   CWLS LOG ASCII STANDARD -VERSION 2.0
 WRAP.                  NO:   ONE LINE PER DEPTH STEP
~WELL INFORMATION BLOCK
#MNEM.UNIT           DATA                    DESCRIPTION OF MNEMONIC
#---------    -------------------            -------------------------------
# Generated from Intellog Unique Number	CS_67_68/WELL/813
WELL.         BURNT LAKE                     : Well_name    - WELL
LOC .         00/11-02-068-04W4/0            : Location     - LOCATION
UWI .         00/11-02-068-04W4/0            : Uwi          - UNIQUE WELL ID
ENTR.         SP                             : Entered      - ENTERED BY
SRVC.         SCHLUMBERGER                   : Scn          - SERVICE COMPANY
STRT.M        360                            : top_depth    - START DEPTH
STOP.M        580                            : bot_depth    - STOP DEPTH
STEP.M        0.25                           : increment    - STEP LENGTH
 NULL. -999.2500:NULL Value
~CURVE INFORMATION BLOCK
#MNEM UNIT       ERCB CURVE CODE    CURVE DESCRIPTION
#-----------   ------------------   ----------------------------------
DEPT.M        00 001 00 00         : DEPTH        - DEPTH
GR  .API      00 310 00 00         : GR           - GAMMA RAY
NPHI.V/V      00 330 00 00         : PHIN         - NEUTRON POROSITY (LIMESTONE)
DPHI.V/V      00 890 00 00         : PHID         - DENSITY POROSITY (LIMESTONE)
ILD .OHMM     00 120 00 00         : RESD         - DEEP RESISTIVITY (DIL)
~PARAMETER INFORMATION
#MNEM.UNIT           DATA             DESCRIPTION OF MNEMONIC
#---------         -----------     ------------------------------
GL  .M        705.39               : gl           - GROUND LEVEL ELEVATION
EREF.M        709.24               : kb           - ELEVATION OF DEPTH REFERENCE
DATM.M        705.39               : datum        - DATUM ELEVATION
TDD .M        582                  : tdd          - TOTAL DEPTH DRILLER
RUN .         ONE                  : Run          - RUN NUMBER
ENG .         BILL                 : Engineer     - RECORDING ENGINEER
WIT .         JIM                  : Witness      - WITNESSED BY
MUD .         GEL                  : Mud_type     - MUD TYPE
MATR.         LIMESTONE            : Logunit      - NEUTRON MATRIX
TMAX.C        20                   : BHT          - MAXIMUM RECORDED TEMPERATURE
BHTD.M        582                  : BHTDEP       - MAXIMUM RECORDED TEMPERATURE
MATR.         1                    : LOGUNIT      - NEUTRON MATRIX
RMT .C        25                   : MDTP         - TEMPERATURE OF MUD
NEUT.         1                    : NEUTRON      - NEUTRON TYPE
RESI.         0                    : RESIST       - RESISTIVITY TYPE
RMC .OHMM     0.25                 : RMC          - RESISTIVITY OF MUD CAKE
RMF .OHMM     0.25                 : RMF          - RESISTIVITY OF MUD FILTRATE
SUFT.C        15                   : SUFT         - SURFACE TEMPERATURE
~A  DEPTH       GR     PHIN     PHID     RESD
  360.000   91.645    0.407    0.073    4.970
  360.250   81.977    0.394    0.118    5.066
  360.500   94.243    0.399    0.184    5.175
  360.750  103.270    0.433    0.209    5.246
  361.000  110.588    0.445    0.195    5.308
  361.250  109.046    0.444    0.200    5.290
  361.500  101.699    0.450    0.206    5.215
  361.750  102.663    0.459    0.190    5.186
  362.000  107.902    0.461    0.198    5.160
  362.250  110.332    0.467    0.212    5.202
  362.500  107.629    0.479    0.203    5.203
  362.750  106.576    0.477    0.198    5.225
  363.000  106.740    0.457    0.206    5.267
  363.250  107.400    0.445    0.211    5.310
  363.500  109.038    0.439    0.209    5.353
  363.750  110.609    0.444    0.203    5.375
  364.000  110.107    0.473    0.198    5.141
  364.250  110.888    0.485    0.193    5.105
  364.500  112.767    0.486    0.189    5.106
  364.750  110.919    0.477    0.199    5.109
  365.000  109.622    0.476    0.213    5.111
  365.250  110.098    0.481    0.219    5.152
  365.500  108.372    0.484    0.209    5.213
  365.750  107.440    0.484    0.210    5.294
  366.000  109.993    0.476    0.214    5.378
  366.250  111.627    0.468    0.211    5.482
  366.500  110.024    0.453    0.204    5.557
  366.750  108.850    0.447    0.200    5.633
  367.000  107.853    0.448    0.203    5.743
  367.250  107.782    0.452    0.214    5.745
  367.500  108.683    0.454    0.209    5.631
  367.750  112.152    0.455    0.198    5.528
  368.000  114.826    0.442    0.201    5.458
  368.250  113.647    0.447    0.201    5.280
  368.500  112.292    0.470    0.198    5.262
  368.750  109.222    0.484    0.197    5.254
  369.000  110.797    0.467    0.198    5.316
  369.250  111.454    0.473    0.200    5.279
  369.500  108.504    0.492    0.206    5.222
  369.750  108.859    0.504    0.213    5.175
  370.000  112.691    0.487    0.216    5.129
  370.250  112.435    0.483    0.215    5.055
  370.500  110.038    0.472    0.212    5.029
  370.750  109.045    0.457    0.211    5.079
  371.000  107.075    0.474    0.212    5.119
  371.250   98.873    0.501    0.232    5.229
  371.500   99.227    0.516    0.263    5.320
  371.750   77.340    0.453    0.292    5.475
  372.000   57.284    0.433    0.315    5.592
  372.250   49.694    0.433    0.329    5.765
  372.500   63.183    0.440    0.310    5.989
  372.750   73.554    0.443    0.291    6.233
  373.000   81.176    0.436    0.278    6.511
  373.250   83.484    0.437    0.291    6.726
  373.500   81.695    0.443    0.291    6.935
  373.750   82.233    0.434    0.271    7.110
  374.000   84.294    0.429    0.254    7.207
  374.250   85.197    0.439    0.253    7.278
  374.500   83.411    0.453    0.261    7.364
  374.750   80.525    0.472    0.266    7.382
  375.000   82.588    0.486    0.270    7.330
  375.250   85.506    0.462    0.267    7.224
  375.500   88.668    0.456    0.251    7.119
  375.750   90.120    0.475    0.249    6.977
  376.000   91.510    0.481    0.280    6.824
  376.250   93.510    0.480    0.285    6.700
  376.500   95.025    0.464    0.305    6.529
  376.750   91.835    0.446    0.329    6.387
  377.000   82.167    0.427    0.358    6.306
  377.250   78.364    0.413    0.374    6.238
  377.500   79.817    0.416    0.372    6.194
  377.750   80.719    0.446    0.354    6.185
  378.000   80.398    0.443    0.342    6.153
  378.250   79.037    0.438    0.340    6.157
  378.500   77.436    0.445    0.348    6.159
  378.750   77.239    0.456    0.344    6.162
  379.000   85.716    0.438    0.323    6.176
  379.250   93.460    0.418    0.296    6.238
  379.500   99.557    0.413    0.271    6.335
  379.750   98.810    0.401    0.262    6.470
  380.000   75.639    0.389    0.275    6.609
  380.250   74.953    0.396    0.303    6.725
  380.500   82.759    0.400    0.315    6.804
  380.750   87.571    0.395    0.313    6.845
  381.000   83.767    0.433    0.318    6.836
  381.250   79.722    0.460    0.332    6.711
  381.500   79.951    0.443    0.338    6.627
  381.750   83.114    0.432    0.332    6.668
  382.000   85.054    0.441    0.319    6.746
  382.250   80.515    0.435    0.295    6.877
  382.500   77.875    0.474    0.229    7.144
  382.750   75.907    0.462    0.176    7.422
  383.000   74.181    0.332    0.123    7.723
  383.250   71.846    0.264    0.095    8.206
  383.500   73.482    0.240    0.156    8.573
  383.750   78.048    0.336    0.311    8.641
  384.000   81.334    0.381    0.331    8.516
  384.250   83.458    0.439    0.339    8.284
  384.500   81.488    0.448    0.340    8.087
  384.750   79.091    0.444    0.338    7.619
  385.000   80.848    0.448    0.333    7.396
  385.250   80.710    0.453    0.322    7.180
  385.500   79.598    0.444    0.316    6.958
  385.750   83.431    0.448    0.311    6.793
  386.000   88.975    0.462    0.307    6.720
  386.250   91.896    0.471    0.301    6.686
  386.500   86.809    0.477    0.299    6.701
  386.750   83.617    0.461    0.301    6.730
  387.000   84.215    0.442    0.301    6.783
  387.250   83.957    0.444    0.289    6.864
  387.500   80.520    0.465    0.291    6.919
  387.750   81.300    0.461    0.308    6.935
  388.000   85.745    0.442    0.301    6.924
  388.250   90.860    0.434    0.296    6.837
  388.500   93.596    0.436    0.286    6.650
  388.750   94.988    0.450    0.278    6.408
  389.000   95.157    0.461    0.287    6.244
  389.250   96.182    0.464    0.283    6.131
  389.500   99.160    0.475    0.273    6.088
  389.750  101.710    0.481    0.265    6.079
  390.000  104.080    0.467    0.266    6.116
  390.250  105.594    0.477    0.286    6.165
  390.500   97.269    0.490    0.293    6.238
  390.750   91.142    0.469    0.297    6.288
  391.000   88.688    0.450    0.298    6.386
  391.250   87.451    0.437    0.293    6.474
  391.500   91.346    0.426    0.304    6.625
  391.750   96.953    0.415    0.308    6.753
  392.000  102.558    0.410    0.299    6.910
  392.250  105.844    0.416    0.296    7.058
  392.500  102.041    0.415    0.292    7.155
  392.750  100.866    0.437    0.290    7.159
  393.000  100.788    0.439    0.286    7.135
  393.250  100.347    0.425    0.294    7.071
  393.500   98.807    0.453    0.311    6.982
  393.750   95.066    0.465    0.318    6.920
  394.000   92.057    0.449    0.310    6.618
  394.250   91.860    0.455    0.305    7.165
  394.500   90.624    0.477    0.299    8.300
  394.750   86.454    0.512    0.305    9.489
  395.000   79.414    0.504    0.329   10.647
  395.250   72.801    0.480    0.342   11.767
  395.500   75.777    0.461    0.362   12.644
  395.750   81.141    0.451    0.352   10.742
  396.000   86.746    0.461    0.336    9.092
  396.250   89.239    0.469    0.319    8.421
  396.500   90.630    0.468    0.304    7.903
  396.750   91.104    0.474    0.291    7.362
  397.000   91.088    0.481    0.277    7.174
  397.250   90.525    0.493    0.266    7.137
  397.500   85.683    0.505    0.304    7.345
  397.750   77.482    0.490    0.311    7.789
  398.000   69.281    0.488    0.301    8.136
  398.250   68.106    0.472    0.295    8.826
  398.500   66.563    0.450    0.322    9.324
  398.750   64.288    0.452    0.345    9.889
  399.000   65.982    0.474    0.355    9.874
  399.250   69.757    0.486    0.367    9.550
  399.500   72.066    0.497    0.384    9.202
  399.750   73.090    0.526    0.394    9.258
  400.000   69.715    0.547    0.407   10.042
  400.250   65.668    0.477    0.415   10.975
  400.500   60.766    0.448    0.403   12.039
  400.750   63.925    0.430    0.396   12.649
  401.000   66.112    0.418    0.388   12.654
  401.250   68.113    0.411    0.373   11.876
  401.500   68.892    0.421    0.353   10.338
  401.750   68.022    0.433    0.359    9.000
  402.000   66.849    0.439    0.374    8.181
  402.250   66.591    0.432    0.370    7.507
  402.500   71.584    0.428    0.360    7.220
  402.750   77.006    0.436    0.356    7.036
  403.000   78.828    0.445    0.359    6.961
  403.250   83.885    0.432    0.361    6.963
