~VERSION INFORMATION
 VERS.                 2.0:   CWLS LOG ASCII STANDARD -VERSION 2.0
 WRAP.                  NO:   ONE LINE PER DEPTH STEP
~WELL INFORMATION BLOCK
#MNEM.UNIT           DATA                    DESCRIPTION OF MNEMONIC
#---------    -------------------            -------------------------------
# Generated from Intellog Unique Number	CW_82_90/WELL/3454
WELL.         TEXACO CORN LAKE               : Well_name    - WELL
LOC .         00/11-24-088-25W4/0            : Location     - LOCATION
UWI .         00/11-24-088-25W4/0            : Uwi          - UNIQUE WELL ID
ENTR.         MAX                            : Entered      - ENTERED BY
SRVC.         SCHLUMBERGER                   : Scn          - SERVICE COMPANY
STRT.M        190                            : top_depth    - START DEPTH
STOP.M        422                            : bot_depth    - STOP DEPTH
STEP.M        0.25                           : increment    - STEP LENGTH
 NULL. -999.2500:NULL Value
~CURVE INFORMATION BLOCK
#MNEM UNIT       ERCB CURVE CODE    CURVE DESCRIPTION
#-----------   ------------------   ----------------------------------
DEPT.M        00 001 00 00         : DEPTH        - DEPTH
ILD .OHMM     00 120 00 00         : RESD         - DEEP RESISTIVITY (DIL)
NPHI.V/V      00 330 00 00         : PHIN         - NEUTRON POROSITY (SANDSTONE)
DPHI.V/V      00 890 00 00         : PHID         - DENSITY POROSITY (SANDSTONE)
CALI.MM       00 280 01 00         : CAL          - CALIPER
GR  .API      00 310 00 00         : GR           - GAMMA RAY
~PARAMETER INFORMATION
#MNEM.UNIT           DATA             DESCRIPTION OF MNEMONIC
#---------         -----------     ------------------------------
GL  .M        623.1                : gl           - GROUND LEVEL ELEVATION
EREF.M        626.7                : kb           - ELEVATION OF DEPTH REFERENCE
DATM.M        623.1                : datum        - DATUM ELEVATION
TDD .M        424.8                : tdd          - TOTAL DEPTH DRILLER
RUN .         ONE                  : Run          - RUN NUMBER
ENG .         BILL                 : Engineer     - RECORDING ENGINEER
WIT .         JIM                  : Witness      - WITNESSED BY
MUD .         GEL                  : Mud_type     - MUD TYPE
MATR.         SANDSTONE            : Logunit      - NEUTRON MATRIX
TMAX.C        31                   : BHT          - MAXIMUM RECORDED TEMPERATURE
BHTD.M        424.8                : BHTDEP       - MAXIMUM RECORDED TEMPERATURE
MATR.         1                    : LOGUNIT      - NEUTRON MATRIX
RMT .C        21                   : MDTP         - TEMPERATURE OF MUD
NEUT.         1                    : NEUTRON      - NEUTRON TYPE
RESI.         0                    : RESIST       - RESISTIVITY TYPE
RMC .OHMM     4.03                 : RMC          - RESISTIVITY OF MUD CAKE
RMF .OHMM     4.45                 : RMF          - RESISTIVITY OF MUD FILTRATE
SUFT.C        -15                  : SUFT         - SURFACE TEMPERATURE
~A  DEPTH     RESD     PHIN     PHID      CAL       GR
# ...
  336.000    3.297    0.533    0.263  232.406   74.018
  336.250    3.719    0.509    0.278  233.407   71.328
  336.500    4.195    0.492    0.287  233.910   66.244
  336.750    4.602    0.475    0.294  231.421   62.357
  337.000    4.911    0.458    0.302  225.442   59.667
  337.250    5.388    0.450    0.298  225.446   59.370
  337.500    5.540    0.449    0.288  226.447   61.467
  337.750    5.593    0.444    0.279  226.951   65.359
  338.000    5.341    0.448    0.269  227.453   68.055
  338.250    5.008    0.447    0.254  228.455   71.648
  338.500    4.739    0.444    0.244  229.955   74.642
  338.750    4.568    0.444    0.234  231.456   76.440
  339.000    4.527    0.449    0.235  232.457   76.742
  339.250    4.655    0.460    0.227  233.459   77.044
  339.500    5.107    0.472    0.200  232.466   75.850
  339.750    5.707    0.477    0.171  229.977   72.561
  340.000    6.742    0.472    0.131  230.480   65.981
  340.250    8.038    0.455    0.075  230.484   57.007
  340.500    9.763    0.438    0.053  230.987   54.018
  340.750    9.765    0.423    0.052  229.993   54.319
  341.000    9.500    0.399    0.050  229.499   58.510
  341.250    8.583    0.376    0.088  230.501   62.702
  341.500    7.202    0.345    0.117  227.513   67.192
  341.750    6.447    0.373    0.166  227.018   71.086
  342.000    6.045    0.413    0.195  228.021   72.285
  342.250    5.935    0.429    0.209  228.523   72.586
  342.500    5.882    0.424    0.208  229.026   72.888
  342.750    5.883    0.416    0.205  229.529   71.095
  343.000    5.885    0.423    0.205  230.032   70.200
  343.250    5.941    0.439    0.212  231.033   70.203
  343.500    5.997    0.453    0.223  232.035   70.804
  343.750    6.054    0.448    0.230  233.535   72.003
  344.000    6.112    0.456    0.233  229.550   72.604
  344.250    6.057    0.472    0.229  234.043   73.205
  344.500    5.892    0.450    0.226  236.042   72.011
  344.750    5.785    0.426    0.231  231.558   72.014
  345.000    5.525    0.424    0.242  233.557   72.315
  345.250    5.133    0.440    0.250  238.049   74.114
  345.500    4.947    0.461    0.253  242.043   75.013
  345.750    4.769    0.471    0.248  242.047   76.212
  346.000    4.726    0.477    0.235  240.556   76.215
  346.250    4.951    0.474    0.219  240.559   76.218
  346.500    5.283    0.469    0.223  244.055   74.126
  346.750    5.585    0.463    0.226  249.046   74.727
  347.000    5.851    0.455    0.220  249.051   75.029
  347.250    5.961    0.465    0.230  247.558   74.732
  347.500    6.187    0.457    0.245  248.560   74.435
  347.750    6.363    0.447    0.252  249.562   73.241
  348.000    7.045    0.443    0.244  252.558   70.251
  348.250    8.246    0.437    0.224  249.570   67.561
  348.500    9.741    0.436    0.207  240.099   65.469
  348.750   12.052    0.436    0.190  231.127   63.078
  349.000   14.106    0.433    0.195  229.635   59.490
  349.250   13.471    0.430    0.202  228.643   56.800
  349.500   11.200    0.424    0.219  228.148   59.196
  349.750    9.226    0.416    0.236  228.153   63.088
  350.000    7.813    0.424    0.252  228.156   66.980
  350.250    6.678    0.432    0.261  230.654   73.266
  350.500    6.146    0.427    0.261  237.640   76.261
  350.750    5.711    0.426    0.260  238.143   76.862
  351.000    6.206    0.422    0.259  237.649   74.172
  351.250    6.151    0.413    0.262  241.143   73.576
  351.500    6.096    0.417    0.259  238.156   72.980
  351.750    6.040    0.421    0.254  238.160   72.385
  352.000    5.932    0.422    0.244  238.165   71.489
  352.250    5.824    0.419    0.232  231.686   70.894
  352.500    5.771    0.416    0.219  226.703   70.297
  352.750    5.667    0.415    0.228  225.710   70.300
  353.000    5.513    0.432    0.235  225.714   69.704
  353.250    5.413    0.428    0.232  225.718   68.510
  353.500    5.316    0.418    0.220  225.224   69.410
  353.750    5.219    0.389    0.198  225.727   70.310
  354.000    5.220    0.401    0.201  226.230   68.219
  354.250    5.319    0.417    0.219  226.235   69.119
  354.500    5.520    0.433    0.233  226.239   68.224
  354.750    5.625    0.441    0.227  226.243   67.029
  355.000    5.784    0.447    0.230  226.247   67.331
  355.250    5.948    0.449    0.234  226.251   68.231
  355.500    6.173    0.444    0.240  225.258   68.832
  355.750    6.348    0.444    0.250  225.262   67.638
  356.000    6.650    0.446    0.259  225.267   68.838
  356.250    7.031    0.443    0.262  225.770   69.438
  356.500    7.365    0.426    0.258  225.774   67.646
  356.750    7.574    0.422    0.254  226.277   66.451
  357.000    7.369    0.411    0.249  230.769   65.855
  357.250    6.973    0.397    0.244  237.256   65.858
  357.500    6.358    0.406    0.238  248.730   66.459
  357.750    6.186    0.416    0.233  254.220   70.650
  358.000    6.130    0.426    0.232  240.261   72.448
  358.250    6.189    0.433    0.226  226.303   71.254
  358.500    6.305    0.438    0.221  227.305   68.863
  358.750    6.605    0.440    0.218  228.305   68.866
  359.000    6.856    0.438    0.220  236.787   70.663
  359.250    7.316    0.438    0.222  249.259   71.862
  359.500    7.663    0.439    0.224  273.699   72.165
  359.750    8.027    0.442    0.226  276.696   72.167
  360.000    8.179    0.443    0.226  250.768   72.468
  360.250    7.957    0.443    0.224  244.789   72.770
  360.500    7.741    0.438    0.221  252.272   75.765
  360.750    7.462    0.431    0.236  276.213   79.059
  361.000    7.192    0.434    0.250  274.223   82.652
  361.250    6.933    0.440    0.243  270.238   84.450
  361.500    6.745    0.443    0.248  260.268   86.248
  361.750    6.684    0.442    0.253  265.260   87.148
  362.000    6.686    0.440    0.248  266.261   87.151
  362.250    6.875    0.436    0.240  262.276   85.957
  362.500    7.070    0.433    0.233  264.275   85.061
  362.750    7.270    0.437    0.228  251.313   85.961
  363.000    7.340    0.425    0.233  243.837   86.562
  363.250    7.341    0.421    0.232  245.337   84.769
  363.500    7.343    0.409    0.225  238.360   83.576
  363.750    7.344    0.382    0.213  230.385   83.279
  364.000    7.415    0.367    0.216  229.392   82.683
  364.250    7.416    0.378    0.226  229.397   81.189
  364.500    7.486    0.396    0.215  229.900   79.097
  364.750    7.488    0.399    0.212  230.902   77.903
  365.000    7.490    0.400    0.216  231.404   77.606
  365.250    7.561    0.396    0.222  232.904   76.711
  365.500    7.633    0.384    0.222  234.904   75.517
  365.750    7.777    0.392    0.204  239.396   75.220
  366.000    7.851    0.410    0.207  242.891   76.719
  366.250    7.853    0.431    0.218  240.901   80.013
  366.500    8.001    0.433    0.232  250.380   81.212
  366.750    8.003    0.416    0.249  276.316   81.813
  367.000    7.931    0.388    0.250  267.344   82.713
  367.250    7.933    0.382    0.237  248.398   82.716
  367.500    7.862    0.390    0.221  234.439   82.120
  367.750    7.719    0.398    0.203  236.438   81.823
  368.000    6.910    0.407    0.209  240.930   82.125
  368.250    6.360    0.416    0.225  249.412   82.427
  368.500    6.018    0.427    0.244  243.432   83.626
  368.750    5.747    0.433    0.213  240.444   84.527
  369.000    5.965    0.426    0.229  243.441   84.230
  369.250    5.966    0.421    0.223  242.448   81.241
  369.500    5.913    0.416    0.232  241.454   80.644
  369.750    5.595    0.436    0.233  240.960   79.749
  370.000    5.245    0.463    0.278  247.448   79.154
  370.250    4.525    0.449    0.262  237.976   79.156
  370.500    3.832    0.449    0.242  227.010   80.954
  370.750    3.527    0.474    0.239  227.015   84.248
  371.000    3.463    0.496    0.243  227.018   87.542
  371.250    3.464    0.505    0.244  226.026   86.946
  371.500    3.629    0.471    0.237  225.032   83.657
  371.750    3.908    0.438    0.219  225.036   78.872
  372.000    4.327    0.424    0.232  232.022   74.387
  372.250    4.836    0.427    0.238  233.024   71.098
