~VERSION INFORMATION
 VERS.                 2.0:   CWLS LOG ASCII STANDARD -VERSION 2.0
 WRAP.                  NO:   ONE LINE PER DEPTH STEP
~WELL INFORMATION BLOCK
#MNEM.UNIT           DATA                    DESCRIPTION OF MNEMONIC
#---------    -------------------            -------------------------------
# Generated from Intellog Unique Number	CW_70_72/WELL/1038
NULL.         -999.25                        : NULL_VALUE
WELL.         LANDBANK ET AL SPURFIELD 10-15 : Well_name    - WELL              
LOC .         10-15-072-02W5                 : Location     - LOCATION          
UWI .         00/10-15-072-02W5/0            : Uwi          - UNIQUE WELL ID    
ENTR.         JAYE                           : Entered      - ENTERED BY        
SRVC.         SCHLUMBERGER                   : Scn          - SERVICE COMPANY   
DATE.         6 MAR 83                       : Date         - LOG DATE          
STRT.M        375                            : top_depth    - START DEPTH       
STOP.M        590                            : bot_depth    - STOP DEPTH        
STEP.M        0.25                           : increment    - STEP LENGTH       
~CURVE INFORMATION BLOCK
#MNEM UNIT       ERCB CURVE CODE    CURVE DESCRIPTION
#-----------   ------------------   ----------------------------------
DEPT.M        00 001 00 00         : DEPTH        - DEPTH                       
DPHI.V/V      00 890 00 00         : PHID         - DENSITY POROSITY (SANDSTONE)
NPHI.V/V      00 330 00 00         : PHIN         - NEUTRON POROSITY (SANDSTONE)
GR  .API      00 310 00 00         : GR           - GAMMA RAY                   
CALI.MM       00 280 01 00         : CAL          - CALIPER                     
ILD .OHMM     00 120 00 00         : RESD         - DEEP RESISTIVITY (DIL)      
~PARAMETER INFORMATION       
#MNEM.UNIT           DATA             DESCRIPTION OF MNEMONIC
#---------         -----------     ------------------------------
GL  .M        589.3                : gl           - GROUND LEVEL ELEVATION      
EREF.M        593                  : kb           - ELEVATION OF DEPTH REFERENCE
DATM.M        589.3                : datum        - DATUM ELEVATION             
TDD .M        622                  : tdd          - TOTAL DEPTH DRILLER         
RUN .         ONE                  : Run          - RUN NUMBER                  
ENG .         DUNLOP               : Engineer     - RECORDING ENGINEER          
WIT .         SMITH                : Witness      - WITNESSED BY                
BASE.         EDM                  : Branch       - HOME BASE OF LOGGING UNIT   
MUD .         CHEM GEL             : Mud_type     - MUD TYPE                    
MATR.         SANDSTONE            : Logunit      - NEUTRON MATRIX              
TMAX.C        35.6                 : BHT          - MAXIMUM RECORDED TEMPERATURE
BHTD.M        622.2                : BHTDEP       - MAXIMUM RECORDED TEMPERATURE
RMT .C        21.1                 : MDTP         - TEMPERATURE OF MUD          
MUDD.KG/M     1140                 : MWT          - MUD DENSITY                 
NEUT.         1                    : NEUTRON      - NEUTRON TYPE                
RESI.         0                    : RESIST       - RESISTIVITY TYPE            
RM  .OHMM     5.6                  : RM           - RESISTIVITY OF MUD          
RMC .OHMM     0                    : RMC          - RESISTIVITY OF MUD CAKE     
RMF .OHMM     6.48                 : RMF          - RESISTIVITY OF MUD FILTRATE 
SUFT.C        32                   : SUFT         - SURFACE TEMPERATURE         
~A  DEPTH     PHID     PHIN       GR      CAL     RESD
  375.000    0.178    0.467  110.393  189.741    2.336
  375.250    0.171    0.481  112.125  190.638    2.267
  375.500    0.166    0.478  111.411  192.475    2.180
  375.750    0.167    0.487  110.761  193.379    2.189
  376.000    0.173    0.502  111.176  191.252    2.281
  376.250    0.182    0.488  110.900  187.865    2.381
  376.500    0.192    0.469  111.064  185.634    2.399
  376.750    0.186    0.496  110.414  186.742    2.381
  377.000    0.191    0.515  106.377  188.687    2.351
  377.250    0.194    0.499  107.546  190.527    2.282
  377.500    0.187    0.499  109.402  191.423    2.278
  377.750    0.179    0.495  111.006  190.653    2.334
  378.000    0.172    0.469  112.234  189.151    2.418
  378.250    0.169    0.468  105.947  189.950    2.534
  378.500    0.168    0.489   94.457  187.299    2.710
  378.750    0.182    0.447   67.367  183.082    2.958
  379.000    0.155    0.331   56.630  175.836    3.309
  379.250    0.188    0.314   57.607  167.545    3.626
  379.500    0.237    0.349   67.106  163.645    4.101
  379.750    0.237    0.354   77.045  166.110    4.257
  380.000    0.231    0.367   85.290  170.136    4.321
  380.250    0.214    0.409   86.644  172.087    4.226
  380.500    0.186    0.437   89.252  174.447    4.042
  380.750    0.193    0.442   92.800  176.705    3.724
  381.000    0.197    0.451   92.648  181.989    3.367
  381.250    0.224    0.489   93.315  186.546    2.795
  381.500    0.269    0.558   92.289  190.161    2.523
  381.750    0.307    0.454   86.375  181.870    2.141
  382.000    0.307    0.402   78.394  169.406    1.991
  382.250    0.291    0.367   72.856  161.324    2.260
  382.500    0.276    0.361   71.204  160.343    2.590
  382.750    0.269    0.357   70.991  159.991    3.013
  383.000    0.265    0.363   71.469  160.473    3.414
  383.250    0.271    0.370   73.324  160.641    3.833
  383.500    0.269    0.377   74.616  160.911    4.130
  383.750    0.224    0.387   70.959  160.559    4.500
  384.000    0.202    0.376   65.796  160.723    4.795
  384.250    0.277    0.336   60.949  161.309    5.100
  384.500    0.313    0.319   53.655  161.796    5.444
  384.750    0.298    0.321   50.500  162.381    5.823
  385.000    0.309    0.325   51.790  162.657    6.158
  385.250    0.321    0.333   51.141  163.245    6.477
  385.500    0.316    0.348   53.120  164.352    6.761
  385.750    0.299    0.366   55.667  164.941    6.953
  386.000    0.255    0.385   61.593  164.690    6.877
  386.250    0.218    0.387   67.272  164.755    6.626
  386.500    0.193    0.416   85.167  166.384    6.196
  386.750    0.177    0.435   96.044  168.537    5.773
  387.000    0.181    0.435  104.667  172.986    5.368
  387.250    0.206    0.460  103.702  176.917    4.846
  387.500    0.191    0.443  103.240  177.920    4.448
  387.750    0.173    0.436  107.915  177.882    3.963
  388.000    0.192    0.419  111.021  181.705    3.603
  388.250    0.199    0.400  108.682  180.828    3.320
  388.500    0.188    0.384  107.217  175.149    3.122
  388.750    0.195    0.373  101.114  174.171    3.187
  389.000    0.203    0.378   92.696  174.442    3.364
  389.250    0.176    0.392   95.302  176.901    3.619
  389.500    0.175    0.415   99.602  178.017    3.885
  389.750    0.192    0.431  102.710  177.456    4.055
  390.000    0.199    0.425  103.250  176.370    4.186
  390.250    0.212    0.439  101.974  175.078    4.194
  390.500    0.218    0.460  103.390  171.382    4.110
  390.750    0.202    0.464  104.431  169.256    3.952
  391.000    0.178    0.444  102.340  168.063    3.843
  391.250    0.200    0.428   96.427  167.603    3.676
  391.500    0.224    0.426   87.881  167.567    3.528
  391.750    0.253    0.412   81.279  168.150    3.568
  392.000    0.270    0.374   87.520  168.529    3.746
  392.250    0.211    0.388   95.077  169.430    3.954
  392.500    0.184    0.424  100.379  170.124    4.301
  392.750    0.199    0.409   88.263  171.126    4.730
  393.000    0.210    0.385   82.537  173.279    4.966
  393.250    0.218    0.375   83.703  173.968    4.957
  393.500    0.209    0.367   88.566  174.454    4.920
  393.750    0.181    0.358  100.257  176.083    4.857
  394.000    0.157    0.426  111.888  178.445    4.777
  394.250    0.151    0.456  119.696  189.789    4.619
  394.500    0.159    0.488  119.921  195.074    4.426
  394.750    0.171    0.500  109.434  183.652    4.124
  395.000    0.221    0.450  103.771  175.149    3.785
  395.250    0.220    0.383  102.934  171.038    3.423
  395.500    0.192    0.326   97.897  168.388    3.113
  395.750    0.241    0.271   83.025  165.739    2.836
  396.000    0.300    0.215   67.838  164.861    2.944
  396.250    0.335    0.187   59.105  164.301    3.476
  396.500    0.365    0.163   50.185  163.947    3.960
  396.750    0.387    0.165   43.143  163.382    4.954
  397.000    0.381    0.203   48.006  163.129    6.278
  397.250    0.328    0.253   54.623  163.200    8.717
  397.500    0.295    0.313   61.053  163.162   11.403
  397.750    0.264    0.351   60.088  163.118   12.921
  398.000    0.269    0.354   60.127  163.187   12.357
  398.250    0.268    0.333   68.624  163.980    9.274
  398.500    0.254    0.316   76.743  166.025    6.882
  398.750    0.232    0.322   84.677  167.342    5.321
  399.000    0.216    0.344   89.791  167.933    4.009
  399.250    0.220    0.359   88.452  168.512    3.296
  399.500    0.234    0.367   83.854  168.793    3.111
  399.750    0.237    0.367   82.827  168.542    3.194
  400.000    0.214    0.358   89.382  168.505    3.334
  400.250    0.195    0.376  100.699  169.509    3.461
  400.500    0.198    0.394  108.819  172.389    3.553
  400.750    0.202    0.409  113.368  177.260    3.587
  401.000    0.192    0.362  109.962  180.561    3.621
  401.250    0.169    0.332  107.116  181.879    3.662
  401.500    0.193    0.388  106.091  183.196    3.808
  401.750    0.224    0.481  106.442  188.898    3.968
  402.000    0.186    0.497  109.114  195.018    4.073
  402.250    0.171    0.488  113.350  202.394    4.074
  402.500    0.240    0.481  117.023  212.063    3.940
  402.750    0.275    0.502  116.685  213.486    3.490
  403.000    0.287    0.462  116.787  200.082    2.806
  403.250    0.261    0.431  113.504  183.960    2.382
  403.500    0.227    0.461   98.444  175.984    2.106
  403.750    0.267    0.443   80.000  170.097    2.003
  404.000    0.292    0.417   65.815  164.417    2.091
  404.250    0.268    0.399   60.152  163.332    2.283
  404.500    0.221    0.384   67.772  167.364    2.501
  404.750    0.198    0.400   78.212  171.813    2.756
  405.000    0.236    0.435   83.325  171.776    2.861
  405.250    0.260    0.440   78.726  166.096    2.932
  405.500    0.265    0.423   77.198  166.890    3.021
  405.750    0.255    0.404   74.668  168.311    3.021
  406.000    0.243    0.383   76.587  168.272    3.027
  406.250    0.235    0.396   82.015  168.233    3.044
  406.500    0.247    0.413   88.256  167.776    3.102
  406.750    0.243    0.425   84.721  166.378    3.202
  407.000    0.239    0.435   82.381  166.024    3.250
  407.250    0.244    0.439   80.412  165.457    3.287
  407.500    0.246    0.429   79.513  165.416    3.368
  407.750    0.242    0.410   82.872  165.483    3.400
  408.000    0.232    0.408   88.048  165.968    3.407
  408.250    0.218    0.413   95.480  166.973    3.357
  408.500    0.203    0.422  102.161  168.914    3.332
  408.750    0.221    0.432   97.499  168.557    3.332
  409.000    0.238    0.440   91.523  167.375    3.296
  409.250    0.246    0.444   88.864  165.033    3.277
  409.500    0.254    0.440   86.150  164.161    3.247
  409.750    0.266    0.432   81.427  163.596    3.212
  410.000    0.279    0.424   75.201  163.034    3.254
  410.250    0.286    0.414   69.286  162.368    3.322
  410.500    0.285    0.404   68.572  161.494    3.429
  410.750    0.282    0.387   66.794  161.142    3.586
  411.000    0.286    0.376   62.448  161.102    3.744
  411.250    0.284    0.373   61.545  160.954    3.879
