~VERSION INFORMATION
 VERS.                 2.0:   CWLS LOG ASCII STANDARD -VERSION 2.0
 WRAP.                  NO:   ONE LINE PER DEPTH STEP
~WELL INFORMATION BLOCK
#MNEM.UNIT           DATA                    DESCRIPTION OF MNEMONIC
#---------    -------------------            -------------------------------
# Generated from Intellog Unique Number	CW_76_78/WELL/927
WELL.         10-31-077-03W5                 : Well_name    - WELL
LOC .         00/10-31-077-03W5/0            : Location     - LOCATION
UWI .         00/10-31-077-03W5/0            : Uwi          - UNIQUE WELL ID
ENTR.         JAYE                           : Entered      - ENTERED BY
SRVC.         SCHLUMBERGER                   : Scn          - SERVICE COMPANY
DATE.         7 DEC 73                       : Date         - LOG DATE
STRT.M        362.712                        : top_depth    - START DEPTH
STOP.M        641.962                        : bot_depth    - STOP DEPTH
STEP.M        0.25                           : increment    - STEP LENGTH
 NULL. -999.2500:NULL Value
~CURVE INFORMATION BLOCK
#MNEM UNIT       ERCB CURVE CODE    CURVE DESCRIPTION
#-----------   ------------------   ----------------------------------
DEPT.M        00 001 00 00         : DEPTH        - DEPTH
GR  .API      00 310 00 00         : GR           - GAMMA RAY
CALI.MM       00 280 01 00         : CAL          - CALIPER
DPHI.V/V      00 890 00 00         : PHID         - DENSITY POROSITY (SANDSTONE)
NPHI.V/V      00 330 00 00         : PHIN         - NEUTRON POROSITY (SANDSTONE)
ILD .OHMM     00 120 00 00         : RESD         - DEEP RESISTIVITY (DLL)
~PARAMETER INFORMATION
#MNEM.UNIT           DATA             DESCRIPTION OF MNEMONIC
#---------         -----------     ------------------------------
GL  .M        680.923              : gl           - GROUND LEVEL ELEVATION
EREF.M        683.971              : kb           - ELEVATION OF DEPTH REFERENCE
DATM.M        680.923              : datum        - DATUM ELEVATION
TDD .M        649.529              : tdd          - TOTAL DEPTH DRILLER
RUN .         ONE                  : Run          - RUN NUMBER
MATR.         SANDSTONE            : Logunit      - NEUTRON MATRIX
TMAX.C        35                   : BHT          - MAXIMUM RECORDED TEMPERATURE
BHTD.M        649.529              : BHTDEP       - MAXIMUM RECORDED TEMPERATURE
RMT .C        -3.88889             : MDTP         - TEMPERATURE OF MUD
MUDD.KG/M     0                    : MWT          - MUD DENSITY
NEUT.         0                    : NEUTRON      - NEUTRON TYPE
RESI.         1                    : RESIST       - RESISTIVITY TYPE
RM  .OHMM     1.65                 : RM           - RESISTIVITY OF MUD
RMC .OHMM     0.25                 : RMC          - RESISTIVITY OF MUD CAKE
RMF .OHMM     7.25                 : RMF          - RESISTIVITY OF MUD FILTRATE
SUFT.C        4.5                  : SUFT         - SURFACE TEMPERATURE
~A  DEPTH       GR      CAL     PHID     PHIN     RESD
# ...
  399.212   48.962  163.681    0.232    0.191   16.097
  399.462   53.663  163.398    0.257    0.286   15.058
  399.712   56.640  162.912    0.283    0.347   14.164
  399.962   57.459  162.838    0.310    0.442   13.842
  400.212   56.430  163.183    0.299    0.440   13.877
  400.462   55.708  163.519    0.302    0.458   14.218
  400.712   55.542  164.175    0.302    0.478   15.666
  400.962   55.190  164.831    0.290    0.484   17.419
  401.212   53.851  167.055    0.237    0.482   20.832
  401.462   49.863  169.066    0.144    0.406   26.743
  401.712   46.368  170.143    0.046    0.239   28.159
  401.962   45.461  170.485    0.020    0.179   26.678
  402.212   46.959  169.054    0.008    0.162   25.318
  402.462   45.682  167.728    0.002    0.153   24.342
  402.712   43.421  167.655    0.044    0.161   23.363
  402.962   44.241  168.103    0.095    0.194   22.577
  403.212   44.998  168.656    0.226    0.243   22.268
  403.462   44.521  167.224    0.309    0.322   21.798
  403.712   46.819  165.375    0.305    0.331   21.305
  403.962   47.270  164.570    0.290    0.351   20.708
  404.212   47.164  164.399    0.290    0.378   20.090
  404.462   47.428  164.213    0.303    0.409   20.140
  404.712   48.494  164.141    0.316    0.444   20.040
  404.962   47.958  164.278    0.304    0.470   19.944
  405.212   48.283  164.512    0.276    0.440   19.811
  405.462   50.520  165.169    0.244    0.415   19.468
  405.712   49.860  166.139    0.170    0.385   18.579
  405.962   50.063  167.111    0.132    0.347   17.411
  406.212   50.514  169.229    0.096    0.291   16.771
  406.462   49.852  169.779    0.137    0.329   16.094
  406.712   48.391  167.306    0.274    0.437   15.137
  406.962   48.778  163.370    0.292    0.462   13.931
  407.212   49.598  160.273    0.295    0.467   13.150
  407.462   50.541  158.838    0.306    0.464   12.781
  407.712   52.347  158.348    0.312    0.455   12.605
  407.962   52.364  158.066    0.301    0.486   12.521
  408.212   51.272  157.683    0.293    0.492   12.575
  408.462   53.139  157.498    0.291    0.481   12.652
  408.712   55.438  157.220    0.286    0.465   12.730
  408.962   54.840  157.039    0.284    0.447   12.689
  409.212   54.610  156.760    0.279    0.444   12.583
  409.462   56.168  156.578    0.281    0.447   12.320
  409.712   57.112  157.025    0.281    0.460   11.995
  409.962   57.253  157.998    0.297    0.487   11.596
  410.212   55.421  159.277    0.316    0.479   11.167
  410.462   54.945  160.562    0.319    0.475   10.873
  410.712   56.875  160.904    0.326    0.481   10.646
  410.962   56.893  160.933    0.331    0.480   10.479
  411.212   57.219  160.450    0.320    0.479   10.351
  411.462   58.962  160.477    0.306    0.470   10.358
  411.712   60.091  160.713    0.297    0.471   10.404
  411.962   59.429  160.953    0.300    0.468   10.430
  412.212   59.140  161.296    0.296    0.461   10.492
  412.462   60.142  161.743    0.285    0.452   10.595
  412.712   58.250  161.563    0.267    0.438   10.836
  412.962   49.825  161.280    0.243    0.346   11.100
  413.212   42.386  161.105    0.216    0.373   11.149
  413.462   43.945  161.239    0.221    0.391   11.115
  413.712   41.191  161.271    0.266    0.393   10.843
  413.962   37.695  161.197    0.255    0.367   10.328
  414.212   39.131  160.917    0.264    0.356   10.002
  414.462   39.641  160.734    0.323    0.406    9.669
  414.712   40.030  160.768    0.329    0.443    9.347
  414.962   41.590  161.314    0.323    0.442    9.034
  415.212   42.961  161.345    0.315    0.438    8.749
  415.462   45.382  161.479    0.323    0.444    8.425
  415.712   43.430  162.035    0.331    0.439    8.218
  415.962   43.015  162.587    0.337    0.448    8.105
  416.212   43.464  163.346    0.341    0.469    8.125
  416.462   43.729  163.688    0.338    0.472    8.249
  416.712   43.500  163.718    0.326    0.460    8.407
  416.962   42.101  163.331    0.315    0.447    8.998
  417.212   40.208  163.467    0.304    0.427   10.799
  417.462   37.884  163.184    0.275    0.380   12.914
  417.712   35.252  163.528    0.244    0.331   15.028
  417.962   33.052  167.525    0.179    0.297   17.647
  418.212   31.653  169.118    0.176    0.266   19.552
  418.462   31.671  169.462    0.178    0.247   18.257
  418.712   31.751  167.405    0.190    0.257   15.967
  418.962   32.386  164.829    0.212    0.284   13.965
  419.212   33.142  162.985    0.181    0.293   12.347
  419.462   35.377  161.971    0.215    0.306   11.200
  419.712   39.154  160.639    0.255    0.383    9.994
  419.962   42.317  158.897    0.280    0.413    8.966
  420.212   44.368  158.828    0.309    0.451    8.650
  420.462   45.742  159.270    0.321    0.471    8.672
  420.712   46.623  160.138    0.320    0.448    8.851
  420.962   46.641  160.899    0.319    0.421    8.972
  421.212   47.337  160.613    0.317    0.406    9.141
  421.462   47.910  160.019    0.316    0.403    9.165
  421.712   48.111  159.422    0.314    0.408    9.071
  421.962   47.821  159.035    0.317    0.406    9.058
  422.212   48.948  158.963    0.319    0.409    9.097
  422.462   51.123  159.202    0.312    0.429    9.204
  422.712   51.697  159.439    0.304    0.462    9.708
  422.962   50.974  159.576    0.294    0.462   10.241
  423.212   50.191  160.229    0.266    0.432   10.901
  423.462   49.223  161.619    0.236    0.408   11.108
  423.712   48.256  162.377    0.174    0.325   10.914
  423.962   47.720  162.306    0.138    0.240   10.705
  424.212   49.091  161.292    0.128    0.261   10.291
  424.462   52.932  159.861    0.158    0.348   10.039
  424.712   51.963  158.742    0.299    0.446    9.936
  424.962   50.008  158.462    0.292    0.476   10.106
  425.212   45.897  158.914    0.285    0.472   10.738
  425.462   41.972  159.672    0.289    0.452   12.224
  425.712   38.292  161.265    0.255    0.373   14.252
  425.962   34.734  162.551    0.217    0.291   16.952
  426.212   28.898  162.473    0.188    0.259   18.987
  426.462   26.204  161.459    0.192    0.257   17.827
  426.712   25.852  159.824    0.198    0.265   16.375
  426.962   26.611  159.329    0.201    0.287   14.639
  427.212   28.046  159.780    0.214    0.304   12.755
  427.462   30.960  160.541    0.226    0.317   11.117
  427.712   36.216  161.403    0.242    0.349   10.139
  427.962   42.951  162.268    0.265    0.385    9.675
  428.212   47.406  162.613    0.291    0.426    9.681
  428.462   49.831  162.645    0.287    0.423    9.741
  428.712   50.401  162.571    0.282    0.424   10.106
  428.962   41.545  162.499    0.274    0.405   10.661
  429.212   35.955  162.524    0.253    0.385   11.452
  429.462   32.028  162.452    0.243    0.365   12.346
  429.712   30.197  162.272    0.251    0.353   12.468
  429.962   29.723  161.781    0.255    0.337   12.184
  430.212   30.480  161.292    0.241    0.324   11.798
  430.462   32.469  161.319    0.226    0.347   11.342
  430.712   35.939  161.250    0.239    0.362   10.610
  430.962   39.654  161.487    0.275    0.376    9.945
  431.212   43.186  162.141    0.313    0.393    9.302
  431.462   44.928  162.797    0.327    0.416    8.944
  431.712   45.256  162.936    0.324    0.424    8.933
  431.962   46.012  162.858    0.321    0.421    8.923
  432.212   47.940  162.682    0.306    0.419    8.783
  432.462   48.204  162.295    0.315    0.423    8.583
  432.712   47.051  162.017    0.334    0.428    8.450
  432.962   46.022  161.835    0.322    0.433    8.348
  433.212   46.163  162.076    0.315    0.439    8.231
  433.462   45.811  162.417    0.332    0.446    8.206
  433.712   45.090  162.758    0.335    0.452    8.226
  433.962   44.739  162.998    0.335    0.453    8.202
  434.212   45.004  163.131    0.323    0.452    8.133
  434.462   44.097  163.060    0.317    0.456    8.226
  434.712   43.560  162.885    0.308    0.470    8.337
  434.962   43.947  162.701    0.316    0.479    8.389
  435.212   44.150  162.314    0.317    0.450    8.440
  435.462   43.923  161.927    0.325    0.461    8.492
