~VERSION INFORMATION
 VERS.                 2.0:   CWLS LOG ASCII STANDARD -VERSION 2.0
 WRAP.                  NO:   ONE LINE PER DEPTH STEP
~WELL INFORMATION BLOCK
#MNEM.UNIT           DATA                    DESCRIPTION OF MNEMONIC
#---------    -------------------            -------------------------------
# Generated from Intellog Unique Number	CW_79_81/WELL/2476
WELL.         10-32-080-20W4                 : Well_name    - WELL
LOC .         00/10-32-080-20W4/0            : Location     - LOCATION
UWI .         00/10-32-080-20W4/0            : Uwi          - UNIQUE WELL ID
ENTR.         MAX                            : Entered      - ENTERED BY
SRVC.         SCHLUMBERGER                   : Scn          - SERVICE COMPANY
STRT.M        149.602                        : top_depth    - START DEPTH
STOP.M        396.102                        : bot_depth    - STOP DEPTH
STEP.M        0.25                           : increment    - STEP LENGTH
 NULL. -999.2500:NULL Value
~CURVE INFORMATION BLOCK
#MNEM UNIT       ERCB CURVE CODE    CURVE DESCRIPTION
#-----------   ------------------   ----------------------------------
DEPT.M        00 001 00 00         : DEPTH        - DEPTH
ILD .OHMM     00 120 00 00         : RESD         - DEEP RESISTIVITY (DIL)
NPHI.V/V      00 330 00 00         : PHIN         - NEUTRON POROSITY (SANDSTONE)
DPHI.V/V      00 890 00 00         : PHID         - DENSITY POROSITY (SANDSTONE)
GR  .API      00 310 00 00         : GR           - GAMMA RAY
CALI.MM       00 280 01 00         : CAL          - CALIPER
~PARAMETER INFORMATION
#MNEM.UNIT           DATA             DESCRIPTION OF MNEMONIC
#---------         -----------     ------------------------------
GL  .M        578.815              : gl           - GROUND LEVEL ELEVATION
EREF.M        581.254              : kb           - ELEVATION OF DEPTH REFERENCE
DATM.M        578.815              : datum        - DATUM ELEVATION
TDD .M        403.25               : tdd          - TOTAL DEPTH DRILLER
RUN .         ONE                  : Run          - RUN NUMBER
ENG .         BILL                 : Engineer     - RECORDING ENGINEER
WIT .         JIM                  : Witness      - WITNESSED BY
MUD .         GEL                  : Mud_type     - MUD TYPE
MATR.         SANDSTONE            : Logunit      - NEUTRON MATRIX
TMAX.C        21.1111              : BHT          - MAXIMUM RECORDED TEMPERATURE
BHTD.M        403.25               : BHTDEP       - MAXIMUM RECORDED TEMPERATURE
MATR.         1                    : LOGUNIT      - NEUTRON MATRIX
RMT .C        13.3333              : MDTP         - TEMPERATURE OF MUD
NEUT.         1                    : NEUTRON      - NEUTRON TYPE
RESI.         0                    : RESIST       - RESISTIVITY TYPE
RMC .OHMM     8                    : RMC          - RESISTIVITY OF MUD CAKE
RMF .OHMM     4.46                 : RMF          - RESISTIVITY OF MUD FILTRATE
SUFT.C        -20.5556             : SUFT         - SURFACE TEMPERATURE
~A  DEPTH     RESD     PHIN     PHID       GR      CAL
# ...
  295.602    7.694    0.531    0.255   87.852  157.171
  295.852    7.580    0.509    0.251   90.970  153.366
  296.102    7.434    0.501    0.245   94.096  151.236
  296.352    7.265    0.513    0.247   96.792  156.632
  296.602    7.368    0.520    0.242   95.842  155.823
  296.852    7.553    0.523    0.240   95.776  158.008
  297.102    7.690    0.527    0.244   93.766  160.393
  297.352    7.687    0.526    0.252   91.164  160.581
  297.602    7.495    0.506    0.253   94.202  155.826
  297.852    7.381    0.499    0.257   97.634  152.070
  298.102    7.539    0.494    0.256   97.627  155.253
  298.352    7.744    0.494    0.244   96.912  156.939
  298.602    7.940    0.491    0.233   95.372  157.328
  298.852    8.082    0.487    0.224   93.656  157.616
  299.102    8.138    0.491    0.211   93.472  160.412
  299.352    8.134    0.493    0.202   94.940  162.479
  299.602    8.131    0.499    0.201   95.640  160.474
  299.852    8.084    0.495    0.218   94.749  155.771
  300.102    8.022    0.491    0.229   94.270  155.159
  300.352    7.932    0.494    0.231   94.675  159.440
  300.602    7.747    0.502    0.235   95.150  163.336
  300.852    7.686    0.516    0.224   96.371  162.906
  301.102    7.738    0.507    0.224   93.534  165.691
  301.352    8.003    0.502    0.230   92.112  166.679
  301.602    8.444    0.500    0.239   90.573  163.675
  301.852    9.027    0.501    0.247   88.444  157.276
  302.102    9.850    0.497    0.257   85.725  150.372
  302.352   10.624    0.491    0.265   82.769  147.862
  302.602   11.575    0.478    0.264   81.348  149.848
  302.852   12.682    0.471    0.260   78.336  150.038
  303.102   14.023    0.461    0.249   75.382  151.623
  303.352   15.691    0.441    0.224   73.665  154.705
  303.602   18.256    0.404    0.170   74.285  155.293
  303.852   21.104    0.401    0.134   76.243  150.289
  304.102   21.097    0.424    0.185   76.944  147.481
  304.352   20.405    0.436    0.236   77.821  149.765
  304.602   18.719    0.444    0.263   78.994  152.350
  304.852   16.523    0.451    0.262   80.460  153.537
  305.102   14.254    0.452    0.249   82.445  154.972
  305.352   13.024    0.456    0.241   84.159  156.208
  305.602   12.832    0.465    0.231   83.209  157.794
  305.852   12.709    0.473    0.226   80.492  153.690
  306.102   12.612    0.480    0.221   78.952  149.685
  306.352   12.449    0.483    0.218   80.770  149.473
  306.602   11.882    0.477    0.220   88.447  154.900
  306.852   10.938    0.478    0.201   93.844  156.136
  307.102   10.313    0.484    0.224   95.960  156.923
  307.352   10.055    0.497    0.226   95.600  158.309
  307.602    9.979    0.507    0.227   94.415  157.100
  307.852    9.975    0.508    0.235   93.464  153.396
  308.102    9.985    0.494    0.235   93.564  151.335
  308.352   10.057    0.484    0.221   95.275  155.064
  308.602    9.694    0.487    0.217   95.505  156.252
  308.852    9.345    0.487    0.218   96.972  157.439
  309.102    9.142    0.489    0.209   98.969  160.024
  309.352    9.122    0.493    0.193  100.967  164.005
  309.602    9.293    0.494    0.193  102.218  167.154
  309.852    9.503    0.494    0.195  100.245  162.982
  310.102    9.430    0.501    0.183  101.418  156.582
  310.352    9.359    0.497    0.182   99.053  156.469
  310.602    9.220    0.488    0.185   96.688  158.655
  310.852    9.018    0.482    0.187   96.092  160.940
  311.102    8.794    0.489    0.185   96.526  163.005
  311.352    8.658    0.496    0.200   92.834  163.409
  311.602    8.531    0.490    0.205   91.177  161.800
  311.852    8.267    0.485    0.207   91.111  157.497
  312.102    8.028    0.485    0.206   91.930  154.690
  312.352    7.853    0.493    0.204   93.810  156.177
  312.602    7.727    0.506    0.204   97.565  165.014
  312.852    7.961    0.500    0.221   96.329  173.320
  313.102    8.612    0.507    0.240   92.786  169.317
  313.352    9.078    0.500    0.258   92.779  160.522
  313.602    9.577    0.487    0.263   92.065  153.720
  313.852   10.307    0.474    0.252   88.874  150.913
  314.102   11.518    0.466    0.230   82.735  149.637
  314.352   12.050    0.446    0.221   76.833  151.286
  314.602   12.398    0.439    0.225   73.761  152.475
  314.852   12.620    0.444    0.223   71.573  152.763
  315.102   12.754    0.453    0.224   70.505  153.549
  315.352   12.819    0.456    0.227   70.320  154.935
  315.602   12.852    0.443    0.221   70.214  155.389
  315.852   13.043    0.432    0.211   69.718  153.712
  316.102   13.810    0.465    0.221   69.239  150.905
  316.352   15.092    0.459    0.226   65.578  153.189
  316.602   16.530    0.414    0.214   60.383  155.374
  316.852   17.433    0.343    0.180   56.072  156.160
  317.102   16.639    0.287    0.129   57.056  158.227
  317.352   15.317    0.354    0.112   63.190  158.632
  317.602   13.713    0.427    0.169   67.428  158.222
  317.852   12.712    0.461    0.210   69.367  155.117
  318.102   11.859    0.470    0.229   70.657  152.709
  318.352   11.197    0.465    0.232   72.478  153.096
  318.602   11.048    0.445    0.233   75.388  156.992
  318.852   11.127    0.430    0.221   74.645  156.564
  319.102   11.698    0.451    0.226   76.052  158.550
  319.352   12.496    0.436    0.214   78.520  159.636
  319.602   12.871    0.421    0.200   80.283  158.028
  319.852   12.610    0.425    0.199   81.102  154.124
  320.102   11.969    0.451    0.231   82.518  151.098
  320.352   11.101    0.470    0.242   83.740  153.996
  320.602   10.700    0.476    0.232   82.553  154.786
  320.852   10.543    0.480    0.225   82.252  154.973
  321.102   10.463    0.479    0.216   82.717  156.158
  321.352   10.364    0.476    0.209   84.361  158.243
  321.602   10.195    0.480    0.214   89.108  159.762
  321.852   10.115    0.495    0.236   94.014  161.414
  322.102   10.482    0.492    0.246   93.300  156.612
  322.352   11.039    0.471    0.249   93.116  152.707
  322.602   11.571    0.458    0.241   92.048  151.695
  322.852   11.888    0.461    0.227   90.921  152.982
  323.102   11.883    0.475    0.222   92.947  153.534
  323.352   11.879    0.473    0.228   93.677  154.355
  323.602   11.874    0.463    0.225   94.613  158.337
  323.852   11.869    0.469    0.228   95.550  158.425
  324.102   11.865    0.477    0.224   95.897  156.416
  324.352   11.860    0.482    0.216   96.125  154.309
  324.602   11.872    0.478    0.220   98.260  154.543
  324.852   11.958    0.482    0.204  100.710  155.780
  325.102   12.041    0.478    0.202   99.996  156.569
  325.352   12.058    0.475    0.197  100.165  155.859
  325.602   12.010    0.473    0.192  101.337  154.848
  325.852   11.918    0.471    0.195  102.805  153.537
  326.102   11.827    0.475    0.218  102.934  150.978
  326.352   11.822    0.483    0.211  102.436  152.216
  326.602   11.732    0.483    0.210  101.957  156.198
  326.852   11.707    0.487    0.207  101.126  156.287
  327.102   11.702    0.487    0.205   99.233  155.675
  327.352   11.676    0.482    0.206   97.045  156.760
  327.602   11.569    0.484    0.201   96.850  160.973
  327.852   11.476    0.483    0.193   97.087  160.131
  328.102   11.809    0.473    0.221   94.725  152.934
  328.352   12.282    0.470    0.213   93.951  152.023
  328.602   12.688    0.474    0.204   95.947  154.207
  328.852   12.893    0.481    0.206   99.830  156.491
  329.102   12.887    0.481    0.212  103.440  156.493
  329.352   12.882    0.483    0.208  107.362  158.561
  329.602   12.970    0.479    0.198  105.235  158.153
  329.852   13.060    0.476    0.188  103.459  156.245
  330.102   13.150    0.465    0.188  102.508  154.834
  330.352   13.216    0.450    0.196  102.561  155.620
  330.602   13.209    0.450    0.200  103.251  159.669
  330.852   13.204    0.458    0.208  102.015  157.992
  331.102   13.200    0.447    0.204   99.886  155.984
  331.352   13.266    0.453    0.204   98.995  154.875
  331.602   13.309    0.460    0.206   98.635  154.066
  331.852   13.256    0.460    0.203   98.450  152.756
