~VERSION INFORMATION
 VERS.                 2.0:   CWLS LOG ASCII STANDARD -VERSION 2.0
 WRAP.                  NO:   ONE LINE PER DEPTH STEP
~WELL INFORMATION BLOCK
#MNEM.UNIT           DATA                    DESCRIPTION OF MNEMONIC
#---------    -------------------            -------------------------------
# Generated from Intellog Unique Number	CW_70_72/WELL/1047
NULL.         -999.25                        : NULL_VALUE
WELL.         SUNDANCE ET AL TOMATO 10-33    : Well_name    - WELL              
LOC .         10-33-072-23W4                 : Location     - LOCATION          
UWI .         00/10-33-072-23W4/0            : Uwi          - UNIQUE WELL ID    
ENTR.         JAYE                           : Entered      - ENTERED BY        
SRVC.         SCHLUMBERGER                   : Scn          - SERVICE COMPANY   
DATE.         11 JAN 74                      : Date         - LOG DATE          
STRT.M        414.528                        : top_depth    - START DEPTH       
STOP.M        637.028                        : bot_depth    - STOP DEPTH        
STEP.M        0.25                           : increment    - STEP LENGTH       
~CURVE INFORMATION BLOCK
#MNEM UNIT       ERCB CURVE CODE    CURVE DESCRIPTION
#-----------   ------------------   ----------------------------------
DEPT.M        00 001 00 00         : DEPTH        - DEPTH                       
DPHI.V/V      00 890 00 00         : PHID         - DENSITY POROSITY (SANDSTONE)
NPHI.V/V      00 330 00 00         : PHIN         - NEUTRON POROSITY (SANDSTONE)
GR  .API      00 310 00 00         : GR           - GAMMA RAY                   
CALI.MM       00 280 01 00         : CAL          - CALIPER                     
ILD .OHMM     00 120 00 00         : RESD         - DEEP RESISTIVITY (DIL)      
~PARAMETER INFORMATION       
#MNEM.UNIT           DATA             DESCRIPTION OF MNEMONIC
#---------         -----------     ------------------------------
GL  .M        670.103              : gl           - GROUND LEVEL ELEVATION      
EREF.M        673.151              : kb           - ELEVATION OF DEPTH REFERENCE
DATM.M        670.103              : datum        - DATUM ELEVATION             
TDD .M        647.09               : tdd          - TOTAL DEPTH DRILLER         
RUN .         ONE                  : Run          - RUN NUMBER                  
MATR.         SANDSTONE            : Logunit      - NEUTRON MATRIX              
TMAX.C        41.6667              : BHT          - MAXIMUM RECORDED TEMPERATURE
BHTD.M        646.176              : BHTDEP       - MAXIMUM RECORDED TEMPERATURE
RMT .C        14.4444              : MDTP         - TEMPERATURE OF MUD          
MUDD.KG/M     0                    : MWT          - MUD DENSITY                 
NEUT.         1                    : NEUTRON      - NEUTRON TYPE                
RESI.         0                    : RESIST       - RESISTIVITY TYPE            
RM  .OHMM     3.72                 : RM           - RESISTIVITY OF MUD          
RMC .OHMM     0                    : RMC          - RESISTIVITY OF MUD CAKE     
RMF .OHMM     2.21                 : RMF          - RESISTIVITY OF MUD FILTRATE 
SUFT.C        0                    : SUFT         - SURFACE TEMPERATURE         
~A  DEPTH     PHID     PHIN       GR      CAL     RESD
# ...
  451.028    0.228    0.526   97.696  159.247    5.159
  451.278    0.227    0.539   97.893  156.981    5.188
  451.528    0.273    0.511   95.758  154.302    5.315
  451.778    0.269    0.484   94.236  152.866    5.525
  452.028    0.262    0.492   93.513  152.789    5.765
  452.278    0.267    0.484   94.263  153.749    5.917
  452.528    0.250    0.468   98.944  155.433    5.950
  452.778    0.234    0.460  104.422  158.884    5.918
  453.028    0.214    0.458  109.410  164.211    5.886
  453.278    0.211    0.464  114.272  170.264    5.888
  453.528    0.219    0.499  117.233  177.358    5.921
  453.778    0.239    0.511  110.063  186.424    6.065
  454.028    0.272    0.443   95.033  164.302    6.225
  454.278    0.218    0.417   86.573  166.407    6.295
  454.528    0.206    0.434   78.851  170.378    6.307
  454.778    0.196    0.445   85.374  175.393    6.273
  455.028    0.209    0.451   90.114  169.175    6.048
  455.278    0.205    0.486   98.418  172.110    5.809
  455.528    0.203    0.505  106.045  179.204    5.725
  455.778    0.250    0.530  111.523  164.774    5.778
  456.028    0.245    0.522   98.335  158.664    5.996
  456.278    0.212    0.513   88.585  157.855    6.188
  456.528    0.232    0.504   86.205  159.646    6.421
  456.778    0.217    0.514   88.614  158.731    6.662
  457.028    0.211    0.520   90.899  154.701    6.775
  457.278    0.227    0.507   91.894  151.811    6.788
  457.528    0.193    0.494   93.933  152.145    6.740
  457.778    0.176    0.491   97.385  155.599    6.691
  458.028    0.175    0.479   98.934  159.988    6.619
  458.278    0.182    0.486   98.088  166.042    6.547
  458.528    0.203    0.489   96.811  168.042    6.440
  458.778    0.184    0.485   97.871  167.338    6.324
  459.028    0.168    0.468  100.156  167.986    6.187
  459.278    0.175    0.487  102.992  169.149    6.075
  459.528    0.168    0.518  106.198  171.255    5.932
  459.778    0.160    0.548  103.203  173.145    5.868
  460.028    0.136    0.534   92.902  175.144    5.848
  460.278    0.126    0.390   91.319  171.839    5.913
  460.528    0.133    0.327   82.798  167.600    5.958
  460.778    0.124    0.370   79.313  165.232    6.025
  461.028    0.260    0.434   82.334  163.280    6.093
  461.278    0.264    0.507   86.217  155.919    6.253
  461.528    0.215    0.445   89.912  157.813    6.488
  461.778    0.196    0.458   91.278  158.253    6.696
  462.028    0.179    0.484   93.931  159.004    6.973
  462.278    0.196    0.471   95.909  161.212    7.143
  462.528    0.194    0.462   95.861  165.391    7.317
  462.778    0.177    0.512   95.322  171.343    7.172
  463.028    0.171    0.561   96.811  175.106    7.016
  463.278    0.168    0.537   99.033  177.419    6.628
  463.528    0.174    0.495  102.117  178.063    6.366
  463.778    0.182    0.537   99.858  177.463    6.205
  464.028    0.161    0.566   96.680  177.073    5.971
  464.278    0.175    0.568   95.955  177.508    5.735
  464.528    0.167    0.532   96.092  179.091    5.549
  464.778    0.180    0.542   96.474  177.138    5.459
  465.028    0.196    0.580   91.637  169.051    5.500
  465.278    0.242    0.583   77.098  161.691    5.697
  465.528    0.299    0.551   68.639  158.909    5.988
  465.778    0.314    0.504   64.908  158.099    6.399
  466.028    0.267    0.463   60.131  157.605    7.017
  466.278    0.270    0.443   54.313  157.525    7.526
  466.528    0.291    0.476   54.447  157.549    7.445
  466.778    0.302    0.451   55.997  157.676    7.297
  467.028    0.316    0.430   52.695  157.492    7.138
  467.278    0.309    0.410   51.295  156.886    6.996
  467.528    0.287    0.435   53.644  156.600    6.921
  467.778    0.276    0.440   53.963  156.829    6.909
  468.028    0.288    0.429   51.582  157.272    6.961
  468.278    0.293    0.437   54.972  157.396    7.039
  468.528    0.310    0.448   59.100  157.935    7.172
  468.778    0.307    0.448   60.771  159.315    7.266
  469.028    0.298    0.435   60.539  159.647    7.334
  469.278    0.288    0.426   61.659  159.463    7.376
  469.528    0.301    0.450   62.101  158.962    7.404
  469.778    0.283    0.457   60.149  158.469    7.446
  470.028    0.281    0.443   56.604  158.491    7.489
  470.278    0.282    0.435   54.098  158.304    7.490
  470.528    0.294    0.424   51.410  158.221    7.491
  470.778    0.310    0.402   50.993  157.829    7.451
  471.028    0.300    0.424   54.201  156.916    7.438
  471.278    0.298    0.440   56.730  156.524    7.426
  471.528    0.299    0.432   58.096  156.235    7.373
  471.778    0.285    0.403   56.574  156.360    7.333
  472.028    0.290    0.402   54.193  155.450    7.267
  472.278    0.300    0.402   55.619  154.327    7.135
  472.528    0.296    0.400   55.447  152.688    7.007
  472.778    0.278    0.389   53.681  151.982    6.893
  473.028    0.264    0.396   51.178  152.629    6.843
  473.278    0.278    0.409   49.471  153.482    6.844
  473.528    0.280    0.425   48.256  154.236    6.921
  473.778    0.295    0.401   47.472  154.674    7.025
  474.028    0.285    0.384   46.625  154.071    7.130
  474.278    0.275    0.365   46.578  153.783    7.304
  474.528    0.281    0.382   48.740  155.473    7.441
  474.778    0.286    0.391   48.938  156.531    7.553
  475.028    0.279    0.400   48.584  156.971    7.624
  475.278    0.284    0.395   48.660  156.895    7.653
  475.528    0.280    0.395   49.901  157.017    7.668
  475.778    0.271    0.409   52.493  157.043    7.698
  476.028    0.269    0.420   55.330  156.856    7.713
  476.278    0.274    0.426   57.492  156.156    7.714
  476.528    0.269    0.419   58.734  155.552    7.730
  476.778    0.270    0.418   54.203  155.052    7.745
  477.028    0.278    0.430   54.770  155.076    7.789
  477.278    0.275    0.435   54.416  154.992    7.790
  477.528    0.279    0.419   53.630  155.121    7.749
  477.778    0.267    0.405   52.970  157.014    7.637
  478.028    0.265    0.406   52.246  159.013    7.526
  478.278    0.273    0.424   51.399  159.453    7.472
  478.528    0.267    0.423   49.264  158.123    7.460
  478.778    0.247    0.382   47.434  154.609    7.475
  479.028    0.233    0.348   46.651  150.577    7.531
  479.278    0.257    0.366   46.787  150.707    7.588
  479.528    0.287    0.395   48.949  152.080    7.631
  479.778    0.277    0.440   51.050  153.975    7.632
  480.028    0.275    0.414   53.398  155.142    7.633
  480.278    0.276    0.430   55.314  155.371    7.663
  480.528    0.266    0.380   50.354  155.395    7.692
  480.778    0.273    0.370   46.253  155.521    7.693
  481.028    0.284    0.452   45.223  155.337    7.695
  481.278    0.292    0.456   45.606  155.256    7.682
  481.528    0.292    0.452   47.523  154.029    7.683
  481.778    0.279    0.435   50.851  151.453    7.670
  482.028    0.273    0.450   52.522  149.813    7.643
  482.278    0.281    0.471   49.588  152.020    7.588
  482.528    0.290    0.494   48.129  153.913    7.437
  482.778    0.292    0.507   45.687  155.289    7.249
  483.028    0.295    0.486   43.306  156.455    7.014
  483.278    0.302    0.480   42.213  156.894    6.786
  483.528    0.306    0.471   42.044  156.291    6.554
  483.778    0.306    0.467   42.120  155.694    6.226
  484.028    0.307    0.487   42.254  156.028    5.980
  484.278    0.305    0.467   42.025  155.842    5.744
  484.528    0.308    0.473   42.097  155.656    5.619
  484.778    0.301    0.490   41.374  155.059    5.527
  485.028    0.290    0.485   39.668  154.665    5.448
  485.278    0.304    0.465   38.330  154.580    5.398
  485.528    0.295    0.469   37.607  154.397    5.360
  485.778    0.308    0.468   36.638  154.526    5.351
  486.028    0.297    0.469   36.961  154.545    5.332
  486.278    0.291    0.472   37.771  154.570    5.333
  486.528    0.291    0.446   38.645  154.697    5.373
  486.778    0.285    0.440   39.397  154.620    5.394
  487.028    0.278    0.433   39.592  154.638    5.495
  487.278    0.280    0.423   40.466  153.935    5.608
