~VERSION INFORMATION
 VERS.                 2.0:   CWLS LOG ASCII STANDARD -VERSION 2.0
 WRAP.                  NO:   ONE LINE PER DEPTH STEP
~WELL INFORMATION BLOCK
#MNEM.UNIT           DATA                    DESCRIPTION OF MNEMONIC
#---------    -------------------            -------------------------------
# Generated from Intellog Unique Number	CW_70_72/WELL/1067
NULL.         -999.25                        : NULL_VALUE
WELL.         WINCAN ET AL CALL W 12-30      : Well_name    - WELL              
LOC .         12-30-071-19W4                 : Location     - LOCATION          
UWI .         00/12-30-071-19W4/0            : Uwi          - UNIQUE WELL ID    
ENTR.         JAYE                           : Entered      - ENTERED BY        
SRVC.         SCHLUMBERGER                   : Scn          - SERVICE COMPANY   
DATE.         19 FEB 80                      : Date         - LOG DATE          
STRT.M        305                            : top_depth    - START DEPTH       
STOP.M        495                            : bot_depth    - STOP DEPTH        
STEP.M        0.25                           : increment    - STEP LENGTH       
~CURVE INFORMATION BLOCK
#MNEM UNIT       ERCB CURVE CODE    CURVE DESCRIPTION
#-----------   ------------------   ----------------------------------
DEPT.M        00 001 00 00         : DEPTH        - DEPTH                       
DPHI.V/V      00 890 00 00         : PHID         - DENSITY POROSITY (SANDSTONE)
NPHI.V/V      00 330 00 00         : PHIN         - NEUTRON POROSITY (SANDSTONE)
GR  .API      00 310 00 00         : GR           - GAMMA RAY                   
CALI.MM       00 280 01 00         : CAL          - CALIPER                     
ILD .OHMM     00 120 00 00         : RESD         - DEEP RESISTIVITY (DIL)      
~PARAMETER INFORMATION       
#MNEM.UNIT           DATA             DESCRIPTION OF MNEMONIC
#---------         -----------     ------------------------------
GL  .M        592.17               : gl           - GROUND LEVEL ELEVATION      
EREF.M        596.27               : kb           - ELEVATION OF DEPTH REFERENCE
DATM.M        592.17               : datum        - DATUM ELEVATION             
TDD .M        498                  : tdd          - TOTAL DEPTH DRILLER         
RUN .         ONE                  : Run          - RUN NUMBER                  
ENG .         HOOK                 : Engineer     - RECORDING ENGINEER          
WIT .         WAUNCH               : Witness      - WITNESSED BY                
BASE.         EDM                  : Branch       - HOME BASE OF LOGGING UNIT   
MUD .         GEL CHEM             : Mud_type     - MUD TYPE                    
MATR.         SANDSTONE            : Logunit      - NEUTRON MATRIX              
TMAX.C        27.5                 : BHT          - MAXIMUM RECORDED TEMPERATURE
BHTD.M        498                  : BHTDEP       - MAXIMUM RECORDED TEMPERATURE
RMT .C        18.9                 : MDTP         - TEMPERATURE OF MUD          
MUDD.KG/M     9.5                  : MWT          - MUD DENSITY                 
NEUT.         1                    : NEUTRON      - NEUTRON TYPE                
RESI.         0                    : RESIST       - RESISTIVITY TYPE            
RM  .OHMM     4.68                 : RM           - RESISTIVITY OF MUD          
RMC .OHMM     0                    : RMC          - RESISTIVITY OF MUD CAKE     
RMF .OHMM     4.03                 : RMF          - RESISTIVITY OF MUD FILTRATE 
SUFT.C        0                    : SUFT         - SURFACE TEMPERATURE         
~A  DEPTH     PHID     PHIN       GR      CAL     RESD
# ...
  414.500    0.275    0.447   69.373  148.822    4.321
  414.750    0.277    0.446   71.164  148.369    4.217
  415.000    0.264    0.429   74.268  147.907    4.053
  415.250    0.261    0.446   77.432  147.665    3.839
  415.500    0.258    0.459   80.284  150.540    3.548
  415.750    0.256    0.480   83.886  156.335    3.072
  416.000    0.255    0.500   86.738  163.172    2.767
  416.250    0.269    0.519   90.277  169.384    2.659
  416.500    0.264    0.503   93.254  171.221    2.556
  416.750    0.250    0.513   94.606  169.198    2.560
  417.000    0.264    0.529   92.454  168.224    2.667
  417.250    0.281    0.542   90.994  171.518    2.813
  417.500    0.259    0.535   92.154  173.871    3.122
  417.750    0.210    0.517   92.758  174.977    3.551
  418.000    0.213    0.500   92.040  177.226    3.978
  418.250    0.213    0.474   91.520  175.001    4.229
  418.500    0.216    0.466   90.936  170.482    4.489
  418.750    0.202    0.482   90.161  166.583    4.701
  419.000    0.197    0.498   88.196  165.814    4.960
  419.250    0.219    0.489   85.361  165.142    5.177
  419.500    0.211    0.473   82.586  164.482    5.147
  419.750    0.191    0.452   79.186  162.672    5.271
  420.000    0.190    0.432   78.724  157.944    5.349
  420.250    0.167    0.404   81.701  152.588    5.439
  420.500    0.198    0.421   81.360  151.195    5.476
  420.750    0.195    0.427   80.965  150.839    5.546
  421.000    0.191    0.429   80.691  151.316    5.544
  421.250    0.179    0.441   80.728  152.003    5.532
  421.500    0.172    0.458   81.453  152.596    5.583
  421.750    0.175    0.448   81.929  152.865    5.622
  422.000    0.206    0.440   84.345  152.935    5.642
  422.250    0.197    0.432   84.821  152.787    5.630
  422.500    0.200    0.424   82.859  152.430    5.565
  422.750    0.197    0.420   82.707  152.395    5.494
  423.000    0.192    0.415   85.061  152.249    5.439
  423.250    0.183    0.410   89.600  152.518    5.386
  423.500    0.189    0.412   89.763  153.001    5.323
  423.750    0.202    0.421   89.552  153.895    5.243
  424.000    0.207    0.431   88.716  153.338    5.144
  424.250    0.204    0.438   85.565  151.416    5.002
  424.500    0.193    0.440   81.728  150.652    4.943
  424.750    0.196    0.438   80.952  150.924    4.896
  425.000    0.201    0.433   82.051  151.611    4.886
  425.250    0.208    0.430   82.468  152.092    4.884
  425.500    0.211    0.427   81.753  152.159    4.873
  425.750    0.215    0.428   80.852  152.325    4.809
  426.000    0.222    0.433   80.144  152.183    4.744
  426.250    0.226    0.436   78.680  152.042    4.595
  426.500    0.212    0.431   77.093  152.208    4.433
  426.750    0.205    0.417   75.571  153.523    4.253
  427.000    0.218    0.406   73.416  155.873    4.165
  427.250    0.229    0.403   71.834  155.316    4.242
  427.500    0.236    0.403   69.184  153.090    4.570
  427.750    0.245    0.401   65.531  151.589    5.264
  428.000    0.251    0.365   61.008  150.507    6.746
  428.250    0.240    0.336   53.606  150.051    8.022
  428.500    0.215    0.296   48.704  150.420   10.109
  428.750    0.184    0.275   46.427  150.803   11.493
  429.000    0.146    0.266   45.717  152.119   11.132
  429.250    0.163    0.288   45.256  154.260    9.442
  429.500    0.216    0.305   45.168  155.269    8.251
  429.750    0.253    0.320   45.207  154.498    6.973
  430.000    0.308    0.334   44.934  150.914    5.993
  430.250    0.333    0.348   45.033  147.331    4.980
  430.500    0.327    0.359   45.195  145.417    4.312
  430.750    0.316    0.372   45.611  144.957    3.754
  431.000    0.299    0.386   46.149  145.128    3.490
  431.250    0.281    0.396   47.062  145.812    3.354
  431.500    0.295    0.406   48.041  146.400    3.309
  431.750    0.315    0.419   48.391  147.819    3.333
  432.000    0.328    0.430   48.992  149.334    3.434
  432.250    0.327    0.430   50.093  149.720    3.517
  432.500    0.325    0.432   50.754  150.197    3.670
  432.750    0.323    0.435   50.733  149.951    3.851
  433.000    0.311    0.427   49.705  148.864    4.117
  433.250    0.318    0.420   49.118  147.575    4.297
  433.500    0.317    0.415   49.597  148.581    4.442
  433.750    0.306    0.410   49.823  150.408    4.601
  434.000    0.303    0.404   49.361  151.101    4.801
  434.250    0.152    0.382   48.149  150.850    5.348
  434.500    0.118    0.361   45.936  150.498    6.968
  434.750    0.102    0.275   44.224  150.455    9.014
  435.000    0.090    0.234   44.258  150.732   10.521
  435.250    0.078    0.193   44.486  150.687   10.917
  435.500    0.075    0.266   44.963  150.236    9.140
  435.750    0.105    0.299   45.441  149.885    7.142
  436.000    0.141    0.324   46.102  150.145    5.477
  436.250    0.186    0.345   46.827  150.113    4.716
  436.500    0.307    0.378   47.615  149.550    3.985
  436.750    0.322    0.409   48.594  148.575    3.528
  437.000    0.331    0.422   50.010  147.282    3.437
  437.250    0.334    0.422   50.547  145.889    3.416
  437.500    0.333    0.426   52.087  146.160    3.447
  437.750    0.328    0.436   51.310  148.417    3.564
  438.000    0.313    0.434   50.160  150.669    3.740
  438.250    0.299    0.423   48.948  151.873    4.028
  438.500    0.285    0.415   48.489  151.938    4.348
  438.750    0.288    0.409   48.712  151.900    4.718
  439.000    0.272    0.401   49.003  151.963    5.082
  439.250    0.255    0.376   49.103  151.915    5.274
  439.500    0.243    0.343   49.579  151.884    5.252
  439.750    0.228    0.364   50.119  151.837    4.854
  440.000    0.252    0.396   50.907  151.382    4.323
  440.250    0.270    0.416   51.758  151.335    3.966
  440.500    0.296    0.427   52.792  151.619    3.700
  440.750    0.302    0.436   53.710  152.098    3.537
  441.000    0.302    0.429   53.559  152.369    3.437
  441.250    0.303    0.426   52.725  152.851    3.292
  441.500    0.307    0.430   49.823  153.015    3.206
  441.750    0.310    0.436   45.361  152.566    3.146
  442.000    0.320    0.432   43.961  152.315    3.122
  442.250    0.330    0.426   45.813  152.378    3.132
  442.500    0.328    0.424   49.097  152.751    3.166
  442.750    0.323    0.434   51.267  153.134    3.279
  443.000    0.311    0.439   55.617  153.090    3.468
  443.250    0.285    0.434   59.534  152.840    3.721
  443.500    0.248    0.412   65.073  152.174    4.263
  443.750    0.204    0.384   68.924  151.926    4.820
  444.000    0.164    0.370   73.215  152.099    5.399
  444.250    0.130    0.387   81.505  152.892    5.075
  444.500    0.149    0.428   87.107  154.725    3.929
  444.750    0.178    0.488   91.086  157.812    3.408
  445.000    0.223    0.513   90.999  161.418    3.344
  445.250    0.215    0.539   89.911  163.561    3.324
  445.500    0.206    0.537   89.199  163.938    3.292
  445.750    0.214    0.532   88.425  164.004    3.262
  446.000    0.219    0.515   88.773  163.963    3.259
  446.250    0.233    0.495   90.000  163.812    3.240
  446.500    0.230    0.477   91.355  163.782    3.221
  446.750    0.221    0.463   93.582  163.218    3.208
  447.000    0.208    0.453   96.434  162.655    3.237
  447.250    0.196    0.450   98.910  162.094    3.328
  447.500    0.188    0.458   99.321  163.928    3.539
  447.750    0.191    0.470   95.610  165.348    3.734
  448.000    0.189    0.478   92.581  167.081    4.030
  448.250    0.180    0.480   91.121  167.877    4.406
  448.500    0.173    0.470   89.781  166.482    4.773
  448.750    0.164    0.458   89.261  160.910    4.934
  449.000    0.157    0.443   88.859  158.482    5.100
  449.250    0.157    0.437   87.335  156.567    5.214
  449.500    0.155    0.433   85.937  156.734    5.261
  449.750    0.154    0.429   85.476  157.631    5.319
  450.000    0.156    0.427   86.265  157.276    5.378
  450.250    0.162    0.437   87.674  156.507    5.426
  450.500    0.189    0.438   88.966  156.156    5.454
  450.750    0.201    0.431   91.130  156.430    5.443
