~VERSION INFORMATION
 VERS.                 2.0:   CWLS LOG ASCII STANDARD -VERSION 2.0
 WRAP.                  NO:   ONE LINE PER DEPTH STEP
~WELL INFORMATION BLOCK
#MNEM.UNIT           DATA                    DESCRIPTION OF MNEMONIC
#---------    -------------------            -------------------------------
# Generated from Intellog Unique Number	CS_73_76/WELL/843
WELL.         MAYNARD ENERGY INC             : Well_name    - WELL
LOC .         00/11-04-073-13W4/0            : Location     - LOCATION
UWI .         00/11-04-073-13W4/0            : Uwi          - UNIQUE WELL ID
ENTR.         SP                             : Entered      - ENTERED BY
SRVC.         SCHLUMBERGER                   : Scn          - SERVICE COMPANY
STRT.M        320                            : top_depth    - START DEPTH
STOP.M        540                            : bot_depth    - STOP DEPTH
STEP.M        0.25                           : increment    - STEP LENGTH
 NULL. -999.2500:NULL Value
~CURVE INFORMATION BLOCK
#MNEM UNIT       ERCB CURVE CODE    CURVE DESCRIPTION
#-----------   ------------------   ----------------------------------
DEPT.M        00 001 00 00         : DEPTH        - DEPTH
ILD .OHMM     00 120 00 00         : RESD         - DEEP RESISTIVITY (DIL)
DPHI.V/V      00 890 00 00         : PHID         - DENSITY POROSITY (LIMESTONE)
NPHI.V/V      00 330 00 00         : PHIN         - NEUTRON POROSITY (LIMESTONE)
GR  .API      00 310 00 00         : GR           - GAMMA RAY
~PARAMETER INFORMATION
#MNEM.UNIT           DATA             DESCRIPTION OF MNEMONIC
#---------         -----------     ------------------------------
GL  .M        667.89               : gl           - GROUND LEVEL ELEVATION
EREF.M        664.44               : kb           - ELEVATION OF DEPTH REFERENCE
DATM.M        667.89               : datum        - DATUM ELEVATION
TDD .M        551                  : tdd          - TOTAL DEPTH DRILLER
RUN .         ONE                  : Run          - RUN NUMBER
ENG .         BILL                 : Engineer     - RECORDING ENGINEER
WIT .         JIM                  : Witness      - WITNESSED BY
MUD .         GEL                  : Mud_type     - MUD TYPE
MATR.         LIMESTONE            : Logunit      - NEUTRON MATRIX
TMAX.C        20                   : BHT          - MAXIMUM RECORDED TEMPERATURE
BHTD.M        551                  : BHTDEP       - MAXIMUM RECORDED TEMPERATURE
MATR.         1                    : LOGUNIT      - NEUTRON MATRIX
RMT .C        25                   : MDTP         - TEMPERATURE OF MUD
NEUT.         1                    : NEUTRON      - NEUTRON TYPE
RESI.         0                    : RESIST       - RESISTIVITY TYPE
RMC .OHMM     0.25                 : RMC          - RESISTIVITY OF MUD CAKE
RMF .OHMM     0.25                 : RMF          - RESISTIVITY OF MUD FILTRATE
SUFT.C        15                   : SUFT         - SURFACE TEMPERATURE
~A  DEPTH     RESD     PHID     PHIN       GR
# ...
  494.000   12.333    0.137    0.359   85.686
  494.250   13.065    0.132    0.352   81.397
  494.500   12.904    0.148    0.350   77.724
  494.750   12.661    0.178    0.362   75.281
  495.000   13.312    0.207    0.372   74.067
  495.250   14.533    0.206    0.386   78.388
  495.500   16.078    0.207    0.396   82.705
  495.750   17.787    0.217    0.401   87.642
  496.000   19.414    0.234    0.394   89.496
  496.250   19.659    0.256    0.390   92.586
  496.500   17.871    0.283    0.388   91.996
  496.750   17.791    0.302    0.390   91.387
  497.000   15.759    0.298    0.390   84.026
  497.250   14.216    0.294    0.386   79.123
  497.500   12.347    0.291    0.384   83.449
  497.750   11.210    0.289    0.386   86.535
  498.000    9.829    0.289    0.391   90.236
  498.250    8.691    0.282    0.401   95.792
  498.500    7.717    0.269    0.409   99.490
  498.750    7.393    0.253    0.419  106.270
  499.000    7.068    0.236    0.430  109.352
  499.250    7.476    0.223    0.435  116.134
  499.500    8.859    0.214    0.429  119.835
  499.750   11.218    0.225    0.418  120.474
  500.000   15.202    0.221    0.404  120.482
  500.250   17.236    0.216    0.389  119.885
  500.500   23.505    0.227    0.378  118.054
  500.750   28.427    0.235    0.370  112.539
  501.000   33.360    0.250    0.360  106.402
  501.250   36.673    0.265    0.356   94.122
  501.500   36.753    0.271    0.366   86.146
  501.750   34.403    0.271    0.370   83.087
  502.000   31.230    0.244    0.375   78.186
  502.250   28.068    0.228    0.377   73.897
  502.500   24.903    0.226    0.376   73.297
  502.750   23.354    0.245    0.368   78.847
  503.000   19.036    0.259    0.365   83.165
  503.250   18.224    0.262    0.361   84.412
  503.500   17.818    0.268    0.354   86.275
  503.750   17.413    0.257    0.348   88.131
  504.000   17.007    0.247    0.345   91.837
  504.250   16.439    0.241    0.343   91.234
  504.500   15.627    0.235    0.344   88.790
  504.750   14.246    0.235    0.346   86.960
  505.000   13.272    0.212    0.346   83.286
  505.250   12.785    0.188    0.345   84.535
  505.500   12.542    0.162    0.342   85.776
  505.750   12.787    0.145    0.341   87.022
  506.000   13.682    0.168    0.351   88.883
  506.250   15.472    0.219    0.356   89.513
  506.500   23.482    0.270    0.358   92.606
  506.750   28.340    0.282    0.375   75.402
  507.000   35.627    0.282    0.381   65.582
  507.250   43.725    0.290    0.392   63.137
  507.500   48.583    0.295    0.397   60.079
  507.750   47.773    0.302    0.403   66.857
  508.000   41.295    0.290    0.405   81.022
  508.250   29.959    0.263    0.409   84.720
  508.500   20.034    0.230    0.416   92.115
  508.750   11.661    0.211    0.422   96.434
  509.000    8.816    0.216    0.437   97.673
  509.250    7.354    0.208    0.460  104.454
  509.500    6.379    0.150    0.467  110.615
  509.750    5.974    0.130    0.471  115.547
  510.000    5.650    0.110    0.469  118.635
  510.250    5.813    0.138    0.428  118.043
  510.500    6.221    0.150    0.399  118.050
  510.750    7.197    0.156    0.384  114.998
  511.000    8.743    0.158    0.375  111.935
  511.250   10.289    0.162    0.370  100.884
  511.500   11.347    0.182    0.373   92.909
  511.750   12.080    0.225    0.378   86.778
  512.000   12.487    0.262    0.378   81.260
  512.250   12.895    0.289    0.378   77.586
  512.500   13.546    0.285    0.378   75.757
  512.750   14.197    0.273    0.379   77.000
  513.000   14.930    0.256    0.376   78.247
  513.250   15.500    0.246    0.373   77.652
  513.500   16.233    0.241    0.371   77.667
  513.750   15.828    0.246    0.371   78.905
  514.000   15.097    0.247    0.373   78.927
  514.250   14.366    0.250    0.371   78.936
  514.500   13.310    0.238    0.368   83.257
  514.750   11.929    0.233    0.363   90.041
  515.000   11.361    0.228    0.362   94.973
  515.250   10.874    0.225    0.363   98.673
  515.500   10.306    0.235    0.363  104.224
  515.750   10.063    0.239    0.364  106.078
  516.000    9.902    0.241    0.365  104.251
  516.250    9.903    0.235    0.373  109.185
  516.500    9.822    0.225    0.382  116.583
  516.750    9.742    0.229    0.395  119.050
  517.000    9.662    0.247    0.393  122.754
  517.250    9.907    0.252    0.377  116.010
  517.500   10.315    0.249    0.362  106.805
  517.750   10.641    0.215    0.352   98.214
  518.000   10.885    0.191    0.347   93.313
  518.250   11.293    0.177    0.344   91.479
  518.500   11.782    0.202    0.350   89.036
  518.750   12.189    0.220    0.359   89.049
  519.000   12.678    0.224    0.361   90.914
  519.250   13.005    0.226    0.360   92.155
  519.500   13.249    0.239    0.350   90.941
  519.750   13.413    0.253    0.344   87.267
  520.000   12.032    0.271    0.338   80.519
  520.250   10.895    0.286    0.342   76.232
  520.500    9.595    0.272    0.360   75.632
  520.750    8.620    0.262    0.366   75.032
  521.000    8.133    0.244    0.364   76.283
  521.250    7.891    0.222    0.357   79.981
  521.500    8.136    0.198    0.354   90.454
  521.750    8.299    0.184    0.352   95.381
  522.000    8.788    0.173    0.365  105.848
  522.250    9.195    0.165    0.371  114.475
  522.500    9.603    0.163    0.369  116.944
  522.750   10.254    0.161    0.347  120.032
  523.000   11.068    0.155    0.327  112.671
  523.250   13.834    0.171    0.319   91.788
  523.500   16.273    0.210    0.336   78.275
  523.750   18.307    0.244    0.350   65.996
  524.000   23.674    0.273    0.357   60.478
  524.250   24.490    0.270    0.358   66.027
  524.500   25.306    0.255    0.352   68.500
  524.750   24.490    0.261    0.345   64.826
  525.000   22.857    0.262    0.341   53.776
  525.250   22.857    0.256    0.342   51.332
  525.500   22.041    0.243    0.341   55.039
  525.750   22.041    0.229    0.340   60.586
  526.000   21.224    0.242    0.345   64.288
  526.250   21.224    0.268    0.349   57.545
  526.500   21.224    0.286    0.355   52.638
  526.750   21.224    0.292    0.360   46.509
  527.000   19.540    0.281    0.357   45.292
  527.250   18.240    0.266    0.355   48.999
  527.500   17.509    0.258    0.355   50.856
  527.750   16.372    0.252    0.358   54.560
  528.000   15.723    0.253    0.359   60.111
  528.250   14.504    0.253    0.359   64.433
  528.500   13.774    0.249    0.356   66.291
  528.750   11.661    0.238    0.345   66.917
  529.000   10.524    0.237    0.341   66.938
  529.250    9.224    0.255    0.333   65.105
  529.500    8.249    0.281    0.329   58.976
  529.750    6.949    0.305    0.331   56.527
  530.000    5.569    0.320    0.337   51.627
  530.250    5.244    0.324    0.337   49.180
  530.500    4.757    0.324    0.337   47.352
  530.750    4.433    0.321    0.334   46.143
  531.000    3.946    0.311    0.333   46.152
  531.250    3.703    0.304    0.337   45.557
  531.500    3.623    0.311    0.343   45.573
  531.750    3.543    0.315    0.350   45.588
  532.000    3.625    0.316    0.354   45.607
  532.250    3.708    0.302    0.355   45.616
  532.500    3.709    0.295    0.351   45.633
  532.750    3.872    0.292    0.344   45.648
  533.000    3.873    0.284    0.339   48.737
  533.250    3.874    0.294    0.335   53.056
  533.500    3.875    0.300    0.333   54.912
  533.750    3.876    0.311    0.341   53.086
  534.000    3.877    0.317    0.354   50.026
  534.250    3.878    0.323    0.368   49.426
  534.500    4.123    0.220    0.379   56.819
  534.750    4.775    0.179    0.382   70.363
  535.000    5.751    0.074    0.375   78.981
  535.250    7.053    0.065    0.357   87.604
  535.500    8.355    0.073    0.337   87.004
  535.750    9.901    0.066    0.321   83.335
  536.000   11.609    0.065    0.310   81.504
  536.250   12.992    0.066    0.299   76.604
  536.500   14.050    0.069    0.287   75.386
  536.750   15.108    0.077    0.274   73.560
  537.000   16.166    0.055    0.254   69.888
  537.250   17.224    0.037    0.236   64.982
