~VERSION INFORMATION
 VERS.                 2.0:   CWLS LOG ASCII STANDARD -VERSION 2.0
 WRAP.                  NO:   ONE LINE PER DEPTH STEP
~WELL INFORMATION BLOCK
#MNEM.UNIT           DATA                    DESCRIPTION OF MNEMONIC
#---------    -------------------            -------------------------------
# Generated from Intellog Unique Number	CW_79_81/WELL/702
WELL.         ATCOR ET AL PELICAN            : Well_name    - WELL
LOC .         00/10-06-079-24W4/0            : Location     - LOCATION
UWI .         00/10-06-079-24W4/0            : Uwi          - UNIQUE WELL ID
ENTR.         MAX                            : Entered      - ENTERED BY
SRVC.         COMPUTALOG                     : Scn          - SERVICE COMPANY
STRT.M        275                            : top_depth    - START DEPTH
STOP.M        515                            : bot_depth    - STOP DEPTH
STEP.M        0.25                           : increment    - STEP LENGTH
 NULL. -999.2500:NULL Value
~CURVE INFORMATION BLOCK
#MNEM UNIT       ERCB CURVE CODE    CURVE DESCRIPTION
#-----------   ------------------   ----------------------------------
DEPT.M        00 001 00 00         : DEPTH        - DEPTH
ILD .OHMM     00 120 00 00         : RESD         - DEEP RESISTIVITY (DIL)
NPHI.V/V      00 330 00 00         : PHIN         - NEUTRON POROSITY (SANDSTONE)
DPHI.V/V      00 890 00 00         : PHID         - DENSITY POROSITY (SANDSTONE)
CALI.MM       00 280 01 00         : CAL          - CALIPER
GR  .API      00 310 00 00         : GR           - GAMMA RAY
~PARAMETER INFORMATION
#MNEM.UNIT           DATA             DESCRIPTION OF MNEMONIC
#---------         -----------     ------------------------------
GL  .M        594.9                : gl           - GROUND LEVEL ELEVATION
EREF.M        598.6                : kb           - ELEVATION OF DEPTH REFERENCE
DATM.M        594.9                : datum        - DATUM ELEVATION
TDD .M        520                  : tdd          - TOTAL DEPTH DRILLER
RUN .         ONE                  : Run          - RUN NUMBER
ENG .         BILL                 : Engineer     - RECORDING ENGINEER
WIT .         JIM                  : Witness      - WITNESSED BY
MUD .         GEL                  : Mud_type     - MUD TYPE
MATR.         SANDSTONE            : Logunit      - NEUTRON MATRIX
TMAX.C        32                   : BHT          - MAXIMUM RECORDED TEMPERATURE
BHTD.M        520                  : BHTDEP       - MAXIMUM RECORDED TEMPERATURE
RMT .C        16.7                 : MDTP         - TEMPERATURE OF MUD
MUDD.KG/M     1150                 : MWT          - MUD DENSITY
NEUT.         1                    : NEUTRON      - NEUTRON TYPE
RESI.         0                    : RESIST       - RESISTIVITY TYPE
RM  .OHMM     5.1                  : RM           - RESISTIVITY OF MUD
RMC .OHMM     0                    : RMC          - RESISTIVITY OF MUD CAKE
RMF .OHMM     4.7                  : RMF          - RESISTIVITY OF MUD FILTRATE
SUFT.C        -20                  : SUFT         - SURFACE TEMPERATURE
~A  DEPTH     RESD     PHIN     PHID      CAL       GR
# ...
  384.500    9.113    0.415    0.204  199.190   83.159
  384.750    9.379    0.422    0.210  198.745   83.795
  385.000   10.025    0.420    0.207  198.279   83.211
  385.250   10.609    0.411    0.196  198.324   79.588
  385.500   11.022    0.413    0.173  198.364   72.010
  385.750   11.041    0.420    0.175  197.909   64.436
  386.000   10.756    0.422    0.213  198.467   66.589
  386.250   10.007    0.428    0.211  198.508   76.963
  386.500    9.221    0.431    0.199  199.567   86.117
  386.750    8.899    0.430    0.205  200.120   90.407
  387.000    8.899    0.430    0.207  200.673   86.781
  387.250    8.845    0.432    0.203  201.226   83.462
  387.500    9.019    0.432    0.192  201.272   80.451
  387.750    9.377    0.429    0.178  200.816   78.960
  388.000    9.377    0.412    0.188  200.856   78.984
  388.250    9.493    0.407    0.207  200.406   82.662
  388.500    9.590    0.437    0.209  199.940   84.823
  388.750    9.693    0.464    0.215  200.498   83.941
  389.000   10.171    0.473    0.224  200.538   83.965
  389.250   10.667    0.447    0.224  200.595   83.689
  389.500   11.082    0.432    0.213  199.621   83.412
  389.750   11.840    0.424    0.230  196.625   80.093
  390.000   12.303    0.419    0.228  191.088   77.998
  390.250   12.551    0.404    0.204  187.590   77.714
  390.500   12.451    0.373    0.188  188.143   75.311
  390.750   12.243    0.359    0.166  188.195   71.992
  391.000   11.710    0.377    0.178  186.719   72.625
  391.250   11.199    0.408    0.211  183.729   81.782
  391.500   10.513    0.429    0.211  182.242   82.117
  391.750   10.056    0.435    0.195  185.843   82.446
  392.000    9.793    0.438    0.184  191.471   84.603
  392.250    9.628    0.433    0.175  197.596   89.809
  392.500    9.732    0.414    0.172  204.239   91.665
  392.750   10.018    0.393    0.184  202.763   92.605
  393.000   10.508    0.387    0.208  199.767   90.804
  393.250   10.721    0.407    0.213  197.283   83.527
  393.500   10.638    0.419    0.219  197.836   77.470
  393.750   10.553    0.428    0.208  198.389   78.109
  394.000   10.282    0.438    0.189  198.948   84.833
  394.250   10.202    0.441    0.174  198.993   83.944
  394.500   10.125    0.431    0.181  198.521   83.062
  394.750   10.047    0.430    0.189  199.079   84.003
  395.000   10.047    0.434    0.198  199.131   85.852
  395.250    9.987    0.430    0.210  199.684   88.617
  395.500    9.813    0.427    0.204  200.231   90.477
  395.750    9.833    0.422    0.177  200.288   88.067
  396.000    9.753    0.419    0.167  199.815   85.661
  396.250    9.767    0.418    0.166  199.371   88.122
  396.500    9.783    0.415    0.170  199.411   90.587
  396.750    9.981    0.413    0.166  199.959   90.611
  397.000   10.182    0.415    0.161  201.018   90.950
  397.250   10.197    0.424    0.168  201.064   91.582
  397.500   10.120    0.419    0.184  199.595   91.917
  397.750    9.854    0.398    0.193  199.139   90.427
  398.000    9.425    0.396    0.184  199.686   88.927
  398.250    9.097    0.406    0.181  200.752   85.003
  398.500    8.942    0.399    0.188  201.806   82.596
  398.750    9.039    0.419    0.214  201.852   82.928
  399.000    9.748    0.449    0.224  201.391   87.522
  399.250   10.607    0.446    0.238  200.428   87.546
  399.500   11.869    0.436    0.253  199.967   88.490
  399.750   12.677    0.446    0.259  200.024   87.909
  400.000   17.612    0.448    0.245  198.679   76.212
  400.250   19.884    0.428    0.221  199.225   67.094
  400.500   22.041    0.425    0.220  200.284   65.596
  400.750   23.980    0.440    0.225  200.339   68.975
  401.000   26.339    0.417    0.219  200.382   69.306
  401.250   27.357    0.414    0.228  199.918   72.079
  401.500   27.640    0.424    0.254  199.918   75.766
  401.750   27.418    0.428    0.265  200.010   78.234
  402.000   26.454    0.428    0.240  200.043   77.955
  402.250   25.052    0.412    0.231  200.594   74.621
  402.500   23.718    0.406    0.225  200.643   70.990
  402.750   21.849    0.415    0.215  200.179   73.461
  403.000   20.498    0.408    0.196  200.222   76.837
  403.250   19.058    0.411    0.199  200.266   79.914
  403.500   18.216    0.426    0.241  199.801   80.550
  403.750   17.575    0.407    0.242  199.850   78.134
  404.000   17.269    0.397    0.237  199.894   76.944
  404.250   17.128    0.408    0.237  199.932   77.580
  404.500   17.308    0.416    0.243  199.975   76.082
  404.750   17.814    0.415    0.240  200.051   75.499
  405.000   18.850    0.411    0.235  200.068   76.442
  405.250   20.699    0.405    0.237  199.603   76.770
  405.500   22.944    0.391    0.230  199.652   75.587
  405.750   23.185    0.365    0.201  199.690   75.911
  406.000   21.748    0.369    0.208  199.734   78.677
  406.250   19.304    0.401    0.218  199.777   81.758
  406.500   17.137    0.413    0.221  199.831   81.476
  406.750   16.380    0.410    0.220  200.378   77.848
  407.000   16.096    0.406    0.223  200.421   79.090
  407.250   16.261    0.402    0.227  200.470   79.729
  407.500   16.278    0.406    0.227  200.508   79.447
  407.750   16.297    0.426    0.225  201.060   80.086
  408.000   16.014    0.432    0.222  201.114   81.331
  408.250   15.310    0.433    0.215  201.158   82.881
  408.500   14.767    0.429    0.213  200.185   83.215
  408.750   14.378    0.418    0.216  199.726   82.019
  409.000   14.263    0.420    0.217  200.277   79.000
  409.250   14.409    0.429    0.213  200.818   79.633
  409.500   14.424    0.433    0.206  200.354   84.542
  409.750   14.575    0.416    0.199  199.381   85.788
  410.000   14.593    0.407    0.195  198.927   84.591
  410.250   14.608    0.410    0.195  198.971   82.179
  410.500   14.624    0.406    0.190  198.506   83.732
  410.750   14.637    0.406    0.180  198.544   86.197
  411.000   14.518    0.419    0.174  198.588   87.747
  411.250   14.007    0.436    0.175  199.139   85.951
  411.500   13.514    0.445    0.192  199.183   86.888
  411.750   13.033    0.451    0.199  199.232   91.178
  412.000   12.573    0.435    0.200  199.275   94.256
  412.250   12.022    0.404    0.196  199.330   90.926
  412.500   11.706    0.396    0.194  199.368   85.465
  412.750   11.503    0.401    0.199  199.411   85.495
  413.000   11.406    0.418    0.199  199.963   89.182
  413.250   11.406    0.430    0.184  200.520   87.077
  413.500   11.227    0.432    0.166  200.553   87.100
  413.750   11.233    0.427    0.164  200.596   88.342
  414.000   11.245    0.416    0.170  200.142   89.283
  414.250   11.902    0.410    0.180  200.180   89.312
  414.500   12.477    0.415    0.182  200.229   88.729
  414.750   13.326    0.423    0.179  200.775   87.535
  415.000   14.103    0.417    0.164  200.819   84.517
  415.250   14.789    0.387    0.145  200.862   80.580
  415.500   14.802    0.363    0.129  200.398   79.082
  415.750   14.414    0.372    0.139  200.452   79.718
  416.000   13.525    0.398    0.157  201.506   82.789
  416.250   12.573    0.415    0.176  203.079   90.435
  416.500   11.796    0.399    0.181  203.631   94.126
  416.750   11.171    0.380    0.177  203.674   93.844
  417.000   10.878    0.394    0.175  203.718   91.438
  417.250   10.889    0.398    0.177  203.286   92.677
  417.500   11.002    0.395    0.174  203.297   93.624
  417.750   11.645    0.386    0.167  202.324   93.037
  418.000   12.320    0.386    0.159  200.844   91.542
  418.250   13.280    0.399    0.151  200.379   88.825
  418.500   13.670    0.409    0.138  201.444   87.019
  418.750   13.436    0.414    0.159  203.006   89.792
  419.000   12.961    0.413    0.176  203.563   91.647
  419.250   12.161    0.404    0.178  203.094   91.063
  419.500   11.409    0.405    0.176  202.126   95.049
  419.750   10.906    0.403    0.180  202.175  103.308
  420.000   10.619    0.404    0.177  203.229  107.909
  420.250   10.630    0.403    0.161  204.289  105.189
  420.500   10.941    0.397    0.151  204.338  100.643
  420.750   11.470    0.381    0.150  203.360   96.713
