~VERSION INFORMATION
 VERS.                 2.0:   CWLS LOG ASCII STANDARD -VERSION 2.0
 WRAP.                  NO:   ONE LINE PER DEPTH STEP
~WELL INFORMATION BLOCK
#MNEM.UNIT           DATA                    DESCRIPTION OF MNEMONIC
#---------    -------------------            -------------------------------
# Generated from Intellog Unique Number	CC_80_83/WELL/2346
NULL.         -999.25                        : NULL_VALUE
WELL.         PEX PCEJ ALGAR                 : Well_name    - WELL              
LOC .         10-11-080-09W4                 : Location     - LOCATION          
UWI .         00/10-11-080-09W400            : Uwi          - UNIQUE WELL ID    
ENTR.         DW                             : Entered      - ENTERED BY        
SRVC.         SCHLUMBERGER                   : Scn          - SERVICE COMPANY   
DATE.         15 JAN 81                      : Date         - LOG DATE
STRT.M        265                            : top_depth    - START DEPTH       
STOP.M        480.091                        : bot_depth    - STOP DEPTH        
STEP.M        0.3                            : increment    - STEP LENGTH       
~CURVE INFORMATION BLOCK
#MNEM UNIT       ERCB CURVE CODE    CURVE DESCRIPTION
#-----------   ------------------   ----------------------------------
DEPT.M        00 001 00 00         : DEPTH        - DEPTH                       
DPHI.V/V      00 890 00 00         : PHID         - DENSITY POROSITY (LIMESTONE)
NPHI.V/V      00 330 00 00         : PHIN         - NEUTRON POROSITY (LIMESTONE)
GR  .API      00 310 00 00         : GR           - GAMMA RAY                   
ILD .OHMM     00 120 00 00         : RESD         - DEEP RESISTIVITY (DIL)      
~PARAMETER INFORMATION       
#MNEM.UNIT           DATA             DESCRIPTION OF MNEMONIC
#---------         -----------     ------------------------------
GL  .M        712                  : gl           - GROUND LEVEL ELEVATION      
EREF.M        715.4                : kb           - ELEVATION OF DEPTH REFERENCE
DATM.M        715.4                : datum        - DATUM ELEVATION             
TDD .M        489                  : tdd          - TOTAL DEPTH DRILLER         
RUN .         ONE                  : Run          - RUN NUMBER                  
ENG .         BILL                 : Engineer     - RECORDING ENGINEER          
WIT .         JIM                  : Witness      - WITNESSED BY                
MUD .         GEL                  : Mud_type     - MUD TYPE                    
MATR.         LIMESTONE            : Logunit      - NEUTRON MATRIX              
TMAX.C        27                   : BHT          - MAXIMUM RECORDED TEMPERATURE
BHTD.M        490                  : BHTDEP       - MAXIMUM RECORDED TEMPERATURE
MATR.         1                    : LOGUNIT      - NEUTRON MATRIX              
RMT .C        25                   : MDTP         - TEMPERATURE OF MUD          
NEUT.         1                    : NEUTRON      - NEUTRON TYPE                
RESI.         0                    : RESIST       - RESISTIVITY TYPE            
RMC .OHMM     0.25                 : RMC          - RESISTIVITY OF MUD CAKE     
RMF .OHMM     0.25                 : RMF          - RESISTIVITY OF MUD FILTRATE 
SUFT.C        15                   : SUFT         - SURFACE TEMPERATURE         
~A  DEPTH     PHID     PHIN       GR     RESD
# ...
  369.396    0.366    0.464   86.493    4.369
  369.696    0.379    0.488   87.716    4.287
  369.996    0.374    0.505   84.394    4.359
  370.296    0.316    0.486   86.867    4.636
  370.596    0.292    0.430   87.279    5.276
  370.896    0.282    0.431   86.203    5.958
  371.196    0.286    0.439   90.036    6.162
  371.496    0.281    0.449   89.953    6.921
  371.796    0.278    0.460   85.579    7.774
  372.096    0.284    0.444   83.625    8.039
  372.396    0.287    0.442   82.426    7.626
  372.696    0.349    0.495   88.250    6.850
  372.996    0.387    0.483   89.846    6.040
  373.296    0.378    0.466   87.588    5.750
  373.596    0.343    0.467   87.317    5.642
  373.896    0.303    0.458   77.658    5.770
  374.196    0.250    0.406   84.416    6.868
  374.496    0.214    0.401   82.964    7.844
  374.796    0.210    0.411   81.263    8.083
  375.096    0.214    0.428   86.202    9.216
  375.396    0.254    0.408   81.653   10.001
  375.695    0.256    0.406   83.364    9.624
  375.995    0.238    0.403   82.385    9.436
  376.295    0.237    0.417   81.475    9.081
  376.595    0.248    0.427   78.549    8.740
  376.895    0.283    0.434   87.287    8.255
  377.195    0.301    0.435   84.054    7.945
  377.495    0.309    0.440   84.697    7.792
  377.795    0.315    0.428   84.345    7.644
  378.095    0.345    0.423   77.861    7.357
  378.395    0.389    0.444   85.649    6.948
  378.695    0.389    0.427   84.174    6.814
  378.995    0.379    0.444   82.069    6.559
  379.295    0.377    0.467   82.719    6.554
  379.595    0.370    0.455   83.674    6.549
  379.895    0.379    0.476   84.016    6.668
  380.195    0.356    0.475   80.283    6.917
  380.495    0.360    0.497   82.496    7.311
  380.795    0.358    0.476   86.904    7.444
  381.095    0.349    0.477   88.561    7.578
  381.395    0.349    0.481   82.950    7.716
  381.695    0.385    0.475   79.028    8.004
  381.995    0.382    0.472   82.933    7.997
  382.295    0.347    0.459   87.905    7.843
  382.595    0.342    0.460   88.995    7.548
  382.895    0.338    0.472   82.507    7.131
  383.195    0.340    0.507   84.591    6.736
  383.495    0.380    0.530   90.699    6.245
  383.795    0.383    0.536   94.354    5.576
  384.095    0.379    0.515   91.124    4.886
  384.395    0.385    0.509   93.466    4.124
  384.695    0.393    0.508   95.178    4.044
  384.995    0.400    0.492   91.947    4.195
  385.295    0.425    0.459   91.345    4.353
  385.595    0.436    0.454   87.981    4.866
  385.895    0.417    0.438   96.026    5.050
  386.195    0.210    0.395   92.043    5.753
  386.495    0.141    0.376   81.919    7.066
  386.795    0.110    0.307   83.196    9.895
  387.095    0.213    0.292   66.995   11.488
  387.395    0.257    0.426   78.164   11.918
  387.695    0.277    0.453   92.852   10.641
  387.995    0.281    0.448   89.116    9.150
  388.295    0.295    0.471   89.520    8.324
  388.595    0.297    0.470   98.499    8.013
  388.895    0.291    0.459   90.438    7.858
  389.195    0.292    0.469   90.969    7.852
  389.495    0.295    0.455   94.747    7.993
  389.795    0.300    0.466   91.080    8.140
  390.095    0.330    0.493   91.604    8.444
  390.395    0.372    0.512   87.683    7.976
  390.695    0.384    0.504   88.773    7.256
  390.995    0.433    0.556   89.922    6.359
  391.295    0.437    0.567   81.493    4.887
  391.595    0.443    0.593   96.920    3.618
  391.895    0.430    0.584   99.394    2.833
  392.195    0.415    0.556   97.665    2.391
  392.495    0.409    0.545   94.931    2.258
  392.795    0.415    0.529   96.584    2.299
  393.095    0.411    0.514   90.783    2.430
  393.395    0.388    0.486   82.475    2.667
  393.695    0.313    0.458   82.750    3.096
  393.995    0.272    0.440   89.037    3.663
  394.295    0.262    0.426   98.015    4.671
  394.595    0.271    0.404   99.425    5.845
  394.895    0.298    0.391   91.492    6.786
  395.195    0.309    0.372   87.690    7.447
  395.495    0.322    0.352   86.331    8.328
  395.795    0.331    0.350   86.303    9.667
  396.095    0.323    0.389   95.155   11.436
  396.395    0.321    0.393   92.552   11.862
  396.695    0.333    0.381   89.570   11.635
  396.995    0.267    0.418   99.922   10.988
  397.295    0.255    0.405   96.004   10.380
  397.595    0.256    0.394   97.787    9.622
  397.895    0.265    0.391   97.498    9.981
  398.195    0.274    0.397   91.059   10.163
  398.495    0.256    0.388   89.148    9.967
  398.795    0.252    0.380   91.426    9.239
  399.095    0.262    0.419   86.378    8.565
  399.395    0.284    0.415   95.035    7.940
  399.695    0.294    0.415   99.770    7.361
  399.995    0.327    0.430   94.405    7.608
  400.294    0.339    0.445   86.036    8.659
  400.594    0.317    0.426   95.210    9.310
  400.894    0.294    0.407   98.233    9.825
  401.194    0.278    0.391   90.114   10.369
  401.494    0.278    0.384   77.486   10.739
  401.794    0.283    0.377   80.641   10.708
  402.094    0.294    0.379   83.299   10.681
  402.394    0.291    0.381   84.954   10.455
  402.694    0.300    0.396   84.912   10.040
  402.994    0.300    0.374   77.608    9.291
  403.294    0.294    0.401   92.856    8.277
  403.594    0.295    0.404   93.069    7.957
  403.894    0.340    0.425   92.778    7.638
  404.194    0.374    0.413   88.105    7.480
  404.494    0.343    0.396   97.085    7.749
  404.794    0.276    0.418   90.346    8.025
  405.094    0.276    0.401   89.054    7.855
  405.394    0.274    0.416   93.397    7.128
  405.694    0.281    0.394   85.654    6.850
  405.994    0.293    0.394   87.866    7.232
  406.294    0.288    0.412   88.079    8.542
  406.594    0.281    0.417   84.542    9.360
  406.894    0.282    0.413   89.202   10.058
  407.194    0.318    0.394   76.317   10.036
  407.494    0.325    0.402   75.334    9.825
  407.794    0.313    0.390   73.044    8.756
  408.094    0.314    0.400   79.524    8.095
  408.394    0.314    0.395   76.409    7.928
  408.694    0.309    0.428   77.686    7.911
  408.994    0.307    0.424   81.350    7.743
  409.294    0.304    0.407   81.746    6.165
  409.594    0.293    0.405   82.822    5.191
  409.894    0.291    0.423   77.711    4.891
  410.194    0.324    0.424   77.618    4.791
  410.494    0.423    0.451   82.152    6.829
  410.794    0.416    0.439   85.440    9.735
  411.094    0.318    0.412   88.528   10.276
  411.394    0.344    0.372   78.721    9.864
  411.694    0.345    0.364   73.547   10.223
  411.994    0.350    0.394   65.995   12.539
  412.294    0.342    0.371   70.964   14.260
  412.594    0.326    0.341   69.862   14.499
  412.894    0.269    0.298   66.187   14.454
  413.194    0.049    0.237   61.951   13.375
  413.494    0.055    0.237   61.040   10.852
  413.794    0.183    0.291   62.875    8.471
  414.094    0.241    0.363   71.234    7.688
  414.394    0.323    0.404   75.772    7.395
  414.694    0.316    0.398   71.787    7.233
  414.994    0.307    0.390   76.133    7.357
  415.294    0.307    0.409   68.515    8.061
  415.594    0.309    0.406   78.874    8.996
  415.894    0.306    0.390   80.338    9.148
  416.194    0.294    0.384   79.487    8.957
  416.494    0.200    0.380   79.945    8.765
  416.794    0.105    0.327   66.815    8.420
  417.094    0.107    0.284   63.514    7.790
  417.394    0.256    0.336   76.824    7.345
  417.694    0.275    0.436   81.551    6.925
  417.994    0.263    0.439   86.269    6.776
  418.294    0.261    0.454   90.615    6.758
  418.594    0.275    0.458   91.707    6.742
  418.894    0.299    0.453   88.850    6.985
  419.194    0.308    0.433   88.311    7.510
  419.494    0.299    0.441   87.835    8.545
  419.794    0.289    0.433   87.609    9.017
  420.094    0.280    0.425   97.217    9.158
  420.394    0.285    0.431   98.989    8.971
  420.694    0.296    0.447   99.646    8.301
  420.994    0.261    0.438   94.535    7.395
  421.294    0.251    0.448  101.512    5.999
