~VERSION INFORMATION
 VERS.                 2.0:   CWLS LOG ASCII STANDARD -VERSION 2.0
 WRAP.                  NO:   ONE LINE PER DEPTH STEP
~WELL INFORMATION BLOCK
#MNEM.UNIT           DATA                    DESCRIPTION OF MNEMONIC
#---------    -------------------            -------------------------------
# Generated from Intellog Unique Number	CW_82_90/WELL/3072
WELL.         10-08-086-22W4                 : Well_name    - WELL
LOC .         00/10-08-086-22W4/0            : Location     - LOCATION
UWI .         00/10-08-086-22W4/0            : Uwi          - UNIQUE WELL ID
ENTR.         MAX                            : Entered      - ENTERED BY
SRVC.         SCHLUMBERGER                   : Scn          - SERVICE COMPANY
STRT.M        167.64                         : top_depth    - START DEPTH
STOP.M        373.39                         : bot_depth    - STOP DEPTH
STEP.M        0.25                           : increment    - STEP LENGTH
 NULL. -999.2500:NULL Value
~CURVE INFORMATION BLOCK
#MNEM UNIT       ERCB CURVE CODE    CURVE DESCRIPTION
#-----------   ------------------   ----------------------------------
DEPT.M        00 001 00 00         : DEPTH        - DEPTH
GR  .API      00 310 00 00         : GR           - GAMMA RAY
ILD .OHMM     00 120 00 00         : RESD         - DEEP RESISTIVITY (DIL)
NPHI.V/V      00 330 00 00         : PHIN         - NEUTRON POROSITY (SANDSTONE)
DPHI.V/V      00 890 00 00         : PHID         - DENSITY POROSITY (SANDSTONE)
CALI.MM       00 280 01 00         : CAL          - CALIPER
~PARAMETER INFORMATION
#MNEM.UNIT           DATA             DESCRIPTION OF MNEMONIC
#---------         -----------     ------------------------------
GL  .M        576.925              : gl           - GROUND LEVEL ELEVATION
EREF.M        580.187              : kb           - ELEVATION OF DEPTH REFERENCE
DATM.M        576.925              : datum        - DATUM ELEVATION
TDD .M        373.075              : tdd          - TOTAL DEPTH DRILLER
RUN .         ONE                  : Run          - RUN NUMBER
ENG .         BILL                 : Engineer     - RECORDING ENGINEER
WIT .         JIM                  : Witness      - WITNESSED BY
MUD .         GEL                  : Mud_type     - MUD TYPE
MATR.         SANDSTONE            : Logunit      - NEUTRON MATRIX
TMAX.C        20.5556              : BHT          - MAXIMUM RECORDED TEMPERATURE
BHTD.M        373.075              : BHTDEP       - MAXIMUM RECORDED TEMPERATURE
MATR.         1                    : LOGUNIT      - NEUTRON MATRIX
RMT .C        6.66667              : MDTP         - TEMPERATURE OF MUD
NEUT.         1                    : NEUTRON      - NEUTRON TYPE
RESI.         0                    : RESIST       - RESISTIVITY TYPE
RMC .OHMM     5.5                  : RMC          - RESISTIVITY OF MUD CAKE
RMF .OHMM     3.23                 : RMF          - RESISTIVITY OF MUD FILTRATE
SUFT.C        -15                  : SUFT         - SURFACE TEMPERATURE
~A  DEPTH       GR     RESD     PHIN     PHID      CAL
# ...
  204.140  104.222    5.315    0.530    0.260  161.544
  204.390  113.691    4.516    0.577    0.229  163.968
  204.640  113.113    4.434    0.561    0.236  165.420
  204.890  107.082    4.597    0.548    0.243  166.384
  205.140  103.920    5.078    0.545    0.253  166.865
  205.390   99.610    5.869    0.526    0.242  167.344
  205.640   93.578    6.722    0.502    0.227  164.908
  205.890   90.991    8.202    0.487    0.218  162.957
  206.140   88.690   10.008    0.487    0.234  161.006
  206.390   86.103   12.101    0.522    0.281  160.027
  206.640   75.191   15.874    0.514    0.314  159.049
  206.890   65.427   21.013    0.497    0.330  157.584
  207.140   58.821   24.728    0.488    0.356  156.606
  207.390   54.798   24.951    0.505    0.368  156.598
  207.640   53.358   25.175    0.508    0.372  157.564
  207.890   53.642   25.401    0.482    0.370  158.044
  208.140   54.786   25.863    0.478    0.360  159.496
  208.390   55.931   26.814    0.481    0.349  160.462
  208.640   56.788   27.550    0.475    0.354  160.942
  208.890   57.072   28.563    0.461    0.361  160.936
  209.140   57.355   29.347    0.455    0.364  160.929
  209.390   57.351   29.880    0.452    0.364  160.922
  209.640   57.348   30.423    0.461    0.363  160.916
  209.890   57.056   30.146    0.467    0.361  160.424
  210.140   56.766   29.872    0.468    0.357  160.417
  210.390   57.909   29.600    0.477    0.358  160.411
  210.640   58.768   29.331    0.486    0.363  160.405
  210.890   59.624   29.329    0.495    0.360  159.425
  211.140   59.621   29.062    0.503    0.354  159.419
  211.390   59.617   29.059    0.502    0.347  159.899
  211.640   59.614   29.321    0.496    0.337  159.406
  211.890   59.609   29.585    0.483    0.329  159.400
  212.140   59.893   30.396    0.484    0.332  159.393
  212.390   60.176   30.394    0.493    0.334  159.387
  212.640   60.746   30.668    0.498    0.338  159.381
  212.890   60.742   30.943    0.495    0.346  159.374
  213.140   60.738   31.222    0.492    0.341  159.853
  213.390   62.744   31.789    0.482    0.344  159.847
  213.640   64.750   32.076    0.484    0.343  159.354
  213.890   65.032   32.956    0.502    0.336  159.348
  214.140   64.455   34.168    0.489    0.329  159.342
  214.390   62.729   34.788    0.438    0.322  159.334
  214.640   61.577   34.473    0.390    0.310  159.815
  214.890   61.286   33.547    0.425    0.286  159.809
  215.140   60.708   33.543    0.480    0.272  160.288
  215.390   60.131   35.093    0.492    0.308  160.767
  215.640   58.117   38.068    0.486    0.322  160.760
  215.890   55.243   43.599    0.463    0.299  161.240
  216.140   51.794   52.719    0.431    0.256  162.207
  216.390   48.633   63.748    0.277    0.156  162.201
  216.640   47.193   80.651    0.188    0.039  161.222
  216.890   47.477   79.917    0.157    0.032  161.214
  217.140   48.333   72.997    0.165    0.065  160.721
  217.390   49.192   61.460    0.237    0.094  160.716
  217.640   53.207   51.747    0.329    0.143  160.708
  217.890   56.073   39.440    0.376    0.275  160.703
  218.140   57.792   30.334    0.434    0.303  160.696
  218.390   59.223   26.481    0.510    0.325  160.691
  218.640   59.793   25.769    0.506    0.334  161.171
  218.890   60.077   25.077    0.503    0.335  161.164
  219.140   60.073   24.184    0.499    0.329  161.157
  219.390   59.209   23.534    0.481    0.332  161.150
  219.640   60.065   22.901    0.480    0.328  161.142
  219.890   62.071   22.693    0.483    0.325  161.136
  220.140   64.364   22.897    0.479    0.318  161.131
  220.390   65.795   23.314    0.485    0.312  160.639
  220.640   66.653   23.311    0.483    0.325  160.633
  220.890   67.797   23.521    0.480    0.329  160.625
  221.140   68.368   23.733    0.479    0.327  159.647
  221.390   68.076   23.947    0.480    0.326  159.154
  221.640   66.924   23.729    0.490    0.322  158.662
  221.890   64.911   23.514    0.499    0.317  158.655
  222.140   63.472   23.089    0.501    0.311  158.649
  222.390   63.756   22.879    0.497    0.318  158.642
  222.640   64.326   22.878    0.492    0.321  159.122
  222.890   64.896   22.670    0.493    0.331  159.115
  223.140   65.180   22.668    0.494    0.331  159.596
  223.390   65.749   22.666    0.497    0.327  160.075
  223.640   66.607   22.257    0.496    0.334  160.068
  223.890   67.177   21.856    0.494    0.338  160.549
  224.140   67.174   21.462    0.492    0.338  160.542
  224.390   67.457   21.076    0.490    0.334  160.535
  224.640   67.166   20.884    0.487    0.328  160.043
  224.890   67.162   20.694    0.493    0.322  159.551
  225.140   67.446   20.692    0.489    0.320  160.030
  225.390   67.729   20.504    0.489    0.317  160.508
  225.640   67.438   20.317    0.493    0.319  160.502
  225.890   67.434   20.133    0.504    0.316  160.497
  226.140   67.717   20.131    0.508    0.310  160.005
  226.390   68.288   20.129    0.502    0.313  159.512
  226.640   68.571   20.128    0.499    0.312  159.505
  226.890   69.141   19.410    0.504    0.309  159.012
  227.140   69.999   17.729    0.510    0.303  159.006
  227.390   72.004   14.267    0.503    0.308  159.000
  227.640   74.871    9.323    0.494    0.312  158.994
  227.890   78.887    6.670    0.493    0.309  158.986
  228.140   85.772    4.859    0.520    0.301  158.980
  228.390   93.232    3.840    0.511    0.313  158.974
  228.640   98.969    3.571    0.533    0.300  159.454
  228.890  104.707    3.475    0.559    0.286  161.391
  229.140  111.306    3.444    0.583    0.264  163.816
  229.390  118.765    3.570    0.596    0.248  166.240
  229.640  123.928    3.769    0.596    0.259  168.178
  229.890  125.361    4.089    0.596    0.251  168.172
  230.140  125.069    4.356    0.597    0.237  168.166
  230.390  125.352    4.682    0.597    0.233  168.159
  230.640  123.913    4.943    0.597    0.215  167.666
  230.890  121.900    5.079    0.597    0.203  167.174
  231.140  121.609    5.171    0.592    0.193  166.195
  231.390  119.883    5.171    0.576    0.179  165.216
  231.640  116.435    5.170    0.561    0.199  164.237
  231.890  112.412    5.170    0.540    0.197  163.744
  232.140  109.537    5.077    0.533    0.211  162.766
  232.390  106.376    4.985    0.560    0.243  162.272
  232.640  103.502    4.895    0.545    0.266  161.780
  232.890   99.191    4.807    0.536    0.273  161.776
  233.140   97.465    4.939    0.542    0.281  161.768
  233.390   97.461    5.358    0.530    0.288  161.762
  233.640   97.458    5.812    0.515    0.297  162.242
  233.890   97.454    6.537    0.504    0.288  162.235
  234.140   97.163    6.964    0.496    0.266  162.230
  234.390   95.725    7.622    0.488    0.275  161.251
  234.640   93.136    8.344    0.497    0.271  159.786
  234.890   91.698    8.809    0.487    0.271  159.293
  235.140   88.249    9.469    0.483    0.265  159.287
  235.390   86.236   10.179    0.503    0.266  159.766
  235.640   85.657   10.649    0.495    0.268  159.759
  235.890   84.506   10.648    0.488    0.235  159.754
  236.140   83.354   10.647    0.486    0.220  159.261
  236.390   83.349   10.646    0.484    0.209  159.255
  236.640   83.633   10.742    0.479    0.272  159.247
  236.890   81.907   11.137    0.468    0.261  159.727
  237.140   81.903   11.547    0.479    0.264  159.720
  237.390   83.048   12.526    0.476    0.264  160.201
  237.640   83.618   13.223    0.488    0.275  161.165
  237.890   84.475   13.342    0.501    0.283  161.160
  238.140   86.481   13.341    0.508    0.285  161.640
  238.390   90.209   12.750    0.493    0.289  161.634
  238.640   92.215   11.752    0.485    0.283  161.627
  238.890   91.924   10.542    0.483    0.269  161.620
  239.140   91.920    9.984    0.484    0.253  161.614
  239.390   93.064    9.037    0.482    0.237  161.121
  239.640   92.774    8.329    0.485    0.236  161.115
  239.890   92.483    7.608    0.486    0.238  161.108
  240.140   93.341    6.886    0.482    0.243  161.102
  240.390   95.633    6.347    0.488    0.250  160.609
