~VERSION INFORMATION
 VERS.                 2.0:   CWLS LOG ASCII STANDARD -VERSION 2.0
 WRAP.                  NO:   ONE LINE PER DEPTH STEP
~WELL INFORMATION BLOCK
#MNEM.UNIT           DATA                    DESCRIPTION OF MNEMONIC
#---------    -------------------            -------------------------------
# Generated from Intellog Unique Number	CS_67_68/WELL/2200
WELL.         10-33-067-05W4                 : Well_name    - WELL
LOC .         00/10-33-067-05W4/0            : Location     - LOCATION
UWI .         00/10-33-067-05W4/0            : Uwi          - UNIQUE WELL ID
ENTR.         SP                             : Entered      - ENTERED BY
SRVC.         SCHLUMBERGER                   : Scn          - SERVICE COMPANY
STRT.M        320                            : top_depth    - START DEPTH
STOP.M        535                            : bot_depth    - STOP DEPTH
STEP.M        0.25                           : increment    - STEP LENGTH
 NULL. -999.2500:NULL Value
~CURVE INFORMATION BLOCK
#MNEM UNIT       ERCB CURVE CODE    CURVE DESCRIPTION
#-----------   ------------------   ----------------------------------
DEPT.M        00 001 00 00         : DEPTH        - DEPTH
ILD .OHMM     00 120 00 00         : RESD         - DEEP RESISTIVITY (DIL)
DPHI.V/V      00 890 00 00         : PHID         - DENSITY POROSITY (LIMESTONE)
NPHI.V/V      00 330 00 00         : PHIN         - NEUTRON POROSITY (LIMESTONE)
GR  .API      00 310 00 00         : GR           - GAMMA RAY
CALI.MM       00 280 01 00         : CAL          - CALIPER
~PARAMETER INFORMATION
#MNEM.UNIT           DATA             DESCRIPTION OF MNEMONIC
#---------         -----------     ------------------------------
GL  .M        667.11               : gl           - GROUND LEVEL ELEVATION
EREF.M        671.01               : kb           - ELEVATION OF DEPTH REFERENCE
DATM.M        671.01               : datum        - DATUM ELEVATION
TDD .M        543                  : tdd          - TOTAL DEPTH DRILLER
RUN .         ONE                  : Run          - RUN NUMBER
ENG .         BILL                 : Engineer     - RECORDING ENGINEER
WIT .         JIM                  : Witness      - WITNESSED BY
MUD .         GEL                  : Mud_type     - MUD TYPE
MATR.         LIMESTONE            : Logunit      - NEUTRON MATRIX
TMAX.C        25.5                 : BHT          - MAXIMUM RECORDED TEMPERATURE
BHTD.M        543                  : BHTDEP       - MAXIMUM RECORDED TEMPERATURE
MATR.         1                    : LOGUNIT      - NEUTRON MATRIX
RMT .C        25                   : MDTP         - TEMPERATURE OF MUD
NEUT.         1                    : NEUTRON      - NEUTRON TYPE
RESI.         0                    : RESIST       - RESISTIVITY TYPE
RMC .OHMM     0.25                 : RMC          - RESISTIVITY OF MUD CAKE
RMF .OHMM     0.25                 : RMF          - RESISTIVITY OF MUD FILTRATE
SUFT.C        15                   : SUFT         - SURFACE TEMPERATURE
~A  DEPTH     RESD     PHID     PHIN       GR      CAL
# ...
  393.000    6.595    0.345    0.433   64.500  163.351
  393.250    6.545    0.347    0.444   62.437  163.378
  393.500    6.495    0.352    0.452   58.788  163.199
  393.750    6.457    0.351    0.458   56.480  162.921
  394.000    6.408    0.350    0.454   55.395  162.847
  394.250    6.359    0.352    0.438   55.961  162.973
  394.500    6.322    0.359    0.429   56.955  162.590
  394.750    6.297    0.358    0.422   57.642  162.209
  395.000    6.296    0.351    0.422   57.720  161.829
  395.250    6.283    0.347    0.430   55.781  161.958
  395.500    6.282    0.343    0.428   52.985  161.981
  395.750    6.292    0.339    0.421   51.289  161.907
  396.000    6.303    0.343    0.416   52.160  161.627
  396.250    6.302    0.341    0.426   53.337  161.855
  396.500    6.348    0.338    0.438   53.597  162.698
  396.750    6.443    0.338    0.440   53.491  162.520
  397.000    6.453    0.347    0.438   53.811  162.345
  397.250    6.476    0.354    0.438   55.844  162.165
  397.500    6.512    0.351    0.431   59.220  162.087
  397.750    6.572    0.345    0.434   60.579  161.808
  398.000    6.657    0.338    0.439   57.907  161.019
  398.250    6.644    0.335    0.440   55.234  159.929
  398.500    6.470    0.334    0.439   54.210  159.953
  398.750    6.302    0.340    0.439   56.853  159.060
  399.000    6.024    0.346    0.439   59.681  158.985
  399.250    5.619    0.352    0.437   62.629  159.421
  399.500    5.361    0.345    0.418   66.922  160.770
  399.750    5.105    0.280    0.438   70.604  164.358
  400.000    5.047    0.266    0.458   73.367  167.847
  400.250    5.084    0.274    0.482   72.894  171.336
  400.500    5.377    0.304    0.484   70.039  166.172
  400.750    5.676    0.327    0.469   66.939  164.157
  401.000    5.859    0.342    0.456   65.425  164.489
  401.250    5.968    0.351    0.444   66.237  164.514
  401.500    6.172    0.358    0.452   67.413  164.235
  401.750    6.323    0.356    0.460   68.344  163.955
  402.000    6.381    0.351    0.474   69.460  163.677
  402.250    6.380    0.347    0.475   77.543  163.602
  402.500    6.391    0.339    0.477   81.895  163.628
  402.750    6.559    0.331    0.484   84.782  164.060
  403.000    6.976    0.318    0.472   75.388  164.697
  403.250    7.575    0.258    0.462   63.856  165.134
  403.500    8.101    0.146    0.393   56.294  165.669
  403.750    8.362    0.071    0.356   51.300  166.200
  404.000    8.455    0.049    0.310   48.016  166.532
  404.250    7.977    0.187    0.314   51.515  166.559
  404.500    7.330    0.240    0.400   57.947  166.586
  404.750    6.838    0.311    0.418   61.200  166.510
  405.000    6.475    0.329    0.427   61.155  166.537
  405.250    6.295    0.335    0.438   60.681  166.764
  405.500    6.246    0.340    0.427   57.885  167.197
  405.750    6.199    0.349    0.418   55.581  167.528
  406.000    6.186    0.343    0.425   54.436  168.064
  406.250    6.185    0.346    0.443   54.389  168.601
  406.500    6.184    0.349    0.450   53.366  169.033
  406.750    6.194    0.340    0.443   52.831  169.261
  407.000    6.205    0.336    0.434   54.620  169.392
  407.250    6.227    0.344    0.426   57.569  169.518
  407.500    5.985    0.352    0.428   59.660  169.646
  407.750    5.439    0.335    0.426   64.198  169.672
  408.000    4.725    0.311    0.426   70.385  169.699
  408.250    4.051    0.291    0.430   79.627  170.029
  408.500    3.613    0.275    0.461   88.869  169.953
  408.750    3.389    0.265    0.509   95.606  169.775
  409.000    3.121    0.262    0.574   98.615  171.331
  409.250    2.879    0.277    0.598   98.080  173.801
  409.500    2.988    0.292    0.608   92.844  175.660
  409.750    3.425    0.297    0.569   88.213  172.834
  410.000    3.941    0.296    0.521   82.791  168.991
  410.250    4.535    0.299    0.488   75.780  166.571
  410.500    5.074    0.309    0.468   69.808  165.173
  410.750    5.540    0.320    0.464   66.035  164.586
  411.000    5.848    0.326    0.454   63.667  164.205
  411.250    6.047    0.328    0.459   63.133  164.028
  411.500    6.242    0.328    0.464   63.210  163.850
  411.750    6.347    0.333    0.453   62.983  163.573
  412.000    6.429    0.342    0.459   62.447  163.598
  412.250    6.476    0.339    0.463   61.119  163.320
  412.500    6.524    0.335    0.452   60.706  163.247
  412.750    6.572    0.331    0.434   62.861  163.167
  413.000    6.583    0.327    0.407   65.321  163.297
  413.250    6.631    0.328    0.416   68.512  163.225
  413.500    6.705    0.320    0.434   67.613  163.043
  413.750    6.754    0.310    0.443   71.294  163.066
  414.000    6.765    0.305    0.444   75.403  163.096
  414.250    6.739    0.308    0.449   77.618  163.220
  414.500    6.687    0.301    0.456   79.284  163.349
  414.750    6.562    0.293    0.461   80.705  163.475
  415.000    6.439    0.285    0.465   81.636  163.501
  415.250    6.330    0.282    0.469   80.675  163.426
  415.500    6.188    0.286    0.475   78.124  163.350
  415.750    6.084    0.283    0.460   76.001  163.580
  416.000    5.947    0.276    0.446   76.873  163.608
  416.250    5.696    0.265    0.433   79.516  163.836
  416.500    5.333    0.256    0.426   81.791  164.777
  416.750    4.994    0.246    0.439   84.678  166.231
  417.000    4.711    0.236    0.450   87.810  167.782
  417.250    4.453    0.224    0.447   89.415  169.848
  417.500    4.169    0.215    0.459   90.775  170.992
  417.750    3.918    0.230    0.465   89.690  170.917
  418.000    3.824    0.251    0.440   86.774  168.600
  418.250    4.246    0.253    0.445   88.805  167.914
  418.500    4.592    0.240    0.457   89.675  167.940
  418.750    4.995    0.229    0.465   88.715  168.678
  419.000    5.383    0.232    0.460   87.691  169.009
  419.250    5.661    0.222    0.456   87.096  168.831
  419.500    5.855    0.217    0.446   87.724  168.757
  419.750    5.897    0.213    0.459   88.226  168.683
  420.000    5.722    0.211    0.483   90.136  168.501
  420.250    5.490    0.222    0.482   93.025  168.325
  420.500    5.267    0.243    0.475   96.155  169.674
  420.750    5.054    0.249    0.472   99.348  171.840
  421.000    4.922    0.245    0.503   95.698  172.376
  421.250    4.866    0.248    0.513   93.026  171.890
  421.500    4.838    0.266    0.482   93.040  170.287
  421.750    4.801    0.246    0.478   93.850  166.341
  422.000    4.773    0.234    0.478   91.483  164.229
  422.250    4.772    0.224    0.445   91.133  162.428
  422.500    4.771    0.224    0.426   93.102  162.040
  422.750    4.824    0.224    0.441   89.942  161.456
  423.000    4.896    0.221    0.453   91.913  160.972
  423.250    4.960    0.217    0.461   94.494  160.795
  423.500    5.015    0.222    0.467   96.466  160.821
  423.750    5.024    0.229    0.455   95.443  160.849
  424.000    4.976    0.241    0.445   91.547  161.385
  424.250    4.855    0.251    0.437   88.201  162.223
  424.500    4.773    0.248    0.444   85.590  163.064
  424.750    4.614    0.251    0.462   82.368  163.498
  425.000    4.443    0.258    0.483   79.817  163.624
  425.250    4.311    0.260    0.474   82.765  163.550
  425.500    4.223    0.249    0.475   89.442  162.769
  425.750    4.151    0.240    0.493   95.078  162.787
  426.000    4.390    0.236    0.506   96.744  162.711
  426.250    4.670    0.277    0.486   89.550  162.129
  426.500    5.079    0.305    0.457   82.415  161.343
  426.750    5.302    0.319    0.445   78.398  160.752
  427.000    5.618    0.331    0.456   77.620  159.963
  427.250    5.766    0.323    0.464   76.291  159.583
  427.500    5.798    0.328    0.439   71.418  159.305
  427.750    5.764    0.344    0.423   67.403  159.028
  428.000    5.709    0.354    0.423   65.461  159.048
  428.250    5.655    0.347    0.436   67.677  159.280
  428.500    5.559    0.340    0.450   70.259  159.308
  428.750    5.527    0.336    0.443   71.130  159.331
  429.000    5.485    0.333    0.433   69.376  159.561
  429.250    5.474    0.342    0.440   68.778  159.484
