~VERSION INFORMATION
 VERS.                 2.0:   CWLS LOG ASCII STANDARD -VERSION 2.0
 WRAP.                  NO:   ONE LINE PER DEPTH STEP
~WELL INFORMATION BLOCK
#MNEM.UNIT           DATA                    DESCRIPTION OF MNEMONIC
#---------    -------------------            -------------------------------
# Generated from Intellog Unique Number	CW_76_78/WELL/928
WELL.         CHIEFLO SUNNYDAKE DROWND 10-34 : Well_name    - WELL
LOC .         00/10-34-076-22W4/0            : Location     - LOCATION
UWI .         00/10-34-076-22W4/0            : Uwi          - UNIQUE WELL ID
ENTR.         JAYE                           : Entered      - ENTERED BY
SRVC.         SCHLUMBERGER                   : Scn          - SERVICE COMPANY
DATE.         25 MAR 75                      : Date         - LOG DATE
STRT.M        527.304                        : top_depth    - START DEPTH
STOP.M        743.804                        : bot_depth    - STOP DEPTH
STEP.M        0.25                           : increment    - STEP LENGTH
 NULL. -999.2500:NULL Value
~CURVE INFORMATION BLOCK
#MNEM UNIT       ERCB CURVE CODE    CURVE DESCRIPTION
#-----------   ------------------   ----------------------------------
DEPT.M        00 001 00 00         : DEPTH        - DEPTH
ILD .OHMM     00 120 00 00         : RESD         - DEEP RESISTIVITY (DIL)
NPHI.V/V      00 330 00 00         : PHIN         - NEUTRON POROSITY (SANDSTONE)
DPHI.V/V      00 890 00 00         : PHID         - DENSITY POROSITY (SANDSTONE)
GR  .API      00 310 00 00         : GR           - GAMMA RAY
CALI.MM       00 280 01 00         : CAL          - CALIPER
~PARAMETER INFORMATION
#MNEM.UNIT           DATA             DESCRIPTION OF MNEMONIC
#---------         -----------     ------------------------------
GL  .M        811.073              : gl           - GROUND LEVEL ELEVATION
EREF.M        814.578              : kb           - ELEVATION OF DEPTH REFERENCE
DATM.M        811.073              : datum        - DATUM ELEVATION
TDD .M        748.436              : tdd          - TOTAL DEPTH DRILLER
RUN .         ONE                  : Run          - RUN NUMBER
ENG .         BERNIISKY            : Engineer     - RECORDING ENGINEER
WIT .         BROWN                : Witness      - WITNESSED BY
BASE.         EDM                  : Branch       - HOME BASE OF LOGGING UNIT
MUD .         GEL                  : Mud_type     - MUD TYPE
MATR.         SANDSTONE            : Logunit      - NEUTRON MATRIX
TMAX.C        27.7778              : BHT          - MAXIMUM RECORDED TEMPERATURE
BHTD.M        748.894              : BHTDEP       - MAXIMUM RECORDED TEMPERATURE
RMT .C        -17.7778             : MDTP         - TEMPERATURE OF MUD
MUDD.KG/M     1188                 : MWT          - MUD DENSITY
NEUT.         1                    : NEUTRON      - NEUTRON TYPE
RESI.         0                    : RESIST       - RESISTIVITY TYPE
RM  .OHMM     3.82                 : RM           - RESISTIVITY OF MUD
RMC .OHMM     0                    : RMC          - RESISTIVITY OF MUD CAKE
RMF .OHMM     4.9                  : RMF          - RESISTIVITY OF MUD FILTRATE
SUFT.C        -17.7778             : SUFT         - SURFACE TEMPERATURE
~A  DEPTH     RESD     PHIN     PHID       GR      CAL
# ...
  600.304    6.226    0.443    0.323   58.380  166.390
  600.554    6.259    0.442    0.328   57.288  167.641
  600.804    6.256    0.442    0.334   57.234  166.416
  601.054    6.231    0.442    0.342   58.208  165.485
  601.304    6.217    0.440    0.343   59.622  160.626
  601.554    6.261    0.435    0.322   61.893  162.910
  601.804    6.469    0.434    0.310   64.583  165.820
  602.054    6.909    0.436    0.314   67.463  163.443
  602.304    8.208    0.444    0.317   71.751  158.172
  602.554   11.047    0.448    0.306   68.452  157.770
  602.804   14.842    0.439    0.270   62.156  157.054
  603.054   21.618    0.370    0.164   56.535  157.156
  603.304   28.884    0.217    0.038   53.112  159.764
  603.554   39.309    0.185    0.023   51.282  164.325
  603.804   34.682    0.166    0.017   52.021  168.992
  604.054   24.191    0.165    0.012   54.784  171.497
  604.304   13.812    0.213    0.014   60.292  171.713
  604.554    4.664    0.289    0.057   71.918  170.256
  604.804    3.431    0.388    0.103   81.891  166.544
  605.054    2.376    0.422    0.138   91.014  164.700
  605.304    2.104    0.461    0.209   93.282  165.834
  605.554    2.675    0.460    0.206   89.560  170.818
  605.804    3.674    0.453    0.217   83.808  171.742
  606.054    5.102    0.448    0.234   76.479  170.304
  606.304    6.404    0.444    0.255   73.419  166.889
  606.554    7.706    0.440    0.279   75.442  163.795
  606.804    7.704    0.445    0.290   75.146  164.422
  607.054    7.342    0.450    0.286   76.247  164.848
  607.304    6.646    0.457    0.273   78.764  161.956
  607.554    5.940    0.463    0.275   79.805  158.339
  607.804    5.558    0.455    0.282   79.260  153.267
  608.054    5.087    0.434    0.271   80.916  152.671
  608.304    4.605    0.426    0.255   84.347  155.257
  608.554    4.381    0.425    0.228   87.835  159.192
  608.804    4.379    0.442    0.206   93.286  163.344
  609.054    4.484    0.467    0.203   94.023  166.464
  609.304    4.745    0.465    0.206   92.130  166.789
  609.554    4.975    0.451    0.208   90.488  165.548
  609.804    5.197    0.437    0.189   89.884  167.834
  610.054    5.390    0.425    0.187   89.768  168.355
  610.304    5.599    0.429    0.177   89.156  168.362
  610.554    5.712    0.444    0.196   88.059  167.246
  610.804    5.678    0.452    0.204   87.155  166.732
  611.054    5.593    0.463    0.201   87.272  164.349
  611.304    5.420    0.465    0.213   89.421  164.366
  611.554    5.222    0.455    0.216   90.831  165.298
  611.804    5.014    0.440    0.199   90.770  165.836
  612.054    4.805    0.448    0.209   90.102  165.629
  612.304    4.537    0.465    0.221   90.049  165.006
  612.554    4.284    0.479    0.203   91.213  165.846
  612.804    4.144    0.488    0.195   92.450  166.485
  613.054    4.112    0.471    0.205   92.572  165.970
  613.304    4.383    0.476    0.216   91.961  165.764
  613.554    4.664    0.484    0.217   90.865  167.438
  613.804    5.322    0.487    0.218   90.441  167.030
  614.054    6.680    0.492    0.219   88.616  166.317
  614.304    7.979    0.496    0.247   86.047  167.260
  614.554    8.568    0.479    0.263   80.544  165.079
  614.804    8.534    0.452    0.277   76.390  160.321
  615.054    8.284    0.442    0.290   73.833  160.850
  615.304    7.851    0.439    0.300   71.874  161.172
  615.554    7.496    0.439    0.293   69.128  161.710
  615.804    7.263    0.443    0.281   66.925  162.443
  616.054    7.063    0.458    0.274   66.808  163.264
  616.304    6.971    0.451    0.284   66.694  164.937
  616.554    6.867    0.448    0.289   65.290  165.973
  616.804    6.789    0.452    0.282   65.231  166.189
  617.054    6.675    0.454    0.284   67.566  165.373
  617.304    6.636    0.449    0.292   70.200  163.625
  617.554    6.695    0.431    0.300   69.285  160.931
  617.804    6.780    0.429    0.302   65.496  162.384
  618.054    6.953    0.436    0.299   64.459  163.848
  618.304    7.106    0.440    0.296   65.264  161.163
  618.554    7.575    0.442    0.286   65.020  156.404
  618.804    8.564    0.443    0.271   64.107  151.548
  619.054   10.554    0.432    0.262   62.338  150.413
  619.304   12.983    0.320    0.245   58.306  152.911
  619.554   14.148    0.279    0.089   57.702  157.053
  619.804   14.458    0.219    0.051   59.969  161.930
  620.054   13.653    0.215    0.047   62.238  165.459
  620.304   11.193    0.224    0.052   62.243  166.296
  620.554    8.976    0.248    0.071   61.263  165.899
  620.804    7.400    0.292    0.115   62.005  165.804
  621.054    6.457    0.348    0.154   65.017  165.604
  621.304    6.075    0.423    0.266   66.732  164.161
  621.554    5.822    0.451    0.303   67.037  163.227
  621.804    5.682    0.459    0.294   67.657  163.963
  622.054    5.659    0.465    0.285   68.394  164.596
  622.304    5.647    0.468    0.279   69.201  164.616
  622.554    5.656    0.479    0.270   69.563  164.306
  622.804    5.623    0.480    0.256   70.120  164.100
  623.054    5.528    0.466    0.266   71.530  163.927
  623.304    5.446    0.453    0.260   74.650  163.802
  623.554    5.345    0.446    0.254   74.412  163.315
  623.804    5.169    0.440    0.250   75.154  163.000
  624.054    5.045    0.441    0.259   77.912  162.698
  624.304    4.934    0.451    0.267   82.132  162.503
  624.554    4.887    0.460    0.235   91.008  161.894
  624.804    4.813    0.472    0.234   88.935  161.709
  625.054    4.707    0.480    0.247   83.620  161.683
  625.304    4.637    0.457    0.254   83.318  161.817
  625.554    4.584    0.457    0.251   84.847  161.695
  625.804    4.566    0.464    0.239   83.934  161.293
  626.054    4.590    0.454    0.211   83.148  160.784
  626.304    4.639    0.435    0.208   84.924  160.281
  626.554    4.749    0.448    0.217   84.138  160.914
  626.804    5.017    0.473    0.231   82.790  164.238
  627.054    5.437    0.480    0.249   81.455  167.442
  627.304    5.586    0.463    0.263   80.293  167.560
  627.554    5.574    0.449    0.270   78.523  166.425
  627.804    5.235    0.444    0.262   78.040  163.010
  628.054    5.035    0.444    0.272   81.105  157.325
  628.304    4.969    0.465    0.265   85.938  156.934
  628.554    5.078    0.487    0.229   84.850  157.765
  628.804    5.199    0.467    0.242   83.994  158.485
  629.054    5.471    0.467    0.223   84.492  159.039
  629.304    5.082    0.466    0.222   85.409  159.247
  629.554    3.972    0.464    0.231   86.639  159.449
  629.804    3.093    0.458    0.238   90.372  159.268
  630.054    2.665    0.449    0.242   87.750  159.171
  630.304    2.582    0.462    0.229   86.100  159.278
  630.554    3.136    0.465    0.218   90.207  159.404
  630.804    3.794    0.455    0.218   92.840  159.715
  631.054    4.507    0.451    0.218   91.804  159.928
  631.304    4.930    0.467    0.218   88.936  160.038
  631.554    5.207    0.460    0.212   87.717  160.031
  631.804    5.186    0.457    0.201   88.331  160.160
  632.054    4.961    0.468    0.194   90.664  160.144
  632.304    4.702    0.482    0.211   90.362  160.150
  632.554    4.606    0.479    0.207   91.952  160.788
  632.804    4.596    0.478    0.196   91.283  161.517
  633.054    4.586    0.488    0.177   90.745  165.048
  633.304    4.567    0.498    0.162   95.515  168.476
  633.554    4.616    0.503    0.186   99.803  172.102
  633.804    4.709    0.503    0.200   97.480  174.806
  634.054    4.865    0.482    0.207   96.200  173.463
  634.304    5.130    0.466    0.213   94.740  164.771
  634.554    6.038    0.464    0.221   92.361  157.120
  634.804    7.400    0.462    0.228   90.468  158.259
  635.054    7.976    0.458    0.232   91.456  160.968
  635.304    8.003    0.444    0.241   89.195  164.592
  635.554    7.585    0.415    0.201   83.812  165.644
  635.804    6.994    0.378    0.119   76.840  165.141
  636.054    6.544    0.334    0.088   75.866  166.482
  636.304    6.123    0.409    0.100   81.135  169.493
  636.554    5.750    0.438    0.158   87.379  171.265
