~VERSION INFORMATION
 VERS.                 2.0:   CWLS LOG ASCII STANDARD -VERSION 2.0
 WRAP.                  NO:   ONE LINE PER DEPTH STEP
~WELL INFORMATION BLOCK
#MNEM.UNIT           DATA                    DESCRIPTION OF MNEMONIC
#---------    -------------------            -------------------------------
# Generated from Intellog Unique Number	CS_67_68/WELL/2189
WELL.         10-02-067-04W4                 : Well_name    - WELL
LOC .         00/10-02-067-04W4/0            : Location     - LOCATION
UWI .         00/10-02-067-04W4/0            : Uwi          - UNIQUE WELL ID
ENTR.         SP                             : Entered      - ENTERED BY
SRVC.         SCHLUMBERGER                   : Scn          - SERVICE COMPANY
STRT.M        370                            : top_depth    - START DEPTH
STOP.M        590                            : bot_depth    - STOP DEPTH
STEP.M        0.25                           : increment    - STEP LENGTH
 NULL. -999.2500:NULL Value
~CURVE INFORMATION BLOCK
#MNEM UNIT       ERCB CURVE CODE    CURVE DESCRIPTION
#-----------   ------------------   ----------------------------------
DEPT.M        00 001 00 00         : DEPTH        - DEPTH
CALI.MM       00 280 01 00         : CAL          - CALIPER
ILD .OHMM     00 120 00 00         : RESD         - DEEP RESISTIVITY (DIL)
DPHI.V/V      00 890 00 00         : PHID         - DENSITY POROSITY (LIMESTONE)
NPHI.V/V      00 330 00 00         : PHIN         - NEUTRON POROSITY (LIMESTONE)
GR  .API      00 310 00 00         : GR           - GAMMA RAY
~PARAMETER INFORMATION
#MNEM.UNIT           DATA             DESCRIPTION OF MNEMONIC
#---------         -----------     ------------------------------
GL  .M        693.26               : gl           - GROUND LEVEL ELEVATION
EREF.M        697.11               : kb           - ELEVATION OF DEPTH REFERENCE
DATM.M        697.11               : datum        - DATUM ELEVATION
TDD .M        598                  : tdd          - TOTAL DEPTH DRILLER
RUN .         ONE                  : Run          - RUN NUMBER
ENG .         BILL                 : Engineer     - RECORDING ENGINEER
WIT .         JIM                  : Witness      - WITNESSED BY
MUD .         GEL                  : Mud_type     - MUD TYPE
MATR.         LIMESTONE            : Logunit      - NEUTRON MATRIX
TMAX.C        24.5                 : BHT          - MAXIMUM RECORDED TEMPERATURE
BHTD.M        598.6                : BHTDEP       - MAXIMUM RECORDED TEMPERATURE
MATR.         1                    : LOGUNIT      - NEUTRON MATRIX
RMT .C        25                   : MDTP         - TEMPERATURE OF MUD
NEUT.         1                    : NEUTRON      - NEUTRON TYPE
RESI.         0                    : RESIST       - RESISTIVITY TYPE
RMC .OHMM     0.25                 : RMC          - RESISTIVITY OF MUD CAKE
RMF .OHMM     0.25                 : RMF          - RESISTIVITY OF MUD FILTRATE
SUFT.C        15                   : SUFT         - SURFACE TEMPERATURE
~A  DEPTH      CAL     RESD     PHID     PHIN       GR
# ...
  479.500  164.151    6.065    0.303    0.463   85.273
  479.750  164.649    6.065    0.293    0.480   86.174
  480.000  162.838    6.089    0.281    0.472   86.894
  480.250  159.220    6.066    0.275    0.469   87.433
  480.500  157.410    5.648    0.297    0.476   86.708
  480.750  155.900    5.036    0.306    0.477   83.755
  481.000  154.892    4.689    0.303    0.490   81.464
  481.250  154.787    4.516    0.309    0.494   79.234
  481.500  155.285    4.457    0.322    0.476   77.966
  481.750  156.384    4.525    0.331    0.457   76.639
  482.000  157.284    4.726    0.337    0.441   70.675
  482.250  158.081    4.843    0.334    0.445   71.274
  482.500  158.680    5.010    0.325    0.463   74.644
  482.750  159.077    5.203    0.321    0.473   77.291
  483.000  159.875    5.302    0.315    0.480   76.987
  483.250  160.975    5.342    0.308    0.480   79.754
  483.500  163.279    5.194    0.300    0.483   82.462
  483.750  167.188    5.003    0.292    0.493   84.808
  484.000  169.894    4.791    0.285    0.510   88.056
  484.250  173.302    4.623    0.280    0.515   90.824
  484.500  176.710    4.248    0.288    0.504   91.665
  484.750  179.014    3.867    0.292    0.496   92.686
  485.000  180.716    3.321    0.292    0.525   95.332
  485.250  181.615    2.944    0.291    0.572   96.956
  485.500  182.714    2.538    0.292    0.593   98.338
  485.750  183.514    2.306    0.272    0.569   94.542
  486.000  185.817    2.390    0.251    0.552   90.264
  486.250  188.924    2.533    0.262    0.538   95.319
  486.500  191.429    2.656    0.282    0.539   98.569
  486.750  192.729    2.831    0.293    0.533  102.179
  487.000  187.205    3.024    0.287    0.506  103.742
  487.250  176.662    3.230    0.286    0.529  104.281
  487.500  170.034    3.490    0.291    0.546  104.400
  487.750  167.521    4.088    0.308    0.535   98.977
  488.000  168.019    5.629    0.324    0.500   84.462
  488.250  169.219    6.977    0.333    0.466   75.548
  488.500  167.006   10.127    0.336    0.437   67.055
  488.750  162.486   15.064    0.333    0.421   64.884
  489.000  165.292   22.877    0.332    0.411   63.978
  489.250  171.309   29.000    0.333    0.429   62.591
  489.500  175.921   32.961    0.337    0.452   60.902
  489.750  175.215   35.010    0.344    0.463   59.093
  490.000  169.790   34.686    0.351    0.437   57.465
  490.250  165.872   34.557    0.335    0.438   54.511
  490.500  163.158   34.108    0.324    0.449   59.326
  490.750  160.744   33.349    0.317    0.440   58.721
  491.000  159.838   31.640    0.335    0.438   61.609
  491.250  159.934   27.067    0.329    0.444   68.110
  491.500  160.632   22.090    0.328    0.468   72.563
  491.750  163.036   15.924    0.335    0.485   74.668
  492.000  167.146   12.899    0.339    0.503   74.425
  492.250  172.261   11.014    0.343    0.516   73.338
  492.500  176.572   10.293    0.352    0.512   72.433
  492.750  177.270    9.803    0.352    0.482   72.129
  493.000  170.040    9.549    0.330    0.461   71.103
  493.250  163.913   10.009    0.316    0.463   66.885
  493.500  161.701   10.998    0.316    0.476   66.521
  493.750  162.600   12.267    0.322    0.465   67.602
  494.000  163.800   14.101    0.327    0.466   68.382
  494.250  165.903   15.936    0.332    0.479   68.199
  494.500  168.809   18.914    0.344    0.482   66.450
  494.750  171.214   23.485    0.347    0.469   65.845
  495.000  166.191   25.950    0.345    0.459   67.228
  495.250  162.574   27.876    0.341    0.457   69.273
  495.500  165.881   28.892    0.337    0.477   70.956
  495.750  167.684   29.278    0.332    0.478   66.558
  496.000  167.980   28.040    0.328    0.466   67.097
  496.250  163.861   25.911    0.324    0.459   69.443
  496.500  161.248   23.676    0.324    0.454   71.066
  496.750  160.039   22.760    0.327    0.451   71.726
  497.000  160.336   22.380    0.331    0.452   70.338
  497.250  162.037   22.297    0.334    0.457   67.385
  497.500  164.040   22.680    0.336    0.462   65.757
  497.750  165.542   23.069    0.333    0.453   62.262
  498.000  163.731   23.464    0.325    0.446   63.584
  498.250  162.723   23.822    0.321    0.449   65.568
  498.500  163.923   23.869    0.315    0.456   67.252
  498.750  166.428   24.187    0.312    0.452   67.610
  499.000  164.015   24.835    0.325    0.446   67.728
  499.250  161.501   25.166    0.325    0.437   67.244
  499.500  161.798   23.475    0.299    0.426   65.555
  499.750  164.704   20.310    0.277    0.415   71.574
  500.000  166.306   15.578    0.264    0.463   80.725
  500.250  165.398   11.682    0.255    0.492   91.682
  500.500  164.490    8.744    0.251    0.498   92.221
  500.750  165.389    6.757    0.253    0.507   89.810
  501.000  167.191    5.588    0.253    0.506   87.037
  501.250  169.295    5.087    0.252    0.496   87.275
  501.500  168.186    5.373    0.250    0.494   88.176
  501.750  166.275    5.903    0.263    0.488   85.464
  502.000  163.460    6.510    0.296    0.479   81.186
  502.250  162.051    7.554    0.306    0.470   77.630
  502.500  160.943    8.458    0.288    0.469   75.339
  502.750  161.239    9.137    0.293    0.499   73.470
  503.000  161.536   10.134    0.306    0.521   71.721
  503.250  161.732   11.583    0.315    0.499   70.394
  503.500  161.728   13.240    0.318    0.481   71.716
  503.750  161.322   14.602    0.302    0.466   77.073
  504.000  161.218   15.805    0.295    0.451   80.021
  504.250  161.113   16.724    0.289    0.465   80.982
  504.500  161.309   17.334    0.297    0.458   76.523
  504.750  162.008   17.205    0.298    0.454   73.509
  505.000  163.108   15.989    0.308    0.465   73.868
  505.250  162.300   13.781    0.300    0.441   75.793
  505.500  160.590   10.914    0.283    0.427   80.246
  505.750  163.094    8.387    0.265    0.451   84.157
  506.000  166.502    6.172    0.270    0.477   85.961
  506.250  169.810    4.637    0.278    0.491   86.681
  506.500  170.609    3.820    0.281    0.495   86.679
  506.750  170.604    3.250    0.283    0.491   85.713
  507.000  169.496    2.986    0.284    0.507   84.024
  507.250  166.380    2.765    0.281    0.521   82.637
  507.500  163.666    2.550    0.294    0.533   82.393
  507.750  162.558    2.352    0.305    0.543   84.799
  508.000  161.751    2.232    0.311    0.557   86.965
  508.250  161.044    2.157    0.313    0.565   87.805
  508.500  160.939    2.101    0.316    0.560   84.129
  508.750  160.834    2.098    0.306    0.556   82.200
  509.000  161.332    2.138    0.302    0.559   80.992
  509.250  164.439    2.183    0.298    0.550   80.809
  509.500  167.746    2.233    0.300    0.532   82.613
  509.750  168.947    2.262    0.307    0.519   81.527
  510.000  167.737    2.305    0.312    0.528   79.718
  510.250  166.931    2.381    0.314    0.520   81.040
  510.500  166.123    2.454    0.322    0.528   83.506
  510.750  165.718    2.496    0.310    0.531   85.069
  511.000  165.212    2.601    0.278    0.525   84.103
  511.250  164.805    2.805    0.286    0.524   83.378
  511.500  163.596    3.230    0.301    0.521   81.509
  511.750  162.890    3.713    0.293    0.517   80.001
  512.000  164.392    4.049    0.305    0.524   81.503
  512.250  167.298    4.374    0.311    0.537   80.658
  512.500  170.505    4.517    0.320    0.526   78.005
  512.750  170.099    4.586    0.323    0.508   80.833
  513.000  165.980    4.603    0.305    0.495   84.985
  513.250  163.366    4.561    0.290    0.488   87.753
  513.500  161.555    4.409    0.278    0.496   90.882
  513.750  160.447    3.909    0.279    0.519   93.589
  514.000  161.145    3.388    0.287    0.506   93.947
  514.250  163.048    3.084    0.278    0.495   93.764
  514.500  168.463    2.745    0.280    0.527   92.738
  514.750  171.168    2.575    0.298    0.570   87.978
  515.000  169.057    2.452    0.304    0.568   88.036
  515.250  167.647    2.407    0.291    0.565   88.997
  515.500  167.242    2.542    0.281    0.569   86.585
  515.750  172.255    3.241    0.313    0.573   82.247
