~VERSION INFORMATION
 VERS.                 2.0:   CWLS LOG ASCII STANDARD -VERSION 2.0
 WRAP.                  NO:   ONE LINE PER DEPTH STEP
~WELL INFORMATION BLOCK
#MNEM.UNIT           DATA                    DESCRIPTION OF MNEMONIC
#---------    -------------------            -------------------------------
# Generated from Intellog Unique Number	CS_73_76/WELL/3265
WELL.         CHEVRON N CLYDE                : Well_name    - WELL
LOC .         00/11-21-075-11W4/0            : Location     - LOCATION
UWI .         00/11-21-075-11W4/0            : Uwi          - UNIQUE WELL ID
ENTR.         SP                             : Entered      - ENTERED BY
SRVC.         SCHLUMBERGER                   : Scn          - SERVICE COMPANY
STRT.M        274.32                         : top_depth    - START DEPTH
STOP.M        502.57                         : bot_depth    - STOP DEPTH
STEP.M        0.25                           : increment    - STEP LENGTH
 NULL. -999.2500:NULL Value
~CURVE INFORMATION BLOCK
#MNEM UNIT       ERCB CURVE CODE    CURVE DESCRIPTION
#-----------   ------------------   ----------------------------------
DEPT.M        00 001 00 00         : DEPTH        - DEPTH
GR  .API      00 310 00 00         : GR           - GAMMA RAY
DPHI.V/V      00 890 00 00         : PHID         - DENSITY POROSITY (SANDSTONE)
NPHI.V/V      00 330 00 00         : PHIN         - NEUTRON POROSITY (SANDSTONE)
ILD .OHMM     00 120 00 00         : RESD         - DEEP RESISTIVITY (DIL)
~PARAMETER INFORMATION
#MNEM.UNIT           DATA             DESCRIPTION OF MNEMONIC
#---------         -----------     ------------------------------
GL  .M        656.387              : gl           - GROUND LEVEL ELEVATION
EREF.M        660.502              : kb           - ELEVATION OF DEPTH REFERENCE
DATM.M        656.387              : datum        - DATUM ELEVATION
TDD .M        506.273              : tdd          - TOTAL DEPTH DRILLER
RUN .         ONE                  : Run          - RUN NUMBER
ENG .         BILL                 : Engineer     - RECORDING ENGINEER
WIT .         JIM                  : Witness      - WITNESSED BY
MUD .         GEL                  : Mud_type     - MUD TYPE
MATR.         SANDSTONE            : Logunit      - NEUTRON MATRIX
TMAX.C        20.7264              : BHT          - MAXIMUM RECORDED TEMPERATURE
BHTD.M        905                  : BHTDEP       - MAXIMUM RECORDED TEMPERATURE
MATR.         1                    : LOGUNIT      - NEUTRON MATRIX
RMT .C        25                   : MDTP         - TEMPERATURE OF MUD
NEUT.         1                    : NEUTRON      - NEUTRON TYPE
RESI.         0                    : RESIST       - RESISTIVITY TYPE
RMC .OHMM     0.25                 : RMC          - RESISTIVITY OF MUD CAKE
RMF .OHMM     0.25                 : RMF          - RESISTIVITY OF MUD FILTRATE
SUFT.C        15                   : SUFT         - SURFACE TEMPERATURE
~A  DEPTH       GR     PHID     PHIN     RESD
# ...
  404.820   57.477    0.072    0.247   11.029
  405.070   54.934    0.052    0.205   11.323
  405.320   53.838    0.121    0.179   10.024
  405.570   54.353    0.207    0.326    7.883
  405.820   56.846    0.259    0.411    6.493
  406.070   61.061    0.309    0.451    5.547
  406.320   66.073    0.337    0.476    5.094
  406.570   71.209    0.332    0.495    4.780
  406.820   74.225    0.326    0.491    4.639
  407.070   76.520    0.322    0.485    4.595
  407.320   77.199    0.306    0.504    4.594
  407.570   76.589    0.293    0.532    4.590
  407.820   77.661    0.272    0.566    4.675
  408.070   79.372    0.267    0.544    4.820
  408.320   79.536    0.283    0.522    4.975
  408.570   78.528    0.278    0.480    5.393
  408.820   76.095    0.286    0.480    5.600
  409.070   75.188    0.282    0.490    6.246
  409.320   74.814    0.196    0.484    6.831
  409.570   71.854    0.105    0.463    7.093
  409.820   64.145    0.129    0.395    6.367
  410.070   57.231    0.180    0.405    6.015
  410.320   59.945    0.265    0.492    5.497
  410.570   63.332    0.284    0.538    5.225
  410.820   67.677    0.279    0.549    4.912
  411.070   68.946    0.271    0.545    4.766
  411.320   68.803    0.283    0.520    4.685
  411.570   67.826    0.299    0.495    4.691
  411.820   66.904    0.313    0.470    4.586
  412.070   66.959    0.315    0.488    4.601
  412.320   67.121    0.315    0.490    4.500
  412.570   68.817    0.317    0.497    4.503
  412.820   68.795    0.306    0.515    4.425
  413.070   67.982    0.324    0.528    4.426
  413.320   65.671    0.308    0.515    4.426
  413.570   63.027    0.295    0.511    4.343
  413.820   62.895    0.305    0.522    4.353
  414.070   64.540    0.303    0.512    4.271
  414.320   65.577    0.314    0.506    4.268
  414.570   65.780    0.322    0.512    4.252
  414.820   65.291    0.318    0.494    4.190
  415.070   63.572    0.315    0.482    4.199
  415.320   63.436    0.315    0.521    4.110
  415.570   64.984    0.317    0.529    4.109
  415.820   66.035    0.323    0.533    4.199
  416.070   67.028    0.319    0.547    4.190
  416.320   66.527    0.312    0.534    4.253
  416.570   66.367    0.305    0.547    4.295
  416.820   67.007    0.297    0.536    4.348
  417.070   67.047    0.291    0.525    4.479
  417.320   66.252    0.297    0.524    4.750
  417.570   64.697    0.309    0.523    5.282
  417.820   62.369    0.316    0.513    6.066
  418.070   60.123    0.204    0.514    7.080
  418.320   56.537    0.115    0.513    8.594
  418.570   53.138    0.091    0.204   10.165
  418.820   51.297    0.069    0.208   11.184
  419.070   50.492    0.056    0.203   11.928
  419.320   52.954    0.064    0.209   11.387
  419.570   54.501    0.082    0.236    9.152
  419.820   56.505    0.095    0.267    7.327
  420.070   57.546    0.132    0.306    6.215
  420.320   59.801    0.202    0.404    5.529
  420.570   62.206    0.335    0.464    5.140
  420.820   63.630    0.322    0.496    4.926
  421.070   63.511    0.344    0.501    4.775
  421.320   63.543    0.323    0.522    4.636
  421.570   62.849    0.314    0.532    4.506
  421.820   61.868    0.304    0.525    4.510
  422.070   62.234    0.309    0.516    4.473
  422.320   62.842    0.309    0.508    4.428
  422.570   62.993    0.312    0.534    4.500
  422.820   61.561    0.312    0.541    4.417
  423.070   61.684    0.304    0.525    4.429
  423.320   63.672    0.304    0.481    4.438
  423.570   65.493    0.288    0.474    4.340
  423.820   66.478    0.289    0.493    4.348
  424.070   65.616    0.302    0.505    4.301
  424.320   64.152    0.305    0.518    4.271
  424.570   66.405    0.310    0.496    4.270
  424.820   66.534    0.308    0.488    4.309
  425.070   65.865    0.298    0.514    4.347
  425.320   65.459    0.317    0.538    4.341
  425.570   64.478    0.310    0.529    4.437
  425.820   63.512    0.312    0.519    4.428
  426.070   64.409    0.309    0.513    4.480
  426.320   66.719    0.304    0.486    4.596
  426.570   69.484    0.300    0.481    4.678
  426.820   71.428    0.290    0.445    4.765
  427.070   73.381    0.275    0.463    4.886
  427.320   73.161    0.273    0.488    4.942
  427.570   70.960    0.277    0.486    5.087
  427.820   67.384    0.260    0.487    5.228
  428.070   65.449    0.236    0.487    5.308
  428.320   64.000    0.262    0.484    5.319
  428.570   64.896    0.278    0.504    5.322
  428.820   67.012    0.290    0.500    5.319
  429.070   68.902    0.274    0.472    5.286
  429.320   69.536    0.256    0.481    5.226
  429.570   70.180    0.258    0.488    5.176
  429.820   73.812    0.266    0.492    4.909
  430.070   76.078    0.232    0.504    4.768
  430.320   79.132    0.227    0.514    4.718
  430.570   80.500    0.239    0.540    4.700
  430.820   83.727    0.219    0.527    4.762
  431.070   85.076    0.237    0.527    4.855
  431.320   87.110    0.239    0.537    4.953
  431.570   87.177    0.232    0.559    4.936
  431.820   85.298    0.222    0.596    5.049
  432.070   82.658    0.217    0.524    5.042
  432.320   83.440    0.225    0.504    5.128
  432.570   85.974    0.240    0.506    5.262
  432.820   88.775    0.247    0.520    5.420
  433.070   90.240    0.230    0.538    5.583
  433.320   87.814    0.210    0.556    5.734
  433.570   84.877    0.188    0.552    5.733
  433.820   79.987    0.136    0.485    5.625
  434.070   81.576    0.182    0.490    5.515
  434.320   84.891    0.205    0.512    5.437
  434.570   89.997    0.212    0.506    5.471
  434.820   91.375    0.184    0.505    5.518
  435.070   93.533    0.219    0.506    5.592
  435.320   94.566    0.237    0.516    5.736
  435.570   93.539    0.247    0.544    5.727
  435.820   91.240    0.227    0.507    5.750
  436.070   92.021    0.214    0.485    5.505
  436.320   93.010    0.215    0.468    5.425
  436.570   93.135    0.223    0.482    5.216
  436.820   90.562    0.240    0.458    4.923
  437.070   86.025    0.212    0.448    4.691
  437.320   83.450    0.202    0.460    4.567
  437.570   80.171    0.215    0.474    4.254
  437.820   77.468    0.199    0.477    4.139
  438.070   80.405    0.172    0.481    3.774
  438.320   82.940    0.210    0.512    3.268
  438.570   84.151    0.243    0.537    2.826
  438.820   83.192    0.264    0.533    2.493
  439.070   82.853    0.277    0.527    2.203
  439.320   82.569    0.285    0.583    1.930
  439.570   80.860    0.279    0.618    1.856
  439.820   79.363    0.282    0.648    1.864
  440.070   77.359    0.269    0.638    1.901
  440.320   76.286    0.263    0.668    1.946
  440.570   78.305    0.269    0.650    2.004
  440.820   81.693    0.285    0.626    2.066
  441.070   84.233    0.275    0.646    2.129
  441.320   87.209    0.275    0.631    2.196
  441.570   88.745    0.258    0.647    2.289
  441.820   89.464    0.253    0.665    2.512
  442.070   88.055    0.246    0.639    2.742
  442.320   87.058    0.242    0.626    3.172
  442.570   87.089    0.241    0.650    3.545
  442.820   86.717    0.224    0.635    3.901
  443.070   86.504    0.198    0.565    4.453
  443.320   86.533    0.185    0.495    4.749
  443.570   85.828    0.185    0.482    5.083
  443.820   85.827    0.203    0.478    5.449
  444.070   84.913    0.176    0.469    5.699
  444.320   80.632    0.134    0.429    5.773
  444.570   73.812    0.107    0.374    5.842
  444.820   76.130    0.142    0.380    5.816
  445.070   77.474    0.163    0.426    5.149
  445.320   80.543    0.194    0.459    4.423
  445.570   82.191    0.213    0.505    4.057
  445.820   82.289    0.212    0.497    3.827
  446.070   82.882    0.207    0.491    3.624
  446.320   83.566    0.190    0.496    3.450
  446.570   83.495    0.201    0.522    3.271
  446.820   84.538    0.214    0.533    3.132
  447.070   86.538    0.217    0.531    3.068
  447.320   87.674    0.229    0.531    3.009
  447.570   85.524    0.241    0.541    2.967
  447.820   85.562    0.225    0.556    2.953
  448.070   86.569    0.208    0.554    3.013
