~VERSION INFORMATION
 VERS.                 2.0:   CWLS LOG ASCII STANDARD -VERSION 2.0
 WRAP.                  NO:   ONE LINE PER DEPTH STEP
~WELL INFORMATION BLOCK
#MNEM.UNIT           DATA                    DESCRIPTION OF MNEMONIC
#---------    -------------------            -------------------------------
# Generated from Intellog Unique Number	CW_73_75/WELL/1038
WELL.         CDN SUP ET AL FRANCIS 11-13    : Well_name    - WELL
LOC .         00/11-13-075-20W4/0            : Location     - LOCATION
UWI .         00/11-13-075-20W4/0            : Uwi          - UNIQUE WELL ID
ENTR.         JAYE                           : Entered      - ENTERED BY
SRVC.         SCHLUMBERGER                   : Scn          - SERVICE COMPANY
DATE.         2 FEB 77                       : Date         - LOG DATE
STRT.M        292.608                        : top_depth    - START DEPTH
STOP.M        496.858                        : bot_depth    - STOP DEPTH
STEP.M        0.25                           : increment    - STEP LENGTH
 NULL. -999.2500:NULL Value
~CURVE INFORMATION BLOCK
#MNEM UNIT       ERCB CURVE CODE    CURVE DESCRIPTION
#-----------   ------------------   ----------------------------------
DEPT.M        00 001 00 00         : DEPTH        - DEPTH
ILD .OHMM     00 120 00 00         : RESD         - DEEP RESISTIVITY (DIL)
NPHI.V/V      00 330 00 00         : PHIN         - NEUTRON POROSITY (SANDSTONE)
DPHI.V/V      00 890 00 00         : PHID         - DENSITY POROSITY (SANDSTONE)
GR  .API      00 310 00 00         : GR           - GAMMA RAY
CALI.MM       00 280 01 00         : CAL          - CALIPER
~PARAMETER INFORMATION
#MNEM.UNIT           DATA             DESCRIPTION OF MNEMONIC
#---------         -----------     ------------------------------
GL  .M        611.734              : gl           - GROUND LEVEL ELEVATION
EREF.M        616.001              : kb           - ELEVATION OF DEPTH REFERENCE
DATM.M        611.734              : datum        - DATUM ELEVATION
TDD .M        548.64               : tdd          - TOTAL DEPTH DRILLER
RUN .         ONE                  : Run          - RUN NUMBER
ENG .         LEDUC                : Engineer     - RECORDING ENGINEER
WIT .         KELLY                : Witness      - WITNESSED BY
BASE.         EDM                  : Branch       - HOME BASE OF LOGGING UNIT
MUD .         GEL CHEM             : Mud_type     - MUD TYPE
MATR.         SANDSTONE            : Logunit      - NEUTRON MATRIX
TMAX.C        100082               : BHT          - MAXIMUM RECORDED TEMPERATURE
BHTD.M        548.945              : BHTDEP       - MAXIMUM RECORDED TEMPERATURE
RMT .C        16.1111              : MDTP         - TEMPERATURE OF MUD
MUDD.KG/M     0                    : MWT          - MUD DENSITY
NEUT.         1                    : NEUTRON      - NEUTRON TYPE
RESI.         0                    : RESIST       - RESISTIVITY TYPE
RM  .OHMM     4                    : RM           - RESISTIVITY OF MUD
RMC .OHMM     0                    : RMC          - RESISTIVITY OF MUD CAKE
RMF .OHMM     4.32                 : RMF          - RESISTIVITY OF MUD FILTRATE
SUFT.C        -17.7778             : SUFT         - SURFACE TEMPERATURE
~A  DEPTH     RESD     PHIN     PHID       GR      CAL
# ...
  402.108    4.486    0.303    0.212   62.627  163.477
  402.358    4.244    0.400    0.257   62.333  163.290
  402.608    4.175    0.422    0.317   60.713  163.000
  402.858    4.246    0.459    0.324   62.234  162.723
  403.108    4.349    0.460    0.326   65.025  162.538
  403.358    4.464    0.456    0.310   67.279  162.244
  403.608    4.506    0.450    0.329   69.044  162.256
  403.858    4.498    0.448    0.320   69.539  162.291
  404.108    4.474    0.447    0.316   69.971  162.192
  404.358    4.441    0.438    0.315   70.650  162.120
  404.608    4.433    0.435    0.312   70.541  162.242
  404.858    4.409    0.436    0.300   70.611  162.047
  405.108    4.386    0.438    0.296   70.866  162.163
  405.358    4.386    0.442    0.304   67.793  162.301
  405.608    4.387    0.448    0.322   65.200  162.320
  405.858    4.363    0.454    0.328   65.274  162.219
  406.108    4.331    0.459    0.323   67.040  162.436
  406.358    4.316    0.446    0.309   67.049  162.574
  406.608    4.308    0.452    0.309   65.369  162.596
  406.858    4.269    0.453    0.305   65.678  162.605
  407.108    4.269    0.445    0.301   68.047  162.526
  407.358    4.278    0.440    0.312   67.823  162.536
  407.608    4.278    0.450    0.293   67.167  162.469
  407.858    4.263    0.451    0.278   69.235  162.485
  408.108    4.240    0.438    0.288   73.903  162.506
  408.358    4.209    0.455    0.298   76.638  162.632
  408.608    4.194    0.461    0.309   78.156  162.750
  408.858    4.194    0.442    0.290   80.228  162.762
  409.108    4.050    0.439    0.274   77.822  162.892
  409.358    3.969    0.441    0.268   76.799  163.618
  409.608    3.970    0.420    0.277   80.741  163.955
  409.858    4.044    0.426    0.264   84.143  164.479
  410.108    4.291    0.435    0.256   89.665  167.370
  410.358    4.621    0.454    0.223   93.244  175.385
  410.608    4.699    0.481    0.248   90.774  189.947
  410.858    4.787    0.482    0.258   88.183  182.899
  411.108    4.904    0.469    0.262   88.378  173.289
  411.358    5.071    0.469    0.260   89.778  165.727
  411.608    5.137    0.473    0.254   92.149  164.096
  411.858    5.224    0.459    0.256   95.005  163.616
  412.108    5.293    0.431    0.237   97.679  163.609
  412.358    5.392    0.438    0.222   98.235  163.647
  412.608    5.433    0.449    0.224   99.876  163.974
  412.858    5.494    0.459    0.231  101.282  164.192
  413.108    5.556    0.463    0.215   99.416  164.527
  413.358    5.608    0.450    0.207  102.575  165.063
  413.608    5.619    0.436    0.201  104.096  165.490
  413.858    5.558    0.427    0.191  102.171  165.706
  414.108    5.437    0.413    0.178   99.643  165.732
  414.358    5.347    0.382    0.168  102.013  165.954
  414.608    5.192    0.389    0.164  104.747  166.588
  414.858    5.060    0.415    0.197  105.967  167.415
  415.108    4.895    0.428    0.204  106.342  167.850
  415.358    4.788    0.430    0.211  108.593  168.177
  415.608    4.692    0.432    0.193  105.093  168.396
  415.858    4.607    0.434    0.205  100.326  168.520
  416.108    4.531    0.438    0.214  100.996  168.441
  416.358    4.432    0.446    0.214  102.407  168.962
  416.608    4.352    0.454    0.210  105.437  168.894
  416.858    4.257    0.454    0.203  106.959  169.110
  417.108    4.118    0.452    0.215  107.825  169.023
  417.358    3.991    0.443    0.220  109.769  169.461
  417.608    3.714    0.429    0.206  109.360  169.687
  417.858    3.330    0.431    0.194  110.217  170.213
  418.108    2.851    0.443    0.178  110.709  170.644
  418.358    2.576    0.454    0.184  109.935  171.057
  418.608    2.497    0.457    0.189  113.575  171.400
  418.858    2.634    0.455    0.198  111.594  172.022
  419.108    3.038    0.449    0.189  110.813  172.256
  419.358    3.382    0.444    0.173  111.672  172.272
  419.608    4.414    0.441    0.182  112.833  172.079
  419.858    5.391    0.440    0.189  114.419  171.906
  420.108    5.657    0.440    0.194  113.220  171.510
  420.358    5.785    0.439    0.192  109.238  171.015
  420.608    5.828    0.438    0.189  109.857  170.113
  420.858    5.905    0.440    0.185  109.624  169.205
  421.108    5.927    0.449    0.191  105.705  167.904
  421.358    5.961    0.455    0.206  100.331  165.968
  421.608    6.028    0.451    0.213   98.463  165.678
  421.858    6.062    0.440    0.202  100.412  166.521
  422.108    6.142    0.432    0.208  100.366  167.665
  422.358    6.154    0.431    0.185   99.344  168.303
  422.608    6.155    0.431    0.178   99.600  168.531
  422.858    6.189    0.418    0.200   98.947  168.948
  423.108    6.156    0.406    0.218   99.318  169.171
  423.358    6.145    0.408    0.213  101.147  169.379
  423.608    6.146    0.421    0.184  104.608  169.525
  423.858    6.135    0.429    0.193  105.825  169.842
  424.108    6.113    0.438    0.202  104.022  169.858
  424.358    6.103    0.442    0.206  105.062  169.783
  424.608    6.070    0.436    0.206  106.951  169.797
  424.858    6.037    0.410    0.200  108.835  169.724
  425.108    5.993    0.410    0.203  109.695  169.633
  425.358    5.950    0.416    0.191  109.585  169.239
  425.608    5.863    0.414    0.194  104.575  168.957
  425.858    5.820    0.406    0.196  102.038  168.455
  426.108    5.683    0.397    0.201  101.510  167.977
  426.358    5.518    0.397    0.204  101.643  167.790
  426.608    5.357    0.400    0.195  102.383  168.323
  426.858    5.309    0.410    0.191  103.056  169.154
  427.108    5.428    0.420    0.205  104.279  170.097
  427.358    5.728    0.427    0.210  103.564  172.576
  427.608    6.389    0.431    0.192  101.880  173.825
  427.858    7.219    0.440    0.165   98.745  172.497
  428.108    8.233    0.446    0.186   96.340  171.304
  428.358    9.098    0.451    0.173   93.081  169.677
  428.608    8.656    0.431    0.153   88.494  168.574
  428.858    7.648    0.402    0.135   80.402  167.554
  429.108    6.537    0.362    0.128   72.668  166.564
  429.358    5.819    0.314    0.099   66.389  165.866
  429.608    5.237    0.269    0.073   64.522  164.539
  429.858    4.955    0.282    0.144   65.322  163.844
  430.108    4.706    0.297    0.215   66.174  162.950
  430.358    4.477    0.321    0.243   65.950  162.451
  430.608    4.315    0.373    0.298   66.681  162.268
  430.858    4.292    0.411    0.310   66.759  161.878
  431.108    4.268    0.424    0.305   67.009  161.490
  431.358    4.277    0.414    0.307   64.057  160.988
  431.608    4.309    0.403    0.311   65.337  160.798
  431.858    4.342    0.401    0.302   65.595  160.730
  432.108    4.374    0.404    0.296   63.545  160.641
  432.358    4.383    0.405    0.305   62.652  160.652
  432.608    4.391    0.402    0.314   65.019  160.572
  432.858    4.392    0.405    0.305   66.606  160.905
  433.108    4.401    0.419    0.282   67.768  161.127
  433.358    4.401    0.420    0.265   68.201  161.147
  433.608    4.393    0.415    0.273   66.823  161.273
  433.858    4.410    0.411    0.272   66.045  161.379
  434.108    4.443    0.405    0.279   65.749  161.812
  434.358    4.469    0.399    0.291   65.889  162.145
  434.608    4.502    0.398    0.280   66.743  162.566
  434.858    4.528    0.403    0.278   68.085  163.110
  435.108    4.562    0.415    0.286   69.367  163.537
  435.358    4.579    0.429    0.276   69.018  163.852
  435.608    4.597    0.429    0.272   68.062  164.592
  435.858    4.597    0.426    0.272   70.491  165.027
  436.108    4.581    0.422    0.277   72.924  165.244
  436.358    4.565    0.427    0.285   72.630  165.478
  436.608    4.590    0.434    0.293   71.190  165.596
  436.858    4.574    0.440    0.282   70.477  165.810
  437.108    4.712    0.441    0.273   72.545  165.738
  437.358    4.845    0.436    0.270   74.855  165.551
  437.608    4.973    0.429    0.236   76.680  165.466
  437.858    5.029    0.423    0.256   82.137  165.489
  438.108    4.946    0.421    0.268   82.745  165.593
  438.358    4.663    0.421    0.256   83.914  165.617
