~VERSION INFORMATION
 VERS.                 2.0:   CWLS LOG ASCII STANDARD -VERSION 2.0
 WRAP.                  NO:   ONE LINE PER DEPTH STEP
~WELL INFORMATION BLOCK
#MNEM.UNIT           DATA                    DESCRIPTION OF MNEMONIC
#---------    -------------------            -------------------------------
# Generated from Intellog Unique Number	CS_71_72/WELL/921
WELL.         HUDSON'S BAY OIL AND GAS       : Well_name    - WELL
LOC .         00/13-15-071-12W4/0            : Location     - LOCATION
UWI .         00/13-15-071-12W4/0            : Uwi          - UNIQUE WELL ID
ENTR.         SP                             : Entered      - ENTERED BY
SRVC.         SCHLUMBERGER                   : Scn          - SERVICE COMPANY
STRT.M        260                            : top_depth    - START DEPTH
STOP.M        480                            : bot_depth    - STOP DEPTH
STEP.M        0.25                           : increment    - STEP LENGTH
 NULL. -999.2500:NULL Value
~CURVE INFORMATION BLOCK
#MNEM UNIT       ERCB CURVE CODE    CURVE DESCRIPTION
#-----------   ------------------   ----------------------------------
DEPT.M        00 001 00 00         : DEPTH        - DEPTH
ILD .OHMM     00 120 00 00         : RESD         - DEEP RESISTIVITY (DIL)
DPHI.V/V      00 890 00 00         : PHID         - DENSITY POROSITY (LIMESTONE)
NPHI.V/V      00 330 00 00         : PHIN         - NEUTRON POROSITY (LIMESTONE)
GR  .API      00 310 00 00         : GR           - GAMMA RAY
~PARAMETER INFORMATION
#MNEM.UNIT           DATA             DESCRIPTION OF MNEMONIC
#---------         -----------     ------------------------------
GL  .M        597.56               : gl           - GROUND LEVEL ELEVATION
EREF.M        601.56               : kb           - ELEVATION OF DEPTH REFERENCE
DATM.M        597.96               : datum        - DATUM ELEVATION
TDD .M        484                  : tdd          - TOTAL DEPTH DRILLER
RUN .         ONE                  : Run          - RUN NUMBER
ENG .         BILL                 : Engineer     - RECORDING ENGINEER
WIT .         JIM                  : Witness      - WITNESSED BY
MUD .         GEL                  : Mud_type     - MUD TYPE
MATR.         LIMESTONE            : Logunit      - NEUTRON MATRIX
TMAX.C        22                   : BHT          - MAXIMUM RECORDED TEMPERATURE
BHTD.M        484                  : BHTDEP       - MAXIMUM RECORDED TEMPERATURE
MATR.         1                    : LOGUNIT      - NEUTRON MATRIX
RMT .C        25                   : MDTP         - TEMPERATURE OF MUD
NEUT.         1                    : NEUTRON      - NEUTRON TYPE
RESI.         0                    : RESIST       - RESISTIVITY TYPE
RMC .OHMM     0.25                 : RMC          - RESISTIVITY OF MUD CAKE
RMF .OHMM     0.25                 : RMF          - RESISTIVITY OF MUD FILTRATE
SUFT.C        15                   : SUFT         - SURFACE TEMPERATURE
~A  DEPTH     RESD     PHID     PHIN       GR
# ...
  303.500    6.642    0.200    0.478   89.167
  303.750    5.278    0.211    0.507   92.440
  304.000    3.904    0.211    0.509   94.919
  304.250    3.427    0.205    0.491   93.683
  304.500    3.771    0.211    0.477   88.972
  304.750    4.341    0.218    0.470   84.078
  305.000    4.785    0.210    0.479   86.375
  305.250    5.345    0.207    0.488   89.465
  305.500    5.815    0.213    0.470   91.151
  305.750    6.220    0.218    0.466   91.805
  306.000    6.021    0.225    0.453   91.359
  306.250    5.742    0.236    0.444   89.085
  306.500    5.718    0.249    0.438   86.265
  306.750    5.891    0.265    0.447   76.677
  307.000    6.160    0.279    0.446   70.504
  307.250    6.515    0.289    0.436   66.341
  307.500    6.801    0.298    0.436   62.666
  307.750    7.099    0.287    0.441   64.171
  308.000    7.326    0.273    0.434   70.244
  308.250    7.490    0.261    0.436   75.468
  308.500    7.544    0.251    0.447   79.534
  308.750    7.387    0.261    0.459   74.823
  309.000    7.178    0.271    0.472   70.112
  309.250    7.229    0.266    0.488   69.910
  309.500    7.518    0.258    0.500   73.790
  309.750    7.788    0.254    0.484   78.095
  310.000    7.903    0.252    0.475   80.336
  310.250    7.856    0.249    0.469   82.694
  310.500    7.619    0.250    0.472   78.592
  310.750    7.460    0.252    0.477   76.808
  311.000    7.401    0.251    0.482   78.862
  311.250    7.384    0.243    0.469   80.914
  311.500    7.339    0.234    0.455   82.479
  311.750    7.225    0.227    0.454   83.680
  312.000    7.197    0.217    0.478   84.334
  312.250    7.100    0.206    0.452   86.081
  312.500    6.952    0.198    0.455   88.257
  312.750    6.655    0.199    0.482   90.494
  313.000    6.112    0.198    0.499   92.791
  313.250    5.677    0.200    0.487   94.297
  313.500    5.527    0.213    0.456   93.485
  313.750    5.857    0.225    0.431   89.505
  314.000    6.276    0.229    0.424   85.464
  314.250    6.650    0.227    0.444   82.643
  314.500    6.851    0.218    0.458   81.160
  314.750    7.164    0.210    0.474   85.530
  315.000    7.244    0.202    0.482   89.656
  315.250    6.934    0.207    0.488   88.846
  315.500    6.738    0.241    0.484   78.403
  315.750    6.660    0.259    0.447   74.362
  316.000    6.822    0.271    0.429   72.150
  316.250    7.269    0.272    0.428   70.915
  316.500    7.560    0.272    0.440   69.373
  316.750    8.114    0.274    0.439   66.916
  317.000    8.267    0.264    0.420   65.130
  317.250    8.469    0.256    0.408   66.939
  317.500    8.642    0.251    0.396   70.090
  317.750    8.704    0.256    0.400   71.963
  318.000    8.766    0.243    0.409   71.394
  318.250    8.746    0.230    0.430   73.266
  318.500    8.644    0.216    0.446   73.918
  318.750    8.416    0.233    0.437   70.974
  319.000    8.365    0.251    0.408   69.675
  319.250    8.521    0.253    0.391   73.741
  319.500    8.760    0.238    0.383   78.535
  319.750    8.874    0.223    0.375   80.770
  320.000    9.037    0.203    0.374   82.398
  320.250    9.086    0.185    0.392   85.121
  320.500    9.100    0.187    0.409   86.687
  320.750    9.027    0.197    0.427   87.767
  321.000    8.990    0.207    0.436   89.091
  321.250    8.936    0.206    0.435   89.071
  321.500    8.848    0.199    0.436   87.528
  321.750    8.664    0.197    0.450   89.461
  322.000    8.247    0.200    0.453   89.200
  322.250    7.820    0.206    0.441   81.928
  322.500    7.514    0.200    0.442   82.213
  322.750    7.316    0.205    0.463   86.398
  323.000    7.217    0.235    0.478   88.515
  323.250    7.448    0.255    0.481   79.477
  323.500    7.616    0.271    0.469   70.805
  323.750    7.949    0.285    0.456   63.167
  324.000    8.189    0.290    0.441   54.739
  324.250    8.531    0.293    0.433   54.843
  324.500    8.755    0.295    0.423   56.836
  324.750    8.983    0.282    0.414   60.840
  325.000    8.982    0.263    0.406   66.304
  325.250    8.927    0.246    0.398   69.823
  325.500    8.824    0.227    0.390   72.546
  325.750    8.525    0.231    0.414   70.455
  326.000    8.427    0.254    0.432   66.476
  326.250    8.488    0.268    0.444   62.370
  326.500    8.596    0.278    0.433   60.647
  326.750    8.691    0.287    0.403   59.288
  327.000    8.817    0.287    0.382   59.332
  327.250    8.881    0.285    0.406   59.678
  327.500    8.876    0.290    0.418   58.137
  327.750    8.839    0.298    0.422   61.897
  328.000    8.753    0.296    0.426   65.900
  328.250    8.668    0.282    0.414   69.111
  328.500    8.617    0.265    0.405   72.869
  328.750    8.549    0.247    0.397   76.325
  329.000    8.528    0.232    0.392   80.877
  329.250    8.493    0.233    0.395   83.237
  329.500    8.475    0.239    0.399   83.280
  329.750    8.375    0.242    0.409   83.625
  330.000    8.326    0.245    0.417   84.705
  330.250    8.322    0.234    0.424   85.906
  330.500    8.319    0.224    0.434   86.741
  330.750    8.316    0.225    0.444   86.844
  331.000    8.358    0.243    0.452   85.970
  331.250    8.418    0.261    0.444   82.601
  331.500    8.447    0.258    0.438   73.808
  331.750    8.522    0.252    0.436   65.255
  332.000    8.568    0.263    0.428   58.657
  332.250    8.809    0.284    0.413   49.069
  332.500    9.058    0.304    0.403   47.282
  332.750    9.471    0.309    0.411   45.984
  333.000    9.721    0.306    0.412   44.322
  333.250    9.884    0.302    0.399   41.558
  333.500   10.275    0.289    0.388   39.162
  333.750   10.351    0.274    0.381   36.951
  334.000   10.522    0.263    0.383   38.398
  334.250   10.559    0.260    0.381   41.060
  334.500   10.536    0.268    0.376   44.089
  334.750   10.374    0.276    0.377   45.716
  335.000   10.062    0.282    0.386   45.756
  335.250    9.631    0.286    0.421   46.410
  335.500    9.395    0.288    0.416   46.940
  335.750    9.427    0.290    0.406   46.920
  336.000    9.620    0.291    0.395   45.257
  336.250    9.945    0.293    0.404   43.471
  336.500   10.055    0.299    0.423   44.788
  336.750   10.204    0.307    0.431   45.503
  337.000   10.315    0.310    0.432   46.219
  337.250   10.330    0.312    0.420   47.109
  337.500   10.268    0.310    0.412   47.461
  337.750   10.187    0.309    0.408   47.809
  338.000   10.107    0.308    0.407   48.215
  338.250   10.028    0.307    0.407   48.382
  338.500   10.023    0.306    0.417   48.483
  338.750   10.001    0.303    0.426   48.770
  339.000    9.996    0.300    0.432   48.992
  339.250    9.954    0.299    0.422   48.976
  339.500    9.949    0.299    0.413   48.776
  339.750    9.854    0.303    0.409   47.653
  340.000    9.868    0.309    0.408   47.094
  340.250    9.808    0.314    0.410   45.856
  340.500    9.785    0.307    0.425   45.836
  340.750    9.727    0.301    0.414   46.489
  341.000    9.631    0.306    0.397   47.072
  341.250    9.591    0.309    0.398   47.305
  341.500    9.570    0.312    0.409   47.653
  341.750    9.474    0.308    0.412   47.392
  342.000    9.689    0.305    0.417   46.274
  342.250    9.612    0.303    0.407   46.133
  342.500    9.537    0.303    0.400   46.787
  342.750    9.443    0.304    0.397   47.864
  343.000    9.457    0.305    0.398   48.517
  343.250    9.400    0.307    0.408   49.107
  343.500    9.412    0.309    0.412   49.212
  343.750    9.410    0.310    0.421   46.938
  344.000    9.440    0.306    0.430   44.846
  344.250    9.438    0.303    0.419   44.342
  344.500    9.397    0.306    0.412   47.004
  344.750    9.413    0.313    0.410   48.387
  345.000    9.374    0.312    0.409   48.187
  345.250    9.369    0.306    0.414   46.825
  345.500    9.347    0.305    0.422   45.894
  345.750    9.345    0.307    0.430   46.484
  346.000    9.340    0.310    0.444   48.353
  346.250    9.336    0.307    0.454   49.127
  346.500    9.350    0.305    0.447   48.621
  346.750    9.328    0.304    0.447   47.502
