~VERSION INFORMATION
 VERS.                 2.0:   CWLS LOG ASCII STANDARD -VERSION 2.0
 WRAP.                  NO:   ONE LINE PER DEPTH STEP
~WELL INFORMATION BLOCK
#MNEM.UNIT           DATA                    DESCRIPTION OF MNEMONIC
#---------    -------------------            -------------------------------
# Generated from Intellog Unique Number	CS_73_76/WELL/3276
WELL.         CWWE HARDY                     : Well_name    - WELL
LOC .         00/13-32-076-04W4/0            : Location     - LOCATION
UWI .         00/13-32-076-04W4/0            : Uwi          - UNIQUE WELL ID
ENTR.         SP                             : Entered      - ENTERED BY
SRVC.         SCHLUMBERGER                   : Scn          - SERVICE COMPANY
STRT.M        165                            : top_depth    - START DEPTH
STOP.M        425                            : bot_depth    - STOP DEPTH
STEP.M        0.25                           : increment    - STEP LENGTH
 NULL. -999.2500:NULL Value
~CURVE INFORMATION BLOCK
#MNEM UNIT       ERCB CURVE CODE    CURVE DESCRIPTION
#-----------   ------------------   ----------------------------------
DEPT.M        00 001 00 00         : DEPTH        - DEPTH
DPHI.V/V      00 890 00 00         : PHID         - DENSITY POROSITY (LIMESTONE)
NPHI.V/V      00 330 00 00         : PHIN         - NEUTRON POROSITY (LIMESTONE)
GR  .API      00 310 00 00         : GR           - GAMMA RAY
ILD .OHMM     00 120 00 00         : RESD         - DEEP RESISTIVITY (DIL)
~PARAMETER INFORMATION
#MNEM.UNIT           DATA             DESCRIPTION OF MNEMONIC
#---------         -----------     ------------------------------
GL  .M        580.54               : gl           - GROUND LEVEL ELEVATION
EREF.M        583.04               : kb           - ELEVATION OF DEPTH REFERENCE
DATM.M        580.54               : datum        - DATUM ELEVATION
TDD .M        428                  : tdd          - TOTAL DEPTH DRILLER
RUN .         ONE                  : Run          - RUN NUMBER
ENG .         BILL                 : Engineer     - RECORDING ENGINEER
WIT .         JIM                  : Witness      - WITNESSED BY
MUD .         GEL                  : Mud_type     - MUD TYPE
MATR.         LIMESTONE            : Logunit      - NEUTRON MATRIX
TMAX.C        60                   : BHT          - MAXIMUM RECORDED TEMPERATURE
BHTD.M        428                  : BHTDEP       - MAXIMUM RECORDED TEMPERATURE
MATR.         1                    : LOGUNIT      - NEUTRON MATRIX
RMT .C        25                   : MDTP         - TEMPERATURE OF MUD
NEUT.         1                    : NEUTRON      - NEUTRON TYPE
RESI.         0                    : RESIST       - RESISTIVITY TYPE
RMC .OHMM     0.25                 : RMC          - RESISTIVITY OF MUD CAKE
RMF .OHMM     0.25                 : RMF          - RESISTIVITY OF MUD FILTRATE
SUFT.C        15                   : SUFT         - SURFACE TEMPERATURE
~A  DEPTH     PHID     PHIN       GR     RESD
  165.000    0.256    0.470  103.054    3.192
  165.250    0.258    0.467  103.057    3.134
  165.500    0.258    0.476  100.014    3.135
  165.750    0.256    0.479   98.189    3.021
  166.000    0.264    0.489  100.023    3.021
  166.250    0.278    0.497  104.297    2.966
  166.500    0.280    0.500  106.131    2.967
  166.750    0.275    0.463  104.306    2.913
  167.000    0.267    0.444  104.921    2.914
  167.250    0.254    0.447  101.877    2.915
  167.500    0.257    0.455  100.053    3.142
  167.750    0.261    0.447  101.887    3.144
  168.000    0.257    0.449   95.184    3.265
  168.250    0.229    0.454   87.872    3.265
  168.500    0.129    0.446   92.145    3.328
  168.750    0.149    0.447  100.077    3.329
  169.000    0.194    0.465  101.912    3.268
  169.250    0.249    0.482  103.746    3.149
  169.500    0.247    0.481  103.141    3.092
  169.750    0.243    0.487  100.097    2.979
  170.000    0.238    0.497  101.322    2.925
  170.250    0.232    0.506  101.936    2.871
  170.500    0.230    0.513  100.722    2.819
  170.750    0.227    0.501   98.288    2.820
  171.000    0.179    0.488   97.683    2.874
  171.250    0.140    0.479  101.956    3.041
  171.500    0.173    0.476  105.620    3.099
  171.750    0.222    0.474  109.283    3.218
  172.000    0.232    0.463  108.679    3.280
  172.250    0.230    0.469  106.854    3.343
  172.500    0.227    0.467  105.639    3.472
  172.750    0.222    0.462  107.474    3.538
  173.000    0.217    0.466  106.869    3.540
  173.250    0.214    0.457  106.265    3.541
  173.500    0.225    0.458  106.270    3.609
  173.750    0.227    0.472  105.054    3.678
  174.000    0.228    0.473  102.011    3.679
  174.250    0.220    0.476  102.625    3.545
  174.500    0.215    0.478  106.289    3.480
  174.750    0.221    0.467  105.684    3.354
  175.000    0.226    0.460  103.251    3.292
  175.250    0.226    0.458  102.036    3.293
  175.500    0.225    0.457  101.431    3.233
  175.750    0.220    0.441   83.751    3.756
  176.000    0.199    0.375   54.487    4.531
  176.250    0.174    0.268   30.101    5.167
  176.500    0.135    0.253   22.789    7.950
  176.750    0.191    0.264   17.306   11.139
  177.000    0.268    0.284   33.165   16.508
  177.250    0.305    0.302   53.292   24.928
  177.500    0.333    0.332   78.908   23.574
  177.750    0.328    0.370  103.914   15.331
  178.000    0.291    0.423  103.919   10.546
  178.250    0.263    0.458  103.923    7.674
  178.500    0.229    0.461  102.709    5.584
  178.750    0.217    0.472   88.689    4.632
  179.000    0.223    0.475   66.742    4.065
  179.250    0.226    0.435   39.917    4.635
  179.500    0.225    0.367   36.263    6.255
  179.750    0.220    0.307   45.415    8.132
  180.000    0.250    0.308   55.785   10.572
  180.250    0.311    0.372   64.327   14.268
  180.500    0.327    0.384   78.357   17.536
  180.750    0.312    0.389   90.558   15.974
  181.000    0.299    0.402   92.392   13.501
  181.250    0.259    0.400   88.739   11.627
  181.500    0.261    0.379   86.914   10.792
  181.750    0.266    0.360   85.090   10.999
  182.000    0.258    0.338   83.265   13.267
  182.250    0.245    0.335   80.831   15.129
  182.500    0.244    0.339   81.446   15.134
  182.750    0.247    0.345   81.451   15.138
  183.000    0.245    0.358   78.407   14.862
  183.250    0.247    0.353   75.363   14.869
  183.500    0.243    0.349   80.246   15.155
  183.750    0.228    0.357   83.909   15.445
  184.000    0.227    0.363   85.134   16.340
  184.250    0.249    0.374   85.139   17.289
  184.500    0.280    0.379   86.973   17.956
  184.750    0.281    0.378   89.418   18.302
  185.000    0.277    0.372   91.252   18.652
  185.250    0.265    0.366   94.915   18.314
  185.500    0.251    0.369   99.189   18.316
  185.750    0.239    0.376  102.852   17.982
  186.000    0.234    0.389   98.589   16.380
  186.250    0.240    0.392   94.935   14.373
  186.500    0.241    0.395   90.671   14.110
  186.750    0.229    0.352   94.944   14.653
  187.000    0.223    0.334   97.388   14.119
  187.250    0.232    0.348   81.539   14.390
  187.500    0.269    0.371   66.910   13.611
  187.750    0.304    0.366   55.938   13.612
  188.000    0.325    0.358   51.065   18.031
  188.250    0.332    0.353   50.461   20.180
  188.500    0.330    0.357   52.904   21.756
  188.750    0.319    0.359   58.398   23.898
  189.000    0.300    0.367   60.842   26.251
  189.250    0.298    0.372   59.017   27.776
  189.500    0.298    0.368   54.754   28.309
  189.750    0.299    0.369   51.100   28.318
  190.000    0.299    0.373   48.056   27.801
  190.250    0.295    0.357   50.500   27.293
  190.500    0.287    0.348   59.042   25.816
  190.750    0.272    0.341   74.291   24.872
  191.000    0.262    0.370   88.930   19.504
  191.250    0.251    0.384  107.229   15.295
  191.500    0.244    0.384  109.673   11.340
  191.750    0.234    0.397  107.848    8.893
  192.000    0.220    0.411  102.976    7.950
  192.250    0.211    0.402   93.224    7.242
  192.500    0.218    0.374   80.423    7.663
  192.750    0.217    0.357   73.111    8.418
  193.000    0.215    0.374   76.775    9.075
  193.250    0.218    0.375   82.877    9.969
  193.500    0.223    0.363   85.321   10.747
  193.750    0.247    0.370   85.936   12.028
  194.000    0.277    0.379   89.600   13.716
  194.250    0.290    0.384   95.702   15.351
  194.500    0.298    0.394  100.585   16.550
  194.750    0.294    0.384   95.103   16.868
  195.000    0.284    0.354   87.790   15.655
  195.250    0.271    0.311   84.747   13.482
  195.500    0.253    0.354   88.410   12.053
  195.750    0.209    0.365   84.757   10.188
  196.000    0.177    0.363   78.663    9.455
  196.250    0.149    0.356   75.619    9.111
  196.500    0.164    0.363   80.502    8.616
  196.750    0.167    0.375  100.630    8.148
  197.000    0.143    0.390  106.733    7.705
  197.250    0.126    0.405  112.835    7.151
  197.500    0.177    0.417  112.231    6.637
  197.750    0.167    0.429  117.114    6.161
  198.000    0.138    0.437  123.826    5.936
  198.250    0.181    0.426  125.051    5.510
  198.500    0.209    0.430  121.397    5.309
  198.750    0.215    0.438  120.182    4.927
  199.000    0.208    0.453  118.358    4.660
  199.250    0.210    0.469  120.193    4.324
  199.500    0.216    0.476  124.465    3.939
  199.750    0.219    0.476  125.690    3.726
  200.000    0.223    0.477  122.036    3.590
  200.250    0.230    0.480  115.943    3.524
  200.500    0.236    0.476  112.900    3.729
  200.750    0.223    0.450  112.904    4.020
  201.000    0.198    0.429  111.689    4.584
  201.250    0.188    0.408   97.060    5.035
  201.500    0.235    0.391   65.356    6.074
  201.750    0.282    0.361   46.458    8.045
  202.000    0.318    0.334   44.024   13.850
  202.250    0.322    0.341   47.688   18.345
  202.500    0.323    0.348   47.693   22.973
  202.750    0.323    0.354   45.259   26.197
  203.000    0.325    0.353   42.216   28.243
  203.250    0.329    0.336   43.439   28.251
  203.500    0.333    0.316   48.323   28.260
  203.750    0.332    0.315   53.815   28.270
  204.000    0.331    0.355   59.918   27.752
  204.250    0.331    0.392   64.801   27.247
  204.500    0.337    0.407   67.246   27.254
  204.750    0.337    0.396   66.030   27.264
  205.000    0.333    0.381   66.035   26.766
  205.250    0.327    0.369   67.260   25.792
  205.500    0.312    0.381   66.655   24.850
  205.750    0.304    0.382   67.879   24.396
  206.000    0.301    0.385   72.153   23.509
  206.250    0.299    0.392   78.256   23.077
  206.500    0.297    0.395   80.090   22.657
  206.750    0.295    0.402   84.364   22.246
  207.000    0.288    0.414   88.027   21.839
  207.250    0.276    0.406   84.983   21.441
  207.500    0.279    0.383   81.939   21.447
  207.750    0.280    0.366   81.335   21.452
  208.000    0.275    0.356   80.119   21.061
  208.250    0.272    0.354   80.734   20.676
