~VERSION INFORMATION
 VERS.                 2.0:   CWLS LOG ASCII STANDARD -VERSION 2.0
 WRAP.                  NO:   ONE LINE PER DEPTH STEP
~WELL INFORMATION BLOCK
#MNEM.UNIT           DATA                    DESCRIPTION OF MNEMONIC
#---------    -------------------            -------------------------------
# Generated from Intellog Unique Number	CS_71_72/WELL/849
WELL.         PEX PHILLIPS AEC WIAU          : Well_name    - WELL
LOC .         00/10-01-072-07W4/0            : Location     - LOCATION
UWI .         00/10-01-072-07W4/0            : Uwi          - UNIQUE WELL ID
ENTR.         SP                             : Entered      - ENTERED BY
SRVC.         SCHLUMBERGER                   : Scn          - SERVICE COMPANY
STRT.M        300                            : top_depth    - START DEPTH
STOP.M        525                            : bot_depth    - STOP DEPTH
STEP.M        0.25                           : increment    - STEP LENGTH
 NULL. -999.2500:NULL Value
~CURVE INFORMATION BLOCK
#MNEM UNIT       ERCB CURVE CODE    CURVE DESCRIPTION
#-----------   ------------------   ----------------------------------
DEPT.M        00 001 00 00         : DEPTH        - DEPTH
ILD .OHMM     00 120 00 00         : RESD         - DEEP RESISTIVITY (DIL)
DPHI.V/V      00 890 00 00         : PHID         - DENSITY POROSITY (LIMESTONE)
NPHI.V/V      00 330 00 00         : PHIN         - NEUTRON POROSITY (LIMESTONE)
GR  .API      00 310 00 00         : GR           - GAMMA RAY
~PARAMETER INFORMATION
#MNEM.UNIT           DATA             DESCRIPTION OF MNEMONIC
#---------         -----------     ------------------------------
GL  .M        664.2                : gl           - GROUND LEVEL ELEVATION
EREF.M        667.1                : kb           - ELEVATION OF DEPTH REFERENCE
DATM.M        664.2                : datum        - DATUM ELEVATION
TDD .M        536                  : tdd          - TOTAL DEPTH DRILLER
RUN .         ONE                  : Run          - RUN NUMBER
ENG .         BILL                 : Engineer     - RECORDING ENGINEER
WIT .         JIM                  : Witness      - WITNESSED BY
MUD .         GEL                  : Mud_type     - MUD TYPE
MATR.         LIMESTONE            : Logunit      - NEUTRON MATRIX
TMAX.C        19                   : BHT          - MAXIMUM RECORDED TEMPERATURE
BHTD.M        536                  : BHTDEP       - MAXIMUM RECORDED TEMPERATURE
MATR.         1                    : LOGUNIT      - NEUTRON MATRIX
RMT .C        25                   : MDTP         - TEMPERATURE OF MUD
NEUT.         1                    : NEUTRON      - NEUTRON TYPE
RESI.         0                    : RESIST       - RESISTIVITY TYPE
RMC .OHMM     0.25                 : RMC          - RESISTIVITY OF MUD CAKE
RMF .OHMM     0.25                 : RMF          - RESISTIVITY OF MUD FILTRATE
SUFT.C        15                   : SUFT         - SURFACE TEMPERATURE
~A  DEPTH     RESD     PHID     PHIN       GR
# ...
  474.000   48.148    0.312    0.301   56.128
  474.250   53.870    0.307    0.303   53.682
  474.500   54.908    0.306    0.304   54.896
  474.750   47.344    0.306    0.304   56.110
  475.000   43.962    0.297    0.363   60.370
  475.250   43.986    0.286    0.367   67.070
  475.500   47.410    0.299    0.380   69.504
  475.750   53.046    0.312    0.380   64.011
  476.000   56.127    0.316    0.374   54.858
  476.250   58.290    0.311    0.368   51.195
  476.500   57.249    0.305    0.370   46.311
  476.750   56.211    0.316    0.375   49.963
  477.000   49.370    0.318    0.378   50.566
  477.250   41.774    0.316    0.378   47.511
  477.500   33.428    0.312    0.381   49.944
  477.750   26.748    0.308    0.396   56.033
  478.000   22.636    0.305    0.403   59.077
  478.250   20.253    0.304    0.395   60.902
  478.500   18.123    0.293    0.392   63.335
  478.750   16.522    0.287    0.397   63.328
  479.000   15.630    0.276    0.408   62.713
  479.250   14.249    0.271    0.403   63.923
  479.500   13.733    0.270    0.414   65.139
  479.750   12.290    0.288    0.423   67.572
  480.000   11.415    0.291    0.409   70.006
  480.250   11.002    0.273    0.402   74.877
  480.500   10.030    0.256    0.394   79.138
  480.750    9.667    0.244    0.384   82.792
  481.000    9.148    0.233    0.376   88.881
  481.250    8.817    0.224    0.373   92.535
  481.500    8.500    0.213    0.373   97.406
  481.750    8.347    0.203    0.382  101.668
  482.000    8.048    0.192    0.386  104.710
  482.250    8.052    0.200    0.394  105.925
  482.500    7.908    0.223    0.371  101.042
  482.750    7.911    0.239    0.354   92.499
  483.000    8.064    0.234    0.349   85.786
  483.250    8.374    0.194    0.344   87.606
  483.500    9.029    0.163    0.348   90.042
  483.750    9.553    0.174    0.361   93.693
  484.000   10.108    0.176    0.345   92.469
  484.250   10.894    0.186    0.328   86.973
  484.500   11.312    0.206    0.356   84.529
  484.750   11.745    0.222    0.371   80.254
  485.000   11.974    0.239    0.391   75.981
  485.250   11.979    0.267    0.390   72.927
  485.500   11.336    0.243    0.370   68.652
  485.750   10.528    0.220    0.358   66.817
  486.000    9.962    0.208    0.352   69.859
  486.250    9.968    0.196    0.348   72.290
  486.500    9.971    0.219    0.339   72.286
  486.750    9.977    0.223    0.336   70.451
  487.000   10.363    0.226    0.347   71.054
  487.250   10.759    0.228    0.355   73.483
  487.500   11.598    0.228    0.360   74.089
  487.750   12.741    0.246    0.361   74.085
  488.000   13.480    0.252    0.359   72.857
  488.250   14.529    0.257    0.358   72.853
  488.500   15.371    0.255    0.366   71.013
  488.750   16.567    0.246    0.388   69.789
  489.000   18.194    0.252    0.401   68.564
  489.250   19.607    0.257    0.410   66.730
  489.500   23.198    0.273    0.409   64.895
  489.750   27.965    0.285    0.398   61.841
  490.000   32.472    0.286    0.390   56.347
  490.250   39.138    0.292    0.378   50.244
  490.500   43.790    0.303    0.383   45.970
  490.750   45.475    0.295    0.393   33.160
  491.000   47.227    0.288    0.389   30.713
  491.250   49.064    0.190    0.351   30.707
  491.500   50.011    0.009    0.318   30.701
  491.750   51.932   -0.009    0.299   30.084
  492.000   53.930    0.030    0.276   30.079
  492.250   56.002    0.039    0.280   29.465
  492.500   58.150    0.066    0.297   29.458
  492.750   61.531    0.189    0.305   30.672
  493.000   61.551    0.267    0.317   33.102
  493.250   57.169    0.308    0.337   34.927
  493.500   50.206    0.323    0.366   37.968
  493.750   44.092    0.320    0.375   39.184
  494.000   37.311    0.312    0.377   41.617
  494.250   30.987    0.310    0.380   42.220
  494.500   25.738    0.306    0.399   42.823
  494.750   23.460    0.304    0.410   42.207
  495.000   22.200    0.301    0.410   41.593
  495.250   21.806    0.304    0.415   41.584
  495.500   21.813    0.319    0.395   41.579
  495.750   20.642    0.316    0.382   41.572
  496.000   19.170    0.307    0.377   42.178
  496.250   16.526    0.302    0.373   42.171
  496.500   14.243    0.298    0.359   42.165
  496.750   11.188    0.296    0.350   41.548
  497.000    9.291    0.293    0.359   40.933
  497.250    7.436    0.295    0.381   39.708
  497.500    6.652    0.306    0.386   38.483
  497.750    5.735    0.323    0.397   36.648
  498.000    4.675    0.329    0.405   36.031
  498.250    4.106    0.335    0.410   36.636
  498.500    3.958    0.329    0.403   36.626
  498.750    3.816    0.324    0.392   36.622
  499.000    3.817    0.327    0.382   36.003
  499.250    3.750    0.344    0.378   35.390
  499.500    3.752    0.348    0.393   34.164
  499.750    3.684    0.326    0.404   32.940
  500.000    3.686    0.311    0.392   32.324
  500.250    3.688    0.293    0.375   31.096
  500.500    3.622    0.316    0.367   31.093
  500.750    3.623    0.317    0.364   30.477
  501.000    3.303    0.317    0.359   30.469
  501.250    3.245    0.318    0.356   30.465
  501.500    2.958    0.318    0.355   29.850
  501.750    2.959    0.327    0.352   28.620
  502.000    3.016    0.332    0.350   28.005
  502.250    3.074    0.332    0.346   28.000
  502.500    3.193    0.324    0.345   27.383
  502.750    3.255    0.308    0.339   27.380
  503.000    3.318    0.294    0.332   29.201
  503.250    3.446    0.289    0.321   29.807
  503.500    3.578    0.286    0.312   32.238
  503.750    3.647    0.283    0.315   34.061
  504.000    3.788    0.274    0.317   35.275
  504.250    3.790    0.271    0.317   37.708
  504.500    3.792    0.276    0.318   40.750
  504.750    3.794    0.292    0.367   45.012
  505.000    3.726    0.302    0.375   47.445
  505.250    3.591    0.306    0.372   49.270
  505.500    3.398    0.320    0.380   42.557
  505.750    3.216    0.325    0.396   40.109
  506.000    3.158    0.334    0.403   40.714
  506.250    3.101    0.339    0.390   41.319
  506.500    3.103    0.321    0.383   42.532
  506.750    3.283    0.300    0.377   44.961
  507.000    3.346    0.288    0.373   46.785
  507.250    3.540    0.280    0.373   47.999
  507.500    3.609    0.274    0.380   47.996
  507.750    3.414    0.288    0.392   46.770
  508.000    3.055    0.323    0.397   41.885
  508.250    2.734    0.340    0.391   35.171
  508.500    2.492    0.348    0.386   30.288
  508.750    2.403    0.349    0.382   26.015
  509.000    2.404    0.349    0.378   24.788
  509.250    2.405    0.348    0.372   24.782
  509.500    2.318    0.348    0.367   24.776
  509.750    2.363    0.347    0.385   25.376
  510.000    2.364    0.345    0.386   25.981
  510.250    2.410    0.345    0.394   26.586
  510.500    2.503    0.344    0.388   27.191
  510.750    2.551    0.342    0.382   27.792
  511.000    2.650    0.332    0.376   28.398
  511.250    2.701    0.319    0.371   28.391
  511.500    2.805    0.309    0.366   28.994
  511.750    2.859    0.304    0.362   28.990
  512.000    2.969    0.304    0.360   28.981
  512.250    2.970    0.307    0.358   29.586
  512.500    3.028    0.310    0.366   29.578
  512.750    3.029    0.312    0.362   30.185
  513.000    2.975    0.313    0.360   30.179
  513.250    2.868    0.313    0.356   29.562
  513.500    2.765    0.314    0.355   29.556
  513.750    2.665    0.318    0.354   28.939
  514.000    2.617    0.321    0.354   28.932
  514.250    2.523    0.324    0.383   28.316
  514.500    2.524    0.330    0.383   27.091
  514.750    2.479    0.332    0.382   27.087
  515.000    2.481    0.333    0.381   26.470
  515.250    2.529    0.333    0.381   26.466
  515.500    2.577    0.326    0.377   26.460
  515.750    2.628    0.318    0.367   25.840
  516.000    2.629    0.314    0.365   25.835
  516.250    2.730    0.308    0.358   26.442
  516.500    2.731    0.321    0.356   26.436
  516.750    2.784    0.324    0.364   26.430
  517.000    2.838    0.325    0.369   27.031
  517.250    3.003    0.308    0.352   27.634
