~VERSION INFORMATION
 VERS.                 2.0:   CWLS LOG ASCII STANDARD -VERSION 2.0
 WRAP.                  NO:   ONE LINE PER DEPTH STEP
~WELL INFORMATION BLOCK
#MNEM.UNIT           DATA                    DESCRIPTION OF MNEMONIC
#---------    -------------------            -------------------------------
# Generated from Intellog Unique Number	CC_80_83/WELL/2443
NULL.         -999.25                        : NULL_VALUE
WELL.         SUNCOR GRAHAM                  : WELL_NAME
LOC .         16-15-080-05W4                 : Location     - LOCATION          
UWI .         00/16-15-080-05W400            : Uwi          - UNIQUE WELL ID    
ENTR.         DW                             : Entered      - ENTERED BY        
SRVC.         SCHLUMBERGER                   : Scn          - SERVICE COMPANY   
DATE.         24 NOV 77                      : Date         - LOG DATE
STRT.M        85                             : top_depth    - START DEPTH       
STOP.M        289.9                          : bot_depth    - STOP DEPTH        
STEP.M        0.3                            : increment    - STEP LENGTH       
~CURVE INFORMATION BLOCK
#MNEM UNIT       ERCB CURVE CODE    CURVE DESCRIPTION
#-----------   ------------------   ----------------------------------
DEPT.M        00 001 00 00         : DEPTH        - DEPTH                       
DPHI.V/V      00 890 00 00         : PHID         - DENSITY POROSITY (LIMESTONE)
NPHI.V/V      00 330 00 00         : PHIN         - NEUTRON POROSITY (LIMESTONE)
GR  .API      00 310 00 00         : GR           - GAMMA RAY                   
ILD .OHMM     00 120 00 00         : RESD         - DEEP RESISTIVITY (DIL)      
~PARAMETER INFORMATION       
#MNEM.UNIT           DATA             DESCRIPTION OF MNEMONIC
#---------         -----------     ------------------------------
GL  .M        465.7                : gl           - GROUND LEVEL ELEVATION      
EREF.M        468.7                : kb           - ELEVATION OF DEPTH REFERENCE
DATM.M        468.7                : datum        - DATUM ELEVATION             
TDD .M        298                  : tdd          - TOTAL DEPTH DRILLER         
RUN .         ONE                  : Run          - RUN NUMBER                  
ENG .         BILL                 : Engineer     - RECORDING ENGINEER          
WIT .         JIM                  : Witness      - WITNESSED BY                
MUD .         GEL                  : Mud_type     - MUD TYPE                    
MATR.         LIMESTONE            : Logunit      - NEUTRON MATRIX              
TMAX.C        22                   : BHT          - MAXIMUM RECORDED TEMPERATURE
BHTD.M        298                  : BHTDEP       - MAXIMUM RECORDED TEMPERATURE
MATR.         1                    : LOGUNIT      - NEUTRON MATRIX              
RMT .C        25                   : MDTP         - TEMPERATURE OF MUD          
NEUT.         1                    : NEUTRON      - NEUTRON TYPE                
RESI.         0                    : RESIST       - RESISTIVITY TYPE            
RMC .OHMM     0.25                 : RMC          - RESISTIVITY OF MUD CAKE     
RMF .OHMM     0.25                 : RMF          - RESISTIVITY OF MUD FILTRATE 
SUFT.C        15                   : SUFT         - SURFACE TEMPERATURE         
~A  DEPTH     PHID     PHIN       GR     RESD
   85.000    0.300    0.504  112.659    4.967
   85.300    0.300    0.490  107.579    5.361
   85.600    0.284    0.478  103.779    6.012
   85.900    0.276    0.464   98.064    7.003
   86.200    0.286    0.461   91.063    8.316
   86.500    0.324    0.453   80.855   10.064
   86.800    0.373    0.387   48.893   10.862
   87.100    0.349    0.368   75.174   10.862
   87.400    0.291    0.373   80.975   10.862
   87.700    0.320    0.425   71.418   11.071
   88.000    0.356    0.407   59.935   11.724
   88.300    0.368    0.415   43.333   12.180
   88.600    0.366    0.397   45.941   12.414
   88.900    0.356    0.394   53.667   11.950
   89.200    0.325    0.413   58.179   11.950
   89.500    0.311    0.418   60.144   11.724
   89.800    0.311    0.426   60.830   11.950
   90.100    0.310    0.414   62.798   11.950
   90.400    0.326    0.398   64.743   11.502
   90.700    0.341    0.391   68.632   11.285
   91.000    0.337    0.417   71.867   11.950
   91.300    0.257    0.397   69.346   11.724
   91.600    0.238    0.405   67.471   11.502
   91.900    0.269    0.434   88.628   11.285
   92.200    0.297    0.435   91.869   10.862
   92.500    0.319    0.401   83.587   10.657
   92.800    0.334    0.391   72.749   11.071
   93.100    0.351    0.387   66.388   11.724
   93.400    0.361    0.390   57.464   12.653
   93.700    0.365    0.410   50.465   12.897
   94.000    0.362    0.416   46.666   13.146
   94.300    0.362    0.422   48.625   13.146
   94.600    0.365    0.434   51.225   12.897
   94.900    0.367    0.465   48.708   12.653
   95.200    0.363    0.453   49.395   12.414
   95.500    0.354    0.399   51.993   12.180
   95.800    0.326    0.398   56.524   12.180
   96.100    0.327    0.388   60.394   11.950
   96.400    0.337    0.385   70.672   12.180
   96.700    0.342    0.422   76.476   12.653
   97.000    0.330    0.436   77.161   12.653
   97.300    0.334    0.442   78.483   12.653
   97.600    0.339    0.455   81.721   12.653
   97.900    0.339    0.466   84.965   12.180
   98.200    0.335    0.454   89.477   12.180
   98.500    0.330    0.437   96.566   12.653
   98.800    0.332    0.423   91.480   13.399
   99.100    0.352    0.439   76.798   13.399
   99.400    0.363    0.423   78.758   13.146
   99.700    0.352    0.399   85.200   12.653
  100.000    0.339    0.378   86.520   12.897
  100.300    0.352    0.368   68.638   13.146
  100.600    0.362    0.396   59.718   13.920
  100.900    0.348    0.411   57.838   14.188
  101.200    0.344    0.405   53.404   14.462
  101.500    0.319    0.411   48.325   14.462
  101.800    0.319    0.406   45.158   14.462
  102.100    0.344    0.399   49.688   14.188
  102.400    0.351    0.393   61.253   14.188
  102.700    0.349    0.406   68.971   13.920
  103.000    0.342    0.422   70.925   13.920
  103.300    0.337    0.426   69.050   13.920
  103.600    0.345    0.427   63.978   13.657
  103.900    0.423    0.427   61.459   13.399
  104.200    0.413    0.404   60.846   12.897
  104.500    0.343    0.404   67.929   12.897
  104.800    0.358    0.410   67.975   12.653
  105.100    0.342    0.431   69.296   12.414
  105.400    0.337    0.426   75.096   12.180
  105.700    0.343    0.425   78.339   11.950
  106.000    0.326    0.417   80.931   11.502
  106.300    0.316    0.410   85.459   10.862
  106.600    0.318    0.446   89.337   10.657
  106.900    0.304    0.461   92.576   10.064
  107.200    0.321    0.444   92.627    9.324
  107.500    0.321    0.452   99.703    8.805
  107.800    0.294    0.492  106.144    8.476
  108.100    0.275    0.498  108.740    8.158
  108.400    0.269    0.469  109.426    8.004
  108.700    0.265    0.450  110.741    8.158
  109.000    0.273    0.444  110.789    8.316
  109.300    0.272    0.434  108.906    9.324
  109.600    0.283    0.428  105.740   10.258
  109.900    0.297    0.432   97.462   10.862
  110.200    0.298    0.431   88.539   10.862
  110.500    0.288    0.419   87.307   10.258
  110.800    0.262    0.412  101.423   10.064
  111.100    0.247    0.417  121.305    9.504
  111.400    0.243    0.433  120.065    8.975
  111.700    0.255    0.443  117.557    8.639
  112.000    0.270    0.443  116.320    8.639
  112.300    0.265    0.464  116.360    8.805
  112.600    0.262    0.482  115.757    9.687
  112.900    0.281    0.483  112.592   10.258
  113.200    0.348    0.466   97.913   10.657
  113.500    0.363    0.404   88.988   10.657
  113.800    0.328    0.388  100.557   10.657
  114.100    0.325    0.411  103.791   10.862
  114.400    0.328    0.439   97.430   11.502
  114.700    0.313    0.430   85.311   11.950
  115.000    0.265    0.375   84.069   11.950
  115.300    0.273    0.402  100.120   11.724
  115.600    0.289    0.451  107.203   10.862
  115.900    0.276    0.463  109.798   10.455
  116.200    0.260    0.452  110.477   10.064
  116.500    0.255    0.457  109.874   10.064
  116.800    0.266    0.450  106.079   10.064
  117.100    0.284    0.443   95.233   10.064
  117.400    0.282    0.470   83.757   10.657
  117.700    0.241    0.481   79.951   10.657
  118.000    0.230    0.471   79.355   10.657
  118.300    0.246    0.440   87.078   10.258
  118.600    0.211    0.418   87.762    9.687
  118.900    0.169    0.434   89.078    8.158
  119.200    0.216    0.449  100.001    8.004
  119.500    0.268    0.441  106.440    8.004
  119.800    0.275    0.430  101.360    8.805
  120.100    0.279    0.413   92.439    9.324
  120.400    0.293    0.411   86.724   10.258
  120.700    0.311    0.422   84.201   11.502
  121.000    0.317    0.417   82.323   12.653
  121.300    0.320    0.401   76.603   13.146
  121.600    0.306    0.383   81.130   13.399
  121.900    0.287    0.382   83.080   12.897
  122.200    0.293    0.394   88.889   12.897
  122.500    0.297    0.409   95.325   12.897
  122.800    0.281    0.434   90.886   13.146
  123.100    0.241    0.436   71.723   13.920
  123.400    0.246    0.398   69.855   14.188
  123.700    0.268    0.401   69.884   14.188
  124.000    0.297    0.407   62.250   14.188
  124.300    0.320    0.409   55.887   14.188
  124.600    0.331    0.401   59.762   13.657
  124.900    0.311    0.383   62.374   13.146
  125.200    0.312    0.383   63.693   12.653
  125.500    0.327    0.397   69.492   12.180
  125.800    0.331    0.407   69.527   11.950
  126.100    0.321    0.424   68.926   11.724
  126.400    0.286    0.424   80.489   11.285
  126.700    0.281    0.400   79.903   10.455
  127.000    0.281    0.412   81.222   10.258
  127.300    0.267    0.418   85.741   10.258
  127.600    0.250    0.415   88.978   10.657
  127.900    0.251    0.414   91.575   11.285
  128.200    0.267    0.442   89.695   11.502
  128.500    0.284    0.437   82.062   11.950
  128.800    0.293    0.404   76.336   11.950
  129.100    0.301    0.396   74.458   11.950
  129.400    0.296    0.385   74.508   11.724
  129.700    0.294    0.393   76.459   11.724
  130.000    0.286    0.416   80.979   11.724
  130.300    0.272    0.421   86.785   11.724
  130.600    0.279    0.415   87.463   11.502
  130.900    0.286    0.397   85.578   11.502
  131.200    0.297    0.409   81.138   11.502
  131.500    0.294    0.403   76.702   11.502
  131.800    0.288    0.389   77.386   11.502
  132.100    0.288    0.408   74.867   11.502
  132.400    0.290    0.415   72.981   11.502
  132.700    0.290    0.422   73.659   11.724
  133.000    0.305    0.425   74.983   11.950
  133.300    0.319    0.425   73.754   12.180
  133.600    0.313    0.415   73.782   12.414
  133.900    0.311    0.393   75.106   12.414
  134.201    0.300    0.392   79.633   12.180
  134.501    0.294    0.431   80.952   12.180
  134.801    0.286    0.416   75.241   11.950
  135.101    0.290    0.389   71.432   11.724
  135.401    0.308    0.404   69.544   11.724
  135.701    0.300    0.410   73.428   11.502
  136.001    0.277    0.400   78.590   11.285
  136.301    0.265    0.406   82.470   10.862
  136.601    0.253    0.411   88.269   10.258
  136.901    0.248    0.416   96.632    9.874
