~VERSION INFORMATION
 VERS.                 2.0:   CWLS LOG ASCII STANDARD -VERSION 2.0
 WRAP.                  NO:   ONE LINE PER DEPTH STEP
~WELL INFORMATION BLOCK
#MNEM.UNIT           DATA                    DESCRIPTION OF MNEMONIC
#---------    -------------------            -------------------------------
# Generated from Intellog Unique Number	CW_76_78/WELL/2809
WELL.         UNO-TEX MARTEN HILLS 10-25     : Well_name    - WELL
LOC .         00/10-25-076-02W5/0            : Location     - LOCATION
UWI .         00/10-25-076-02W5/0            : Uwi          - UNIQUE WELL ID
ENTR.         JJ                             : Entered      - ENTERED BY
SRVC.         SCHLUMBERGER                   : Scn          - SERVICE COMPANY
DATE.         10 FEB 64                      : Date         - LOG DATE
STRT.M        609.6                          : top_depth    - START DEPTH
STOP.M        746.85                         : bot_depth    - STOP DEPTH
STEP.M        0.25                           : increment    - STEP LENGTH
 NULL. -999.2500:NULL Value
~CURVE INFORMATION BLOCK
#MNEM UNIT       ERCB CURVE CODE    CURVE DESCRIPTION
#-----------   ------------------   ----------------------------------
DEPT.M        00 001 00 00         : DEPTH        - DEPTH
ILD .OHMM     00 120 00 00         : RESD         - DEEP RESISTIVITY (DIL)
CALI.MM       00 280 01 00         : CAL          - CALIPER
GR  .API      00 310 00 00         : GR           - GAMMA RAY
DELT.US/F     00 520 00 00         : DELT         - SONIC TRAVEL TIME
~PARAMETER INFORMATION
#MNEM.UNIT           DATA             DESCRIPTION OF MNEMONIC
#---------         -----------     ------------------------------
GL  .M        801.929              : gl           - GROUND LEVEL ELEVATION
EREF.M        805.891              : kb           - ELEVATION OF DEPTH REFERENCE
DATM.M        805.891              : datum        - DATUM ELEVATION
TDD .M        994.258              : tdd          - TOTAL DEPTH DRILLER
RUN .         ONE                  : Run          - RUN NUMBER
ENG .         HARRISON             : Engineer     - RECORDING ENGINEER
WIT .         PASHAK               : Witness      - WITNESSED BY
BASE.         EDMONTON             : Branch       - HOME BASE OF LOGGING UNIT
MUD .         GEL                  : Mud_type     - MUD TYPE
MATR.         SANDSTONE            : Logunit      - NEUTRON MATRIX
TMAX.C        27.7778              : BHT          - MAXIMUM RECORDED TEMPERATURE
BHTD.M        993.953              : BHTDEP       - MAXIMUM RECORDED TEMPERATURE
RMT .C        15.5556              : MDTP         - TEMPERATURE OF MUD
MUDD.KG/M     1092                 : MWT          - MUD DENSITY
NEUT.         1                    : NEUTRON      - NEUTRON TYPE
RESI.         0                    : RESIST       - RESISTIVITY TYPE
RM  .OHMM     6.01                 : RM           - RESISTIVITY OF MUD
RMC .OHMM     4.3                  : RMC          - RESISTIVITY OF MUD CAKE
RMF .OHMM     1.44                 : RMF          - RESISTIVITY OF MUD FILTRATE
SUFT.C        5                    : SUFT         - SURFACE TEMPERATURE
~A  DEPTH     RESD      CAL       GR     DELT
  609.600    6.158  224.693   81.832  348.526
  609.850    6.656  215.247   79.413  320.845
  610.100    7.482  207.802   76.994  300.551
  610.350    7.533  207.442   73.679  410.765
  610.600    7.116  213.620   71.859  338.278
  610.850    6.476  216.847   68.193  284.763
  611.100    5.916  207.927   62.335  357.422
  611.350    5.455  212.842   63.757  413.233
  611.600    5.038  222.410   78.354  393.878
  611.850    4.990  226.689   88.363  367.330
  612.100    5.201  227.596   87.444  398.108
  612.350    6.008  225.550   85.870  375.885
  612.600    6.772  224.131   84.349  383.227
  612.850    7.884  220.790   83.034  342.831
  613.100    8.892  197.407   80.965  343.914
  613.350   10.270  191.762   78.892  359.310
  613.600   11.054  191.399   75.576  359.731
  613.850   11.758  193.050   75.356  376.661
  614.100   12.298  194.466   77.727  345.652
  614.350   12.614  194.948   76.856  327.027
  614.600   12.767  193.529   72.743  343.955
  614.850   12.473  193.368   69.977  325.131
  615.100   11.934  195.114   66.660  307.040
  615.350   11.435  196.870   63.442  322.103
  615.600   11.017  197.982   66.165  318.061
  615.850   10.537  196.576   71.780  380.999
  616.100   10.017  195.454   74.700  346.460
  616.350    9.560  193.941   68.394  377.037
  616.600    9.304  192.612   64.177  385.444
  616.850    9.355  191.397   68.046  386.325
  617.100    9.876  190.203   71.715  385.012
  617.350   10.763  190.562   71.142  383.503
  617.600   11.264  192.740   66.280  279.653
  617.850   11.784  197.755   61.617  253.372
  618.100   12.200  202.672   57.205  327.362
  618.350   11.766  194.070   58.430  372.651
  618.600   11.185  192.855   63.095  370.870
  618.850   10.541  196.403   66.566  239.994
  619.100    9.736  201.425   62.354  239.080
  619.350    8.728  201.586   59.434  351.486
  619.600    7.840  194.984   65.799  368.616
  619.850    6.895  190.190   73.212  377.555
  620.100    6.376  190.772   74.335  370.913
  620.350    6.078  195.693   70.770  364.873
  620.600    5.662  207.784   72.544  384.601
  620.850    5.448  219.564   78.907  429.558
  621.100    5.317  226.802   83.275  394.757
  621.350    5.408  233.617   83.600  372.534
  621.600    5.622  233.366   77.092  356.973
  621.850    5.859  231.835   83.158  365.778
  622.100    5.969  227.348   88.223  364.866
  622.350    6.040  219.378   86.753  347.970
  622.600    5.971  209.508   81.343  355.245
  622.850    5.918  210.099   74.084  351.138
  623.100    5.829  212.158   76.457  380.314
  623.350    5.736  216.870   83.172  384.730
  623.600    5.747  222.523   85.643  373.962
  623.850    5.756  224.583   86.118  383.501
  624.100    5.889  221.683   84.198  364.611
  624.350    5.779  225.856   85.575  379.075
  624.600    5.584  220.528   88.493  348.465
  624.850    5.352  220.073   92.911  391.229
  625.100    5.177  226.988   88.950  386.120
  625.350    5.006  230.003   84.733  381.204
  625.600    4.913  232.391   83.065  380.692
  625.850    4.883  233.490   87.484  386.641
  626.100    5.057  235.139   87.360  392.377
  626.350    5.292  235.510   88.044  395.665
  626.600    5.731  232.925   88.610  401.408
  626.850    6.066  222.839   88.090  343.832
  627.100    6.546  205.791   80.884  329.069
  627.350    6.883  205.950   74.221  384.548
  627.600    7.180  215.514   79.987  382.170
  627.850    7.332  214.520   84.305  395.504
  628.100    7.423  212.465   79.099  357.437
  628.350    7.477  212.521   73.582  361.651
  628.600    7.649  213.428   67.075  354.280
  628.850    7.903  209.789   66.353  354.892
  629.100    8.262  204.662   71.469  301.115
  629.350    8.617  212.861   75.138  404.531
  629.600    8.934  210.270   72.972  349.887
  629.850    8.619  200.508   70.751  326.138
  630.100    8.180  206.583   68.934  391.406
  630.350    7.603  214.562   72.553  371.382
  630.600    7.386  210.506   75.075  344.034
  630.850    7.029  210.872   73.504  368.488
  631.100    6.672  219.486   72.536  379.759
  631.350    6.295  217.854   75.506  375.309
  631.600    5.961  212.420   79.227  361.285
  631.850    5.685  200.964   79.451  381.540
  632.100    5.634  207.149   80.976  403.931
  632.350    5.848  221.038   82.898  395.828
  632.600    6.349  229.029   82.625  387.720
  632.850    7.072  231.723   82.112  392.196
  633.100    7.899  232.618   81.534  378.636
  633.350    8.765  224.653   79.468  356.349
  633.600    9.713  202.846   76.352  338.591
  633.850   10.153  196.037   73.580  355.850
  634.100   10.631  204.438   70.613  349.612
  634.350   11.662  207.137   65.951  328.857
  634.600   12.690  208.054   64.031  344.521
  634.850   14.190  207.999   65.957  338.081
  635.100   14.281  205.623   66.181  302.744
  635.350   12.845  202.943   65.809  269.669
  635.600   11.021  202.569   59.950  258.367
  635.850    8.300  202.413   55.086  280.293
  636.100    6.822  203.740   61.950  366.865
  636.350    6.323  216.360   74.051  395.781
  636.600    6.374  225.079   78.768  375.291
  636.850    6.936  230.946   80.993  358.656
  637.100    7.210  218.009   75.977  317.198
  637.350    7.099  211.419   72.314  346.116
  637.600    6.823  212.737   74.342  358.917
  637.850    6.691  215.129   76.608  389.430
  638.100    6.783  219.406   79.728  382.723
  638.350    7.039  225.056   82.999  355.908
  638.600    7.295  219.198   83.623  353.194
  638.850    7.489  222.960   81.562  372.056
  639.100    7.661  223.325   79.840  379.729
  639.350    7.816  217.153   76.370  366.366
  639.600    7.907  219.325   73.753  373.176
  639.850    8.059  218.748   73.381  377.853
  640.100    8.193  213.207   74.708  301.304
  640.350    8.102  211.046   76.928  310.043
  640.600    7.359  216.804   78.803  394.088
  640.850    6.817  218.870   77.684  367.071
  641.100    6.095  215.764   76.064  355.639
  641.350    5.635  218.993   77.339  380.691
  641.600    5.239  224.128   79.209  406.077
  641.850    5.107  227.239   83.977  406.093
  642.100    5.444  228.983   84.753  402.784
  642.350    6.432  229.037   80.688  362.652
  642.600    7.748  224.029   78.320  335.771
  642.850    8.940  219.224   80.198  341.649
  643.100   10.254  212.954   87.104  362.771
  643.350   12.346  208.571   83.591  390.555
  643.600   13.722  206.089   72.490  422.597
  643.850   15.424  205.515   65.135  435.600
  644.100   16.005  205.675   57.479  438.014
  644.350   16.262  206.792   62.293  420.388
  644.600   16.292  208.544   66.613  399.232
  644.850   16.200  209.659   67.339  386.266
  645.100   15.864  210.456   63.326  380.474
  645.350   15.366  210.718   60.314  376.574
  645.600   14.865  210.249   59.635  365.149
  645.850   14.794  208.930   60.310  361.772
  646.100   15.111  207.932   62.835  379.034
  646.350   14.387  207.154   64.655  379.051
  646.600   13.440  206.882   68.675  358.163
  646.850   12.513  207.058   71.146  355.851
  647.100   11.872  207.211   65.739  364.990
  647.350   11.820  207.265   64.813  377.055
  647.600   13.156  207.534   67.340  386.730
  647.850   14.655  207.488   68.765  374.296
  648.100   16.213  207.434   70.283  370.850
  648.350   18.038  207.605   70.064  373.331
  648.600   20.067  207.240   67.544  352.513
  648.850   20.383  206.669   66.523  339.610
  649.100   19.089  206.400   63.808  318.991
  649.350   16.755  206.251   62.337  290.313
  649.600   14.625  206.517   67.801  273.553
  649.850   12.944  207.838   70.476  297.536
  650.100   12.037  210.428   71.649  347.623
  650.350   12.597  209.751   72.528  372.279
  650.600   14.403  209.067   74.049  350.192
  650.850   18.225  211.973   74.826  371.449
  651.100   22.088  216.679   69.761  380.189
  651.350   24.850  206.176   63.355  181.726
  651.600   23.576  201.387   58.592  181.082
  651.850   21.243  200.698   55.920  226.042
  652.100   18.624  200.749   54.303  267.873
  652.350   17.268  202.294   54.079  264.227
  652.600   17.586  203.726   58.098  330.761
  652.850   18.595  206.734   66.058  368.130
