~VERSION INFORMATION
 VERS.                 2.0:   CWLS LOG ASCII STANDARD -VERSION 2.0
 WRAP.                  NO:   ONE LINE PER DEPTH STEP
~WELL INFORMATION BLOCK
#MNEM.UNIT           DATA                    DESCRIPTION OF MNEMONIC
#---------    -------------------            -------------------------------
# Generated from Intellog Unique Number	CS_73_76/WELL/3231
WELL.         10-08-076-05W4                 : Well_name    - WELL
LOC .         00/10-08-076-05W4/0            : Location     - LOCATION
UWI .         00/10-08-076-05W4/0            : Uwi          - UNIQUE WELL ID
ENTR.         SP                             : Entered      - ENTERED BY
SRVC.         SCHLUMBERGER                   : Scn          - SERVICE COMPANY
STRT.M        175                            : top_depth    - START DEPTH
STOP.M        420                            : bot_depth    - STOP DEPTH
STEP.M        0.25                           : increment    - STEP LENGTH
 NULL. -999.2500:NULL Value
~CURVE INFORMATION BLOCK
#MNEM UNIT       ERCB CURVE CODE    CURVE DESCRIPTION
#-----------   ------------------   ----------------------------------
DEPT.M        00 001 00 00         : DEPTH        - DEPTH
GR  .API      00 310 00 00         : GR           - GAMMA RAY
DPHI.V/V      00 890 00 00         : PHID         - DENSITY POROSITY (LIMESTONE)
NPHI.V/V      00 330 00 00         : PHIN         - NEUTRON POROSITY (LIMESTONE)
ILD .OHMM     00 120 00 00         : RESD         - DEEP RESISTIVITY (DIL)
~PARAMETER INFORMATION
#MNEM.UNIT           DATA             DESCRIPTION OF MNEMONIC
#---------         -----------     ------------------------------
GL  .M        578.86               : gl           - GROUND LEVEL ELEVATION
EREF.M        582.66               : kb           - ELEVATION OF DEPTH REFERENCE
DATM.M        578.86               : datum        - DATUM ELEVATION
TDD .M        429                  : tdd          - TOTAL DEPTH DRILLER
RUN .         ONE                  : Run          - RUN NUMBER
ENG .         BILL                 : Engineer     - RECORDING ENGINEER
WIT .         JIM                  : Witness      - WITNESSED BY
MUD .         GEL                  : Mud_type     - MUD TYPE
MATR.         LIMESTONE            : Logunit      - NEUTRON MATRIX
TMAX.C        21                   : BHT          - MAXIMUM RECORDED TEMPERATURE
BHTD.M        429                  : BHTDEP       - MAXIMUM RECORDED TEMPERATURE
MATR.         1                    : LOGUNIT      - NEUTRON MATRIX
RMT .C        25                   : MDTP         - TEMPERATURE OF MUD
NEUT.         1                    : NEUTRON      - NEUTRON TYPE
RESI.         0                    : RESIST       - RESISTIVITY TYPE
RMC .OHMM     0.25                 : RMC          - RESISTIVITY OF MUD CAKE
RMF .OHMM     0.25                 : RMF          - RESISTIVITY OF MUD FILTRATE
SUFT.C        15                   : SUFT         - SURFACE TEMPERATURE
~A  DEPTH       GR     PHID     PHIN     RESD
# ...
  349.000   38.853    0.303    0.387   19.236
  349.250   37.034    0.301    0.379   21.128
  349.500   36.429    0.298    0.363   23.205
  349.750   35.825    0.293    0.334   25.488
  350.000   60.974    0.271    0.340   18.346
  350.250   78.042    0.218    0.334   14.382
  350.500   86.574    0.169    0.351   12.383
  350.750   89.619    0.165    0.346   11.070
  351.000   90.834    0.177    0.362   10.275
  351.250   88.390    0.185    0.383    9.717
  351.500   86.556    0.187    0.384    9.544
  351.750   88.992    0.181    0.384    9.370
  352.000   92.035    0.172    0.389    9.201
  352.250   92.641    0.164    0.385    8.868
  352.500   92.637    0.171    0.388    8.872
  352.750   90.194    0.176    0.390    8.710
  353.000   93.848    0.178    0.383    8.554
  353.250   91.404    0.165    0.387    8.559
  353.500   91.400    0.150    0.396    8.726
  353.750   92.615    0.152    0.398    8.895
  354.000   90.171    0.175    0.395    9.416
  354.250   87.727    0.182    0.396    9.599
  354.500   85.895    0.161    0.389    9.786
  354.750   82.232    0.150    0.379    9.791
  355.000   84.057    0.150    0.343    9.796
  355.250   82.223    0.174    0.327    9.802
  355.500   79.171    0.177    0.343    9.810
  355.750   84.043    0.174    0.351    9.814
  356.000   86.478    0.188    0.348    9.635
  356.250   85.865    0.202    0.378    9.462
  356.500   82.202    0.207    0.401    9.290
  356.750   83.417    0.215    0.393    9.296
  357.000   87.681    0.214    0.383    9.127
  357.250   90.115    0.215    0.380    8.962
  357.500   88.282    0.214    0.378    8.969
  357.750   84.009    0.215    0.394    9.142
  358.000   78.517    0.220    0.400    9.321
  358.250   74.855    0.226    0.398    9.501
  358.500   74.241    0.215    0.383    9.507
  358.750   78.504    0.205    0.376    9.511
  359.000   80.939    0.198    0.381    9.339
  359.250   78.496    0.196    0.378    9.345
  359.500   76.053    0.189    0.377    9.527
  359.750   79.096    0.198    0.377    9.532
  360.000   83.360    0.174    0.369    9.185
  360.250   85.796    0.163    0.354    8.688
  360.500   87.621    0.166    0.364    8.534
  360.750   86.397    0.197    0.369    8.537
  361.000   83.343    0.208    0.359    8.701
  361.250   82.120    0.213    0.371    8.871
  361.500   81.505    0.203    0.376    8.879
  361.750   80.892    0.205    0.372    8.882
  362.000   80.887    0.213    0.365    8.885
  362.250   79.664    0.213    0.361    9.059
  362.500   76.611    0.205    0.359    9.411
  362.750   74.167    0.209    0.368    9.594
  363.000   73.553    0.214    0.372    9.598
  363.250   75.378    0.210    0.360    9.605
  363.500   79.642    0.199    0.368    9.608
  363.750   78.418    0.191    0.398    9.981
  364.000   74.145    0.203    0.404   10.178
  364.250   78.409    0.207    0.400    9.808
  364.500   79.624    0.198    0.386    9.630
  364.750   77.791    0.199    0.391    9.635
  365.000   77.177    0.200    0.398    9.284
  365.250   80.832    0.194    0.405    9.645
  365.500   69.242    0.220    0.394   10.801
  365.750   53.994    0.246    0.404   12.322
  366.000   43.624    0.260    0.427   15.157
  366.250   38.132    0.275    0.374   18.643
  366.500   35.079    0.297    0.358   25.666
  366.750   38.124    0.291    0.355   32.171
  367.000   40.558    0.288    0.369   35.350
  367.250   39.334    0.301    0.371   39.583
  367.500   45.427    0.309    0.360   35.389
  367.750   54.569    0.303    0.353   29.347
  368.000   65.540    0.279    0.368   18.365
  368.250   74.072    0.255    0.382   14.947
  368.500   77.116    0.207    0.374   12.632
  368.750   80.770    0.209    0.358   11.505
  369.000   81.985    0.203    0.359   10.881
  369.250   80.762    0.200    0.375   10.686
  369.500   78.928    0.198    0.365   10.691
  369.750   81.363    0.188    0.347   10.900
  370.000   72.212    0.181    0.348   11.538
  370.250   64.891    0.207    0.368   12.919
  370.500   60.619    0.233    0.381   14.742
  370.750   53.908    0.253    0.395   16.200
  371.000   47.195    0.273    0.390   17.147
  371.250   44.143    0.293    0.350   17.481
  371.500   49.626    0.282    0.312   17.491
  371.750   67.304    0.257    0.319   16.236
  372.000   70.349    0.210    0.336   15.068
  372.250   68.515    0.215    0.319   13.725
  372.500   72.169    0.204    0.312   12.272
  372.750   72.775    0.193    0.317   12.048
  373.000   71.550    0.188    0.324   12.518
  373.250   70.327    0.204    0.335   12.762
  373.500   67.274    0.230    0.359   12.768
  373.750   63.001    0.258    0.345   13.021
  374.000   66.046    0.252    0.331   12.784
  374.250   67.261    0.235    0.330   12.789
  374.500   64.818    0.220    0.328   12.322
  374.750   69.081    0.213    0.325   11.655
  375.000   77.004    0.182    0.330   11.024
  375.250   88.585    0.154    0.341   10.621
  375.500   94.677    0.159    0.359   10.237
  375.750   94.673    0.167    0.374   10.051
  376.000   91.621    0.174    0.372    9.870
  376.250   91.006    0.167    0.362    9.691
  376.500   89.782    0.165    0.347    9.516
  376.750   90.388    0.169    0.353    9.346
  377.000   90.382    0.172    0.378    9.526
  377.250   90.380    0.167    0.374    9.713
  377.500   90.374    0.161    0.377    9.716
  377.750   89.150    0.156    0.394   10.095
  378.000   87.928    0.169    0.403   10.290
  378.250   84.264    0.186    0.406   11.309
  378.500   73.895    0.209    0.421   12.198
  378.750   65.963    0.220    0.410   12.437
  379.000   79.374    0.178    0.353   12.443
  379.250   89.735    0.186    0.349   12.217
  379.500   92.780    0.188    0.369   10.719
  379.750   93.995    0.176    0.382   11.136
  380.000   92.771    0.164    0.384   11.786
  380.250   89.718    0.164    0.364   12.953
  380.500   92.153    0.176    0.367   14.505
  380.750   90.928    0.208    0.390   17.184
  381.000   80.559    0.224    0.405   19.978
  381.250   47.019    0.273    0.429   23.667
  381.500   29.941    0.316    0.404   29.111
  381.750   28.718    0.342    0.351   34.485
  382.000   32.371    0.343    0.341   46.591
  382.250   39.075    0.335    0.329   54.169
  382.500   53.094    0.315    0.316   44.927
  382.750   54.919    0.277    0.339   36.562
  383.000   58.573    0.314    0.366   32.077
  383.250   59.789    0.314    0.373   31.497
  383.500   54.297    0.299    0.388   37.313
  383.750   45.755    0.299    0.385   49.479
  384.000   42.093    0.287    0.334   63.187
  384.250   38.430    0.274    0.313   74.847
  384.500   39.646    0.270    0.305   92.064
  384.750   40.860    0.296    0.316   88.726
  385.000   45.734    0.313    0.310   73.578
  385.250   56.705    0.305    0.300   40.374
  385.500   71.945    0.249    0.323   32.860
  385.750   69.500    0.240    0.346   23.015
  386.000   62.180    0.249    0.365   24.364
  386.250   39.005    0.282    0.396   31.701
  386.500   32.294    0.334    0.392   47.940
  386.750   31.070    0.364    0.384   67.234
  387.000   35.943    0.386    0.450   89.146
  387.250   38.378    0.384    0.465  109.653
  387.500   38.374    0.358    0.451   99.898
  387.750   37.150    0.348    0.443   87.647
  388.000   42.634    0.337    0.431   72.681
  388.250   54.824    0.310    0.412   56.968
  388.500   59.698    0.271    0.344   35.651
  388.750   63.961    0.247    0.349   26.415
  389.000   71.884    0.230    0.332   15.922
  389.250   89.562    0.189    0.332   11.579
  389.500   86.509    0.183    0.357   10.158
  389.750   78.578    0.191    0.357    9.608
  390.000   79.184    0.198    0.343    9.612
  390.250   74.910    0.196    0.337    9.986
  390.500   75.516    0.181    0.328   10.373
  390.750   79.170    0.181    0.327   10.776
  391.000   79.775    0.192    0.331   11.408
  391.250   77.332    0.207    0.334   11.849
  391.500   74.889    0.220    0.349   12.309
  391.750   68.177    0.237    0.353   13.029
  392.000   66.954    0.258    0.340   13.534
  392.250   73.657    0.279    0.364   14.059
