~VERSION INFORMATION
 VERS.                 2.0:   CWLS LOG ASCII STANDARD -VERSION 2.0
 WRAP.                  NO:   ONE LINE PER DEPTH STEP
~WELL INFORMATION BLOCK
#MNEM.UNIT           DATA                    DESCRIPTION OF MNEMONIC
#---------    -------------------            -------------------------------
# Generated from Intellog Unique Number	CC_80_83/WELL/2368
NULL.         -999.25                        : NULL_VALUE
WELL.         GULF RESDELN                   : Well_name    - WELL              
LOC .         10-23-083-07W4                 : Location     - LOCATION          
UWI .         00/10-23-083-07W4/0            : Uwi          - UNIQUE WELL ID    
ENTR.         DW                             : Entered      - ENTERED BY        
SRVC.         SCHLUMBERGER                   : Scn          - SERVICE COMPANY   
DATE.         14 JAN 79                      : Date         - LOG DATE
STRT.M        150                            : top_depth    - START DEPTH       
STOP.M        414.895                        : bot_depth    - STOP DEPTH        
STEP.M        0.3                            : increment    - STEP LENGTH       
~CURVE INFORMATION BLOCK
#MNEM UNIT       ERCB CURVE CODE    CURVE DESCRIPTION
#-----------   ------------------   ----------------------------------
DEPT.M        00 001 00 00         : DEPTH        - DEPTH                       
DPHI.V/V      00 890 00 00         : PHID         - DENSITY POROSITY (LIMESTONE)
NPHI.V/V      00 330 00 00         : PHIN         - NEUTRON POROSITY (LIMESTONE)
GR  .API      00 310 00 00         : GR           - GAMMA RAY                   
ILD .OHMM     00 120 00 00         : RESD         - DEEP RESISTIVITY (DIL)      
~PARAMETER INFORMATION       
#MNEM.UNIT           DATA             DESCRIPTION OF MNEMONIC
#---------         -----------     ------------------------------
GL  .M        611.12               : gl           - GROUND LEVEL ELEVATION      
EREF.M        614.5                : kb           - ELEVATION OF DEPTH REFERENCE
DATM.M        614.5                : datum        - DATUM ELEVATION             
TDD .M        418                  : tdd          - TOTAL DEPTH DRILLER         
RUN .         ONE                  : Run          - RUN NUMBER                  
ENG .         BILL                 : Engineer     - RECORDING ENGINEER          
WIT .         JIM                  : Witness      - WITNESSED BY                
MUD .         GEL                  : Mud_type     - MUD TYPE                    
MATR.         LIMESTONE            : Logunit      - NEUTRON MATRIX              
TMAX.C        23                   : BHT          - MAXIMUM RECORDED TEMPERATURE
BHTD.M        418                  : BHTDEP       - MAXIMUM RECORDED TEMPERATURE
MATR.         1                    : LOGUNIT      - NEUTRON MATRIX              
RMT .C        25                   : MDTP         - TEMPERATURE OF MUD          
NEUT.         1                    : NEUTRON      - NEUTRON TYPE                
RESI.         0                    : RESIST       - RESISTIVITY TYPE            
RMC .OHMM     0.25                 : RMC          - RESISTIVITY OF MUD CAKE     
RMF .OHMM     0.25                 : RMF          - RESISTIVITY OF MUD FILTRATE 
SUFT.C        4                    : SUFT         - SURFACE TEMPERATURE         
~A  DEPTH     PHID     PHIN       GR     RESD
# ...
  306.599    0.288    0.436   90.345    3.634
  306.899    0.293    0.410   86.032    5.196
  307.199    0.310    0.392   83.570    7.720
  307.499    0.325    0.389   84.215   10.631
  307.799    0.307    0.400   91.054   12.816
  308.099    0.286    0.422   83.636   12.535
  308.399    0.289    0.387   79.939   11.815
  308.699    0.288    0.385   81.207   10.728
  308.999    0.309    0.446   74.407    9.544
  309.299    0.293    0.469   70.709    9.347
  309.599    0.292    0.478   74.453    8.975
  309.899    0.292    0.465   83.770    8.958
  310.199    0.289    0.462   83.171    8.284
  310.499    0.289    0.458   77.617    7.955
  310.799    0.278    0.461   75.783    9.059
  311.099    0.235    0.447   75.182   10.322
  311.399    0.105    0.384   78.922   10.692
  311.699    0.233    0.413   85.763    9.886
  311.999    0.294    0.475   92.608    8.801
  312.299    0.283    0.477   93.865    7.990
  312.599    0.264    0.501   95.127    6.975
  312.899    0.264    0.491   97.014    6.329
  313.199    0.291    0.497   99.511    5.965
  313.499    0.297    0.509  101.395    5.623
  313.799    0.277    0.496  103.276    5.202
  314.099    0.244    0.465   99.588    5.092
  314.399    0.264    0.462   98.365    5.687
  314.699    0.304    0.468   99.008    6.243
  314.999    0.283    0.486   99.025    7.242
  315.299    0.272    0.489   97.809    7.225
  315.599    0.288    0.521   93.490    6.198
  315.899    0.291    0.591   87.319    4.152
  316.199    0.337    0.611   84.239    3.000
  316.499    0.355    0.613   79.928    2.338
  316.799    0.312    0.597   79.943    2.245
  317.099    0.311    0.560   79.966    2.284
  317.399    0.279    0.479   84.947    2.601
  317.699    0.283    0.486   93.648    3.136
  317.999    0.258    0.481   91.814    3.712
  318.299    0.252    0.457   89.972    4.474
  318.599    0.230    0.446   90.616    5.003
  318.899    0.220    0.463   85.678    5.592
  319.199    0.181    0.463   86.942    6.019
  319.499    0.190    0.448   92.542    6.355
  319.798    0.232    0.459  100.621    5.658
  320.098    0.275    0.502   96.926    4.848
  320.398    0.268    0.556   93.226    4.233
  320.698    0.283    0.549   92.631    3.916
  320.998    0.275    0.536   95.753    3.553
  321.298    0.286    0.527   97.633    3.286
  321.598    0.290    0.541  100.139    3.155
  321.898    0.302    0.547   98.917    3.146
  322.198    0.300    0.498   98.322    3.141
  322.498    0.257    0.484  102.680    3.316
  322.798    0.275    0.508  103.948    3.501
  323.098    0.275    0.552  101.488    3.627
  323.398    0.275    0.518   99.649    3.550
  323.698    0.253    0.516   94.092    3.412
  323.998    0.288    0.546   92.260    3.338
  324.298    0.280    0.533   95.379    3.333
  324.598    0.286    0.496   95.400    3.388
  324.898    0.292    0.484   94.180    3.643
  325.198    0.297    0.528   84.905    3.922
  325.498    0.250    0.520   79.970    4.304
  325.798    0.262    0.477   88.051    4.720
  326.098    0.251    0.493   88.691    4.983
  326.398    0.257    0.464   83.755    4.970
  326.698    0.267    0.417   78.201    5.246
  326.998    0.247    0.415   76.986    5.641
  327.298    0.240    0.434   78.863    5.740
  327.598    0.256    0.431   86.327    5.725
  327.898    0.266    0.438   85.729    5.603
  328.198    0.270    0.437   84.511    5.491
  328.498    0.257    0.461   79.572    5.077
  328.798    0.201    0.498   67.815    4.606
  329.098    0.095    0.378   67.218    4.593
  329.398    0.168    0.374   76.538    5.039
  329.698    0.290    0.429   88.961    5.525
  329.998    0.308    0.494   87.123    5.109
  330.298    0.305    0.520   82.183    4.298
  330.598    0.358    0.492   73.528    3.548
  330.898    0.353    0.356   50.615    3.099
  331.198    0.346    0.285   43.819    3.210
  331.498    0.349    0.335   42.610    3.522
  331.798    0.314    0.385   43.245    5.863
  332.098    0.328    0.399   45.127   10.525
  332.398    0.309    0.380   52.590    8.849
  332.698    0.271    0.370   73.064    7.880
  332.998    0.224    0.379  100.363    7.570
  333.298    0.222    0.392  104.725    7.552
  333.598    0.212    0.402  104.124    7.823
  333.898    0.188    0.398  102.287    8.258
  334.198    0.209    0.398  104.169    8.884
  334.498    0.192    0.405  111.015    9.040
  334.798    0.212    0.443  112.276    9.188
  335.098    0.234    0.441  111.675    8.826
  335.398    0.213    0.448  114.806    8.162
  335.698    0.208    0.457  115.445    7.542
  335.998    0.215    0.446  114.845    7.106
  336.298    0.204    0.444  112.382    6.830
  336.598    0.192    0.449  114.265    6.559
  336.898    0.211    0.457  116.152    6.183
  337.198    0.229    0.468  113.692    5.938
  337.498    0.206    0.496  109.993    5.594
  337.798    0.216    0.524  103.821    5.376
  338.098    0.216    0.500  105.698    5.260
  338.398    0.220    0.511  109.439    5.246
  338.698    0.238    0.509  104.504    5.540
  338.998    0.253    0.456   86.549    5.849
  339.298    0.306    0.466   45.041    5.950
  339.598    0.311    0.367   37.627    6.163
  339.898    0.296    0.356   37.658    5.917
  340.198    0.297    0.356   38.916    5.578
  340.498    0.304    0.360   38.934    5.157
  340.798    0.287    0.361   38.333    4.769
  341.098    0.311    0.378   38.360    4.576
  341.398    0.304    0.370   36.522    4.483
  341.698    0.298    0.351   36.540    4.470
  341.998    0.313    0.356   40.284    4.550
  342.298    0.309    0.371   40.925    4.801
  342.598    0.312    0.374   40.326    4.882
  342.898    0.321    0.372   36.010    5.058
  343.198    0.289    0.380   44.709    5.047
  343.498    0.308    0.406   47.831    5.232
  343.798    0.334    0.444   36.077    5.738
  344.098    0.316    0.423   33.620    6.660
  344.397    0.310    0.391   37.364    9.347
  344.697    0.303    0.390   37.385   17.109
  344.997    0.296    0.379   34.308   33.768
  345.297    0.300    0.394   35.569   43.931
  345.597    0.293    0.378   41.791   45.517
  345.897    0.301    0.367   47.390   45.410
  346.197    0.310    0.374   55.470   41.974
  346.497    0.301    0.357   57.358   38.083
  346.797    0.300    0.365   55.516   33.919
  347.097    0.284    0.371   56.784   29.077
  347.397    0.291    0.382   57.423   24.901
  347.697    0.310    0.392   53.723   24.376
  347.997    0.329    0.393   45.685   24.790
  348.297    0.340    0.388   27.733   27.203
  348.597    0.337    0.388   35.194   32.185
  348.897    0.343    0.391   45.752   39.549
  349.197    0.344    0.398   40.195   48.609
  349.497    0.334    0.409   39.600   57.510
  349.797    0.315    0.409   48.298   57.349
  350.097    0.309    0.398   51.033   82.820
  350.397    0.304    0.396   53.451   82.662
  350.697    0.312    0.381   39.880   82.549
  350.997    0.325    0.375   37.377   82.380
  351.297    0.325    0.394   44.716   79.191
  351.597    0.321    0.390   69.268   66.653
  351.897    0.313    0.383   74.142   52.998
  352.197    0.309    0.394   87.014   43.767
  352.497    0.313    0.409   88.816   41.271
  352.797    0.319    0.392   63.564   41.992
  353.097    0.308    0.386   54.909   46.949
  353.397    0.321    0.403   72.704   50.566
  353.697    0.322    0.382   68.354   49.536
  353.997    0.286    0.365   70.772   34.493
  354.297    0.289    0.403   87.333   27.939
  354.597    0.305    0.422  156.153   27.364
  354.897    0.319    0.400  127.214   33.023
  355.197    0.320    0.380  117.951   39.840
  355.497    0.320    0.377  131.430   41.300
  355.797    0.298    0.372  141.216   38.227
  356.097    0.278    0.371  140.572   29.258
  356.397    0.276    0.381  145.450   19.252
  356.697    0.286    0.394  132.496   16.820
  356.997    0.303    0.394   96.790   17.444
  357.297    0.308    0.401   87.523   19.510
  357.597    0.310    0.407   85.635   22.666
  357.897    0.299    0.395   92.967   27.344
  358.197    0.305    0.374   96.000   32.376
  358.497    0.338    0.400   97.192   40.573
