~VERSION INFORMATION
 VERS.                 2.0:   CWLS LOG ASCII STANDARD -VERSION 2.0
 WRAP.                  NO:   ONE LINE PER DEPTH STEP
~WELL INFORMATION BLOCK
#MNEM.UNIT           DATA                    DESCRIPTION OF MNEMONIC
#---------    -------------------            -------------------------------
# Generated from Intellog Unique Number	CS_77_79/WELL/951
WELL.         B0W VALLEY EXPLORATION         : Well_name    - WELL
LOC .         00/10-13-077-15W4/0            : Location     - LOCATION
UWI .         00/10-13-077-15W4/0            : Uwi          - UNIQUE WELL ID
ENTR.         SP                             : Entered      - ENTERED BY
SRVC.         SCHLUMBERGER                   : Scn          - SERVICE COMPANY
STRT.M        280                            : top_depth    - START DEPTH
STOP.M        530                            : bot_depth    - STOP DEPTH
STEP.M        0.25                           : increment    - STEP LENGTH
 NULL. -999.2500:NULL Value
~CURVE INFORMATION BLOCK
#MNEM UNIT       ERCB CURVE CODE    CURVE DESCRIPTION
#-----------   ------------------   ----------------------------------
DEPT.M        00 001 00 00         : DEPTH        - DEPTH
GR  .API      00 310 00 00         : GR           - GAMMA RAY
DPHI.V/V      00 890 00 00         : PHID         - DENSITY POROSITY (LIMESTONE)
NPHI.V/V      00 330 00 00         : PHIN         - NEUTRON POROSITY (LIMESTONE)
ILD .OHMM     00 120 00 00         : RESD         - DEEP RESISTIVITY (DIL)
~PARAMETER INFORMATION
#MNEM.UNIT           DATA             DESCRIPTION OF MNEMONIC
#---------         -----------     ------------------------------
GL  .M        675.4                : gl           - GROUND LEVEL ELEVATION
EREF.M        678.9                : kb           - ELEVATION OF DEPTH REFERENCE
DATM.M        675.4                : datum        - DATUM ELEVATION
TDD .M        537                  : tdd          - TOTAL DEPTH DRILLER
RUN .         ONE                  : Run          - RUN NUMBER
ENG .         BILL                 : Engineer     - RECORDING ENGINEER
WIT .         JIM                  : Witness      - WITNESSED BY
MUD .         GEL                  : Mud_type     - MUD TYPE
MATR.         LIMESTONE            : Logunit      - NEUTRON MATRIX
TMAX.C        21                   : BHT          - MAXIMUM RECORDED TEMPERATURE
BHTD.M        537                  : BHTDEP       - MAXIMUM RECORDED TEMPERATURE
MATR.         1                    : LOGUNIT      - NEUTRON MATRIX
RMT .C        25                   : MDTP         - TEMPERATURE OF MUD
NEUT.         1                    : NEUTRON      - NEUTRON TYPE
RESI.         0                    : RESIST       - RESISTIVITY TYPE
RMC .OHMM     0.25                 : RMC          - RESISTIVITY OF MUD CAKE
RMF .OHMM     0.25                 : RMF          - RESISTIVITY OF MUD FILTRATE
SUFT.C        15                   : SUFT         - SURFACE TEMPERATURE
~A  DEPTH       GR     PHID     PHIN     RESD
# ...
  497.500   88.494    0.203    0.340   15.171
  497.750   87.292    0.190    0.334   16.041
  498.000   68.019    0.220    0.356   17.935
  498.250   66.823    0.257    0.374   18.965
  498.500   67.428    0.296    0.390   22.844
  498.750   69.843    0.315    0.404   27.517
  499.000   71.053    0.311    0.414   30.199
  499.250   68.651    0.296    0.409   31.931
  499.500   67.451    0.271    0.394   31.928
  499.750   66.251    0.276    0.382   30.191
  500.000   77.423    0.281    0.369   24.755
  500.250   88.922    0.267    0.375   21.285
  500.500   91.951    0.256    0.353   18.654
  500.750   95.583    0.229    0.347   16.975
  501.000   97.404    0.175    0.349   15.159
  501.250   93.780    0.183    0.374   13.536
  501.500   71.404    0.201    0.382   12.789
  501.750   65.965    0.220    0.347   14.302
  502.000   62.946    0.251    0.325   15.996
  502.250   60.532    0.186    0.314   17.889
  502.500   59.931    0.145    0.307   18.567
  502.750   67.197    0.105    0.303   19.632
  503.000   71.434    0.120    0.311   18.198
  503.250   79.303    0.152    0.331   16.250
  503.500   84.752    0.199    0.333   14.785
  503.750   87.780    0.184    0.337   13.708
  504.000   84.156    0.167    0.340   12.710
  504.250   79.323    0.170    0.350   12.008
  504.500   75.093    0.207    0.374   11.341
  504.750   69.049    0.227    0.398   10.915
  505.000   77.523    0.228    0.442   10.911
  505.250   83.575    0.257    0.451   10.903
  505.500   86.001    0.212    0.420   11.106
  505.750   78.748    0.199    0.355   11.963
  506.000   72.100    0.216    0.344   12.649
  506.250   67.869    0.227    0.349   13.625
  506.500   63.037    0.237    0.360   14.138
  506.750   61.227    0.243    0.369   14.400
  507.000   62.440    0.251    0.349   14.122
  507.250   64.259    0.272    0.339   13.594
  507.500   61.845    0.248    0.341   11.691
  507.750   57.013    0.260    0.350   10.440
  508.000   52.783    0.276    0.360    8.812
  508.250   48.553    0.282    0.373    7.580
  508.500   44.324    0.292    0.367    6.643
  508.750   41.909    0.296    0.363    5.931
  509.000   42.519    0.311    0.369    5.397
  509.250   47.364    0.314    0.342    5.195
  509.500   56.442    0.293    0.333    5.096
  509.750   65.519    0.232    0.343    5.489
  510.000   63.710    0.237    0.360    5.912
  510.250   59.480    0.266    0.344    6.252
  510.500   57.670    0.282    0.338    6.488
  510.750   63.119    0.278    0.331    6.988
  511.000   65.543    0.259    0.345    7.390
  511.250   64.338    0.243    0.334    7.812
  511.500   69.183    0.258    0.332    8.258
  511.750   69.792    0.247    0.348    8.412
  512.000   72.219    0.255    0.358    8.565
  512.250   74.641    0.250    0.356    8.558
  512.500   81.905    0.224    0.348    8.716
  512.750   88.563    0.182    0.333    8.712
  513.000   95.826    0.153    0.328    8.706
  513.250  107.324    0.158    0.339    8.698
  513.500  113.377    0.161    0.364    8.860
  513.750  111.568    0.141    0.382    9.020
  514.000  107.944    0.061    0.381    9.187
  514.250  103.714    0.013    0.358    9.357
  514.500  100.694    0.029    0.346    9.706
  514.750  106.750    0.082    0.337    9.702
  515.000  112.805    0.123    0.340    9.696
  515.250  114.623    0.129    0.357    9.510
  515.500  115.836    0.149    0.381    9.504
  515.750  110.397    0.163    0.394    9.500
  516.000  102.541    0.177    0.366    9.854
  516.250   98.311    0.195    0.359   10.036
  516.500  100.734    0.188    0.353   10.415
  516.750  105.578    0.177    0.363   11.009
  517.000  103.166    0.166    0.366   11.425
  517.250  101.958    0.164    0.345   11.635
  517.500  100.754    0.174    0.329   12.071
  517.750  106.809    0.173    0.313   12.294
  518.000  108.627    0.151    0.315   12.284
  518.250  108.632    0.144    0.329   12.278
  518.500  111.663    0.154    0.358   12.042
  518.750  113.481    0.169    0.371   11.164
  519.000  117.115    0.173    0.382   10.546
  519.250  113.491    0.163    0.396    9.779
  519.500  106.843    0.151    0.381    9.238
  519.750   99.589    0.149    0.358    9.062
  520.000   83.867    0.137    0.348    9.402
  520.250   70.565    0.159    0.340   10.129
  520.500   63.917    0.172    0.328   11.327
  520.750   59.689    0.196    0.333   12.205
  521.000   57.274    0.218    0.339   13.909
  521.250   56.674    0.205    0.351   15.557
  521.500   47.606    0.200    0.349   17.401
  521.750   47.611    0.211    0.336   18.396
  522.000   51.850    0.210    0.321   18.046
  522.250   56.089    0.195    0.308   15.812
  522.500   51.859    0.201    0.316   14.940
  522.750   49.445    0.212    0.309   13.341
  523.000   53.684    0.210    0.295   12.137
  523.250   65.786    0.188    0.284   11.465
  523.500   82.727    0.139    0.296   11.037
  523.750   79.708    0.024    0.310   10.825
  524.000   72.454    0.000    0.324   11.022
  524.250   68.831    0.000    0.310   11.653
  524.500   68.231    0.000    0.289   12.094
  524.750   70.655    0.000    0.275   13.274
  525.000   74.289    0.003    0.266   14.037
  525.250   70.666    0.015    0.258   15.404
  525.500   64.622    0.036    0.245   15.987
  525.750   57.972    0.033    0.233   17.550
  526.000   49.509    0.015    0.198   19.628
  526.250   44.070    0.000    0.170   24.571
  526.500   40.447    0.002    0.149   28.537
  526.750   38.638    0.003    0.135   35.721
  527.000   38.038    0.001    0.125   41.483
  527.250   41.671    0.000    0.129   46.399
  527.500   58.008    0.000    0.153   37.718
  527.750   77.973    0.008    0.173   30.096
  528.000   86.445    0.024    0.212   24.466
  528.250   93.104    0.034    0.237   20.652
  528.500  100.972    0.028    0.253   17.764
  528.750  116.703    0.034    0.253   16.162
  529.000  137.878    0.025    0.226   15.853
  529.250  137.279    0.000    0.229   15.842
  529.500  119.138    0.015    0.248   15.834
  529.750   85.270    0.039    0.264   15.528
  530.000   74.388    0.019    0.268   15.230
