~VERSION INFORMATION
VERS.                2.00:   CWLS LOG ASCII STANDARD -VERSION 2.0
WRAP.                  NO:
~WELL INFORMATION BLOCK
#MNEM.UNIT           DATA                    DESCRIPTION OF MNEMONIC
#---------    -------------------            -------------------------------
# Generated from Intellog Unique Number	CN_91_93/WELL/2737
LOC .         11-07-093-18W4                 : Location     - LOCATION          
UWI .         00/11-07-093-18W400            : Uwi          - UNIQUE WELL ID    
ENTR.         JOETTE                         : Entered      - ENTERED BY        
STRT.M            70.0000:
STOP.M           250.0000:
STEP.M             0.2500:
NULL.           -999.2500:
COMP.     :COMPANY
WELL.  PETRO-CANADA INC. :WELL
FLD.      :FIELD
LOC.      :LOCATION
CTRY.     :COUNTRY
PROV.     :PROVINCE
SRVC.  SCHLUMBERGER  :SERVICE COMPANY
DATE.  03/23/92  :LOG DATE
UWI.      :UNIQUE WELL ID
~Curve Information Block
#MNEM UNIT       ERCB CURVE CODE    CURVE DESCRIPTION
#MNEM.UNIT        API CODE    Curve Description
#---------    ------------    -------------------------------------------
DEPT.M                    :   DEPTH
CALI.MM       00 280 01 00:   CAL          - CALIPER
DPHI.V/V      00 890 00 00:   PHID         - DENSITY POROSITY (SANDSTONE)
GR  .API      00 310 00 00:   GR           - GAMMA RAY
ILD .OHMM     00 120 00 00:   RESD         - DEEP RESISTIVITY (DIL)
NPHI.V/V      00 330 00 00:   PHIN         - NEUTRON POROSITY (SANDSTONE)
~PARAMETER INFORMATION       
#MNEM.UNIT           DATA             DESCRIPTION OF MNEMONIC
#---------         -----------     ------------------------------
GL  .M        512.3                : gl           - GROUND LEVEL ELEVATION      
EREF.M        515.6                : kb           - ELEVATION OF DEPTH REFERENCE
DATM.M        515.6                : datum        - DATUM ELEVATION             
TDD .M        250.8                : tdd          - TOTAL DEPTH DRILLER         
RUN .         ONE                  : Run          - RUN NUMBER                  
ENG .         BILL                 : Engineer     - RECORDING ENGINEER          
WIT .         JIM                  : Witness      - WITNESSED BY                
MUD .         GEL                  : Mud_type     - MUD TYPE                    
MATR.         SANDSTONE            : Logunit      - NEUTRON MATRIX              
TMAX.C        18                   : BHT          - MAXIMUM RECORDED TEMPERATURE
BHTD.M        250.8                : BHTDEP       - MAXIMUM RECORDED TEMPERATURE
RMT .C        15                   : MDTP         - TEMPERATURE OF MUD          
MUDD.KG/M     1150                 : MWT          - MUD DENSITY                 
NEUT.         1                    : NEUTRON      - NEUTRON TYPE                
RESI.         0                    : RESIST       - RESISTIVITY TYPE            
RM  .OHMM     2.66                 : RM           - RESISTIVITY OF MUD          
RMC .OHMM     2.66                 : RMC          - RESISTIVITY OF MUD CAKE     
RMF .OHMM     2.66                 : RMF          - RESISTIVITY OF MUD FILTRATE 
SUFT.C        4                    : SUFT         - SURFACE TEMPERATURE         
~A  Depth           CALI        DPHI          GR         ILD        NPHI
# ...
97.5000         163.5860      0.3050     85.8650      5.2280      0.5020
97.7500         163.4900      0.3090     84.6120      4.9330      0.5120
98.0000         162.4080      0.3150     81.5520      4.9280      0.5240
98.2500         162.3300      0.3220     76.6830      5.3090      0.5430
98.5000         162.2330      0.3340     70.5970      6.2910      0.5120
98.7500         161.1710      0.3280     64.5230      8.3450      0.4580
99.0000         160.0890      0.3290     60.2460      9.3420      0.4420
99.2500         158.0020      0.3330     60.2110     10.0680      0.4270
99.5000         156.9200      0.3090     66.7830     10.6420      0.4340
99.7500         158.8320      0.2650     69.1600     10.4270      0.4470
100.0000        159.7980      0.2180     62.4830     10.0260      0.4700
100.2500        160.7060      0.1670     57.0110      9.8320      0.5230
100.5000        161.6140      0.1850     60.5810      9.2760      0.2950
100.7500        162.5410      0.2150     68.3710      8.5890      0.3380
101.0000        163.4690      0.3140     74.3530      7.9540      0.4120
101.2500        167.4290      0.3110     77.9110      6.9580      0.4970
101.5000        170.3660      0.2900     81.4930      6.4430      0.4850
101.7500        168.2790      0.2550     82.0380      6.3170      0.4860
102.0000        165.1880      0.2390     80.1830      6.9370      0.4740
102.2500        169.1090      0.2560     80.7510      7.6150      0.4480
102.5000        172.0650      0.2660     85.5270      7.7520      0.4370
102.7500        172.9920      0.2630     87.8800      7.4550      0.4420
103.0000        169.9010      0.2580     85.4340      6.9010      0.4660
103.2500        167.7950      0.2550     82.9760      6.3910      0.4630
103.5000        166.6940      0.2550     83.5330      6.5070      0.4600
103.7500        167.6600      0.2590     84.6800      6.7470      0.4700
104.0000        169.5910      0.2650     85.2360      6.8700      0.4950
104.2500        170.5190      0.2630     85.7930      6.8640      0.5010
104.5000        171.4270      0.2390     85.7580      6.6000      0.4940
104.7500        173.3780      0.2340     85.1090      6.3470      0.4990
105.0000        176.2760      0.2500     85.0390      6.3400      0.5010
105.2500        177.2420      0.2630     84.3780      6.3330      0.4950
105.5000        180.1780      0.2670     84.3550      6.5680      0.4840
105.7500        180.0810      0.2690     84.8880      6.5640      0.4770
106.0000        175.9850      0.2700     85.4560      6.6820      0.4690
106.2500        171.8890      0.2820     87.2060      6.8020      0.4660
106.5000        172.8170      0.2950     87.7740      6.9230      0.4760
106.7500        166.6920      0.2890     88.3310      7.0450      0.4880
107.0000        166.6150      0.2800     88.2960      6.9070      0.4780
107.2500        167.5420      0.2700     88.2490      6.6390      0.4980
107.5000        167.4840      0.2640     88.2030      6.3890      0.5030
107.7500        168.4110      0.2790     85.7340      5.9160      0.4870
108.0000        167.3290      0.2790     83.8790      5.5810      0.4760
108.2500        167.2510      0.2660     82.0240      5.5760      0.4630
108.5000        168.1590      0.2610     81.3750      5.6770      0.4670
108.7500        171.0960      0.2600     83.1480      5.7790      0.4960
109.0000        171.0380      0.2640     86.7190      5.9950      0.5030
109.2500        170.9410      0.2610     87.2520      6.4560      0.4960
109.5000        169.8590      0.2590     87.2280      6.5730      0.5080
109.7500        165.7630      0.2550     84.1330      6.8190      0.4990
110.0000        163.6760      0.2550     81.0960      7.2120      0.4770
110.2500        166.6130      0.2550     75.6250      7.9170      0.4620
110.5000        168.5450      0.2600     73.1560      7.6140      0.4580
110.7500        167.4630      0.2750     77.9430      6.9200      0.4690
111.0000        162.3620      0.2910     99.0050      5.0080      0.5420
111.2500        160.2750      0.2950    104.3720      4.2990      0.5510
111.5000        160.1790      0.2880    103.1320      4.2130      0.5630
111.7500        161.1060      0.2810     98.8430      4.2090      0.5740
112.0000        163.0180      0.2720     96.3740      4.2850      0.5620
112.2500        164.9700      0.2670     95.7480      4.4450      0.5250
112.5000        164.8920      0.2580     96.8720      4.7000      0.5120
112.7500        164.8150      0.2490     98.6450      4.9690      0.5140
113.0000        163.7330      0.2600     99.2250      5.2500      0.5420
113.2500        162.6510      0.2780     98.5640      5.4500      0.5440
113.5000        162.5930      0.2790     96.1070      5.7620      0.5010
113.7500        162.5150      0.2740     93.0580      5.5410      0.4810
114.0000        167.4420      0.2610     88.7920      4.8470      0.4870
114.2500        169.3730      0.2640     96.5820      4.3210      0.5060
114.5000        169.2770      0.3000    100.7430      4.0000      0.5130
114.7500        166.1850      0.3190     97.6830      4.0720      0.5260
115.0000        165.1230      0.3210     94.0310      4.3060      0.5470
115.2500        162.0310      0.3130     85.5340      4.7290      0.5320
115.5000        159.9250      0.2930     81.8710      5.6000      0.4990
115.7500        159.8280      0.2320     76.9910      6.3880      0.4450
116.0000        159.7510      0.2010     82.3810      6.7540      0.4310
116.2500        160.6980      0.2390     87.7600      7.0060      0.4470
116.5000        160.6400      0.2580     87.7130      7.1280      0.4670
116.7500        160.5430      0.2540     86.4610      6.9900      0.4890
117.0000        160.4850      0.2490     87.0060      6.5950      0.4960
117.2500        160.3880      0.2610     88.7680      6.4660      0.4790
117.5000        159.3250      0.2580     88.1180      6.2170      0.4790
117.7500        158.2240      0.2610     86.8660      5.8670      0.4840
118.0000        157.1420      0.2680     90.4480      5.5360      0.4850
118.2500        156.0210      0.2630     94.6100      5.6360      0.4840
118.5000        154.9780      0.2360     86.1360      6.4290      0.4880
118.7500        155.9050      0.2270     72.2140      7.6150      0.4880
119.0000        157.8370      0.2280     57.7010      8.8510      0.4770
119.2500        158.7250      0.3220     44.3810      9.7190      0.4410
119.5000        158.6670      0.3510     47.9520     10.6690      0.4340
119.7500        159.5750      0.3590     55.1390     10.8640      0.4450
120.0000        159.5170      0.3540     65.3390     10.6480      0.4330
120.2500        161.4490      0.3410     75.5520     10.2380      0.4220
120.5000        163.3810      0.3020     80.9190      9.1250      0.4340
120.7500        164.3270      0.2540     81.4870      8.6140      0.4560
121.0000        161.2360      0.2160     85.0570      8.1270      0.4660
121.2500        162.1630      0.2510     85.6130      8.1200      0.4530
121.5000        161.0810      0.3230     77.7310      8.5850      0.4520
121.7500        156.9660      0.2520     68.6310      8.9030      0.4680
122.0000        159.9220      0.2290     62.5450      9.0660      0.4530
122.2500        163.8630      0.2300     58.8940      9.0560      0.4550
122.5000        164.7710      0.3080     48.5770      8.7070      0.4450
122.7500        162.6840      0.3290     50.3390      8.3760      0.4120
123.0000        162.5870      0.3110     53.9320      7.7540      0.3930
123.2500        162.5290      0.2750     60.5160      7.0450      0.4040
123.5000        163.4570      0.2430     68.3060      6.0480      0.4240
123.7500        165.3690      0.2250     88.1510      4.9990      0.4580
124.0000        167.3010      0.1980     91.7220      4.4570      0.4700
124.2500        169.2330      0.1970     94.0860      4.2850      0.4920
124.5000        168.1510      0.2120     95.8360      4.2800      0.5100
124.7500        168.0730      0.2280     98.8040      4.1950      0.5160
