~VERSION INFORMATION
 VERS.                 2.0:   CWLS LOG ASCII STANDARD -VERSION 2.0
 WRAP.                  NO:   ONE LINE PER DEPTH STEP
~WELL INFORMATION BLOCK
#MNEM.UNIT           DATA                    DESCRIPTION OF MNEMONIC
#---------    -------------------            -------------------------------
# Generated from Intellog Unique Number	CS_71_72/WELL/845
WELL.         BVX ET AL PHILOMENA            : Well_name    - WELL
LOC .         00/10-01-071-11W4/0            : Location     - LOCATION
UWI .         00/10-01-071-11W4/0            : Uwi          - UNIQUE WELL ID
ENTR.         SP                             : Entered      - ENTERED BY
SRVC.         SCHLUMBERGER                   : Scn          - SERVICE COMPANY
STRT.M        305                            : top_depth    - START DEPTH
STOP.M        525                            : bot_depth    - STOP DEPTH
STEP.M        0.25                           : increment    - STEP LENGTH
 NULL. -999.2500:NULL Value
~CURVE INFORMATION BLOCK
#MNEM UNIT       ERCB CURVE CODE    CURVE DESCRIPTION
#-----------   ------------------   ----------------------------------
DEPT.M        00 001 00 00         : DEPTH        - DEPTH
ILD .OHMM     00 120 00 00         : RESD         - DEEP RESISTIVITY (DIL)
DPHI.V/V      00 890 00 00         : PHID         - DENSITY POROSITY (LIMESTONE)
NPHI.V/V      00 330 00 00         : PHIN         - NEUTRON POROSITY (LIMESTONE)
GR  .API      00 310 00 00         : GR           - GAMMA RAY
~PARAMETER INFORMATION
#MNEM.UNIT           DATA             DESCRIPTION OF MNEMONIC
#---------         -----------     ------------------------------
GL  .M        643.55               : gl           - GROUND LEVEL ELEVATION
EREF.M        646.55               : kb           - ELEVATION OF DEPTH REFERENCE
DATM.M        643.55               : datum        - DATUM ELEVATION
TDD .M        529                  : tdd          - TOTAL DEPTH DRILLER
RUN .         ONE                  : Run          - RUN NUMBER
ENG .         BILL                 : Engineer     - RECORDING ENGINEER
WIT .         JIM                  : Witness      - WITNESSED BY
MUD .         GEL                  : Mud_type     - MUD TYPE
MATR.         LIMESTONE            : Logunit      - NEUTRON MATRIX
TMAX.C        28                   : BHT          - MAXIMUM RECORDED TEMPERATURE
BHTD.M        529                  : BHTDEP       - MAXIMUM RECORDED TEMPERATURE
MATR.         1                    : LOGUNIT      - NEUTRON MATRIX
RMT .C        25                   : MDTP         - TEMPERATURE OF MUD
NEUT.         1                    : NEUTRON      - NEUTRON TYPE
RESI.         0                    : RESIST       - RESISTIVITY TYPE
RMC .OHMM     0.25                 : RMC          - RESISTIVITY OF MUD CAKE
RMF .OHMM     0.25                 : RMF          - RESISTIVITY OF MUD FILTRATE
SUFT.C        15                   : SUFT         - SURFACE TEMPERATURE
~A  DEPTH     RESD     PHID     PHIN       GR
# ...
  479.000    5.263    0.268    0.425   90.225
  479.250    5.251    0.256    0.416   90.048
  479.500    5.288    0.249    0.407   92.840
  479.750    5.526    0.237    0.396  104.482
  480.000    5.764    0.211    0.416  113.699
  480.250    6.069    0.236    0.432  118.431
  480.500    6.308    0.231    0.418  120.375
  480.750    6.544    0.217    0.407  112.986
  481.000    6.749    0.209    0.400  104.081
  481.250    6.735    0.234    0.403   87.418
  481.500    6.620    0.269    0.414   74.756
  481.750    6.328    0.284    0.424   69.851
  482.000    6.198    0.276    0.426   73.431
  482.250    5.805    0.258    0.407   77.315
  482.500    5.686    0.237    0.395   80.714
  482.750    5.789    0.244    0.393   83.628
  483.000    5.950    0.222    0.403   85.814
  483.250    6.173    0.198    0.385   86.304
  483.500    6.707    0.187    0.361   89.400
  483.750    6.920    0.178    0.352   96.859
  484.000    7.560    0.197    0.354  102.197
  484.250    7.686    0.212    0.360  101.353
  484.500    8.045    0.226    0.367   92.934
  484.750    8.059    0.241    0.379   84.756
  485.000    7.995    0.249    0.387   78.942
  485.250    7.930    0.230    0.391   82.342
  485.500    7.883    0.212    0.390   84.710
  485.750    7.881    0.204    0.370   86.533
  486.000    7.834    0.213    0.367   83.446
  486.250    7.517    0.222    0.381   74.784
  486.500    6.988    0.249    0.390   65.758
  486.750    6.570    0.278    0.401   59.580
  487.000    6.211    0.300    0.392   54.918
  487.250    5.553    0.286    0.371   60.317
  487.500    5.290    0.278    0.355   65.110
  487.750    4.909    0.266    0.363   71.297
  488.000    4.504    0.257    0.378   75.483
  488.250    4.346    0.238    0.368   83.306
  488.500    4.093    0.204    0.382   93.796
  488.750    4.032    0.180    0.435  105.680
  489.000    3.897    0.176    0.474  114.594
  489.250    3.874    0.182    0.504  119.751
  489.500    3.879    0.182    0.511  122.604
  489.750    3.942    0.193    0.524  124.124
  490.000    3.963    0.165    0.536  124.735
  490.250    3.984    0.147    0.526  122.254
  490.500    3.974    0.137    0.483  117.107
  490.750    3.714    0.181    0.458  109.960
  491.000    3.666    0.245    0.436   98.389
  491.250    3.478    0.278    0.408   82.453
  491.500    3.388    0.305    0.385   61.063
  491.750    3.312    0.313    0.373   55.189
  492.000    3.267    0.302    0.382   54.224
  492.250    3.260    0.302    0.398   54.834
  492.500    3.265    0.310    0.398   53.506
  492.750    3.281    0.319    0.392   53.996
  493.000    3.311    0.326    0.398   55.456
  493.250    3.371    0.314    0.396   56.733
  493.500    3.446    0.305    0.398   57.404
  493.750    3.548    0.302    0.398   56.802
  494.000    3.660    0.312    0.394   56.323
  494.250    3.868    0.312    0.389   59.963
  494.500    4.203    0.308    0.384   65.363
  494.750    4.542    0.286    0.382   69.368
  495.000    4.872    0.263    0.381   72.584
  495.250    5.226    0.254    0.381   76.286
  495.500    5.523    0.257    0.385   79.140
  495.750    5.783    0.270    0.390   81.083
  496.000    5.966    0.268    0.388   83.754
  496.250    5.974    0.246    0.381   86.122
  496.500    5.883    0.212    0.372   89.157
  496.750    5.729    0.190    0.366   93.284
  497.000    5.445    0.206    0.374   98.198
  497.250    5.414    0.195    0.380  102.445
  497.500    5.263    0.174    0.387  106.693
  497.750    5.013    0.161    0.395  110.395
  498.000    4.882    0.181    0.407  112.702
  498.250    4.799    0.206    0.402  114.343
  498.500    4.806    0.223    0.394  101.620
  498.750    4.866    0.249    0.387   88.533
  499.000    4.992    0.244    0.379   78.416
  499.250    5.169    0.220    0.367   73.996
  499.500    5.332    0.227    0.355   73.577
  499.750    5.562    0.226    0.344   73.521
  500.000    5.675    0.218    0.336   80.011
  500.250    5.997    0.219    0.370   91.288
  500.500    6.268    0.186    0.399   99.960
  500.750    6.539    0.162    0.419  107.056
  501.000    6.872    0.172    0.439  109.485
  501.250    7.089    0.197    0.409   98.035
  501.500    7.179    0.226    0.381   86.463
  501.750    7.215    0.243    0.372   76.710
  502.000    7.212    0.231    0.378   71.623
  502.250    7.209    0.240    0.381   68.113
  502.500    7.273    0.249    0.388   66.239
  502.750    7.545    0.260    0.402   66.607
  503.000    8.003    0.253    0.403   64.187
  503.250    8.427    0.266    0.389   61.222
  503.500    8.906    0.265    0.370   62.742
  503.750    9.290    0.252    0.363   64.748
  504.000    9.425    0.243    0.358   65.478
  504.250    9.264    0.245    0.373   64.210
  504.500    8.906    0.257    0.377   60.276
  504.750    8.113    0.239    0.366   58.159
  505.000    6.759    0.254    0.359   56.345
  505.250    5.933    0.245    0.363   55.623
  505.500    5.074    0.257    0.378   55.264
  505.750    4.404    0.274    0.387   55.996
  506.000    3.872    0.277    0.388   57.455
  506.250    3.614    0.271    0.383   55.036
  506.500    3.403    0.288    0.377   50.555
  506.750    3.296    0.293    0.370   46.075
  507.000    3.270    0.295    0.357   44.443
  507.250    3.281    0.292    0.352   47.054
  507.500    3.316    0.278    0.357   51.423
  507.750    3.272    0.263    0.364   56.761
  508.000    3.228    0.252    0.369   60.644
  508.250    3.173    0.246    0.371   63.437
  508.500    3.108    0.261    0.368   62.896
  508.750    3.049    0.263    0.360   60.416
  509.000    2.969    0.272    0.357   57.209
  509.250    2.925    0.292    0.363   55.152
  509.500    2.843    0.292    0.358   59.702
  509.750    2.753    0.271    0.356   68.677
  510.000    2.637    0.260    0.365   66.924
  510.250    2.554    0.256    0.380   59.535
  510.500    2.464    0.256    0.390   54.327
  510.750    2.391    0.280    0.384   51.847
  511.000    2.381    0.298    0.376   48.578
  511.250    2.402    0.318    0.385   42.826
  511.500    2.437    0.312    0.376   38.224
  511.750    2.482    0.301    0.366   41.078
  512.000    2.513    0.300    0.381   46.718
  512.250    2.498    0.311    0.390   53.693
  512.500    2.464    0.297    0.375   52.728
  512.750    2.400    0.274    0.361   52.066
  513.000    2.299    0.271    0.368   47.464
  513.250    2.185    0.291    0.374   41.954
  513.500    2.077    0.307    0.378   38.746
  513.750    2.042    0.321    0.381   39.175
  514.000    2.030    0.325    0.381   44.029
  514.250    2.075    0.319    0.372   48.338
  514.500    2.148    0.314    0.365   50.644
  514.750    2.236    0.308    0.369   53.983
  515.000    2.290    0.301    0.384   57.381
  515.250    2.363    0.281    0.388   61.265
  515.500    2.406    0.271    0.379   62.785
  515.750    2.436    0.276    0.368   61.941
  516.000    2.453    0.288    0.359   63.097
  516.250    2.462    0.289    0.355   65.344
  516.500    2.451    0.270    0.363   67.591
  516.750    2.437    0.266    0.370   68.869
  517.000    2.435    0.275    0.374   66.873
  517.250    2.457    0.272    0.377   62.635
  517.500    2.502    0.282    0.379   65.125
  517.750    2.538    0.268    0.382   68.887
  518.000    2.547    0.284    0.387   73.499
  518.250    2.498    0.276    0.394   75.382
  518.500    2.420    0.263    0.394   77.144
  518.750    2.331    0.246    0.392   76.119
  519.000    2.248    0.239    0.398   68.486
  519.250    2.210    0.282    0.409   53.581
  519.500    2.169    0.296    0.415   49.768
  519.750    2.172    0.290    0.405   53.712
  520.000    2.317    0.291    0.392   58.567
  520.250    2.546    0.294    0.379   60.934
  520.500    2.797    0.287    0.368   63.666
  520.750    3.155    0.286    0.365   65.428
  521.000    3.818    0.290    0.368   70.645
  521.250    4.805    0.257    0.368   92.408
  521.500    5.439    0.180    0.364  108.353
  521.750    5.716    0.117    0.344  123.873
  522.000    5.778    0.124    0.371  122.000
  522.250    5.807    0.139    0.386  116.125
