~VERSION INFORMATION
 VERS.                 2.0:   CWLS LOG ASCII STANDARD -VERSION 2.0
 WRAP.                  NO:   ONE LINE PER DEPTH STEP
~WELL INFORMATION BLOCK
#MNEM.UNIT           DATA                    DESCRIPTION OF MNEMONIC
#---------    -------------------            -------------------------------
# Generated from Intellog Unique Number	CS_67_68/WELL/833
WELL.         ET AL TWEEDIE                  : Well_name    - WELL
LOC .         00/11-12-068-13W4/0            : Location     - LOCATION
UWI .         00/11-12-068-13W4/0            : Uwi          - UNIQUE WELL ID
ENTR.         SP                             : Entered      - ENTERED BY
SRVC.         SCHLUMBERGER                   : Scn          - SERVICE COMPANY
STRT.M        289.56                         : top_depth    - START DEPTH
STOP.M        466.060                        : bot_depth    - STOP DEPTH
STEP.M        0.25                           : increment    - STEP LENGTH
 NULL. -999.2500:NULL Value
~CURVE INFORMATION BLOCK
#MNEM UNIT       ERCB CURVE CODE    CURVE DESCRIPTION
#-----------   ------------------   ----------------------------------
DEPT.M        00 001 00 00         : DEPTH        - DEPTH
GR  .API      00 310 00 00         : GR           - GAMMA RAY
DPHI.V/V      00 890 00 00         : PHID         - DENSITY POROSITY (SANDSTONE)
NPHI.V/V      00 330 00 00         : PHIN         - NEUTRON POROSITY (SANDSTONE)
ILD .OHMM     00 120 00 00         : RESD         - DEEP RESISTIVITY (DIL)
~PARAMETER INFORMATION
#MNEM.UNIT           DATA             DESCRIPTION OF MNEMONIC
#---------         -----------     ------------------------------
GL  .M        590.398              : gl           - GROUND LEVEL ELEVATION
EREF.M        593.141              : kb           - ELEVATION OF DEPTH REFERENCE
DATM.M        590.398              : datum        - DATUM ELEVATION
TDD .M        467.868              : tdd          - TOTAL DEPTH DRILLER
RUN .         ONE                  : Run          - RUN NUMBER
ENG .         BILL                 : Engineer     - RECORDING ENGINEER
WIT .         JIM                  : Witness      - WITNESSED BY
MUD .         GEL                  : Mud_type     - MUD TYPE
MATR.         SANDSTONE            : Logunit      - NEUTRON MATRIX
TMAX.C        18.3333              : BHT          - MAXIMUM RECORDED TEMPERATURE
BHTD.M        467.868              : BHTDEP       - MAXIMUM RECORDED TEMPERATURE
MATR.         1                    : LOGUNIT      - NEUTRON MATRIX
RMT .C        25                   : MDTP         - TEMPERATURE OF MUD
NEUT.         1                    : NEUTRON      - NEUTRON TYPE
RESI.         0                    : RESIST       - RESISTIVITY TYPE
RMC .OHMM     0.25                 : RMC          - RESISTIVITY OF MUD CAKE
RMF .OHMM     0.25                 : RMF          - RESISTIVITY OF MUD FILTRATE
SUFT.C        15                   : SUFT         - SURFACE TEMPERATURE
~A  DEPTH       GR     PHID     PHIN     RESD
# ...
  333.060  104.094    0.288    0.501    2.397
  333.310  100.222    0.294    0.489    2.500
  333.560   98.191    0.290    0.474    2.591
  333.810   96.385    0.294    0.466    2.635
  334.060   95.119    0.297    0.477    2.651
  334.310   94.945    0.304    0.486    2.653
  334.560   95.513    0.315    0.506    2.639
  334.810   95.783    0.319    0.532    2.613
  335.060   96.714    0.312    0.542    2.565
  335.310   97.437    0.305    0.550    2.526
  335.560   96.488    0.309    0.538    2.518
  335.810   94.886    0.310    0.533    2.511
  336.060   94.737    0.311    0.542    2.535
  336.310   95.396    0.305    0.544    2.572
  336.560   97.420    0.291    0.548    2.604
  336.810   98.863    0.288    0.559    2.637
  337.060   99.922    0.293    0.543    2.676
  337.310   99.845    0.297    0.521    2.711
  337.560   99.006    0.287    0.509    2.738
  337.810  100.622    0.282    0.508    2.763
  338.060  101.947    0.279    0.513    2.801
  338.310  103.271    0.271    0.524    2.847
  338.560  105.990    0.261    0.538    2.888
  338.810  109.010    0.273    0.523    2.936
  339.060  111.003    0.282    0.534    2.983
  339.310  111.306    0.283    0.520    3.015
  339.560  107.606    0.291    0.510    3.025
  339.810  102.810    0.298    0.509    3.031
  340.060   99.913    0.295    0.508    3.056
  340.310  100.350    0.289    0.506    3.097
  340.560  104.215    0.289    0.507    3.158
  340.810  108.302    0.298    0.515    3.229
  341.060  111.436    0.287    0.501    3.299
  341.310  112.007    0.281    0.484    3.358
  341.560  107.957    0.290    0.494    3.417
  341.810  105.784    0.283    0.524    3.465
  342.060  108.232    0.276    0.530    3.494
  342.310  109.401    0.268    0.542    3.488
  342.560  108.441    0.263    0.565    3.427
  342.810  111.408    0.258    0.558    3.336
  343.060  113.540    0.295    0.484    3.217
  343.310  111.286    0.291    0.463    3.125
  343.560  104.937    0.287    0.470    3.072
  343.810  101.241    0.283    0.473    2.970
  344.060  102.854    0.272    0.475    2.863
  344.310  104.669    0.276    0.484    2.722
  344.560  102.326    0.305    0.496    2.626
  344.810   97.407    0.313    0.479    2.555
  345.060   94.191    0.305    0.471    2.535
  345.310   94.283    0.299    0.489    2.533
  345.560   96.705    0.295    0.497    2.545
  345.810   99.764    0.293    0.508    2.675
  346.060  102.538    0.292    0.497    2.780
  346.310  103.883    0.284    0.460    2.927
  346.560  103.644    0.257    0.436    3.085
  346.810  104.034    0.231    0.420    3.308
  347.060  108.137    0.225    0.419    3.477
  347.310  110.929    0.231    0.432    3.636
  347.560  109.637    0.245    0.454    3.787
  347.810  107.661    0.255    0.474    3.898
  348.060  109.113    0.252    0.496    4.004
  348.310  110.754    0.254    0.515    4.096
  348.560  112.391    0.251    0.521    4.133
  348.810  115.584    0.243    0.521    4.145
  349.060  117.098    0.254    0.506    4.086
  349.310  117.238    0.261    0.503    4.006
  349.560  116.923    0.256    0.540    3.796
  349.810  116.101    0.260    0.563    3.463
  350.060  108.465    0.318    0.558    3.124
  350.310   98.528    0.312    0.545    2.835
  350.560   91.674    0.304    0.538    2.583
  350.810   87.250    0.314    0.529    2.411
  351.060   85.303    0.320    0.519    2.260
  351.310   83.773    0.315    0.507    2.193
  351.560   84.107    0.307    0.492    2.145
  351.810   86.211    0.312    0.471    2.118
  352.060   87.409    0.312    0.458    2.121
  352.310   85.848    0.316    0.470    2.144
  352.560   81.427    0.317    0.491    2.223
  352.810   79.681    0.323    0.505    2.395
  353.060   76.641    0.327    0.500    2.493
  353.310   72.040    0.321    0.486    2.592
  353.560   69.469    0.319    0.472    2.664
  353.810   66.733    0.316    0.459    2.708
  354.060   67.606    0.308    0.449    2.699
  354.310   70.043    0.303    0.436    2.673
  354.560   70.294    0.310    0.441    2.609
  354.810   68.886    0.316    0.452    2.527
  355.060   68.077    0.322    0.470    2.383
  355.310   68.231    0.317    0.467    2.253
  355.560   68.267    0.338    0.467    2.112
  355.810   67.335    0.341    0.484    2.018
  356.060   66.073    0.341    0.493    1.933
  356.310   65.890    0.337    0.498    1.811
  356.560   66.402    0.327    0.485    1.772
  356.810   69.127    0.316    0.473    1.788
  357.060   69.765    0.306    0.467    1.810
  357.310   69.820    0.302    0.465    1.866
  357.560   70.263    0.305    0.465    1.942
  357.810   70.766    0.291    0.462    2.024
  358.060   72.192    0.292    0.459    2.156
  358.310   74.442    0.303    0.457    2.257
  358.560   77.252    0.297    0.454    2.321
  358.810   78.545    0.289    0.453    2.396
  359.060   79.988    0.283    0.455    2.459
  359.310   80.487    0.286    0.455    2.495
  359.560   80.752    0.282    0.461    2.491
  359.810   80.716    0.280    0.470    2.472
  360.060   80.942    0.288    0.465    2.439
  360.310   82.588    0.277    0.456    2.566
  360.560   85.554    0.271    0.468    2.605
  360.810   86.721    0.273    0.457    2.625
  361.060   87.066    0.282    0.452    2.664
  361.310   88.631    0.277    0.465    2.706
  361.560   90.224    0.270    0.472    2.742
  361.810   91.344    0.258    0.465    2.776
  362.060   91.366    0.277    0.453    2.810
  362.310   91.162    0.277    0.445    2.850
  362.560   91.494    0.271    0.446    2.899
  362.810   89.640    0.276    0.446    2.942
  363.060   87.919    0.278    0.453    2.979
  363.310   88.504    0.273    0.465    2.980
  363.560   89.287    0.280    0.465    2.997
  363.810   89.659    0.271    0.485    2.776
  364.060   89.843    0.271    0.491    2.773
  364.310   89.912    0.272    0.487    2.735
  364.560   90.130    0.284    0.474    2.687
  364.810   90.248    0.291    0.471    2.636
  365.060   91.019    0.296    0.474    2.577
  365.310   94.647    0.287    0.495    2.455
  365.560   99.241    0.325    0.534    2.308
  365.810   96.885    0.355    0.543    2.184
  366.060   88.944    0.363    0.536    2.091
  366.310   84.927    0.361    0.546    2.046
  366.560   82.644    0.350    0.549    2.028
  366.810   82.636    0.347    0.533    2.028
  367.060   83.131    0.348    0.522    2.063
  367.310   82.101    0.340    0.529    2.104
  367.560   82.038    0.333    0.554    2.167
  367.810   83.155    0.330    0.556    2.224
  368.060   84.116    0.321    0.547    2.277
  368.310   83.391    0.324    0.542    2.318
  368.560   81.732    0.328    0.535    2.327
  368.810   79.753    0.334    0.524    2.266
  369.060   78.794    0.340    0.520    2.232
  369.310   79.686    0.330    0.517    2.227
  369.560   80.392    0.312    0.502    2.243
  369.810   81.064    0.305    0.487    2.271
  370.060   83.916    0.294    0.476    2.324
  370.310   89.252    0.301    0.472    2.377
  370.560   93.972    0.285    0.483    2.493
  370.810   98.222    0.261    0.487    2.580
  371.060  102.757    0.238    0.503    2.692
  371.310  105.778    0.225    0.527    2.732
  371.560  106.750    0.239    0.554    2.601
  371.810  102.064    0.266    0.523    2.479
  372.060   95.251    0.294    0.498    2.341
  372.310   90.474    0.321    0.502    2.246
  372.560   87.231    0.310    0.513    2.173
  372.810   85.876    0.306    0.509    2.091
  373.060   86.041    0.322    0.505    2.040
  373.310   87.709    0.329    0.503    1.989
  373.560   88.519    0.324    0.495    1.954
  373.810   87.593    0.321    0.492    1.933
  374.060   84.921    0.332    0.548    1.932
  374.310   81.975    0.323    0.535    1.954
  374.560   80.603    0.311    0.504    1.998
  374.810   80.098    0.308    0.494    2.169
  375.060   79.406    0.275    0.401    2.390
  375.310   78.671    0.162    0.357    2.782
  375.560   77.120    0.086    0.337    3.252
  375.810   75.336    0.054    0.297    3.913
  376.060   72.478    0.048    0.257    4.746
  376.310   69.726    0.064    0.221    5.541
