~VERSION INFORMATION
 VERS.                 2.0:   CWLS LOG ASCII STANDARD -VERSION 2.0
 WRAP.                  NO:   ONE LINE PER DEPTH STEP
~WELL INFORMATION BLOCK
#MNEM.UNIT           DATA                    DESCRIPTION OF MNEMONIC
#---------    -------------------            -------------------------------
# Generated from Intellog Unique Number	CW_79_81/WELL/2465
WELL.         10-10-080-24W4                 : Well_name    - WELL
LOC .         00/10-10-080-24W4/0            : Location     - LOCATION
UWI .         00/10-10-080-24W4/0            : Uwi          - UNIQUE WELL ID
ENTR.         MAX                            : Entered      - ENTERED BY
SRVC.         SCHLUMBERGER                   : Scn          - SERVICE COMPANY
STRT.M        200                            : top_depth    - START DEPTH
STOP.M        455                            : bot_depth    - STOP DEPTH
STEP.M        0.25                           : increment    - STEP LENGTH
 NULL. -999.2500:NULL Value
~CURVE INFORMATION BLOCK
#MNEM UNIT       ERCB CURVE CODE    CURVE DESCRIPTION
#-----------   ------------------   ----------------------------------
DEPT.M        00 001 00 00         : DEPTH        - DEPTH
ILD .OHMM     00 120 00 00         : RESD         - DEEP RESISTIVITY (DIL)
NPHI.V/V      00 330 00 00         : PHIN         - NEUTRON POROSITY (SANDSTONE)
DPHI.V/V      00 890 00 00         : PHID         - DENSITY POROSITY (SANDSTONE)
GR  .API      00 310 00 00         : GR           - GAMMA RAY
CALI.MM       00 280 01 00         : CAL          - CALIPER
~PARAMETER INFORMATION
#MNEM.UNIT           DATA             DESCRIPTION OF MNEMONIC
#---------         -----------     ------------------------------
GL  .M        558.63               : gl           - GROUND LEVEL ELEVATION
EREF.M        562.83               : kb           - ELEVATION OF DEPTH REFERENCE
DATM.M        558.63               : datum        - DATUM ELEVATION
TDD .M        456.5                : tdd          - TOTAL DEPTH DRILLER
RUN .         ONE                  : Run          - RUN NUMBER
ENG .         BILL                 : Engineer     - RECORDING ENGINEER
WIT .         JIM                  : Witness      - WITNESSED BY
MUD .         GEL                  : Mud_type     - MUD TYPE
MATR.         SANDSTONE            : Logunit      - NEUTRON MATRIX
TMAX.C        24.5                 : BHT          - MAXIMUM RECORDED TEMPERATURE
BHTD.M        456.5                : BHTDEP       - MAXIMUM RECORDED TEMPERATURE
MATR.         1                    : LOGUNIT      - NEUTRON MATRIX
RMT .C        18.5                 : MDTP         - TEMPERATURE OF MUD
NEUT.         1                    : NEUTRON      - NEUTRON TYPE
RESI.         0                    : RESIST       - RESISTIVITY TYPE
RMC .OHMM     7.95                 : RMC          - RESISTIVITY OF MUD CAKE
RMF .OHMM     5.82                 : RMF          - RESISTIVITY OF MUD FILTRATE
SUFT.C        -20                  : SUFT         - SURFACE TEMPERATURE
~A  DEPTH     RESD     PHIN     PHID       GR      CAL
# ...
  236.500    2.946    0.536    0.246   92.100  222.633
  236.750    2.958    0.536    0.237   95.215  222.037
  237.000    2.926    0.536    0.234   98.508  221.841
  237.250    2.862    0.530    0.227   98.351  222.327
  237.500    2.863    0.511    0.226   96.358  222.746
  237.750    2.906    0.502    0.226   93.965  223.148
  238.000    2.998    0.503    0.228   94.087  223.250
  238.250    3.121    0.503    0.228   94.927  223.054
  238.500    3.234    0.502    0.225   94.390  222.958
  238.750    3.259    0.508    0.217   87.438  223.759
  239.000    3.259    0.526    0.199   74.222  223.763
  239.250    3.406    0.428    0.180   72.069  222.569
  239.500    3.579    0.439    0.194   73.866  221.076
  239.750    3.621    0.476    0.221   77.220  220.081
  240.000    3.503    0.505    0.247   80.215  219.984
  240.250    3.283    0.536    0.270   81.414  220.785
  240.500    2.975    0.537    0.280   81.416  220.789
  240.750    2.763    0.545    0.279   80.221  220.392
  241.000    2.684    0.530    0.275   78.846  219.398
  241.250    2.685    0.507    0.276   75.376  218.005
  241.500    2.840    0.485    0.285   69.751  216.711
  241.750    3.859    0.467    0.303   62.521  216.398
  242.000    8.423    0.438    0.307   56.288  216.817
  242.250   14.533    0.468    0.307   52.698  216.820
  242.500   25.730    0.489    0.312   52.520  217.123
  242.750   40.154    0.500    0.316   52.283  217.724
  243.000   47.509    0.498    0.314   51.087  218.525
  243.250   50.863    0.481    0.309   51.459  219.743
  243.500   49.339    0.480    0.313   55.701  221.825
  243.750   47.203    0.493    0.315   57.378  222.626
  244.000   45.418    0.498    0.317   58.517  222.828
  244.250   43.617    0.499    0.318   58.998  222.831
  244.500   42.060    0.497    0.320   58.940  222.735
  244.750   41.453    0.490    0.324   59.451  222.506
  245.000   41.459    0.482    0.328   63.194  223.340
  245.250   42.078    0.481    0.323   63.435  223.742
  245.500   42.241    0.480    0.314   61.342  223.546
  245.750   41.779    0.496    0.307   57.873  222.751
  246.000   41.101    0.503    0.276   53.804  221.557
  246.250   41.539    0.414    0.149   49.437  220.114
  246.500   43.849    0.344    0.077   47.942  218.869
  246.750   46.495    0.250    0.044   54.169  218.075
  247.000   47.734    0.293    0.059   58.241  217.579
  247.250   47.386    0.357    0.136   62.193  217.383
  247.500   45.124    0.396    0.241   69.498  217.286
  247.750   39.224    0.441    0.300   87.457  216.891
  248.000   32.994    0.453    0.324   99.430  216.893
  248.250   32.276    0.444    0.322   85.067  216.896
  248.500   31.927    0.439    0.324   76.449  217.199
  248.750   31.226    0.448    0.314   76.091  217.602
  249.000   29.754    0.466    0.284   79.805  218.003
  249.250   26.759    0.474    0.233   75.946  218.489
  249.500   23.710    0.468    0.245   72.207  218.908
  249.750   22.347    0.461    0.274   65.984  219.310
  250.000   21.548    0.454    0.292   61.736  221.508
  250.250   21.317    0.450    0.301   58.026  224.304
  250.500   22.078    0.448    0.307   54.856  226.602
  250.750   25.796    0.449    0.318   53.810  227.320
  251.000   30.144    0.455    0.337   54.561  226.908
  251.250   30.371    0.474    0.342   54.323  228.109
  251.500   28.932    0.491    0.328   54.803  229.010
  251.750   25.602    0.480    0.314   56.122  229.212
  252.000   22.506    0.457    0.312   57.381  228.816
  252.250   21.858    0.472    0.328   56.316  228.255
  252.500   21.858    0.468    0.330   54.572  227.426
  252.750   22.189    0.460    0.310   52.419  226.631
  253.000   22.644    0.410    0.282   51.164  226.734
  253.250   23.152    0.361    0.260   49.849  227.735
  253.500   23.545    0.326    0.209   47.935  229.135
  253.750   23.328    0.282    0.054   45.504  229.936
  254.000   22.287    0.224    0.067   46.503  229.939
  254.250   19.042    0.329    0.107   50.814  229.543
  254.500   16.389    0.378    0.192   51.175  228.549
  254.750   15.232    0.385    0.249   49.382  227.554
  255.000   15.448    0.374    0.260   46.630  226.859
  255.250   17.296    0.381    0.261   43.619  226.463
  255.500   20.533    0.397    0.273   44.120  226.466
  255.750   22.089    0.421    0.307   45.798  226.469
  256.000   23.898    0.434    0.318   45.141  226.473
  256.250   26.805    0.426    0.314   43.826  226.476
  256.500   30.566    0.401    0.302   43.169  226.678
  256.750   32.792    0.383    0.289   44.479  227.896
  257.000   37.722    0.397    0.296   46.226  229.978
  257.250   31.984    0.404    0.306   47.904  231.577
  257.500   24.784    0.419    0.309   48.864  232.577
  257.750   19.703    0.436    0.304   48.985  233.578
  258.000   17.198    0.447    0.294   48.628  234.479
  258.250   17.719    0.444    0.285   48.431  234.316
  258.500   18.417    0.441    0.287   47.435  233.488
  258.750   19.529    0.424    0.293   48.634  232.294
  259.000   20.490    0.431    0.299   48.576  231.998
  259.250   21.494    0.438    0.301   48.219  232.200
  259.500   22.559    0.435    0.303   48.160  232.203
  259.750   24.180    0.423    0.310   48.592  230.428
  260.000   28.935    0.419    0.318   48.344  227.522
  260.250   30.681    0.424    0.316   46.191  224.332
  260.500   31.326    0.432    0.318   42.422  221.742
  260.750   30.981    0.437    0.316   40.389  219.749
  261.000   29.857    0.439    0.304   40.151  218.655
  261.250   28.295    0.427    0.250   39.026  219.141
  261.500   28.960    0.317    0.114   41.772  219.559
  261.750   28.120    0.252    0.158   44.407  219.163
  262.000   26.545    0.273    0.212   46.145  217.869
  262.250   24.461    0.346    0.263   48.062  216.675
  262.500   22.153    0.420    0.297   50.099  215.980
  262.750   19.360    0.432    0.300   51.408  215.835
  263.000   17.154    0.435    0.299   53.156  217.085
  263.250   16.168    0.445    0.293   53.636  217.886
  263.500   15.852    0.434    0.290   52.681  217.190
  263.750   15.738    0.421    0.294   51.725  216.994
  264.000   15.567    0.415    0.300   51.547  217.895
  264.250   15.135    0.410    0.298   52.767  219.345
  264.500   14.682    0.422    0.292   55.262  220.595
  264.750   14.468    0.439    0.297   57.419  222.993
  265.000   13.943    0.441    0.299   58.678  224.193
  265.250   13.291    0.440    0.297   59.757  224.994
  265.500   12.819    0.440    0.293   60.896  225.895
  265.750   13.013    0.432    0.291   61.607  226.515
  266.000   13.526    0.417    0.295   60.361  223.607
  266.250   14.976    0.409    0.303   55.096  218.821
  266.500   17.906    0.410    0.312   52.345  216.430
  266.750   20.833    0.415    0.309   52.347  215.635
  267.000   21.919    0.419    0.297   55.281  215.938
  267.250   21.140    0.406    0.282   61.768  217.305
  267.500   19.742    0.388    0.263   64.263  218.139
  267.750   16.612    0.388    0.262   67.618  219.340
  268.000   11.833    0.397    0.260   72.228  220.240
  268.250    9.714    0.402    0.252   80.132  222.638
  268.500    8.672    0.401    0.238   89.171  225.933
  268.750    6.782    0.402    0.227   92.556  226.968
  269.000    5.705    0.406    0.222   90.313  226.139
  269.250    4.655    0.404    0.189   91.033  221.752
  269.500    4.040    0.475    0.173   94.447  220.060
  269.750    3.694    0.534    0.177   96.364  220.064
  270.000    3.556    0.552    0.187   95.828  220.565
  270.250    3.696    0.544    0.181   95.660  220.086
  270.500    4.025    0.531    0.195   98.405  219.674
  270.750    4.717    0.506    0.206   97.928  220.076
  271.000    5.482    0.527    0.230   86.318  220.179
  271.250    6.619    0.524    0.274   72.193  220.182
  271.500    8.335    0.486    0.321   62.558  220.185
  271.750   10.257    0.459    0.333   63.398  220.106
  272.000   13.081    0.432    0.336   66.393  219.693
  272.250   15.877    0.428    0.338   69.747  219.696
  272.500   18.466    0.437    0.342   72.382  219.699
  272.750   20.735    0.437    0.343   73.582  219.902
