~VERSION INFORMATION
 VERS.                 2.0:   CWLS LOG ASCII STANDARD -VERSION 2.0
 WRAP.                  NO:   ONE LINE PER DEPTH STEP
~WELL INFORMATION BLOCK
#MNEM.UNIT           DATA                    DESCRIPTION OF MNEMONIC
#---------    -------------------            -------------------------------
# Generated from Intellog Unique Number	CW_70_72/WELL/1066
NULL.         -999.25                        : NULL_VALUE
WELL.         LARIO ET AL MITSUE 12-20       : Well_name    - WELL              
LOC .         12-20-071-03W5                 : Location     - LOCATION          
UWI .         00/12-20-071-03W5/0            : Uwi          - UNIQUE WELL ID    
ENTR.         JAYE                           : Entered      - ENTERED BY        
SRVC.         SCHLUMBERGER                   : Scn          - SERVICE COMPANY   
DATE.         9 JAN 82                       : Date         - LOG DATE          
STRT.M        475                            : top_depth    - START DEPTH       
STOP.M        740                            : bot_depth    - STOP DEPTH        
STEP.M        0.25                           : increment    - STEP LENGTH       
~CURVE INFORMATION BLOCK
#MNEM UNIT       ERCB CURVE CODE    CURVE DESCRIPTION
#-----------   ------------------   ----------------------------------
DEPT.M        00 001 00 00         : DEPTH        - DEPTH                       
DPHI.V/V      00 890 00 00         : PHID         - DENSITY POROSITY (SANDSTONE)
NPHI.V/V      00 330 00 00         : PHIN         - NEUTRON POROSITY (SANDSTONE)
GR  .API      00 310 00 00         : GR           - GAMMA RAY                   
CALI.MM       00 280 01 00         : CAL          - CALIPER                     
ILD .OHMM     00 120 00 00         : RESD         - DEEP RESISTIVITY (DIL)      
~PARAMETER INFORMATION       
#MNEM.UNIT           DATA             DESCRIPTION OF MNEMONIC
#---------         -----------     ------------------------------
GL  .M        676                  : gl           - GROUND LEVEL ELEVATION      
EREF.M        679.9                : kb           - ELEVATION OF DEPTH REFERENCE
DATM.M        676                  : datum        - DATUM ELEVATION             
TDD .M        750                  : tdd          - TOTAL DEPTH DRILLER         
RUN .         ONE                  : Run          - RUN NUMBER                  
ENG .         BOHN                 : Engineer     - RECORDING ENGINEER          
WIT .         MYERS                : Witness      - WITNESSED BY                
BASE.         EDSON                : Branch       - HOME BASE OF LOGGING UNIT   
MUD .         GEL CHEM             : Mud_type     - MUD TYPE                    
MATR.         SANDSTONE            : Logunit      - NEUTRON MATRIX              
TMAX.C        31.1                 : BHT          - MAXIMUM RECORDED TEMPERATURE
BHTD.M        749                  : BHTDEP       - MAXIMUM RECORDED TEMPERATURE
RMT .C        30.5                 : MDTP         - TEMPERATURE OF MUD          
MUDD.KG/M     1200                 : MWT          - MUD DENSITY                 
NEUT.         1                    : NEUTRON      - NEUTRON TYPE                
RESI.         0                    : RESIST       - RESISTIVITY TYPE            
RM  .OHMM     3.19                 : RM           - RESISTIVITY OF MUD          
RMC .OHMM     0                    : RMC          - RESISTIVITY OF MUD CAKE     
RMF .OHMM     2.52                 : RMF          - RESISTIVITY OF MUD FILTRATE 
SUFT.C        0                    : SUFT         - SURFACE TEMPERATURE         
~A  DEPTH     PHID     PHIN       GR      CAL     RESD
# ...
  694.000    0.172    0.536   99.536  196.466    2.361
  694.250    0.153    0.533   92.809  196.836    2.784
  694.500    0.096    0.393   87.264  197.510    3.803
  694.750    0.028    0.362   81.590  197.765    4.724
  695.000    0.059    0.367   85.780  197.923    5.760
  695.250    0.114    0.380   89.216  198.076    6.197
  695.500    0.109    0.367   94.888  198.130    5.896
  695.750    0.102    0.355  101.055  198.288    5.454
  696.000    0.103    0.364  107.225  198.654    5.218
  696.250    0.101    0.354  106.079  198.693    5.133
  696.500    0.098    0.348  100.655  198.955    5.301
  696.750    0.104    0.356   96.225  198.797    5.588
  697.000    0.117    0.355   96.506  198.439    5.879
  697.250    0.119    0.358   97.649  197.664    6.291
  697.500    0.032    0.371   91.545  197.201    6.644
  697.750    0.002    0.326   84.198  197.457    6.759
  698.000    0.044    0.277   94.147  198.235    6.371
  698.250    0.115    0.303  103.230  199.320    5.860
  698.500    0.143    0.376  105.059  200.409    4.883
  698.750    0.131    0.425  102.924  199.629    4.368
  699.000    0.110    0.426  103.080  196.175    4.444
  699.250    0.056    0.358   98.582  194.676    4.667
  699.500    0.020    0.302   91.237  194.628    5.136
  699.750    0.002    0.277   86.867  195.190    5.495
  700.000    0.051    0.294   95.948  196.178    5.437
  700.250    0.128    0.347  104.659  197.672    4.782
  700.500    0.145    0.422  108.036  198.343    3.948
  700.750    0.134    0.428  103.302  196.951    4.401
  701.000    0.110    0.394  100.292  194.832    4.852
  701.250    0.100    0.371   94.372  193.541    5.500
  701.500    0.077    0.365   88.083  193.077    6.052
  701.750    0.028    0.344   87.428  193.032    6.598
  702.000    0.057    0.315   90.683  193.600    7.033
  702.250    0.094    0.309   96.543  194.580    7.195
  702.500    0.088    0.321   98.928  194.736    7.079
  702.750    0.081    0.355  101.998  194.064    6.747
  703.000    0.104    0.368  103.391  192.580    6.395
  703.250    0.118    0.366  104.539  191.585    5.893
  703.500    0.128    0.356  107.794  190.499    5.534
  703.750    0.146    0.391  106.832  189.527    6.227
  704.000    0.179    0.386   84.117  189.262    7.536
  704.250    0.223    0.305   56.564  189.002   10.142
  704.500    0.275    0.228   44.881  188.953   13.804
  704.750    0.288    0.216   40.573  189.108   17.933
  705.000    0.307    0.200   41.223  189.162   20.985
  705.250    0.309    0.188   42.929  189.215   22.328
  705.500    0.298    0.189   42.962  189.273   21.044
  705.750    0.299    0.198   40.883  189.328   18.373
  706.000    0.295    0.246   40.731  189.373   11.617
  706.250    0.276    0.279   41.262  189.528    7.811
  706.500    0.264    0.331   43.026  189.685    5.681
  706.750    0.262    0.356   46.712  190.049    4.393
  707.000    0.259    0.357   50.340  190.526    3.723
  707.250    0.253    0.349   47.766  190.987    3.318
  707.500    0.255    0.346   45.009  191.242    3.098
  707.750    0.253    0.352   45.163  191.391    2.898
  708.000    0.246    0.346   46.997  191.442    2.788
  708.250    0.249    0.365   49.504  191.494    2.758
  708.500    0.254    0.357   51.520  191.452    2.801
  708.750    0.249    0.349   53.534  191.807    2.904
  709.000    0.236    0.337   55.609  192.070    3.044
  709.250    0.232    0.334   55.953  192.222    3.149
  709.500    0.230    0.330   54.682  192.488    3.289
  709.750    0.227    0.326   55.272  192.638    3.371
  710.000    0.222    0.341   60.942  192.789    3.508
  710.250    0.210    0.338   64.694  192.960    3.569
  710.500    0.196    0.333   62.930  193.008    3.597
  710.750    0.204    0.344   62.587  192.954    3.579
  711.000    0.206    0.359   65.716  192.997    3.560
  711.250    0.209    0.356   64.387  192.949    3.522
  711.500    0.215    0.376   62.247  193.005    3.498
  711.750    0.219    0.388   66.926  192.957    3.493
  712.000    0.216    0.377   76.877  192.593    3.501
  712.250    0.214    0.368   75.916  192.332    3.522
  712.500    0.216    0.364   72.910  192.186    3.564
  712.750    0.217    0.362   73.746  192.028    3.646
  713.000    0.210    0.367   79.481  191.974    3.730
  713.250    0.200    0.380   85.029  191.826    3.774
  713.500    0.199    0.378   82.894  191.780    3.658
  713.750    0.210    0.377   81.064  191.823    3.519
  714.000    0.223    0.389  233.209  192.188    3.367
  714.250    0.232    0.407  262.552  192.346    3.114
  714.500    0.222    0.440  316.511  192.398    2.796
  714.750    0.212    0.488  300.364  192.542    2.464
  715.000    0.196    0.519  283.969  192.698    2.188
  715.250    0.180    0.541  298.567  193.168    2.093
  715.500    0.190    0.540  371.617  193.429    2.090
  715.750    0.194    0.495  414.790  193.483    2.123
  716.000    0.176    0.451  454.680  193.532    2.225
  716.250    0.166    0.420  436.115  193.687    2.350
  716.500    0.180    0.391  374.655  193.839    2.505
  716.750    0.197    0.365  233.980  193.795    2.572
  717.000    0.216    0.345  212.936  193.638    2.489
  717.250    0.237    0.325  193.505  193.375    2.337
  717.500    0.245    0.312  177.730  192.912    2.248
  717.750    0.242    0.300  174.600  192.349    2.195
  718.000    0.238    0.278  174.015  192.308    2.160
  718.250    0.233    0.269  174.044  192.144    2.153
  718.500    0.242    0.284  174.575  192.087    2.162
  718.750    0.242    0.294  175.040  191.945    2.171
  719.000    0.235    0.295  175.501  191.988    2.188
  719.250    0.235    0.276  176.218  192.159    2.226
  719.500    0.240    0.282  176.928  192.103    2.269
  719.750    0.250    0.304  178.076  192.061    2.287
  720.000    0.252    0.321  180.028  192.005    2.288
  720.250    0.262    0.327  187.002  191.846    2.273
  720.500    0.266    0.311  215.359  191.892    2.286
  720.750    0.263    0.319  225.867  191.940    2.317
  721.000    0.233    0.317  233.895  192.100    2.416
  721.250    0.213    0.322  246.386  192.157    2.546
  721.500    0.193    0.301  251.746  192.302    2.755
  721.750    0.151    0.303  249.613  192.359    2.992
  722.000    0.129    0.380  248.524  192.421    3.202
  722.250    0.124    0.397  250.106  192.360    3.451
  722.500    0.136    0.387  251.934  192.315    3.665
  722.750    0.151    0.380  254.321  192.368    3.849
  723.000    0.132    0.390  258.382  192.307    3.902
  723.250    0.118    0.405  251.781  192.059    3.803
  723.500    0.111    0.436  221.564  191.815    3.625
  723.750    0.150    0.408  210.563  191.654    3.474
  724.000    0.203    0.332  179.787  191.485    3.160
  724.250    0.249    0.301  174.178  191.135    2.891
  724.500    0.254    0.302  180.408  191.177    2.818
  724.750    0.254    0.312  191.285  190.930    2.888
  725.000    0.242    0.324  198.944  190.981    3.113
  725.250    0.089    0.167  203.562  190.928    3.882
  725.500    0.026    0.105  209.974  191.079    6.924
  725.750    0.028    0.139  245.462  191.138    8.474
  726.000    0.081    0.208  272.148  191.497    9.084
  726.250    0.100    0.294  266.973  191.852    8.325
  726.500    0.140    0.336  247.788  191.286    6.249
  726.750    0.200    0.390  233.501  189.062    4.622
  727.000    0.266    0.419  216.673  190.772    4.196
  727.250    0.297    0.439  212.426  192.374    3.740
  727.500    0.288    0.435  215.308  192.941    3.421
  727.750    0.191    0.404  217.944  192.995    3.224
  728.000    0.170    0.361  224.237  192.739    3.050
  728.250    0.176    0.354  219.866  192.787    2.995
  728.500    0.173    0.385  213.885  192.637    2.963
  728.750    0.177    0.412  212.682  192.480    2.894
  729.000    0.194    0.416  212.646  192.116    2.805
  729.250    0.222    0.402  216.892  191.654    2.734
  729.500    0.253    0.394  224.424  191.202    2.699
  729.750    0.264    0.395  238.899  191.036    2.681
  730.000    0.269    0.409  247.608  190.990    2.677
  730.250    0.207    0.413  250.613  191.143    2.765
