~VERSION INFORMATION
 VERS.                 2.0:   CWLS LOG ASCII STANDARD -VERSION 2.0
 WRAP.                  NO:   ONE LINE PER DEPTH STEP
~WELL INFORMATION BLOCK
#MNEM.UNIT           DATA                    DESCRIPTION OF MNEMONIC
#---------    -------------------            -------------------------------
# Generated from Intellog Unique Number	CW_70_72/WELL/2906
NULL.         -999.25                        : NULL_VALUE
WELL.         MIKAS CALLING LAKE             : Well_name    - WELL              
LOC .         10-36-070-20W4                 : Location     - LOCATION          
UWI .         00/10-36-070-20W4/0            : Uwi          - UNIQUE WELL ID    
ENTR.         MAX                            : Entered      - ENTERED BY        
SRVC.         SCHLUMBERGER                   : Scn          - SERVICE COMPANY   
STRT.M        316.992                        : top_depth    - START DEPTH       
STOP.M        484.742                        : bot_depth    - STOP DEPTH        
STEP.M        0.25                           : increment    - STEP LENGTH       
~CURVE INFORMATION BLOCK
#MNEM UNIT       ERCB CURVE CODE    CURVE DESCRIPTION
#-----------   ------------------   ----------------------------------
DEPT.M        00 001 00 00         : DEPTH        - DEPTH                       
ILD .OHMM     00 120 00 00         : RESD         - DEEP RESISTIVITY (DIL)      
NPHI.V/V      00 330 00 00         : PHIN         - NEUTRON POROSITY (SANDSTONE)
DPHI.V/V      00 890 00 00         : PHID         - DENSITY POROSITY (SANDSTONE)
CALI.MM       00 280 01 00         : CAL          - CALIPER                     
GR  .API      00 310 00 00         : GR           - GAMMA RAY                   
~PARAMETER INFORMATION       
#MNEM.UNIT           DATA             DESCRIPTION OF MNEMONIC
#---------         -----------     ------------------------------
GL  .M        583.265              : gl           - GROUND LEVEL ELEVATION      
EREF.M        586.435              : kb           - ELEVATION OF DEPTH REFERENCE
DATM.M        583.265              : datum        - DATUM ELEVATION             
TDD .M        490.423              : tdd          - TOTAL DEPTH DRILLER         
RUN .         ONE                  : Run          - RUN NUMBER                  
ENG .         BILL                 : Engineer     - RECORDING ENGINEER          
WIT .         JIM                  : Witness      - WITNESSED BY                
MUD .         GEL                  : Mud_type     - MUD TYPE                    
MATR.         SANDSTONE            : Logunit      - NEUTRON MATRIX              
TMAX.C        26.6667              : BHT          - MAXIMUM RECORDED TEMPERATURE
BHTD.M        490.423              : BHTDEP       - MAXIMUM RECORDED TEMPERATURE
RMT .C        4.44444              : MDTP         - TEMPERATURE OF MUD          
MUDD.KG/M     9000                 : MWT          - MUD DENSITY                 
NEUT.         1                    : NEUTRON      - NEUTRON TYPE                
RESI.         0                    : RESIST       - RESISTIVITY TYPE            
RM  .OHMM     4.66                 : RM           - RESISTIVITY OF MUD          
RMC .OHMM     2.9                  : RMC          - RESISTIVITY OF MUD CAKE     
RMF .OHMM     0.25                 : RMF          - RESISTIVITY OF MUD FILTRATE 
SUFT.C        -20.5556             : SUFT         - SURFACE TEMPERATURE         
~A  DEPTH     RESD     PHIN     PHID      CAL       GR
# ...
  426.492    4.135    0.458    0.199  161.663   82.009
  426.742    4.248    0.447    0.196  160.649   80.814
  426.992    4.443    0.441    0.189  160.134   80.213
  427.242    4.647    0.438    0.181  161.131   80.207
  427.492    4.860    0.426    0.179  161.121   80.201
  427.742    4.904    0.438    0.187  159.599   79.897
  427.992    4.905    0.454    0.189  159.086   80.486
  428.242    4.862    0.431    0.184  159.578   82.560
  428.492    4.776    0.444    0.183  159.566   83.148
  428.742    4.692    0.453    0.193  159.566   82.845
  428.992    4.651    0.429    0.189  159.546   82.542
  429.242    4.651    0.427    0.207  158.530   80.454
  429.492    4.652    0.443    0.223  158.016   81.042
  429.742    4.530    0.462    0.223  157.999   82.820
  429.992    4.490    0.462    0.226  157.995   81.624
  430.242    4.451    0.449    0.211  158.487   80.132
  430.492    4.452    0.466    0.218  158.981   80.124
  430.742    4.452    0.486    0.215  159.473   79.821
  430.992    4.452    0.487    0.215  159.464   79.817
  431.242    4.453    0.526    0.234  159.955   79.513
  431.492    4.575    0.484    0.217  160.448   78.317
  431.742    4.828    0.446    0.182  160.439   74.744
  431.992    5.186    0.422    0.171  159.420   70.576
  432.242    5.985    0.409    0.163  159.409   67.003
  432.492    6.663    0.369    0.144  159.401   62.834
  432.742    8.871    0.354    0.133  159.388   58.963
  432.992    9.877    0.328    0.127  158.876   59.254
  433.242   12.133    0.312    0.081  158.360   67.571
  433.492   11.708    0.375    0.113  158.351   74.106
  433.742    9.881    0.465    0.166  158.338   77.668
  433.992    7.036    0.492    0.236  158.329   83.607
  434.242    6.099    0.469    0.251  158.319   74.980
  434.492    5.287    0.442    0.244  158.309   69.622
  434.742    4.462    0.437    0.242  157.794   69.616
  434.992    4.045    0.429    0.245  157.785   71.095
  435.242    3.903    0.413    0.242  157.271   70.792
  435.492    3.835    0.411    0.244  156.755   70.489
  435.742    3.835    0.427    0.235  155.739   70.184
  435.992    3.835    0.440    0.240  154.723   68.990
  436.242    3.871    0.444    0.243  153.199   65.417
  436.492    4.012    0.463    0.245  153.189   62.735
  436.742    4.049    0.470    0.245  153.182   63.918
  436.992    4.159    0.446    0.240  154.177   65.100
  437.242    4.273    0.408    0.233  154.668   64.796
  437.492    4.509    0.383    0.225  154.660   64.790
  437.742    4.931    0.368    0.205  155.151   65.379
  437.992    5.250    0.367    0.193  155.645   65.670
  438.242    5.590    0.377    0.194  156.641   66.258
  438.492    5.743    0.424    0.211  156.629   66.550
  438.742    5.592    0.458    0.230  156.621   67.138
  438.992    5.396    0.473    0.248  156.609   68.618
  439.242    5.161    0.462    0.233  156.097   70.693
  439.492    4.936    0.456    0.237  156.086   71.877
  439.742    4.936    0.430    0.243  155.067   73.060
  439.992    4.850    0.427    0.246  155.067   74.242
  440.242    4.850    0.425    0.243  155.046   75.424
  440.492    4.723    0.413    0.231  155.036   75.122
  440.742    4.682    0.411    0.224  154.521   73.330
  440.992    4.724    0.410    0.225  154.521   72.432
  441.242    4.724    0.416    0.236  154.499   72.725
  441.492    4.684    0.429    0.250  153.986   72.717
  441.742    4.642    0.459    0.256  153.472   72.415
  441.992    4.220    0.465    0.255  158.806   70.137
  442.242    4.189    0.456    0.254  158.871   69.282
  442.492    4.157    0.434    0.256  159.425   67.849
  442.742    4.129    0.425    0.256  159.475   67.590
  442.992    4.098    0.430    0.255  159.540   67.632
  443.242    4.103    0.422    0.234  160.102   67.964
  443.492    4.110    0.409    0.222  160.649   67.696
  443.742    4.155    0.393    0.229  160.713   71.548
  443.992    4.354    0.390    0.233  161.268   72.462
  444.242    4.728    0.393    0.221  161.325   70.145
  444.492    5.322    0.380    0.220  161.872   67.556
  444.742    6.102    0.374    0.203  163.434   67.577
  444.992    6.278    0.351    0.140  165.976   69.664
  445.242    5.799    0.327    0.101  167.524   74.099
  445.492    4.809    0.432    0.155  169.071   80.302
  445.742    4.208    0.553    0.234  169.618   83.852
  445.992    3.585    0.590    0.241  171.670   85.939
  446.242    3.342    0.585    0.253  176.702   86.568
  446.492    3.087    0.575    0.259  177.746   87.189
  446.742    3.009    0.586    0.266  177.818   88.983
  446.992    3.015    0.583    0.235  174.881   89.897
  447.242    3.047    0.589    0.210  172.966   90.811
  447.492    3.051    0.594    0.211  174.017   91.147
  447.742    3.197    0.581    0.214  177.551   89.710
  447.992    3.380    0.549    0.220  179.589   88.273
  448.242    3.508    0.538    0.205  178.653   86.551
  448.492    3.778    0.516    0.189  176.234   87.754
  448.742    3.957    0.458    0.172  172.814   88.966
  448.992    4.147    0.457    0.151  170.878   87.831
  449.242    4.147    0.432    0.134  169.949   86.100
  449.492    4.315    0.412    0.120  170.021   84.378
  449.742    4.436    0.393    0.101  170.071   83.235
  449.992    4.776    0.407    0.107  169.632   86.206
  450.242    4.870    0.428    0.168  170.683   88.583
  450.492    4.968    0.442    0.151  173.224   90.381
  450.742    5.112    0.448    0.159  174.282   90.419
  450.992    5.403    0.436    0.173  171.360   89.569
  451.242    5.663    0.404    0.190  168.437   86.972
  451.492    5.519    0.381    0.179  166.997   88.175
  451.742    5.238    0.413    0.189  167.061   90.555
  451.992    5.015    0.438    0.193  167.061   93.230
  452.242    4.978    0.425    0.187  168.199   95.321
  452.492    4.986    0.415    0.198  168.235   95.942
  452.742    5.131    0.407    0.183  168.292   89.811
  452.992    5.424    0.407    0.193  167.853   84.565
  453.242    6.052    0.373    0.189  167.407   81.372
  453.492    7.064    0.349    0.166  165.477   76.712
  453.742    8.025    0.331    0.133  162.569   72.346
  453.992    8.955    0.332    0.122  163.116   71.508
  454.242   10.450    0.334    0.121  165.160   69.778
  454.492   11.454    0.317    0.137  165.715   66.883
  454.742   13.491    0.304    0.124  164.296   68.082
  454.992   14.917    0.305    0.105  163.346   75.454
  455.242   13.412    0.351    0.096  162.417   79.008
  455.492    9.205    0.406    0.131  162.979   86.380
  455.742    7.912    0.459    0.169  165.527   90.823
  455.992    6.863    0.427    0.198  168.551   90.853
  456.242    6.115    0.407    0.190  168.608   89.709
  456.492    5.858    0.407    0.168  164.202   85.058
  456.742    5.919    0.406    0.154  165.261   83.927
  456.992    5.919    0.402    0.144  167.312   84.828
  457.242    5.995    0.377    0.151  166.859   85.155
  457.492    6.110    0.374    0.151  166.427   83.433
  457.742    6.231    0.378    0.154  166.477   83.174
  457.992    6.185    0.388    0.157  166.038   85.266
  458.242    6.085    0.395    0.157  165.606   87.060
  458.492    5.932    0.409    0.166  165.663   87.681
  458.742    5.733    0.425    0.174  165.728   86.830
  458.992    5.689    0.412    0.163  165.289   85.989
  459.242    6.070    0.398    0.156  164.850   86.898
  459.492    6.957    0.374    0.136  164.411   83.999
  459.742    7.159    0.360    0.120  163.475   82.281
  459.992    6.920    0.345    0.114  163.532   83.191
  460.242    6.745    0.359    0.150  164.094   87.332
  460.492    6.459    0.369    0.164  164.655   91.770
  460.742    5.966    0.373    0.194  164.655   93.858
  460.992    5.712    0.387    0.179  164.777   95.656
  461.242    5.722    0.401    0.173  165.310   97.748
  461.492    5.942    0.418    0.181  166.872   99.240
  461.742    6.223    0.402    0.187  166.930   96.936
  461.992    6.463    0.384    0.188  165.987   95.214
  462.242    6.651    0.385    0.183  165.058   94.653
  462.492    6.842    0.394    0.150  165.619   94.687
  462.742    6.916    0.394    0.122  166.663   91.787
