~VERSION INFORMATION
 VERS.                 2.0:   CWLS LOG ASCII STANDARD -VERSION 2.0
 WRAP.                  NO:   ONE LINE PER DEPTH STEP
~WELL INFORMATION BLOCK
#MNEM.UNIT           DATA                    DESCRIPTION OF MNEMONIC
#---------    -------------------            -------------------------------
# Generated from Intellog Unique Number	nealta/WELL/2304
WELL.         AMOCO PELICAN                  : Well_name    - WELL
LOC .         10-29-077-24W4                 : Location     - LOCATION
UWI .         00/10-29-077-24W4/0            : Uwi          - UNIQUE WELL ID
ENTR.         JAYE                           : Entered      - ENTERED BY
SRVC.         WESTERN ATLAS                  : Scn          - SERVICE COMPANY
DATE.         4 FEB 79                       : Date         - LOG DATE
STRT.M        365                            : top_depth    - START DEPTH
STOP.M        640                            : bot_depth    - STOP DEPTH
STEP.M        0.25                           : increment    - STEP LENGTH
 NULL. -999.2500:NULL Value
~CURVE INFORMATION BLOCK
#MNEM UNIT       ERCB CURVE CODE    CURVE DESCRIPTION
#-----------   ------------------   ----------------------------------
DEPT.M        00 001 00 00         : DEPTH        - DEPTH
GR  .API      00 310 00 00         : GR           - GAMMA RAY
ILD .OHMM     00 120 00 00         : RESD         - DEEP RESISTIVITY (DIL)
CALI.MM       00 280 01 00         : CAL          - CALIPER
NPHI.V/V      00 330 00 00         : PHIN         - NEUTRON POROSITY (SANDSTONE)
DPHI.V/V      00 890 00 00         : PHID         - DENSITY POROSITY (SANDSTONE)
~PARAMETER INFORMATION
#MNEM.UNIT           DATA             DESCRIPTION OF MNEMONIC
#---------         -----------     ------------------------------
GL  .M        666.57               : gl           - GROUND LEVEL ELEVATION
EREF.M        670.67               : kb           - ELEVATION OF DEPTH REFERENCE
DATM.M        666.57               : datum        - DATUM ELEVATION
TDD .M        642                  : tdd          - TOTAL DEPTH DRILLER
RUN .         ONE                  : Run          - RUN NUMBER
ENG .         FRENNETTE            : Engineer     - RECORDING ENGINEER
WIT .         LAMPEN               : Witness      - WITNESSED BY
BASE.         R.D.                 : Branch       - HOME BASE OF LOGGING UNIT
MUD .         GEL CHEM             : Mud_type     - MUD TYPE
MATR.         SANDSTONE            : Logunit      - NEUTRON MATRIX
TMAX.C        29                   : BHT          - MAXIMUM RECORDED TEMPERATURE
BHTD.M        643.4                : BHTDEP       - MAXIMUM RECORDED TEMPERATURE
RMT .C        15.5                 : MDTP         - TEMPERATURE OF MUD
MUDD.KG/M     1050                 : MWT          - MUD DENSITY
NEUT.         1                    : NEUTRON      - NEUTRON TYPE
RESI.         0                    : RESIST       - RESISTIVITY TYPE
RM  .OHMM     5.1                  : RM           - RESISTIVITY OF MUD
RMC .OHMM     6.87                 : RMC          - RESISTIVITY OF MUD CAKE
RMF .OHMM     5.5                  : RMF          - RESISTIVITY OF MUD FILTRATE
SUFT.C        4.5                  : SUFT         - SURFACE TEMPERATURE
~A  DEPTH       GR     RESD      CAL     PHIN     PHID
# ...
  401.500   64.660   14.735  202.977    0.392    0.337
  401.750   67.037   14.290  204.845    0.385    0.344
  402.000   69.540   14.041  207.240    0.383    0.347
  402.250   69.662   14.475  208.475    0.378    0.338
  402.500   53.270   15.201  208.891    0.365    0.277
  402.750   43.474   16.812  205.524    0.345    0.283
  403.000   41.839   18.766  201.224    0.337    0.294
  403.250   43.654   20.113  198.289    0.332    0.305
  403.500   45.531   21.200  198.380    0.325    0.297
  403.750   46.210   21.695  199.324    0.317    0.297
  404.000   44.881   21.003  199.401    0.314    0.310
  404.250   46.756   18.605  199.493    0.354    0.306
  404.500   51.262   15.026  199.577    0.375    0.297
  404.750   57.215   11.935  199.975    0.381    0.284
  405.000   64.609    9.357  199.756    0.390    0.253
  405.250   80.539    7.337  200.058    0.405    0.211
  405.500   95.841    6.126  200.359    0.452    0.227
  405.750  109.450    5.437  200.553    0.442    0.221
  406.000  112.325    5.245  200.121    0.430    0.219
  406.250  111.383    5.249  197.395    0.430    0.242
  406.500  112.436    5.491  195.701    0.436    0.259
  406.750  109.163    6.373  197.069    0.429    0.261
  407.000  100.372    7.100  198.849    0.424    0.271
  407.250   93.215    7.624  199.640    0.418    0.218
  407.500   88.246    7.631  201.088    0.411    0.231
  407.750   91.882    7.132  202.432    0.412    0.249
  408.000   97.704    6.225  204.091    0.432    0.270
  408.250  104.786    5.464  205.859    0.450    0.280
  408.500  113.499    4.529  207.525    0.476    0.228
  408.750  121.208    3.859  209.175    0.474    0.232
  409.000  123.586    3.374  210.730    0.482    0.256
  409.250  120.440    3.261  212.196    0.488    0.243
  409.500  118.235    3.215  213.214    0.491    0.235
  409.750  125.009    3.550  214.469    0.486    0.273
  410.000  131.771    4.142  215.076    0.477    0.261
  410.250  134.462    5.119  215.591    0.464    0.244
  410.500  126.549    6.199  216.102    0.442    0.246
  410.750  116.695    6.857  216.516    0.420    0.274
  411.000  108.025    7.107  216.592    0.421    0.311
  411.250  108.526    7.437  216.674    0.435    0.324
  411.500  108.202    7.911  216.141    0.429    0.290
  411.750  104.298    8.685  213.719    0.411    0.232
  412.000  103.729    9.876  210.164    0.398    0.214
  412.250  105.431   12.114  207.745    0.397    0.230
  412.500  102.582   15.477  206.780    0.416    0.258
  412.750   90.400   17.600  206.469    0.436    0.311
  413.000   82.179   18.654  206.354    0.447    0.325
  413.250   80.664   18.499  206.536    0.427    0.311
  413.500   78.080   17.843  207.152    0.423    0.302
  413.750   75.250   17.114  208.180    0.435    0.296
  414.000   75.430   16.355  209.001    0.435    0.287
  414.250   76.051   16.218  209.528    0.427    0.273
  414.500   76.730   16.627  209.513    0.431    0.301
  414.750   80.616   17.079  209.486    0.445    0.305
  415.000   78.607   17.285  209.171    0.442    0.299
  415.250   76.775   17.014  208.754    0.434    0.287
  415.500   80.410   16.170  208.197    0.437    0.294
  415.750   83.345   15.366  207.457    0.453    0.299
  416.000   83.277   14.178  206.908    0.447    0.299
  416.250   84.769   12.864  205.761    0.420    0.292
  416.500   86.896   10.409  205.207    0.401    0.284
  416.750   89.523    8.116  204.590    0.408    0.279
  417.000   90.077    5.866  204.667    0.419    0.289
  417.250   93.964    5.206  204.448    0.426    0.302
  417.500   98.532    5.387  204.321    0.417    0.300
  417.750   97.647    6.451  204.106    0.387    0.280
  418.000   93.438    8.182  204.717    0.350    0.213
  418.250   84.708   11.172  205.536    0.300    0.031
  418.500   69.326   14.380  206.061    0.273    0.085
  418.750   69.635   17.970  206.448    0.346    0.216
  419.000   72.638   19.912  206.449    0.409    0.271
  419.250   73.759   20.338  206.424    0.456    0.301
  419.500   74.377   21.397  206.002    0.446    0.315
  419.750   77.004   21.858  205.253    0.434    0.311
  420.000   78.506   21.676  204.427    0.437    0.311
  420.250   79.692   21.139  203.973    0.430    0.316
  420.500   78.298   20.164  203.539    0.426    0.308
  420.750   75.907   19.127  203.017    0.437    0.296
  421.000   75.645   17.911  202.470    0.433    0.287
  421.250   77.332   16.895  201.723    0.425    0.277
  421.500   80.778   15.734  200.781    0.420    0.287
  421.750   79.518   15.065  200.134    0.425    0.287
  422.000   75.615   14.747  199.907    0.417    0.297
  422.250   76.548   14.677  200.105    0.407    0.307
  422.500   77.297   14.854  200.415    0.414    0.304
  422.750   77.097   15.630  201.217    0.426    0.299
  423.000   78.409   16.142  202.256    0.448    0.287
  423.250   79.151   16.579  202.341    0.436    0.275
  423.500   76.510   16.471  200.760    0.417    0.280
  423.750   74.687   16.184  199.500    0.409    0.300
  424.000   73.671   15.784  198.855    0.401    0.300
  424.250   73.102   15.139  198.526    0.400    0.293
  424.500   74.156   14.362  199.063    0.420    0.285
  424.750   74.530   13.928  199.136    0.433    0.275
  425.000   73.202   13.559  198.798    0.431    0.292
  425.250   70.370   13.323  198.476    0.428    0.304
  425.500   69.166   13.333  198.672    0.410    0.297
  425.750   67.844   13.419  199.091    0.407    0.289
  426.000   66.453   13.531  199.489    0.406    0.284
  426.250   65.011   13.569  199.680    0.402    0.305
  426.500   65.467   13.654  200.394    0.409    0.311
  426.750   65.739   13.742  200.697    0.416    0.305
  427.000   67.366   13.959  200.693    0.424    0.297
  427.250   71.057   14.155  200.669    0.427    0.285
  427.500   72.365   14.272  200.669    0.422    0.272
  427.750   72.549   14.391  200.642    0.417    0.261
  428.000   70.282   14.375  200.211    0.415    0.260
  428.250   70.773   14.100  199.789    0.417    0.269
  428.500   72.020   13.574  199.240    0.414    0.307
  428.750   74.976   12.523  198.604    0.411    0.303
  429.000   75.081   11.012  198.066    0.406    0.296
  429.250   74.757   10.104  197.753    0.407    0.293
  429.500   76.632    9.428  197.833    0.421    0.276
  429.750   79.574    8.942  197.723    0.441    0.271
  430.000   82.953    8.483  197.496    0.441    0.267
  430.250   82.885    8.046  197.597    0.435    0.271
  430.500   86.081    7.479  197.672    0.429    0.278
  430.750   89.959    6.978  197.972    0.427    0.275
  431.000   93.840    6.449  198.587    0.427    0.230
  431.250   97.851    5.984  199.623    0.437    0.223
  431.500   99.851    5.760  200.233    0.444    0.240
  431.750   97.328    5.598  200.963    0.447    0.214
  432.000   94.498    5.581  201.815    0.439    0.232
  432.250   92.922    6.220  201.970    0.424    0.245
  432.500   88.334    7.124  201.853    0.408    0.262
  432.750   84.873    8.453  201.129    0.397    0.278
  433.000   80.917    9.956  200.886    0.388    0.308
  433.250   77.520   11.072  200.455    0.380    0.305
  433.500   73.181   11.956  200.349    0.388    0.304
  433.750   72.170   12.440  200.224    0.394    0.296
  434.000   74.103   12.800  200.334    0.398    0.268
  434.250   80.308   13.149  200.627    0.399    0.181
  434.500   81.242   13.582  200.910    0.396    0.228
  434.750   81.557   13.896  201.210    0.389    0.250
  435.000   81.477   14.512  201.413    0.380    0.267
  435.250   77.328   15.411  201.095    0.385    0.259
  435.500   76.636   16.185  201.194    0.372    0.199
  435.750   76.497   16.531  201.265    0.363    0.191
  436.000   76.932   16.668  201.361    0.360    0.181
  436.250   77.546   16.437  201.450    0.359    0.217
  436.500   78.421   15.565  201.446    0.363    0.292
  436.750   79.664   14.520  201.319    0.375    0.302
  437.000   83.545   13.349  201.413    0.393    0.299
  437.250   83.543   12.708  201.407    0.415    0.298
  437.500   83.287   11.812  201.182    0.412    0.300
  437.750   84.405   10.979  200.844    0.405    0.298
