~VERSION INFORMATION
 VERS.                 2.0:   CWLS LOG ASCII STANDARD -VERSION 2.0
 WRAP.                  NO:   ONE LINE PER DEPTH STEP
~WELL INFORMATION BLOCK
#MNEM.UNIT           DATA                    DESCRIPTION OF MNEMONIC
#---------    -------------------            -------------------------------
# Generated from Intellog Unique Number	CX_WELLS/WELL/3688
WELL.         HANGINGSTONE 11A-1             : Well_name    - WELL
LOC .         00/11-01-085-11W4/0            : Location     - LOCATION
UWI .         00/11-01-085-11W400            : Uwi          - UNIQUE WELL ID
ENTR.         T                              : Entered      - ENTERED BY
SRVC.         SCHLUMBERGER                   : Scn          - SERVICE COMPANY
STRT.M        100                            : top_depth    - START DEPTH
STOP.M        310                            : bot_depth    - STOP DEPTH
STEP.M        0.25                           : increment    - STEP LENGTH
 NULL. -999.2500:NULL Value
~CURVE INFORMATION BLOCK
#MNEM UNIT       ERCB CURVE CODE    CURVE DESCRIPTION
#-----------   ------------------   ----------------------------------
DEPT.M        00 001 00 00         : DEPTH        - DEPTH
GR  .API      00 310 00 00         : GR           - GAMMA RAY
NPHI.V/V      00 330 00 00         : PHIN         - NEUTRON POROSITY (SANDSTONE)
DPHI.V/V      00 890 00 00         : PHID         - DENSITY POROSITY (SANDSTONE)
ILD .OHMM     00 120 00 00         : RESD         - DEEP RESISTIVITY (OTHER)
~PARAMETER INFORMATION
#MNEM.UNIT           DATA             DESCRIPTION OF MNEMONIC
#---------         -----------     ------------------------------
GL  .M        554                  : gl           - GROUND LEVEL ELEVATION
EREF.M        556.6                : kb           - ELEVATION OF DEPTH REFERENCE
DATM.M        556.6                : datum        - DATUM ELEVATION
TDD .M        320                  : tdd          - TOTAL DEPTH DRILLER
RUN .         ONE                  : Run          - RUN NUMBER
ENG .         BILL                 : Engineer     - RECORDING ENGINEER
WIT .         JIM                  : Witness      - WITNESSED BY
MUD .         GEL                  : Mud_type     - MUD TYPE
MATR.         SANDSTONE            : Logunit      - NEUTRON MATRIX
TMAX.C        27                   : BHT          - MAXIMUM RECORDED TEMPERATURE
BHTD.M        320                  : BHTDEP       - MAXIMUM RECORDED TEMPERATURE
MATR.         1                    : LOGUNIT      - NEUTRON MATRIX
RMT .C        25                   : MDTP         - TEMPERATURE OF MUD
NEUT.         1                    : NEUTRON      - NEUTRON TYPE
RESI.         4.24                 : RESIST       - RESISTIVITY TYPE
RMC .OHMM     3.22                 : RMC          - RESISTIVITY OF MUD CAKE
RMF .OHMM     4.54                 : RMF          - RESISTIVITY OF MUD FILTRATE
SUFT.C        4                    : SUFT         - SURFACE TEMPERATURE
~A  DEPTH       GR     PHIN     PHID     RESD
# ...
  187.000  107.738    0.447    0.209    6.877
  187.250  103.367    0.451    0.192    6.014
  187.500   99.639    0.453    0.224    5.159
  187.750  103.466    0.454    0.255    4.512
  188.000  109.212    0.456    0.271    4.431
  188.250  112.407    0.461    0.282    4.270
  188.500  115.614    0.468    0.276    4.193
  188.750  119.478    0.472    0.267    4.119
  189.000  118.896    0.479    0.271    4.123
  189.250  117.670    0.477    0.274    4.210
  189.500  115.193    0.475    0.284    4.298
  189.750  113.979    0.469    0.291    4.386
  190.000  110.871    0.468    0.294    4.392
  190.250  107.119    0.467    0.300    4.485
  190.500  103.379    0.467    0.288    4.668
  190.750  103.428    0.471    0.273    4.859
  191.000  104.741    0.477    0.282    5.254
  191.250  104.171    0.477    0.287    6.383
  191.500  102.958    0.468    0.297    7.180
  191.750   99.218    0.453    0.300    8.234
  192.000   95.478    0.441    0.231    7.935
  192.250   92.357    0.433    0.185    7.940
  192.500   89.880    0.430    0.188    7.649
  192.750   91.193    0.427    0.237    7.512
  193.000   98.834    0.424    0.244    7.378
  193.250   97.645    0.419    0.267    7.390
  193.500   97.050    0.418    0.276    7.260
  193.750   96.456    0.424    0.275    7.265
  194.000   95.255    0.447    0.273    7.419
  194.250   93.422    0.453    0.276    7.576
  194.500   91.552    0.463    0.279    7.880
  194.750   89.707    0.463    0.277    9.037
  195.000   92.283    0.455    0.283   10.559
  195.250   89.818    0.444    0.294   12.586
  195.500   87.329    0.440    0.268   12.853
  195.750   83.602    0.435    0.272   13.117
  196.000   82.363    0.426    0.275   14.749
  196.250   81.150    0.420    0.269   23.039
  196.500   79.948    0.414    0.255   25.411
  196.750   76.852    0.376    0.235   29.131
  197.000   74.983    0.363    0.155   36.094
  197.250   71.874    0.338    0.072   39.822
  197.500   69.397    0.222    0.033   34.816
  197.750   65.670    0.197    0.017   25.095
  198.000   66.351    0.234    0.080   23.250
  198.250   69.558    0.289    0.116   20.334
  198.500   74.029    0.320    0.164   17.443
  198.750   77.880    0.353    0.223   15.260
  199.000   80.456    0.390    0.295   14.138
  199.250   83.651    0.429    0.326   12.860
  199.500   90.016    0.430    0.329   12.384
  199.750   91.960    0.435    0.329   11.926
  200.000   86.957    0.438    0.329   11.713
  200.250   81.323    0.434    0.329   11.284
  200.500   78.846    0.429    0.327   11.299
  200.750   78.264    0.433    0.325   11.097
  201.000   80.220    0.435    0.319   11.111
  201.250   81.520    0.439    0.307   11.126
  201.500   82.833    0.445    0.306   10.934
  201.750   82.251    0.450    0.306   10.941
  202.000   77.248    0.458    0.306   10.955
  202.250   74.140    0.463    0.309   10.763
  202.500   72.926    0.462    0.314   10.777
  202.750   76.133    0.458    0.318   10.791
  203.000   79.341    0.446    0.319   10.805
  203.250   80.653    0.439    0.319   10.819
  203.500   80.703    0.433    0.314   10.837
  203.750   78.870    0.430    0.307   10.848
  204.000   76.381    0.429    0.310   10.862
  204.250   74.536    0.462    0.315   11.088
  204.500   74.585    0.469    0.321   11.107
  204.750   76.542    0.439    0.321   11.121
  205.000   78.498    0.432    0.319   10.919
  205.250   79.167    0.436    0.318   10.324
  205.500   79.229    0.436    0.317    9.942
  205.750   79.278    0.434    0.316    9.397
  206.000   79.972    0.432    0.316    9.046
  206.250   80.628    0.427    0.315    8.551
  206.500   81.309    0.419    0.311    8.237
  206.750   82.003    0.412    0.306    7.932
  207.000   83.315    0.405    0.300    7.644
  207.250   84.009    0.434    0.290    7.656
  207.500   84.034    0.446    0.281    7.661
  207.750   84.083    0.461    0.270    7.821
  208.000   86.040    0.463    0.258    7.987
  208.250   87.340    0.436    0.248    8.151
  208.500   91.204    0.427    0.239    8.489
  208.750   93.135    0.416    0.247    8.497
  209.000   95.079    0.408    0.276    8.505
  209.250   97.655    0.415    0.284    8.359
  209.500   97.705    0.422    0.277    8.050
  209.750   92.083    0.428    0.267    7.752
  210.000   92.132    0.444    0.267    7.468
  210.250   96.590    0.442    0.271    7.056
  210.500  102.955    0.436    0.278    6.539
  210.750  104.280    0.433    0.282    6.423
  211.000  101.172    0.437    0.282    6.559
  211.250   96.813    0.437    0.284    6.693
  211.500   95.587    0.441    0.290    7.104
  211.750  100.045    0.442    0.296    7.392
  212.000  108.949    0.438    0.304    7.999
  212.250  107.735    0.435    0.300    8.488
  212.500  102.720    0.435    0.269    8.831
  212.750   91.401    0.433    0.261    9.557
  213.000   84.516    0.427    0.251    9.759
  213.250   82.027    0.424    0.242    9.963
  213.500   80.813    0.426    0.238   10.171
  213.750   80.875    0.431    0.240   10.181
  214.000   84.082    0.432    0.239   10.194
  214.250   86.658    0.432    0.239   10.211
  214.500   85.444    0.435    0.239   10.224
  214.750   82.968    0.443    0.243   10.237
  215.000   83.649    0.444    0.251   10.251
  215.250   86.844    0.435    0.258   10.261
  215.500   90.683    0.428    0.265   10.274
  215.750   96.441    0.425    0.257   10.294
  216.000   98.373    0.426    0.248   10.308
  216.250   96.527    0.427    0.237   10.117
  216.500   93.431    0.426    0.230    9.752
  216.750   92.837    0.421    0.225    9.572
  217.000   97.308    0.418    0.222    9.047
  217.250  103.685    0.417    0.228    8.548
  217.500  104.998    0.422    0.238    8.232
  217.750  105.679    0.428    0.245    7.634
  218.000  106.991    0.430    0.249    7.211
  218.250  110.199    0.429    0.251    6.814
  218.500  113.418    0.426    0.252    6.438
  218.750  111.586    0.426    0.253    5.965
  219.000  110.979    0.427    0.255    5.636
  219.250  111.660    0.428    0.256    5.223
  219.500  115.499    0.436    0.258    5.032
  219.750  121.232    0.447    0.259    4.577
  220.000  123.808    0.458    0.259    4.494
  220.250  116.910    0.458    0.259    4.415
  220.500  112.539    0.427    0.255    4.504
  220.750  108.811    0.420    0.246    4.968
  221.000  108.217    0.413    0.221    5.808
  221.250  104.477    0.409    0.204    6.161
  221.500  102.013    0.409    0.206    6.415
  221.750  105.852    0.414    0.235    6.423
  222.000  108.427    0.415    0.236    6.429
  222.250  112.254    0.420    0.238    6.824
  222.500  117.987    0.422    0.234    7.383
  222.750  119.932    0.419    0.231    8.145
  223.000  114.929    0.414    0.225    8.475
  223.250  111.833    0.405    0.230    9.171
  223.500  111.882    0.394    0.231    9.542
  223.750  111.932    0.387    0.231    9.934
  224.000  111.350    0.383    0.229   10.145
  224.250  110.136    0.383    0.229   10.155
  224.500  108.910    0.384    0.228   10.363
  224.750  107.077    0.384    0.228   10.583
  225.000  105.851    0.384    0.228   10.593
  225.250  103.374    0.386    0.219   10.407
  225.500  101.529    0.390    0.199   10.221
  225.750  103.473    0.393    0.199   10.039
  226.000  106.062    0.403    0.209    9.859
  226.250  107.374    0.407    0.220    9.686
  226.500  108.687    0.411    0.228    9.507
  226.750  109.393    0.414    0.227    9.340
  227.000  110.061    0.417    0.227    9.173
  227.250  112.005    0.422    0.227    8.671
  227.500  115.200    0.427    0.226    8.510
  227.750  118.408    0.428    0.221    8.041
  228.000  119.720    0.427    0.218    8.209
  228.250  117.244    0.427    0.222    9.601
  228.500  112.872    0.423    0.223   10.191
  228.750  105.974    0.419    0.222   10.400
  229.000  102.866    0.412    0.229   10.214
  229.250  108.600    0.408    0.249   10.224
  229.500  113.714    0.413    0.251   10.241
  229.750  111.881    0.406    0.236   10.061
  230.000  110.643    0.402    0.233   10.067
  230.250  105.008    0.400    0.236   10.281
