~VERSION INFORMATION
 VERS.                 2.0:   CWLS LOG ASCII STANDARD -VERSION 2.0
 WRAP.                  NO:   ONE LINE PER DEPTH STEP
~WELL INFORMATION BLOCK
#MNEM.UNIT           DATA                    DESCRIPTION OF MNEMONIC
#---------    -------------------            -------------------------------
# Generated from Intellog Unique Number	CN_91_93/WELL/1076
WELL.         PETRO CANADA                   : Well_name    - WELL
LOC .         00/10-01-091-18W4/0            : Location     - LOCATION
UWI .         00/10-01-091-18W400            : Uwi          - UNIQUE WELL ID
ENTR.         JOETTE                         : Entered      - ENTERED BY
SRVC.         SCHLUMBERGER                   : Scn          - SERVICE COMPANY
DATE.         02/04/92                       : Date         - LOG DATE
STRT.F        196.85                         : top_depth    - START DEPTH
STOP.F        780.84                         : bot_depth    - STOP DEPTH
STEP.F        0.821                          : increment    - STEP LENGTH
 NULL. -999.2500:NULL Value
~CURVE INFORMATION BLOCK
#MNEM UNIT       ERCB CURVE CODE    CURVE DESCRIPTION
#-----------   ------------------   ----------------------------------
DEPT.F        00 001 00 00         : DEPTH        - DEPTH
ILD .OHMM     00 120 00 00         : RESD         - DEEP RESISTIVITY (DIL)
DPHI.V/V      00 890 00 00         : PHID         - DENSITY POROSITY (SANDSTONE)
NPHI.V/V      00 330 00 00         : PHIN         - NEUTRON POROSITY (SANDSTONE)
CALI.IN       00 280 01 00         : CAL          - CALIPER
GR  .API      00 310 00 00         : GR           - GAMMA RAY
~PARAMETER INFORMATION
#MNEM.UNIT           DATA             DESCRIPTION OF MNEMONIC
#---------         -----------     ------------------------------
GL  .F        1663.06              : gl           - GROUND LEVEL ELEVATION
EREF.F        1673.88              : kb           - ELEVATION OF DEPTH REFERENCE
DATM.F        1673.88              : datum        - DATUM ELEVATION
TDD .F        807.087              : tdd          - TOTAL DEPTH DRILLER
RUN .         ONE                  : Run          - RUN NUMBER
ENG .         BILL                 : Engineer     - RECORDING ENGINEER
WIT .         JIM                  : Witness      - WITNESSED BY
MUD .         GEL                  : Mud_type     - MUD TYPE
MATR.         SANDSTONE            : Logunit      - NEUTRON MATRIX
TMAX.F        77                   : BHT          - MAXIMUM RECORDED TEMPERATURE
BHTD.F        807.087              : BHTDEP       - MAXIMUM RECORDED TEMPERATURE
RMT .F        53.6                 : MDTP         - TEMPERATURE OF MUD
MUDD.LB/G     9.58333              : MWT          - MUD DENSITY
NEUT.         1                    : NEUTRON      - NEUTRON TYPE
RESI.         0                    : RESIST       - RESISTIVITY TYPE
RM  .OHMM     2.6                  : RM           - RESISTIVITY OF MUD
RMC .OHMM     2.6                  : RMC          - RESISTIVITY OF MUD CAKE
RMF .OHMM     2.6                  : RMF          - RESISTIVITY OF MUD FILTRATE
SUFT.F        39.2                 : SUFT         - SURFACE TEMPERATURE
~A  DEPTH     RESD     PHID     PHIN      CAL       GR
# ...
  436.352   17.759    0.225    0.443    6.656   87.167
  437.172   19.686    0.209    0.418    6.656   79.991
  437.992   21.417    0.237    0.404    6.440   78.499
  438.812   23.963    0.245    0.403    6.441   77.906
  439.633   30.558    0.247    0.417    6.618   77.013
  440.453   34.512    0.220    0.417    6.696   75.521
  441.273   34.842    0.193    0.400    6.638   73.431
  442.093   29.454    0.076    0.321    6.540   71.940
  442.913   19.712    0.089    0.313    6.540   71.047
  443.734   10.347    0.105    0.320    6.344   72.547
  444.554    7.055    0.115    0.318    6.443   81.826
  445.374    6.548    0.172    0.363    6.639   93.499
  446.194    6.488    0.208    0.423    6.855   99.787
  447.014    6.490    0.240    0.487    6.954   97.996
  447.835    8.123    0.244    0.515    6.856   95.009
  448.655    7.900    0.236    0.508    6.797   93.517
  449.475    7.683    0.213    0.468    6.778   97.710
  450.295    7.334    0.212    0.456    6.739  110.281
  451.115    7.473    0.220    0.464    6.700  109.986
  451.936    7.832    0.197    0.479    6.642  100.716
  452.756    7.833    0.165    0.474    6.622  105.806
  453.576    7.136    0.185    0.464    6.485  110.299
  454.396    6.940    0.192    0.483    6.525  109.704
  455.217    7.838    0.193    0.486    6.564  110.906
  456.037    8.770    0.230    0.534    6.564  110.611
  456.857   10.574    0.228    0.517    6.565  100.143
  457.677   11.941    0.208    0.488    6.604   87.881
  458.497   13.114    0.190    0.416    6.683   80.406
  459.318   13.616    0.187    0.397    6.762   79.812
  460.138   14.137    0.199    0.419    6.684   83.706
  460.958   14.678    0.227    0.433    6.645   88.198
  461.778   15.098    0.244    0.439    6.606   91.195
  462.598   15.676    0.241    0.418    6.606   92.397
  463.419   16.429    0.239    0.392    6.587   90.904
  464.239   18.042    0.256    0.399    6.567   87.020
  465.059   21.957    0.254    0.447    6.528   82.237
  465.879   23.446    0.142    0.418    6.411   64.290
  466.699   31.037   -0.017    0.202    6.411   54.422
  467.520   36.388    0.004    0.186    6.549   55.622
  468.340   30.475    0.024    0.214    6.628   64.902
  469.160   23.245    0.128    0.267    6.608   81.661
  469.980   19.287    0.155    0.343    6.589   91.240
  470.801   15.129    0.206    0.373    6.805   93.937
  471.621   11.868    0.230    0.403    6.806   97.232
  472.441   11.119    0.226    0.420    6.786   99.032
  473.261   11.121    0.221    0.416    6.885   95.746
  474.081   11.987    0.218    0.402    6.885   96.647
  474.902   12.799    0.220    0.421    6.826   96.651
  475.722   14.187    0.220    0.434    6.532   93.365
  476.542   16.633    0.215    0.445    6.356   91.874
  477.362   18.266    0.181    0.428    6.415   88.587
  478.182   18.269    0.152    0.393    6.474   91.583
  479.003   17.934    0.121    0.394    6.337  101.460
  479.823   17.119    0.159    0.403    6.396  104.756
  480.643   16.963    0.213    0.416    6.613  103.564
  481.463   17.613    0.236    0.423    6.750  100.576
  482.283   18.459    0.252    0.405    6.652   95.195
  483.104   18.810    0.265    0.404    6.417   91.311
  483.924   18.814    0.263    0.425    6.594   91.016
  484.744   18.817    0.266    0.416    6.614   88.626
  485.564   18.997    0.241    0.384    6.398   81.451
  486.385   19.359    0.223    0.372    6.261   81.156
  487.205   19.914    0.246    0.389    6.301   82.058
  488.025   20.104    0.253    0.409    6.576   85.054
  488.845   19.735    0.251    0.396    6.714   92.240
  489.665   19.194    0.255    0.380    6.753   92.543
  490.486   18.493    0.253    0.377    6.753   91.052
  491.306   18.154    0.253    0.392    6.714   90.159
  492.126   38.965    0.257    0.412    6.580   91.602
  492.946   38.370    0.254    0.413    6.520   93.074
  493.766   39.240    0.253    0.385    6.520   93.652
  494.587   40.130    0.248    0.378    6.636   93.637
  495.407   40.731    0.239    0.379    6.752   91.836
  496.227   41.342    0.205    0.386    6.751   89.446
  497.047   41.645    0.181    0.374    6.671   86.755
  497.867   41.949    0.181    0.373    6.573   81.980
  498.688   43.551    0.174    0.384    6.416   79.881
  499.508   42.248    0.196    0.370    6.298   87.601
  500.328   38.576    0.237    0.373    6.336   94.129
  501.148   36.583    0.239    0.413    6.550   97.683
  501.969   33.658    0.228    0.431    6.685   97.074
  502.789   32.160    0.226    0.429    6.665   88.728
  503.609   31.910    0.180    0.413    6.665   86.633
  504.429   34.665    0.188    0.403    6.604   86.321
  505.249   40.922    0.198    0.415    6.447   89.282
  506.070   45.130    0.208    0.381    6.427   81.831
  506.890   47.570    0.213    0.290    6.504   75.866
  507.710   51.676    0.065    0.291    6.600   72.582
  508.530   48.637    0.061    0.299    6.599   72.565
  509.350   39.355    0.135    0.308    6.540   80.283
  510.171   33.578    0.186    0.497    6.480   91.567
  510.991   22.667    0.239    0.548    6.460  100.181
  511.811   18.067    0.250    0.547    6.460  109.681
  512.631   16.251    0.239    0.513    6.477  102.232
  513.451   16.369    0.182    0.475    6.535   99.840
  514.272   17.517    0.143    0.459    6.533   95.064
  515.092   23.688    0.129    0.426    6.552   93.565
  515.912   28.176    0.193    0.382    6.512   93.847
  516.732   30.840    0.213    0.406    6.492   97.401
  517.552   31.540    0.228    0.429    6.472  104.227
  518.373   31.295    0.226    0.441    6.490  106.889
  519.193   29.901    0.222    0.462    6.567  110.142
  520.013   28.141    0.220    0.477    6.624  110.722
  520.833   28.135    0.214    0.482    6.623  108.031
  521.654   33.973    0.169    0.416    6.642  100.285
  522.474   38.617    0.158    0.345    6.622   94.321
  523.294   41.951    0.223    0.353    6.601   91.627
  524.114   41.940    0.240    0.388    6.580   89.828
  524.934   41.940    0.243    0.398    6.521   89.815
  525.755   41.921    0.243    0.393    6.403   90.988
  526.575   40.663    0.244    0.383    6.324   90.678
  527.395   40.960    0.242    0.374    6.304   88.580
  528.215   42.206    0.239    0.377    6.322   88.567
  529.035   44.486    0.233    0.389    6.380   88.255
  529.856   47.247    0.238    0.391    6.457   81.697
  530.676   51.329    0.243    0.386    6.514   75.435
  531.496   60.592    0.188    0.364    6.474   71.850
  532.316   66.824    0.138    0.332    6.376   69.160
  533.136   70.434    0.125    0.306    6.316   66.171
  533.957   72.029    0.142    0.335    6.276   63.778
  534.777   73.110    0.190    0.361    6.295   63.168
  535.597   73.647    0.229    0.378    6.392   62.559
  536.417   74.187    0.277    0.397    6.469   60.460
  537.238   75.298    0.277    0.411    6.448   58.958
  538.058   70.860    0.259    0.387    6.369   60.131
  538.878   69.261    0.225    0.344    6.348   62.498
  539.698   68.721    0.183    0.329    6.504   64.862
  540.518   68.192    0.183    0.332    6.561   66.628
  541.339   64.658    0.204    0.366    6.502   67.210
  542.159   64.658    0.245    0.387    6.442   68.090
  542.979   63.664    0.272    0.403    6.441   71.047
  543.799   57.263    0.271    0.411    6.479   70.737
  544.619   53.487    0.209    0.413    6.479   70.737
  545.440   51.104    0.185    0.353    6.516   69.806
  546.260   50.706    0.177    0.337    6.613   68.906
  547.080   51.080    0.180    0.338    6.612   68.906
  547.900   54.248    0.189    0.353    6.513   68.280
  548.720   63.077    0.220    0.376    6.376   70.646
  549.541   66.486    0.294    0.404    6.336   73.899
  550.361   70.076    0.206    0.378    6.452   72.400
  551.181   76.707    0.149    0.301    6.568   70.303
  552.001   85.241    0.055    0.247    6.606   68.504
  552.822   95.442    0.049    0.234    6.605   67.004
  553.642   71.615    0.084    0.240    6.643   66.987
  554.462   60.635    0.194    0.355    6.701   74.705
  555.282   51.341    0.236    0.380    6.719   82.127
