~VERSION INFORMATION
 VERS.                 2.0:   CWLS LOG ASCII STANDARD -VERSION 2.0
 WRAP.                  NO:   ONE LINE PER DEPTH STEP
~WELL INFORMATION BLOCK
#MNEM.UNIT           DATA                    DESCRIPTION OF MNEMONIC
#---------    -------------------            -------------------------------
# Generated from Intellog Unique Number	CS_73_76/WELL/833
WELL.         PACIFIC  CRIST                 : Well_name    - WELL
LOC .         00/10-24-073-08W4/0            : Location     - LOCATION
UWI .         00/10-24-073-08W4/0            : Uwi          - UNIQUE WELL ID
ENTR.         SP                             : Entered      - ENTERED BY
SRVC.         SCHLUMBERGER                   : Scn          - SERVICE COMPANY
STRT.M        310                            : top_depth    - START DEPTH
STOP.M        530                            : bot_depth    - STOP DEPTH
STEP.M        0.25                           : increment    - STEP LENGTH
 NULL. -999.2500:NULL Value
~CURVE INFORMATION BLOCK
#MNEM UNIT       ERCB CURVE CODE    CURVE DESCRIPTION
#-----------   ------------------   ----------------------------------
DEPT.M        00 001 00 00         : DEPTH        - DEPTH
ILD .OHMM     00 120 00 00         : RESD         - DEEP RESISTIVITY (DIL)
DPHI.V/V      00 890 00 00         : PHID         - DENSITY POROSITY (LIMESTONE)
NPHI.V/V      00 330 00 00         : PHIN         - NEUTRON POROSITY (LIMESTONE)
GR  .API      00 310 00 00         : GR           - GAMMA RAY
~PARAMETER INFORMATION
#MNEM.UNIT           DATA             DESCRIPTION OF MNEMONIC
#---------         -----------     ------------------------------
GL  .M        694.3                : gl           - GROUND LEVEL ELEVATION
EREF.M        697.6                : kb           - ELEVATION OF DEPTH REFERENCE
DATM.M        694.3                : datum        - DATUM ELEVATION
TDD .M        540                  : tdd          - TOTAL DEPTH DRILLER
RUN .         ONE                  : Run          - RUN NUMBER
ENG .         BILL                 : Engineer     - RECORDING ENGINEER
WIT .         JIM                  : Witness      - WITNESSED BY
MUD .         GEL                  : Mud_type     - MUD TYPE
MATR.         LIMESTONE            : Logunit      - NEUTRON MATRIX
TMAX.C        12.8                 : BHT          - MAXIMUM RECORDED TEMPERATURE
BHTD.M        540                  : BHTDEP       - MAXIMUM RECORDED TEMPERATURE
MATR.         1                    : LOGUNIT      - NEUTRON MATRIX
RMT .C        25                   : MDTP         - TEMPERATURE OF MUD
NEUT.         1                    : NEUTRON      - NEUTRON TYPE
RESI.         0                    : RESIST       - RESISTIVITY TYPE
RMC .OHMM     0.25                 : RMC          - RESISTIVITY OF MUD CAKE
RMF .OHMM     0.25                 : RMF          - RESISTIVITY OF MUD FILTRATE
SUFT.C        15                   : SUFT         - SURFACE TEMPERATURE
~A  DEPTH     RESD     PHID     PHIN       GR
# ...
  397.000    8.595    0.298    0.474   67.517
  397.250    8.299    0.308    0.474   68.722
  397.500    8.790    0.297    0.472   69.323
  397.750    8.965    0.293    0.460   69.319
  398.000    8.815    0.293    0.471   69.919
  398.250    8.345    0.305    0.487   70.522
  398.500    7.477    0.304    0.501   72.332
  398.750    6.954    0.302    0.511   74.142
  399.000    6.714    0.311    0.502   73.533
  399.250    6.720    0.296    0.485   74.131
  399.500    6.609    0.294    0.481   74.129
  399.750    6.495    0.288    0.481   76.544
  400.000    5.820    0.276    0.498   78.959
  400.250    5.215    0.263    0.516   81.980
  400.500    4.673    0.253    0.508   80.764
  400.750    4.428    0.262    0.516   80.762
  401.000    4.432    0.270    0.525   84.386
  401.250    4.522    0.278    0.499   81.963
  401.500    4.970    0.285    0.487   80.145
  401.750    5.464    0.279    0.488   79.535
  402.000    5.783    0.255    0.512   80.740
  402.250    6.479    0.250    0.497   81.946
  402.500    6.731    0.253    0.469   83.756
  402.750    6.994    0.270    0.462   84.963
  403.000    7.141    0.272    0.468   86.168
  403.250    7.155    0.257    0.478   84.350
  403.500    7.032    0.288    0.491   79.507
  403.750    7.041    0.246    0.479   78.898
  404.000    6.924    0.251    0.458   80.103
  404.250    7.064    0.264    0.444   81.308
  404.500    7.205    0.264    0.445   80.698
  404.750    7.486    0.269    0.459   79.486
  405.000    7.226    0.279    0.468   77.062
  405.250    6.354    0.263    0.485   75.244
  405.500    5.188    0.245    0.484   81.287
  405.750    4.085    0.234    0.499   86.726
  406.000    3.727    0.244    0.513   90.353
  406.250    3.277    0.240    0.528   93.977
  406.500    3.048    0.255    0.539   93.974
  406.750    2.996    0.254    0.569   94.573
  407.000    3.116    0.227    0.571   95.175
  407.250    3.238    0.244    0.572   92.146
  407.500    3.302    0.238    0.555   92.141
  407.750    3.499    0.234    0.543   93.348
  408.000    3.502    0.230    0.536   96.972
  408.250    3.509    0.226    0.555   98.179
  408.500    3.450    0.232    0.569   97.569
  408.750    3.390    0.240    0.588   99.380
  409.000    3.155    0.251    0.600  102.400
  409.250    3.043    0.262    0.578  101.791
  409.500    2.883    0.266    0.596   98.763
  409.750    2.834    0.262    0.603   98.154
  410.000    2.890    0.245    0.611   93.310
  410.250    3.757    0.238    0.595   89.677
  410.500    4.203    0.245    0.539   86.649
  410.750    5.261    0.240    0.504   84.227
  411.000    6.226    0.225    0.486   83.013
  411.250    6.843    0.233    0.475   84.823
  411.500    7.249    0.233    0.486   83.004
  411.750    7.538    0.220    0.491   83.605
  412.000    7.691    0.234    0.489   85.415
  412.250    7.701    0.239    0.492   86.621
  412.500    7.712    0.239    0.487   88.430
  412.750    7.724    0.237    0.478   89.032
  413.000    7.734    0.237    0.473   87.818
  413.250    7.603    0.243    0.463   84.789
  413.500    7.613    0.229    0.456   79.946
  413.750    7.916    0.212    0.473   76.919
  414.000    8.383    0.183    0.475   73.891
  414.250    8.553    0.201    0.438   73.887
  414.500    8.406    0.233    0.415   80.535
  414.750    7.535    0.278    0.457   82.950
  415.000    6.756    0.243    0.478   85.365
  415.250    6.397    0.248    0.491   87.176
  415.500    6.172    0.264    0.495   85.358
  415.750    6.067    0.277    0.486   80.515
  416.000    5.962    0.288    0.508   79.301
  416.250    5.867    0.279    0.527   81.110
  416.500    5.982    0.311    0.532   81.712
  416.750    6.219    0.290    0.530   84.126
  417.000    6.229    0.282    0.517   85.331
  417.250    6.356    0.211    0.507   85.934
  417.500    6.245    0.235    0.505   84.719
  417.750    6.144    0.218    0.515   83.505
  418.000    5.924    0.259    0.527   82.292
  418.250    5.212    0.241    0.546   79.264
  418.500    4.499    0.282    0.537   79.865
  418.750    3.744    0.277    0.523   84.094
  419.000    3.232    0.261    0.543   88.323
  419.250    2.841    0.264    0.557   91.949
  419.500    2.641    0.261    0.590   92.550
  419.750    2.598    0.281    0.594   90.126
  420.000    2.650    0.288    0.589   87.703
  420.250    2.806    0.248    0.573   87.699
  420.500    3.027    0.236    0.570   89.509
  420.750    3.209    0.252    0.566   92.529
  421.000    3.334    0.252    0.567   92.525
  421.250    3.464    0.290    0.559   90.706
  421.500    3.953    0.316    0.547   87.678
  421.750    4.263    0.310    0.536   84.650
  422.000    4.597    0.258    0.540   85.855
  422.250    4.958    0.293    0.546   82.222
  422.500    5.351    0.239    0.523   81.007
  422.750    5.356    0.232    0.504   80.399
  423.000    5.269    0.258    0.494   78.581
  423.250    5.474    0.270    0.469   77.368
  423.500    5.798    0.218    0.470   81.595
  423.750    6.146    0.217    0.487   83.407
  424.000    6.385    0.240    0.499   87.030
  424.250    6.391    0.236    0.513   88.237
  424.500    6.283    0.219    0.511   88.838
  424.750    6.179    0.257    0.507   87.019
  425.000    6.074    0.272    0.517   81.572
  425.250    6.195    0.295    0.524   78.544
  425.500    6.330    0.294    0.527   80.354
  425.750    6.457    0.285    0.527   80.955
  426.000    6.587    0.270    0.541   81.556
  426.250    6.719    0.250    0.505   82.758
  426.500    6.852    0.210    0.448   82.756
  426.750    6.996    0.212    0.443   82.148
  427.000    7.136    0.221    0.461   79.120
  427.250    7.278    0.236    0.466   75.487
  427.500    7.429    0.257    0.475   73.064
  427.750    7.436    0.263    0.467   73.663
  428.000    6.915    0.253    0.467   73.660
  428.250    5.863    0.265    0.464   74.865
  428.500    5.351    0.241    0.458   79.699
  428.750    5.259    0.228    0.458   84.532
  429.000    5.467    0.221    0.467   85.739
  429.250    5.900    0.230    0.465   86.946
  429.500    6.248    0.234    0.478   86.942
  429.750    6.491    0.222    0.484   85.728
  430.000    6.749    0.211    0.480   87.538
  430.250    6.883    0.205    0.484   86.930
  430.500    7.025    0.224    0.481   83.901
  430.750    7.035    0.236    0.453   80.873
  431.000    7.177    0.232    0.420   84.498
  431.250    7.185    0.230    0.414   87.517
  431.500    7.067    0.234    0.422   86.303
  431.750    6.571    0.223    0.442   84.484
  432.000    6.113    0.238    0.464   83.875
  432.250    6.008    0.263    0.500   83.268
  432.500    5.801    0.236    0.498   83.264
  432.750    5.700    0.217    0.487   82.048
  433.000    5.605    0.240    0.493   81.441
  433.250    5.508    0.246    0.492   79.017
  433.500    5.314    0.270    0.520   77.803
  433.750    5.226    0.303    0.535   79.614
  434.000    5.232    0.346    0.549   79.609
  434.250    5.439    0.365    0.578   80.815
  434.500    5.983    0.381    0.479   77.181
  434.750    6.336    0.349    0.456   74.759
  435.000    6.583    0.273    0.451   75.359
  435.250    6.713    0.267    0.459   75.355
  435.500    6.980    0.263    0.469   74.141
  435.750    6.994    0.274    0.470   74.138
  436.000    7.006    0.267    0.474   75.946
  436.250    7.016    0.256    0.493   77.154
  436.500    7.026    0.268    0.482   78.963
  436.750    7.035    0.276    0.474   79.564
  437.000    7.042    0.264    0.474   78.351
  437.250    7.054    0.258    0.476   74.717
  437.500    6.934    0.250    0.465   74.712
  437.750    6.447    0.245    0.459   75.312
  438.000    5.364    0.243    0.458   75.914
  438.250    4.143    0.255    0.451   76.516
  438.500    3.509    0.257    0.465   78.931
  438.750    2.919    0.243    0.516   79.532
  439.000    2.567    0.275    0.574   80.132
  439.250    2.719    0.302    0.611   78.918
  439.500    3.161    0.277    0.563   81.334
  439.750    3.538    0.318    0.505   83.749
  440.000    4.345    0.370    0.468   84.955
  440.250    5.541    0.338    0.462   83.740
