~VERSION INFORMATION
 VERS.                 2.0:   CWLS LOG ASCII STANDARD -VERSION 2.0
 WRAP.                  NO:   ONE LINE PER DEPTH STEP
~WELL INFORMATION BLOCK
#MNEM.UNIT           DATA                    DESCRIPTION OF MNEMONIC
#---------    -------------------            -------------------------------
# Generated from Intellog Unique Number	CW_70_72/WELL/3036
NULL.         -999.25                        : NULL_VALUE
WELL.         MANNVILLE ET AL DECRENE 15-36  : Well_name    - WELL              
LOC .         15-36-070-02W5                 : Location     - LOCATION          
UWI .         00/15-36-070-02W5/0            : Uwi          - UNIQUE WELL ID    
ENTR.         JAYE                           : Entered      - ENTERED BY        
SRVC.         SCHLUMBERGER                   : Scn          - SERVICE COMPANY   
DATE.         2 MAR 84                       : Date         - LOG DATE          
STRT.M        400                            : top_depth    - START DEPTH       
STOP.M        630                            : bot_depth    - STOP DEPTH        
STEP.M        0.25                           : increment    - STEP LENGTH       
~CURVE INFORMATION BLOCK
#MNEM UNIT       ERCB CURVE CODE    CURVE DESCRIPTION
#-----------   ------------------   ----------------------------------
DEPT.M        00 001 00 00         : DEPTH        - DEPTH                       
ILD .OHMM     00 120 00 00         : RESD         - DEEP RESISTIVITY (DIL)      
CALI.MM       00 280 01 00         : CAL          - CALIPER                     
GR  .API      00 310 00 00         : GR           - GAMMA RAY                   
NPHI.V/V      00 330 00 00         : PHIN         - NEUTRON POROSITY (SANDSTONE)
DPHI.V/V      00 890 00 00         : PHID         - DENSITY POROSITY (SANDSTONE)
~PARAMETER INFORMATION       
#MNEM.UNIT           DATA             DESCRIPTION OF MNEMONIC
#---------         -----------     ------------------------------
GL  .M        591.5                : gl           - GROUND LEVEL ELEVATION      
EREF.M        595                  : kb           - ELEVATION OF DEPTH REFERENCE
DATM.M        591.5                : datum        - DATUM ELEVATION             
TDD .M        640                  : tdd          - TOTAL DEPTH DRILLER         
RUN .         ONE                  : Run          - RUN NUMBER                  
ENG .         PIERAOCL             : Engineer     - RECORDING ENGINEER          
WIT .         LYSZKIEWICZ          : Witness      - WITNESSED BY                
BASE.         EDM                  : Branch       - HOME BASE OF LOGGING UNIT   
MUD .         GEL CHEM             : Mud_type     - MUD TYPE                    
MATR.         SANDSTONE            : Logunit      - NEUTRON MATRIX              
TMAX.C        28                   : BHT          - MAXIMUM RECORDED TEMPERATURE
BHTD.M        641                  : BHTDEP       - MAXIMUM RECORDED TEMPERATURE
RMT .C        20                   : MDTP         - TEMPERATURE OF MUD          
MUDD.KG/M     1100                 : MWT          - MUD DENSITY                 
NEUT.         1                    : NEUTRON      - NEUTRON TYPE                
RESI.         0                    : RESIST       - RESISTIVITY TYPE            
RM  .OHMM     2.86                 : RM           - RESISTIVITY OF MUD          
RMC .OHMM     0.25                 : RMC          - RESISTIVITY OF MUD CAKE     
RMF .OHMM     4.03                 : RMF          - RESISTIVITY OF MUD FILTRATE 
SUFT.C        0                    : SUFT         - SURFACE TEMPERATURE         
~A  DEPTH     RESD      CAL       GR     PHIN     PHID
# ...
  546.000    7.057  165.884   58.567    0.331    0.290
  546.250    6.904  166.008   59.143    0.353    0.294
  546.500    6.566  166.035   56.610    0.347    0.298
  546.750    6.209  166.064   52.588    0.329    0.290
  547.000    5.806  166.082   54.591    0.330    0.289
  547.250    5.429  166.836   59.638    0.354    0.300
  547.500    4.981  167.795   64.562    0.370    0.298
  547.750    4.562  168.439   63.645    0.382    0.272
  548.000    4.132  169.193   59.436    0.395    0.256
  548.250    3.784  169.834   56.840    0.400    0.247
  548.500    3.546  170.377   57.915    0.390    0.260
  548.750    3.403  171.245   59.231    0.387    0.263
  549.000    3.292  171.363   60.492    0.385    0.264
  549.250    3.288  172.008   61.251    0.377    0.256
  549.500    3.352  173.592   62.756    0.370    0.243
  549.750    3.496  174.439   64.386    0.359    0.240
  550.000    4.202  178.595   65.054    0.382    0.252
  550.250    4.386  176.049   64.270    0.390    0.247
  550.500    4.449  169.385   62.681    0.399    0.179
  550.750    4.635  166.841   59.550    0.377    0.119
  551.000    4.977  169.761   56.046    0.311    0.145
  551.250    5.173  175.774   57.613    0.329    0.210
  551.500    5.180  173.851   59.795    0.374    0.250
  551.750    5.022  169.660   60.373    0.387    0.283
  552.000    4.860  169.280   60.144    0.399    0.272
  552.250    4.702  169.421   60.042    0.417    0.245
  552.500    4.594  169.760   59.196    0.392    0.230
  552.750    4.804  169.484   55.754    0.359    0.230
  553.000    5.013  169.102   53.608    0.342    0.223
  553.250    5.086  169.042   54.741    0.352    0.224
  553.500    4.730  168.868   54.827    0.368    0.242
  553.750    4.577  168.899   53.854    0.375    0.232
  554.000    4.679  168.729   53.693    0.348    0.216
  554.250    4.939  168.967   54.391    0.338    0.203
  554.500    5.253  169.003   54.532    0.338    0.194
  554.750    5.748  169.133   52.266    0.343    0.180
  555.000    6.241  169.170   51.669    0.329    0.156
  555.250    6.537  169.099   53.172    0.308    0.146
  555.500    6.197  168.931   55.977    0.322    0.199
  555.750    5.415  169.166   57.664    0.363    0.241
  556.000    4.547  168.788   60.222    0.386    0.262
  556.250    3.945  168.821   64.573    0.388    0.265
  556.500    3.648  168.758   67.126    0.384    0.250
  556.750    3.471  168.894   70.113    0.388    0.246
  557.000    3.384  168.716   71.988    0.387    0.261
  557.250    3.446  168.649   71.019    0.389    0.272
  557.500    3.509  168.996   72.585    0.398    0.283
  557.750    3.473  168.716   68.958    0.403    0.290
  558.000    3.425  168.958   64.279    0.417    0.302
  558.250    3.404  168.886   65.228    0.433    0.269
  558.500    3.453  168.816   67.473    0.424    0.261
  558.750    3.550  168.338   69.100    0.413    0.255
  559.000    3.635  168.059   68.748    0.413    0.245
  559.250    3.745  168.301   67.471    0.421    0.234
  559.500    3.849  168.434   68.421    0.417    0.232
  559.750    3.958  168.367   70.727    0.402    0.241
  560.000    3.984  168.605   69.884    0.406    0.246
  560.250    3.989  168.744   67.304    0.403    0.250
  560.500    4.009  169.090   63.244    0.381    0.242
  560.750    4.028  169.124   66.855    0.352    0.225
  561.000    4.041  169.465   70.025    0.365    0.206
  561.250    4.061  169.603   72.579    0.383    0.216
  561.500    4.066  169.220   73.467    0.400    0.232
  561.750    4.040  168.844   72.311    0.410    0.227
  562.000    4.044  168.668   70.414    0.410    0.238
  562.250    4.033  168.707   67.219    0.396    0.255
  562.500    3.978  168.538   64.580    0.385    0.266
  562.750    3.931  168.055   63.490    0.371    0.243
  563.000    3.876  167.574   64.684    0.354    0.232
  563.250    3.859  167.707   65.508    0.359    0.245
  563.500    3.841  168.048   68.003    0.370    0.246
  563.750    3.824  167.982   70.865    0.372    0.218
  564.000    3.806  168.015   73.111    0.379    0.214
  564.250    3.854  167.942   71.835    0.390    0.234
  564.500    3.866  168.288   70.309    0.376    0.234
  564.750    3.856  168.321   69.092    0.365    0.222
  565.000    3.905  168.562   69.918    0.379    0.214
  565.250    3.902  168.184   75.380    0.392    0.199
  565.500    3.921  168.832   78.552    0.373    0.197
  565.750    4.009  169.180   80.735    0.376    0.191
  566.000    4.199  169.313   78.281    0.362    0.168
  566.250    4.881  169.757   70.016    0.332    0.136
  566.500    6.106  170.213   62.494    0.287    0.088
  566.750    7.713  170.246   61.215    0.271    0.074
  567.000    8.880  170.170   65.814    0.279    0.090
  567.250    8.823  169.070   66.634    0.310    0.120
  567.500    7.551  168.487   68.944    0.319    0.115
  567.750    6.439  169.045   72.302    0.308    0.124
  568.000    5.595  169.388   74.860    0.338    0.157
  568.250    4.964  169.722   75.558    0.370    0.186
  568.500    4.696  169.653   77.750    0.356    0.160
  568.750    4.587  169.894   79.867    0.336    0.136
  569.000    4.532  169.409   82.483    0.348    0.125
  569.250    4.512  168.723   85.286    0.344    0.156
  569.500    4.561  169.893   91.121    0.326    0.156
  569.750    4.661  171.365   94.540    0.338    0.147
  570.000    4.911  172.635  100.002    0.352    0.153
  570.250    5.292  174.009   97.302    0.361    0.106
  570.500    5.946  176.003   83.780    0.290    0.022
  570.750    6.616  173.975   76.008    0.215   -0.007
  571.000    7.239  172.051   69.907    0.237    0.034
  571.250    7.193  172.600   77.903    0.289    0.098
  571.500    6.406  173.457   84.543    0.348    0.138
  571.750    5.380  174.320   86.291    0.365    0.078
  572.000    5.657  174.563   86.437    0.343    0.059
  572.250    6.489  174.486   78.417    0.350    0.040
  572.500    7.730  174.416   66.689    0.287    0.018
  572.750    9.122  172.085   60.834    0.274    0.029
  573.000   10.093  171.081   61.906    0.268    0.078
  573.250    9.317  170.812   69.533    0.299    0.099
  573.500    7.841  171.356   75.242    0.332    0.120
  573.750    6.710  175.304   79.840    0.348    0.134
  574.000    5.920  173.488   83.879    0.351    0.143
  574.250    5.568  171.353   86.496    0.352    0.142
  574.500    5.358  170.772   88.247    0.359    0.146
  574.750    5.324  171.214   89.440    0.372    0.126
  575.000    5.442  171.355   88.720    0.397    0.102
  575.250    5.788  170.767   78.660    0.341    0.071
  575.500    6.132  169.978   63.840    0.293    0.030
  575.750    6.377  170.012   75.176    0.293    0.077
  576.000    6.444  170.871   88.863    0.335    0.101
  576.250    6.295  172.345   90.802    0.357    0.127
  576.500    6.184  173.102   87.234    0.352    0.108
  576.750    6.076  170.764   84.596    0.333    0.091
  577.000    6.015  169.977   86.841    0.317    0.105
  577.250    6.021  170.317   89.893    0.316    0.116
  577.500    6.017  170.973   90.716    0.321    0.123
  577.750    6.094  171.008   89.931    0.342    0.124
  578.000    6.242  170.934   84.571    0.349    0.109
  578.250    6.319  170.870   77.914    0.307    0.081
  578.500    6.446  170.694   82.944    0.292    0.097
  578.750    6.614  170.418   88.344    0.317    0.116
  579.000    6.812  170.761   91.764    0.336    0.093
  579.250    7.179  170.998   91.909    0.339    0.076
  579.500    7.577  171.243   83.024    0.312    0.045
  579.750    8.118  171.170   77.603    0.291    0.017
  580.000    8.933  171.827   79.912    0.273    0.034
  580.250    9.131  171.442   86.549    0.273    0.073
  580.500    9.023  171.580   89.166    0.275    0.094
  580.750    8.584  171.721   88.198    0.274    0.095
  581.000    8.059  171.855   90.818    0.290    0.045
  581.250    7.410  171.887   96.153    0.295    0.059
  581.500    6.688  172.024  103.222    0.314    0.094
  581.750    6.231  172.272  111.590    0.359    0.132
  582.000    5.763  172.096  117.484    0.394    0.135
  582.250    5.269  171.611  106.063    0.379    0.102
