~VERSION INFORMATION
 VERS.                 2.0:   CWLS LOG ASCII STANDARD -VERSION 2.0
 WRAP.                  NO:   ONE LINE PER DEPTH STEP
~WELL INFORMATION BLOCK
#MNEM.UNIT           DATA                    DESCRIPTION OF MNEMONIC
#---------    -------------------            -------------------------------
# Generated from Intellog Unique Number	CW_73_75/WELL/2751
WELL.         NORCEN POR MARTEN HILLS 15-34  : Well_name    - WELL
LOC .         00/15-34-073-25W4/0            : Location     - LOCATION
UWI .         00/15-34-073-25W4/0            : Uwi          - UNIQUE WELL ID
ENTR.         JAYE                           : Entered      - ENTERED BY
SRVC.         COMPUTALOG                     : Scn          - SERVICE COMPANY
DATE.         24 FEB 83                      : Date         - LOG DATE
STRT.M        430                            : top_depth    - START DEPTH
STOP.M        650                            : bot_depth    - STOP DEPTH
STEP.M        0.25                           : increment    - STEP LENGTH
 NULL. -999.2500:NULL Value
~CURVE INFORMATION BLOCK
#MNEM UNIT       ERCB CURVE CODE    CURVE DESCRIPTION
#-----------   ------------------   ----------------------------------
DEPT.M        00 001 00 00         : DEPTH        - DEPTH
DPHI.V/V      00 890 00 00         : PHID         - DENSITY POROSITY (SANDSTONE)
NPHI.V/V      00 330 00 00         : PHIN         - NEUTRON POROSITY (SANDSTONE)
GR  .API      00 310 00 00         : GR           - GAMMA RAY
CALI.MM       00 280 01 00         : CAL          - CALIPER
ILD .OHMM     00 120 00 00         : RESD         - DEEP RESISTIVITY (DIL)
~PARAMETER INFORMATION
#MNEM.UNIT           DATA             DESCRIPTION OF MNEMONIC
#---------         -----------     ------------------------------
GL  .M        681.45               : gl           - GROUND LEVEL ELEVATION
EREF.M        684.45               : kb           - ELEVATION OF DEPTH REFERENCE
DATM.M        681.45               : datum        - DATUM ELEVATION
TDD .M        652                  : tdd          - TOTAL DEPTH DRILLER
RUN .         ONE                  : Run          - RUN NUMBER
ENG .         GRBAVAC              : Engineer     - RECORDING ENGINEER
WIT .         STEVENS/BOGNER       : Witness      - WITNESSED BY
BASE.         EDM                  : Branch       - HOME BASE OF LOGGING UNIT
MUD .         GEL CHEM             : Mud_type     - MUD TYPE
MATR.         SANDSTONE            : Logunit      - NEUTRON MATRIX
TMAX.C        30                   : BHT          - MAXIMUM RECORDED TEMPERATURE
BHTD.M        651.5                : BHTDEP       - MAXIMUM RECORDED TEMPERATURE
RMT .C        17                   : MDTP         - TEMPERATURE OF MUD
MUDD.KG/M     1120                 : MWT          - MUD DENSITY
NEUT.         1                    : NEUTRON      - NEUTRON TYPE
RESI.         0                    : RESIST       - RESISTIVITY TYPE
RM  .OHMM     5                    : RM           - RESISTIVITY OF MUD
RMC .OHMM     5                    : RMC          - RESISTIVITY OF MUD CAKE
RMF .OHMM     5                    : RMF          - RESISTIVITY OF MUD FILTRATE
SUFT.C        0                    : SUFT         - SURFACE TEMPERATURE
~A  DEPTH     PHID     PHIN       GR      CAL     RESD
# ...
  466.500    0.310    0.369   56.619  193.057    3.523
  466.750    0.296    0.387   66.476  194.741    3.618
  467.000    0.279    0.398   76.207  197.154    3.780
  467.250    0.270    0.405   83.376  198.631    3.920
  467.500    0.255    0.409   90.918  201.147    4.064
  467.750    0.242    0.412  102.715  202.938    4.141
  468.000    0.231    0.404  105.695  204.003    4.156
  468.250    0.224    0.384  105.412  204.440    4.123
  468.500    0.216    0.394   95.310  205.397    4.043
  468.750    0.206    0.427   87.213  207.290    3.889
  469.000    0.204    0.421   83.552  209.598    3.684
  469.250    0.246    0.404   80.144  209.832    3.483
  469.500    0.264    0.395   74.799  205.492    3.293
  469.750    0.290    0.380   68.578  201.774    3.072
  470.000    0.317    0.366   61.916  199.723    2.854
  470.250    0.319    0.348   59.636  198.499    2.652
  470.500    0.302    0.381   62.986  198.108    2.432
  470.750    0.284    0.417   68.775  198.961    2.371
  471.000    0.265    0.457   76.694  200.445    2.458
  471.250    0.248    0.476   86.364  201.397    2.569
  471.500    0.234    0.473   89.715  203.290    2.658
  471.750    0.237    0.435   93.816  206.846    2.724
  472.000    0.264    0.419   95.350  211.752    2.825
  472.250    0.294    0.395   73.611  202.321    2.906
  472.500    0.316    0.359   57.690  196.321    2.967
  472.750    0.336    0.365   45.147  194.683    3.030
  473.000    0.341    0.380   43.429  195.329    3.064
  473.250    0.332    0.378   44.343  195.668    3.146
  473.500    0.318    0.377   46.062  195.584    3.390
  473.750    0.312    0.383   49.163  195.401    3.618
  474.000    0.309    0.389   54.519  195.327    3.935
  474.250    0.304    0.400   60.995  195.971    4.057
  474.500    0.291    0.393   68.225  196.721    4.079
  474.750    0.253    0.345   75.768  197.366    4.101
  475.000    0.222    0.345   76.367  197.908    4.030
  475.250    0.239    0.348   69.642  195.959    3.906
  475.500    0.266    0.363   64.357  192.449    3.750
  475.750    0.284    0.386   68.711  192.369    3.664
  476.000    0.297    0.405   74.816  194.057    3.634
  476.250    0.294    0.394   80.164  194.908    3.605
  476.500    0.283    0.371   75.634  195.555    3.569
  476.750    0.291    0.363   71.848  195.892    3.541
  477.000    0.300    0.362   69.693  196.647    3.540
  477.250    0.303    0.366   70.415  196.769    3.600
  477.500    0.297    0.388   70.012  197.210    3.711
  477.750    0.292    0.394   71.176  197.441    4.084
  478.000    0.281    0.393   74.150  197.774    5.282
  478.250    0.276    0.400   77.123  198.113    7.099
  478.500    0.284    0.409   71.841  198.552    8.801
  478.750    0.265    0.401   68.432  198.885   10.380
  479.000    0.237    0.380   63.460  199.322   11.141
  479.250    0.265    0.365   59.616  199.764   10.614
  479.500    0.297    0.348   55.519  200.099    8.281
  479.750    0.313    0.351   58.807  200.641    7.139
  480.000    0.324    0.377   60.407  200.041    7.546
  480.250    0.351    0.425   58.938  193.311    8.006
  480.500    0.355    0.393   59.410  186.895    7.957
  480.750    0.324    0.338   60.572  187.335    7.669
  481.000    0.318    0.353   60.042  189.539    7.223
  481.250    0.321    0.373   60.076  192.992    6.635
  481.500    0.316    0.392   60.172  193.435    5.809
  481.750    0.311    0.407   60.896  194.285    5.305
  482.000    0.306    0.422   60.992  197.424    5.045
  482.250    0.298    0.411   58.836  198.694    4.957
  482.500    0.276    0.398   62.376  199.551    4.917
  482.750    0.188    0.400   72.921  200.195    4.887
  483.000    0.177    0.405   79.962  201.881    4.811
  483.250    0.176    0.411   85.128  204.190    4.727
  483.500    0.167    0.421   86.851  207.226    4.626
  483.750    0.173    0.424   88.265  211.093    4.598
  484.000    0.209    0.422   90.736  214.649    4.650
  484.250    0.239    0.426   95.213  218.205    4.803
  484.500    0.271    0.418   84.235  215.007    5.155
  484.750    0.292    0.406   74.197  204.331    5.750
  485.000    0.299    0.395   68.536  198.019    6.019
  485.250    0.310    0.438   63.438  194.822    6.157
  485.500    0.427    0.545   52.086  195.780    5.788
  485.750    0.596    0.592   51.181  199.544    5.420
  486.000    0.539    0.496   67.922  202.995    5.174
  486.250    0.391    0.390   78.972  199.176    5.025
  486.500    0.284    0.373   80.258  193.797    4.946
  486.750    0.253    0.357   77.228  190.915    4.917
  487.000    0.273    0.355   74.881  189.690    4.858
  487.250    0.288    0.371   73.850  189.090    4.783
  487.500    0.301    0.393   72.887  189.012    4.699
  487.750    0.315    0.406   72.043  189.033    4.590
  488.000    0.318    0.399   69.573  188.850    4.432
  488.250    0.318    0.381   67.794  188.771    4.414
  488.500    0.318    0.400   66.770  189.002    4.447
  488.750    0.317    0.416   66.421  189.131    4.497
  489.000    0.314    0.411   65.017  189.153    4.556
  489.250    0.318    0.392   63.612  189.175    4.643
  489.500    0.322    0.367   62.457  189.200    4.695
  489.750    0.319    0.375   61.990  189.223    4.766
  490.000    0.317    0.378   62.087  189.246    4.866
  490.250    0.316    0.366   64.311  188.958    5.386
  490.500    0.314    0.386   67.224  189.088    5.996
  490.750    0.310    0.419   63.503  189.316    5.724
  491.000    0.299    0.380   60.660  190.379    5.228
  491.250    0.258    0.314   58.820  192.375    4.720
  491.500    0.192    0.273   57.541  195.101    4.411
  491.750    0.157    0.289   59.826  197.518    4.179
  492.000    0.186    0.335   65.366  198.367    4.035
  492.250    0.226    0.354   68.028  199.120    3.987
  492.500    0.270    0.382   66.871  199.563    4.040
  492.750    0.295    0.401   66.784  199.583    4.117
  493.000    0.284    0.407   68.130  199.605    4.179
  493.250    0.270    0.405   72.109  199.524    4.194
  493.500    0.262    0.396   74.079  196.535    4.176
  493.750    0.263    0.397   69.295  192.196    4.167
  494.000    0.266    0.407   66.702  191.699    4.158
  494.250    0.265    0.412   67.928  192.868    4.229
  494.500    0.260    0.401   71.403  194.135    4.334
  494.750    0.250    0.390   74.817  195.925    4.400
  495.000    0.251    0.375   72.159  196.990    4.449
  495.250    0.254    0.364   67.311  197.426    4.482
  495.500    0.243    0.375   66.031  197.664    4.515
  495.750    0.231    0.390   69.381  197.785    4.566
  496.000    0.235    0.374   74.548  196.977    4.591
  496.250    0.236    0.374   76.088  195.031    4.633
  496.500    0.231    0.400   76.183  194.013    4.694
  496.750    0.225    0.396   76.089  193.207    4.729
  497.000    0.219    0.378   76.813  193.648    4.755
  497.250    0.211    0.365   77.094  195.125    4.717
  497.500    0.201    0.376   77.445  196.396    4.625
  497.750    0.198    0.391   79.666  197.663    4.553
  498.000    0.230    0.393   78.824  198.829    4.525
  498.250    0.239    0.404   78.359  199.477    4.498
  498.500    0.224    0.436   79.894  199.814    4.496
  498.750    0.209    0.459   82.686  200.457    4.503
  499.000    0.220    0.445   84.844  201.004    4.519
  499.250    0.213    0.428   86.698  201.543    4.517
  499.500    0.200    0.409   87.165  202.190    4.516
  499.750    0.210    0.418   86.450  202.837    4.480
  500.000    0.210    0.435   84.479  203.280    4.427
  500.250    0.200    0.443   83.139  203.611    4.383
  500.500    0.193    0.435   84.049  204.052    4.356
  500.750    0.195    0.424   86.834  204.907    4.321
  501.000    0.193    0.411   91.752  205.864    4.328
  501.250    0.187    0.401   87.971  206.823    4.385
  501.500    0.185    0.389   87.752  206.846    4.426
  501.750    0.207    0.394   90.851  205.313    4.442
  502.000    0.222    0.405   92.888  203.154    4.509
  502.250    0.235    0.406   85.227  200.999    4.447
  502.500    0.253    0.398   72.246  199.876    4.420
  502.750    0.270    0.393   65.900  198.030    4.461
