~VERSION INFORMATION
 VERS.                 2.0:   CWLS LOG ASCII STANDARD -VERSION 2.0
 WRAP.                  NO:   ONE LINE PER DEPTH STEP
~WELL INFORMATION BLOCK
#MNEM.UNIT           DATA                    DESCRIPTION OF MNEMONIC
#---------    -------------------            -------------------------------
# Generated from Intellog Unique Number	CW_70_72/WELL/1075
NULL.         -999.25                        : NULL_VALUE
WELL.         WESTM ET AL CALLW 16-23        : Well_name    - WELL              
LOC .         16-23-071-20W4                 : Location     - LOCATION          
UWI .         00/16-23-071-20W4/0            : Uwi          - UNIQUE WELL ID    
ENTR.         JAYE                           : Entered      - ENTERED BY        
SRVC.         SCHLUMBERGER                   : Scn          - SERVICE COMPANY   
DATE.         21 FEB 84                      : Date         - LOG DATE          
STRT.M        315                            : top_depth    - START DEPTH       
STOP.M        510                            : bot_depth    - STOP DEPTH        
STEP.M        0.25                           : increment    - STEP LENGTH       
~CURVE INFORMATION BLOCK
#MNEM UNIT       ERCB CURVE CODE    CURVE DESCRIPTION
#-----------   ------------------   ----------------------------------
DEPT.M        00 001 00 00         : DEPTH        - DEPTH                       
DPHI.V/V      00 890 00 00         : PHID         - DENSITY POROSITY (SANDSTONE)
NPHI.V/V      00 330 00 00         : PHIN         - NEUTRON POROSITY (SANDSTONE)
GR  .API      00 310 00 00         : GR           - GAMMA RAY                   
CALI.MM       00 280 01 00         : CAL          - CALIPER                     
ILD .OHMM     00 120 00 00         : RESD         - DEEP RESISTIVITY (DIL)      
~PARAMETER INFORMATION       
#MNEM.UNIT           DATA             DESCRIPTION OF MNEMONIC
#---------         -----------     ------------------------------
GL  .M        586.4                : gl           - GROUND LEVEL ELEVATION      
EREF.M        588.9                : kb           - ELEVATION OF DEPTH REFERENCE
DATM.M        586.4                : datum        - DATUM ELEVATION             
TDD .M        518                  : tdd          - TOTAL DEPTH DRILLER         
RUN .         ONE                  : Run          - RUN NUMBER                  
ENG .         DOWNIE               : Engineer     - RECORDING ENGINEER          
WIT .         JACKSON              : Witness      - WITNESSED BY                
BASE.         EDSON                : Branch       - HOME BASE OF LOGGING UNIT   
MUD .         GEL CHEN             : Mud_type     - MUD TYPE                    
MATR.         SANDSTONE            : Logunit      - NEUTRON MATRIX              
TMAX.C        26                   : BHT          - MAXIMUM RECORDED TEMPERATURE
BHTD.M        517.3                : BHTDEP       - MAXIMUM RECORDED TEMPERATURE
RMT .C        18.9                 : MDTP         - TEMPERATURE OF MUD          
MUDD.KG/M     1170                 : MWT          - MUD DENSITY                 
NEUT.         1                    : NEUTRON      - NEUTRON TYPE                
RESI.         0                    : RESIST       - RESISTIVITY TYPE            
RM  .OHMM     4.57                 : RM           - RESISTIVITY OF MUD          
RMC .OHMM     0                    : RMC          - RESISTIVITY OF MUD CAKE     
RMF .OHMM     4.13                 : RMF          - RESISTIVITY OF MUD FILTRATE 
SUFT.C        0                    : SUFT         - SURFACE TEMPERATURE         
~A  DEPTH     PHID     PHIN       GR      CAL     RESD
# ...
  424.500    0.222    0.433   93.302  164.001    4.411
  424.750    0.226    0.419   87.804  160.572    4.605
  425.000    0.221    0.440   86.373  159.856    4.752
  425.250    0.208    0.437   88.947  159.974    4.915
  425.500    0.198    0.406   86.578  160.198    5.024
  425.750    0.191    0.403   87.587  160.630    5.156
  426.000    0.186    0.416   90.976  161.063    5.271
  426.250    0.177    0.427   92.485  160.970    5.390
  426.500    0.168    0.442   89.741  160.881    5.575
  426.750    0.136    0.450   81.112  160.687    5.709
  427.000    0.108    0.381   64.036  160.702    5.880
  427.250    0.062    0.254   49.901  161.031    6.150
  427.500    0.111    0.316   73.002  161.042    6.480
  427.750    0.160    0.348   87.467  161.262    6.840
  428.000    0.178    0.380   90.667  161.379    6.838
  428.250    0.189    0.395   91.051  161.186    6.483
  428.500    0.203    0.396   93.188  161.201    5.988
  428.750    0.217    0.404   93.072  161.109    5.530
  429.000    0.220    0.401   93.580  161.123    5.186
  429.250    0.215    0.390   92.900  161.555    4.936
  429.500    0.212    0.419   86.086  161.881    4.760
  429.750    0.208    0.421   85.469  162.210    4.661
  430.000    0.203    0.417   86.291  162.329    4.589
  430.250    0.207    0.413   84.359  162.446    4.528
  430.500    0.223    0.405   83.742  162.357    4.508
  430.750    0.225    0.412   85.190  162.368    4.439
  431.000    0.221    0.433   87.201  162.383    4.371
  431.250    0.212    0.436   83.579  161.983    4.304
  431.500    0.204    0.432   77.893  161.577    4.262
  431.750    0.205    0.421   76.212  161.071    4.219
  432.000    0.221    0.417   77.722  160.979    4.186
  432.250    0.246    0.426   81.610  160.577    4.145
  432.500    0.262    0.442   78.553  160.175    4.097
  432.750    0.270    0.436   74.305  159.979    4.049
  433.000    0.249    0.501   68.306  159.784    3.839
  433.250    0.117    0.305   63.245  160.945    3.539
  433.500    0.103    0.247   58.561  162.732    3.702
  433.750    0.105    0.228   54.689  163.267    4.012
  434.000    0.106    0.212   51.756  163.594    4.924
  434.250    0.082    0.191   49.825  163.816    6.064
  434.500    0.009    0.172   49.145  164.040    7.743
  434.750   -0.003    0.160   48.403  163.636    9.556
  435.000    0.013    0.150   46.720  163.443   12.958
  435.250    0.031    0.156   45.603  163.039   17.082
  435.500    0.055    0.240   47.488  162.427   18.864
  435.750    0.095    0.295   51.877  162.024   17.721
  436.000    0.181    0.336   58.519  161.310   15.266
  436.250    0.257    0.376   62.095  160.594   11.335
  436.500    0.295    0.406   62.479  160.188    8.853
  436.750    0.286    0.425   63.238  159.368    6.850
  437.000    0.286    0.419   65.061  159.070    5.321
  437.250    0.296    0.418   65.883  158.877    4.689
  437.500    0.304    0.417   62.450  158.681    4.388
  437.750    0.304    0.419   59.204  158.593    4.248
  438.000    0.306    0.423   58.086  158.500    4.175
  438.250    0.314    0.438   60.034  158.620    4.126
  438.500    0.316    0.427   60.856  158.840    4.078
  438.750    0.307    0.428   60.426  158.854    4.030
  439.000    0.293    0.426   59.559  158.868    4.022
  439.250    0.276    0.415   57.753  158.986    4.012
  439.500    0.273    0.395   58.450  159.001    4.026
  439.750    0.287    0.407   58.520  158.807    4.054
  440.000    0.305    0.419   56.901  158.611    4.107
  440.250    0.278    0.437   58.224  158.312    4.127
  440.500    0.239    0.413   59.922  157.909    4.228
  440.750    0.212    0.368   59.431  157.610    4.481
  441.000    0.224    0.357   59.063  157.625    4.756
  441.250    0.251    0.416   60.261  157.849    5.106
  441.500    0.275    0.442   64.524  158.070    5.598
  441.750    0.308    0.438   67.662  158.503    5.648
  442.000    0.274    0.429   62.852  158.831    5.306
  442.250    0.250    0.419   59.668  158.946    4.947
  442.500    0.244    0.383   57.675  158.962    4.735
  442.750    0.285    0.399   56.493  159.080    4.584
  443.000    0.292    0.404   54.374  159.199    4.447
  443.250    0.293    0.413   54.133  159.421    4.394
  443.500    0.302    0.418   55.893  159.852    4.326
  443.750    0.299    0.405   53.774  159.865    4.237
  444.000    0.283    0.405   53.969  160.087    4.171
  444.250    0.259    0.411   55.293  160.313    4.130
  444.500    0.229    0.368   54.925  160.534    4.191
  444.750    0.170    0.332   53.621  160.756    4.358
  445.000    0.185    0.318   52.628  160.873    4.549
  445.250    0.247    0.344   52.385  160.890    4.784
  445.500    0.278    0.379   53.144  160.798    5.265
  445.750    0.296    0.424   54.967  160.503    5.577
  446.000    0.303    0.415   55.977  160.517    5.492
  446.250    0.306    0.402   57.113  160.532    4.875
  446.500    0.310    0.402   59.811  160.540    4.297
  446.750    0.303    0.430   60.946  160.662    3.998
  447.000    0.301    0.422   59.578  160.573    3.784
  447.250    0.311    0.413   57.333  160.275    3.712
  447.500    0.316    0.417   54.652  160.075    3.683
  447.750    0.305    0.433   53.158  160.092    3.695
  448.000    0.300    0.445   50.851  160.311    3.742
  448.250    0.308    0.447   51.422  160.327    3.818
  448.500    0.317    0.442   55.623  160.653    3.890
  448.750    0.306    0.436   63.893  160.667    3.918
  449.000    0.278    0.426   73.914  162.870    3.880
  449.250    0.237    0.432   85.437  167.267    3.791
  449.500    0.230    0.457   96.272  170.408    3.698
  449.750    0.237    0.481   97.281  171.989    3.634
  450.000    0.233    0.470   96.789  172.315    3.646
  450.250    0.226    0.449   97.173  172.641    3.743
  450.500    0.218    0.454   97.682  173.282    3.811
  450.750    0.211    0.473   97.880  173.400    3.860
  451.000    0.205    0.485   97.949  173.311    3.873
  451.250    0.201    0.475   98.709  173.219    3.858
  451.500    0.203    0.467  100.657  173.131    3.805
  451.750    0.203    0.491  103.920  172.829    3.825
  452.000    0.195    0.499  104.304  172.845    3.933
  452.250    0.181    0.469   96.052  172.754    4.059
  452.500    0.138    0.411   87.737  172.039    4.254
  452.750    0.117    0.414   93.064  171.219    4.430
  453.000    0.149    0.419   99.331  170.813    4.967
  453.250    0.170    0.416  104.659  170.621    5.364
  453.500    0.173    0.412  103.791  170.634    5.589
  453.750    0.181    0.415   99.669  170.335    5.640
  454.000    0.172    0.425   98.676  170.351    5.678
  454.250    0.119    0.438   96.369  170.156    5.709
  454.500    0.093    0.398   97.379  170.168    5.804
  454.750    0.113    0.391   95.510  170.286    5.933
  455.000    0.146    0.411   94.141  170.195    6.124
  455.250    0.138    0.400   96.465  170.317    6.332
  455.500    0.133    0.389   97.538  170.433    6.549
  455.750    0.152    0.404   97.108  170.551    6.657
  456.000    0.172    0.411   96.992  170.775    6.731
  456.250    0.169    0.398  100.441  170.997    6.765
  456.500    0.161    0.383  106.207  171.220    6.774
  456.750    0.170    0.401  112.161  171.549    6.773
  457.000    0.179    0.429  108.602  171.559    6.782
  457.250    0.177    0.430  101.038  169.489    6.779
  457.500    0.175    0.416   89.470  165.958    6.840
  457.750    0.189    0.391   81.155  163.987    6.914
  458.000    0.169    0.346   71.088  162.332    7.042
  458.250    0.119    0.310   61.896  162.036    7.420
  458.500    0.020    0.275   61.780  162.256    9.332
  458.750    0.053    0.246   67.233  162.793   12.255
  459.000    0.076    0.257   72.498  163.436   15.855
  459.250    0.093    0.295   67.689  163.656   18.527
  459.500    0.117    0.309   71.451  163.879   20.389
  459.750    0.120    0.333   78.156  163.995   18.936
  460.000    0.110    0.378   85.424  164.117   16.127
  460.250    0.124    0.387   89.625  163.924   13.179
  460.500    0.152    0.375   92.637  163.937   10.751
  460.750    0.163    0.377   94.022  163.846    9.037
