~VERSION INFORMATION
 VERS.                 2.0:   CWLS LOG ASCII STANDARD -VERSION 2.0
 WRAP.                  NO:   ONE LINE PER DEPTH STEP
~WELL INFORMATION BLOCK
#MNEM.UNIT           DATA                    DESCRIPTION OF MNEMONIC
#---------    -------------------            -------------------------------
# Generated from Intellog Unique Number	CS_73_76/WELL/4866
WELL.         ESSO KIRBY 15-23-75-4          : Well_name    - WELL
LOC .         00/15-23-075-04W4/0            : Location     - LOCATION
UWI .         00/15-23-075-04W4/0            : Uwi          - UNIQUE WELL ID
ENTR.         ANDERSEN                       : Entered      - ENTERED BY
SRVC.         COMPUTALOG                     : Scn          - SERVICE COMPANY
STRT.M        200                            : top_depth    - START DEPTH
STOP.M        435                            : bot_depth    - STOP DEPTH
STEP.M        0.25                           : increment    - STEP LENGTH
 NULL. -999.2500:NULL Value
~CURVE INFORMATION BLOCK
#MNEM UNIT       ERCB CURVE CODE    CURVE DESCRIPTION
#-----------   ------------------   ----------------------------------
DEPT.M        00 001 00 00         : DEPTH        - DEPTH
ILD .OHMM     00 120 00 00         : RESD         - DEEP RESISTIVITY (DIL)
DPHI.V/V      00 890 00 00         : PHID         - DENSITY POROSITY (SANDSTONE)
NPHI.V/V      00 330 00 00         : PHIN         - NEUTRON POROSITY (SANDSTONE)
CALI.MM       00 280 01 00         : CAL          - CALIPER
GR  .API      00 310 00 00         : GR           - GAMMA RAY
~PARAMETER INFORMATION
#MNEM.UNIT           DATA             DESCRIPTION OF MNEMONIC
#---------         -----------     ------------------------------
GL  .M        596.42               : gl           - GROUND LEVEL ELEVATION
EREF.M        606.22               : kb           - ELEVATION OF DEPTH REFERENCE
DATM.M        606.22               : datum        - DATUM ELEVATION
TDD .M        446                  : tdd          - TOTAL DEPTH DRILLER
RUN .         ONE                  : Run          - RUN NUMBER
ENG .         BILL                 : Engineer     - RECORDING ENGINEER
WIT .         JIM                  : Witness      - WITNESSED BY
MUD .         GEL                  : Mud_type     - MUD TYPE
MATR.         SANDSTONE            : Logunit      - NEUTRON MATRIX
TMAX.C        32                   : BHT          - MAXIMUM RECORDED TEMPERATURE
BHTD.M        456                  : BHTDEP       - MAXIMUM RECORDED TEMPERATURE
MATR.         1                    : LOGUNIT      - NEUTRON MATRIX
RMT .C        10                   : MDTP         - TEMPERATURE OF MUD
NEUT.         1                    : NEUTRON      - NEUTRON TYPE
RESI.         0                    : RESIST       - RESISTIVITY TYPE
RMC .OHMM     6.2                  : RMC          - RESISTIVITY OF MUD CAKE
RMF .OHMM     6                    : RMF          - RESISTIVITY OF MUD FILTRATE
SUFT.C        15                   : SUFT         - SURFACE TEMPERATURE
~A  DEPTH     RESD     PHID     PHIN      CAL       GR
# ...
  382.500    7.413    0.204    0.448  197.743   89.042
  382.750    7.274    0.208    0.448  197.749   89.046
  383.000    7.135    0.204    0.442  197.758   89.991
  383.250    7.126    0.206    0.434  198.748   91.877
  383.500    6.990    0.202    0.428  198.755   94.234
  383.750    6.856    0.195    0.438  199.745   92.355
  384.000    6.849    0.190    0.439  199.752   91.889
  384.250    6.720    0.193    0.439  200.744   94.247
  384.500    6.591    0.196    0.444  200.749   96.604
  384.750    6.583    0.198    0.445  201.737   98.960
  385.000    6.576    0.200    0.442  201.748  100.848
  385.250    6.571    0.197    0.439  201.758   98.969
  385.500    6.564    0.197    0.436  201.764   95.208
  385.750    6.557    0.196    0.433  201.774   90.976
  386.000    6.432    0.193    0.436  201.779   97.100
  386.250    6.309    0.181    0.443  202.769   97.103
  386.500    6.303    0.175    0.449  202.780   97.578
  386.750    6.067    0.183    0.452  202.786   98.994
  387.000    5.952    0.187    0.452  202.798  100.409
  387.250    5.838    0.188    0.453  202.802  100.884
  387.500    5.727    0.189    0.455  202.811   99.475
  387.750    5.719    0.195    0.459  202.819   98.067
  388.000    5.717    0.200    0.466  201.849   96.659
  388.250    5.606    0.204    0.455  200.876   97.606
  388.500    5.499    0.202    0.447  200.882   99.491
  388.750    5.494    0.198    0.455  199.914  102.319
  389.000    5.386    0.202    0.467  198.938   99.499
  389.250    5.381    0.203    0.465  198.950   96.679
  389.500    5.575    0.201    0.450  198.954   91.506
  389.750    5.884    0.197    0.424  198.962   88.216
  390.000    6.211    0.190    0.402  198.975   89.632
  390.250    6.677    0.183    0.398  198.979   90.577
  390.500    7.046    0.181    0.403  198.987   91.523
  390.750    7.435    0.182    0.405  198.995   89.644
  391.000    7.702    0.185    0.403  199.004   88.236
  391.250    7.838    0.189    0.395  199.012   86.356
  391.500    8.268    0.192    0.390  199.020   86.831
  391.750    8.569    0.186    0.383  199.030   87.776
  392.000    9.209    0.160    0.370  199.037   79.779
  392.250    9.898    0.140    0.360  199.045   62.369
  392.500   10.640    0.128    0.353  198.075   52.960
  392.750   11.862    0.125    0.346  197.102   46.845
  393.000   12.980    0.124    0.346  197.111   49.673
  393.250   12.275    0.186    0.356  196.138   73.211
  393.500   11.401    0.202    0.385  197.127   83.099
  393.750    8.045    0.210    0.405  198.116   89.692
  394.000    7.606    0.210    0.414  199.102   88.285
  394.250    7.598    0.209    0.422  200.095   89.229
  394.500    7.590    0.206    0.430  200.104   93.939
  394.750    7.580    0.205    0.434  199.131   88.295
  395.000    7.716    0.205    0.436  198.159   84.534
  395.250    7.706    0.202    0.432  198.167   90.657
  395.500    7.700    0.198    0.428  198.173   96.308
  395.750    7.412    0.198    0.421  198.184   99.137
  396.000    7.274    0.196    0.424  198.192  100.552
  396.250    7.006    0.193    0.431  198.200  101.027
  396.500    6.872    0.192    0.441  198.210  101.972
  396.750    6.741    0.191    0.442  198.215  102.448
  397.000    6.612    0.190    0.439  199.205  102.922
  397.250    6.605    0.189    0.432  200.192  102.927
  397.500    6.595    0.186    0.429  201.181  102.929
  397.750    6.591    0.184    0.424  202.172  102.933
  398.000    6.583    0.183    0.424  202.180  101.996
  398.250    6.576    0.181    0.429  202.188  100.588
  398.500    6.690    0.192    0.436  202.196   99.180
  398.750    6.809    0.198    0.439  201.224   97.772
  399.000    6.800    0.204    0.432  201.230   97.305
  399.250    6.918    0.205    0.437  200.262   96.840
  399.500    6.913    0.206    0.437  200.266   97.314
  399.750    6.904    0.207    0.438  200.274   98.259
  400.000    6.897    0.209    0.443  200.283   99.204
  400.250    6.890    0.209    0.450  200.293   99.208
  400.500    6.883    0.205    0.446  200.301   97.800
  400.750    7.002    0.200    0.437  200.309   91.215
  401.000    7.124    0.201    0.426  200.316   85.101
  401.250    7.382    0.208    0.406  199.343   75.692
  401.500    7.508    0.214    0.392  200.336   79.462
  401.750    7.503    0.208    0.423  200.342   85.112
  402.000    7.631    0.204    0.442  202.316   92.647
  402.250    7.766    0.200    0.445  202.320   97.358
  402.500    7.899    0.199    0.433  203.311   96.420
  402.750    7.893    0.197    0.419  203.317   90.305
  403.000    7.885    0.195    0.391  203.327   82.308
  403.250    7.877    0.193    0.374  203.335   86.078
  403.500    7.865    0.189    0.401  203.344   90.788
  403.750    7.858    0.186    0.425  203.350   95.499
  404.000    7.852    0.181    0.436  203.358   95.504
  404.250    7.844    0.176    0.425  203.368   92.683
  404.500    7.690    0.180    0.418  202.394   89.862
  404.750    7.684    0.187    0.429  201.424   88.925
  405.000    7.676    0.189    0.442  201.432   91.282
  405.250    7.810    0.192    0.451  201.442   88.462
  405.500    8.093    0.207    0.446  201.449   76.229
  405.750    8.700    0.225    0.434  201.457   56.936
  406.000    9.698    0.246    0.421  201.467   50.822
  406.250   11.214    0.271    0.404  201.473   48.944
  406.500   14.208    0.302    0.382  200.499   47.535
  406.750   16.429    0.284    0.389  200.507   50.363
  407.000   18.657    0.275    0.393  199.539   55.074
  407.250   17.969    0.269    0.401  199.543   55.548
  407.500   15.500    0.252    0.395  198.571   56.964
  407.750   13.879    0.221    0.378  198.581   66.853
  408.000   13.125    0.201    0.367  198.587   73.446
  408.250   12.641    0.215    0.367  197.619   72.038
  408.500   12.174    0.227    0.368  197.623   68.277
  408.750   11.941    0.239    0.375  197.638   65.457
  409.000   11.929    0.247    0.383  196.661   62.638
  409.250   11.917    0.254    0.382  196.671   63.111
  409.500   11.905    0.250    0.380  196.680   64.528
  409.750   12.112    0.238    0.385  196.688   63.590
  410.000   12.319    0.242    0.389  196.694   60.770
  410.250   13.000    0.251    0.399  196.702   57.950
  410.500   13.471    0.259    0.401  197.695   57.013
  410.750   14.215    0.250    0.400  197.699   60.311
  411.000   15.005    0.239    0.406  197.708   62.198
  411.250   16.727    0.259    0.419  198.696   49.023
  411.500   19.342    0.304    0.427  198.707   39.614
  411.750   22.359    0.318    0.421  198.713   44.325
  412.000   23.168    0.310    0.409  199.706   49.976
  412.250   22.731    0.291    0.401  199.712   56.569
  412.500   21.892    0.267    0.408  199.722   63.164
  412.750   19.238    0.241    0.413  199.726   62.226
  413.000   18.197    0.234    0.414  200.717   59.405
  413.250   17.208    0.251    0.415  200.723   52.349
  413.500   16.273    0.277    0.413  200.732   53.765
  413.750   15.110    0.266    0.402  200.742   59.417
  414.000   14.030    0.247    0.386  200.748   64.128
  414.250   13.027    0.232    0.376  201.739   68.368
  414.500   12.775    0.226    0.384  201.745   68.843
  414.750   12.997    0.207    0.377  201.753   71.672
  415.000   13.716    0.209    0.390  201.764   70.734
  415.250   14.478    0.221    0.399  201.770   67.443
  415.500   16.135    0.234    0.391  201.782   63.682
  415.750   17.346    0.251    0.395  201.790   59.921
  416.000   18.643    0.264    0.402  201.799   56.631
  416.250   20.036    0.265    0.407  201.807   54.751
  416.500   21.534    0.281    0.406  201.815   51.932
  416.750   22.725    0.300    0.401  201.821   50.995
  417.000   24.424    0.311    0.414  201.831   50.057
  417.250   26.250    0.325    0.430  201.840   48.178
  417.500   27.701    0.348    0.435  201.846   43.475
  417.750   29.764    0.368    0.435  201.854   38.773
  418.000   31.410    0.372    0.430  201.864   36.894
  418.250   32.554    0.370    0.421  201.873   39.722
  418.500   35.624    0.346    0.400  201.881   43.020
  418.750   36.913    0.311    0.400  202.870   34.553
