~VERSION INFORMATION
 VERS.                 2.0:   CWLS LOG ASCII STANDARD -VERSION 2.0
 WRAP.                  NO:   ONE LINE PER DEPTH STEP
~WELL INFORMATION BLOCK
#MNEM.UNIT           DATA                    DESCRIPTION OF MNEMONIC
#---------    -------------------            -------------------------------
# Generated from Intellog Unique Number	CW_73_75/WELL/2744
WELL.         ALLIED ET AL CALLING 11-08     : Well_name    - WELL
LOC .         00/11-08-073-20W4/0            : Location     - LOCATION
UWI .         00/11-08-073-20W4/0            : Uwi          - UNIQUE WELL ID
ENTR.         JAYE                           : Entered      - ENTERED BY
SRVC.         SCHLUMBERGER                   : Scn          - SERVICE COMPANY
DATE.         20 JAN 77                      : Date         - LOG DATE
STRT.M        396.24                         : top_depth    - START DEPTH
STOP.M        624.74                         : bot_depth    - STOP DEPTH
STEP.M        0.25                           : increment    - STEP LENGTH
 NULL. -999.2500:NULL Value
~CURVE INFORMATION BLOCK
#MNEM UNIT       ERCB CURVE CODE    CURVE DESCRIPTION
#-----------   ------------------   ----------------------------------
DEPT.M        00 001 00 00         : DEPTH        - DEPTH
ILD .OHMM     00 120 00 00         : RESD         - DEEP RESISTIVITY (DIL)
NPHI.V/V      00 330 00 00         : PHIN         - NEUTRON POROSITY (SANDSTONE)
DPHI.V/V      00 890 00 00         : PHID         - DENSITY POROSITY (SANDSTONE)
GR  .API      00 310 00 00         : GR           - GAMMA RAY
CALI.MM       00 280 01 00         : CAL          - CALIPER
~PARAMETER INFORMATION
#MNEM.UNIT           DATA             DESCRIPTION OF MNEMONIC
#---------         -----------     ------------------------------
GL  .M        687.019              : gl           - GROUND LEVEL ELEVATION
EREF.M        690.22               : kb           - ELEVATION OF DEPTH REFERENCE
DATM.M        687.019              : datum        - DATUM ELEVATION
TDD .M        631.241              : tdd          - TOTAL DEPTH DRILLER
RUN .         ONE                  : Run          - RUN NUMBER
BASE.         EDM                  : Branch       - HOME BASE OF LOGGING UNIT
MATR.         SANDSTONE            : Logunit      - NEUTRON MATRIX
TMAX.C        21.1111              : BHT          - MAXIMUM RECORDED TEMPERATURE
BHTD.M        628.802              : BHTDEP       - MAXIMUM RECORDED TEMPERATURE
RMT .C        21.1111              : MDTP         - TEMPERATURE OF MUD
MUDD.KG/M     1176                 : MWT          - MUD DENSITY
NEUT.         1                    : NEUTRON      - NEUTRON TYPE
RESI.         0                    : RESIST       - RESISTIVITY TYPE
RM  .OHMM     2.8                  : RM           - RESISTIVITY OF MUD
RMC .OHMM     3.83                 : RMC          - RESISTIVITY OF MUD CAKE
RMF .OHMM     2.77                 : RMF          - RESISTIVITY OF MUD FILTRATE
SUFT.C        -17.7778             : SUFT         - SURFACE TEMPERATURE
~A  DEPTH     RESD     PHIN     PHID       GR      CAL
# ...
  469.240    5.797    0.407    0.331   48.334  164.358
  469.490    5.833    0.405    0.310   48.180  164.603
  469.740    5.868    0.401    0.303   50.406  164.760
  469.990    5.868    0.398    0.326   52.812  165.016
  470.240    5.898    0.413    0.320   55.163  165.069
  470.490    5.934    0.429    0.333   55.130  165.125
  470.740    5.969    0.429    0.347   53.878  164.857
  470.990    6.044    0.418    0.330   54.582  164.706
  471.240    6.079    0.402    0.320   55.950  164.656
  471.490    6.114    0.416    0.326   54.517  164.500
  471.740    6.149    0.407    0.337   55.830  164.440
  471.990    6.185    0.424    0.324   60.674  164.388
  472.240    6.181    0.411    0.308   62.475  164.232
  472.490    6.176    0.392    0.314   62.563  164.296
  472.740    6.176    0.396    0.324   59.667  164.236
  472.990    6.207    0.410    0.314   59.209  164.292
  473.240    6.244    0.424    0.303   61.314  164.442
  473.490    6.244    0.409    0.297   63.903  164.388
  473.740    6.274    0.407    0.288   66.311  164.332
  473.990    6.388    0.405    0.301   66.341  164.295
  474.240    6.462    0.397    0.318   66.920  164.329
  474.490    6.458    0.390    0.311   63.962  164.174
  474.740    6.454    0.404    0.317   63.933  164.131
  474.990    6.454    0.414    0.314   62.071  164.179
  475.240    6.446    0.414    0.325   62.469  164.224
  475.490    6.446    0.413    0.318   63.839  163.970
  475.740    6.475    0.402    0.317   63.077  163.818
  475.990    6.473    0.402    0.317   60.486  163.764
  476.240    6.473    0.411    0.307   60.332  163.505
  476.490    6.464    0.400    0.302   61.519  163.245
  476.740    6.421    0.414    0.284   64.050  162.887
  476.990    6.339    0.412    0.283   65.666  162.826
  477.240    6.295    0.400    0.293   66.185  162.781
  477.490    6.252    0.407    0.304   68.164  162.932
  477.740    6.209    0.417    0.325   67.705  163.085
  477.990    6.126    0.416    0.315   63.284  163.138
  478.240    6.082    0.420    0.295   63.072  163.090
  478.490    6.078    0.407    0.307   65.357  163.127
  478.740    6.075    0.407    0.311   68.317  163.183
  478.990    6.070    0.424    0.304   69.566  163.138
  479.240    6.066    0.421    0.299   71.607  163.077
  479.490    6.062    0.395    0.280   75.293  163.035
  479.740    5.980    0.423    0.303   74.288  163.297
  479.990    5.466    0.461    0.282   78.707  163.553
  480.240    4.715    0.435    0.297   82.212  164.018
  480.490    4.397    0.412    0.312   82.365  164.473
  480.740    4.628    0.399    0.322   79.895  164.623
  480.990    5.135    0.415    0.310   81.085  164.673
  481.240    6.073    0.434    0.296   85.197  164.511
  481.490    6.697    0.412    0.276   94.009  164.256
  481.740    6.811    0.435    0.243  103.610  164.618
  481.990    6.846    0.468    0.214   99.559  165.189
  482.240    6.842    0.479    0.228   95.990  165.447
  482.490    6.799    0.447    0.238   94.555  165.401
  482.740    6.717    0.424    0.252   96.657  165.549
  482.990    6.633    0.414    0.210   99.615  165.387
  483.240    6.590    0.402    0.203  102.450  165.438
  483.490    6.547    0.383    0.208  103.821  165.077
  483.740    6.504    0.408    0.220  104.094  165.024
  483.990    6.500    0.443    0.204  104.982  164.865
  484.240    6.455    0.451    0.197  104.162  164.813
  484.490    6.452    0.453    0.191  103.578  165.076
  484.740    6.487    0.441    0.185  102.143  165.120
  484.990    6.482    0.421    0.197  100.466  165.691
  485.240    6.518    0.412    0.209   98.973  166.356
  485.490    6.515    0.427    0.214   98.511  169.815
  485.740    6.471    0.438    0.212  102.139  170.588
  485.990    6.427    0.448    0.201  103.940  167.440
  486.240    6.345    0.463    0.197   99.521  165.631
  486.490    6.223    0.480    0.223   96.379  165.372
  486.740    6.061    0.483    0.204   93.971  166.042
  486.990    5.940    0.470    0.214   91.253  167.952
  487.240    5.621    0.452    0.254   92.812  170.274
  487.490    5.343    0.428    0.232   95.094  167.641
  487.740    4.946    0.406    0.212   99.455  165.731
  487.990    4.510    0.422    0.194  101.436  163.716
  488.240    4.153    0.421    0.207  100.306  164.490
  488.490    3.951    0.401    0.193  101.188  167.017
  488.740    3.986    0.382    0.181  103.722  169.962
  488.990    4.061    0.445    0.186  107.104  171.872
  489.240    4.136    0.552    0.202  111.767  173.265
  489.490    4.407    0.571    0.217  114.298  173.726
  489.740    4.639    0.524    0.235  109.389  173.059
  489.990    4.909    0.467    0.234  103.017  171.969
  490.240    5.063    0.459    0.225   97.315  170.683
  490.490    5.175    0.478    0.218   96.429  169.591
  490.740    5.211    0.481    0.232   95.667  168.408
  490.990    5.207    0.462    0.242   89.966  167.837
  491.240    5.203    0.441    0.221   86.827  167.268
  491.490    5.237    0.437    0.232   83.566  166.804
  491.740    5.234    0.439    0.254   79.143  166.343
  491.990    5.308    0.446    0.289   74.721  165.979
  492.240    5.422    0.448    0.306   71.152  165.618
  492.490    5.536    0.427    0.304   67.892  165.456
  492.740    5.454    0.397    0.292   64.384  165.199
  492.990    5.332    0.423    0.260   62.953  164.842
  493.240    5.091    0.431    0.236   69.871  164.578
  493.490    4.930    0.404    0.283   82.097  164.626
  493.740    4.848    0.399    0.281   92.858  164.790
  493.990    4.804    0.422    0.229  100.202  164.939
  494.240    4.879    0.440    0.197  104.440  164.987
  494.490    4.953    0.457    0.167  100.995  165.037
  494.740    4.989    0.488    0.180   97.794  165.093
  494.990    5.024    0.458    0.201  100.628  165.145
  495.240    5.059    0.451    0.224   97.796  165.509
  495.490    5.055    0.428    0.242   95.323  165.660
  495.740    5.090    0.418    0.246   93.706  165.911
  495.990    5.126    0.420    0.208   94.533  166.173
  496.240    5.278    0.417    0.217   95.595  166.321
  496.490    5.393    0.409    0.199   97.760  166.479
  496.740    5.506    0.411    0.221   97.180  166.630
  496.990    5.737    0.424    0.231   88.798  166.996
  497.240    5.851    0.485    0.261   84.192  167.153
  497.490    5.886    0.471    0.287   80.503  167.103
  497.740    5.685    0.433    0.274   77.242  166.837
  497.990    5.524    0.404    0.234   76.721  166.785
  498.240    5.363    0.346    0.201   75.353  166.630
  498.490    5.281    0.328    0.189   75.196  166.682
  498.740    5.237    0.381    0.214   76.385  166.632
  498.990    5.311    0.428    0.269   78.247  166.675
  499.240    5.544    0.451    0.298   78.700  166.726
  499.490    5.893    0.446    0.301   77.149  167.087
  499.740    6.871    0.448    0.283   75.591  167.141
  499.990    9.262    0.467    0.289   73.427  167.290
  500.240   10.672    0.460    0.278   72.359  167.251
  500.490   12.003    0.425    0.284   67.571  166.985
  500.740   13.099    0.363    0.264   61.443  166.621
  500.990   12.388    0.228    0.173   56.534  166.570
  501.240   10.106    0.165    0.063   51.441  166.314
  501.490    7.392    0.149    0.017   52.389  165.953
  501.740    6.013    0.169    0.015   57.295  165.797
  501.990    5.420    0.306    0.032   64.946  165.739
  502.240    5.141    0.343    0.075   71.317  165.687
  502.490    4.822    0.370    0.137   76.225  165.533
  502.740    4.623    0.404    0.204   80.400  165.283
  502.990    4.501    0.428    0.251   78.540  165.218
  503.240    4.379    0.396    0.310   68.878  164.973
  503.490    4.335    0.396    0.297   67.385  164.907
  503.740    4.335    0.407    0.286   69.730  164.647
  503.990    4.287    0.399    0.299   71.833  164.493
  504.240    4.245    0.384    0.308   70.947  164.750
  504.490    4.245    0.399    0.319   69.150  165.521
  504.740    4.157    0.370    0.311   68.385  166.707
  504.990    3.996    0.303    0.311   69.576  168.000
  505.240    3.952    0.267    0.312   70.946  168.977
  505.490    3.949    0.411    0.296   71.525  169.749
