~VERSION INFORMATION
 VERS.                 2.0:   CWLS LOG ASCII STANDARD -VERSION 2.0
 WRAP.                  NO:   ONE LINE PER DEPTH STEP
~WELL INFORMATION BLOCK
#MNEM.UNIT           DATA                    DESCRIPTION OF MNEMONIC
#---------    -------------------            -------------------------------
# Generated from Intellog Unique Number	CS_77_79/WELL/981
WELL.         CANON SIEBANS COWPAR           : Well_name    - WELL
LOC .         00/10-33-079-04W4/0            : Location     - LOCATION
UWI .         00/10-33-079-04W4/0            : Uwi          - UNIQUE WELL ID
ENTR.         JHS                            : Entered      - ENTERED BY
SRVC.         SCHLUMBERGER                   : Scn          - SERVICE COMPANY
STRT.M        103.632                        : top_depth    - START DEPTH
STOP.M        319.882                        : bot_depth    - STOP DEPTH
STEP.M        0.25                           : increment    - STEP LENGTH
 NULL. -999.2500:NULL Value
~CURVE INFORMATION BLOCK
#MNEM UNIT       ERCB CURVE CODE    CURVE DESCRIPTION
#-----------   ------------------   ----------------------------------
DEPT.M        00 001 00 00         : DEPTH        - DEPTH
RHOB.KG/M3    00 350 00 00         : DENS         - BULK DENSITY
GR  .API      00 310 00 00         : GR           - GAMMA RAY
DPHI.V/V      00 890 00 00         : PHID         - DENSITY POROSITY (SANDSTONE)
NPHI.V/V      00 330 00 00         : PHIN         - NEUTRON POROSITY (SANDSTONE)
ILD .OHMM     00 120 00 00         : RESD         - DEEP RESISTIVITY (DIL)
~PARAMETER INFORMATION
#MNEM.UNIT           DATA             DESCRIPTION OF MNEMONIC
#---------         -----------     ------------------------------
GL  .M        470.916              : gl           - GROUND LEVEL ELEVATION
EREF.M        474.269              : kb           - ELEVATION OF DEPTH REFERENCE
DATM.M        474.269              : datum        - DATUM ELEVATION
TDD .M        329.184              : tdd          - TOTAL DEPTH DRILLER
RUN .         ONE                  : Run          - RUN NUMBER
ENG .         BILL                 : Engineer     - RECORDING ENGINEER
WIT .         JIM                  : Witness      - WITNESSED BY
MUD .         GEL                  : Mud_type     - MUD TYPE
MATR.         SANDSTONE            : Logunit      - NEUTRON MATRIX
TMAX.C        60                   : BHT          - MAXIMUM RECORDED TEMPERATURE
BHTD.M        329.184              : BHTDEP       - MAXIMUM RECORDED TEMPERATURE
MATR.         1                    : LOGUNIT      - NEUTRON MATRIX
RMT .C        25                   : MDTP         - TEMPERATURE OF MUD
NEUT.         1                    : NEUTRON      - NEUTRON TYPE
RESI.         0                    : RESIST       - RESISTIVITY TYPE
RMC .OHMM     0.25                 : RMC          - RESISTIVITY OF MUD CAKE
RMF .OHMM     0.25                 : RMF          - RESISTIVITY OF MUD FILTRATE
SUFT.C        15                   : SUFT         - SURFACE TEMPERATURE
~A  DEPTH     DENS       GR     PHID     PHIN     RESD
# ...
  213.132 2466.160   77.944    0.143    0.452    6.404
  213.382 2367.070   69.790    0.201    0.414    6.759
  213.632 2316.010   67.356    0.227    0.380    7.255
  213.882 2191.340   68.379    0.264    0.344    6.560
  214.132 2142.450   70.690    0.272    0.332    5.655
  214.382 1463.880   70.960    0.273    0.390    4.876
  214.632 2178.790   73.791    0.263    0.422    4.210
  214.882 2227.720   78.437    0.283    0.455    3.735
  215.132 2258.520   78.879    0.265    0.490    3.328
  215.382 2209.920   77.491    0.293    0.504    3.158
  215.632 2238.060   81.368    0.276    0.513    3.305
  215.882 2248.300   84.693    0.270    0.519    4.259
  216.132 2271.400   86.056    0.256    0.419    5.762
  216.382 2284.360   80.902    0.249    0.327    8.515
  216.632 2223.580   78.566    0.284    0.259   10.889
  216.882 2236.160   77.871    0.277    0.242   13.539
  217.132 2259.190   75.313    0.264    0.248   15.483
  217.382 2274.730   71.361    0.255    0.247   17.583
  217.632 2253.180   70.290    0.267    0.224   19.724
  217.882 2242.950   65.925    0.273    0.205   21.718
  218.132 2196.200   58.030    0.300    0.187   25.682
  218.382 2159.290   53.069    0.322    0.173   27.806
  218.632 2204.210   51.732    0.296    0.184   29.931
  218.882 2193.130   50.475    0.302    0.173   29.205
  219.132 2167.130   47.998    0.317    0.162   25.750
  219.382 2142.580   44.434    0.332    0.154   22.570
  219.632 2134.340   45.560    0.337    0.154   20.311
  219.882 2178.660   49.048    0.311    0.176   20.029
  220.132 2238.770   50.826    0.276    0.202   20.284
  220.382 2255.730   50.068    0.266    0.195   21.610
  220.632 2220.660   48.543    0.286    0.176   24.093
  220.882 2173.200   51.109    0.314    0.172   26.178
  221.132 2211.500   47.900    0.292    0.174   25.396
  221.382 2171.350   43.301    0.315    0.168   24.076
  221.632 2166.530   43.455    0.318    0.166   20.653
  221.882 2170.290   46.382    0.316    0.177   17.739
  222.132 2176.540   52.098    0.312    0.188   15.901
  222.382 2192.080   54.901    0.303    0.202   14.043
  222.632 2191.650   58.788    0.303    0.215   14.080
  222.882 2224.560   64.742    0.284    0.223   15.103
  223.132 2251.130   66.938    0.268    0.219   16.665
  223.382 2244.420   59.732    0.272    0.203   17.344
  223.632 2193.950   55.478    0.302    0.173   18.995
  223.882 2144.650   59.962    0.331    0.161   21.888
  224.132 2164.700   58.377    0.319    0.170   23.522
  224.382 2164.840   52.773    0.319    0.180   24.322
  224.632 2096.080   42.915    0.359    0.152   22.757
  224.882 2068.660   44.026    0.375    0.121   19.259
  225.132 2101.050   56.953    0.356    0.133   15.936
  225.382 2158.670   67.216    0.322    0.177   13.961
  225.632 2205.770   73.334    0.295    0.229   12.878
  225.882 2241.470   71.862    0.274    0.243   13.097
  226.132 2233.920   49.401    0.278    0.221   13.384
  226.382 2155.880   47.736    0.324    0.203   11.581
  226.632 2147.870   45.639    0.329    0.200    8.089
  226.882 2183.940   43.327    0.308    0.196    5.363
  227.132 2032.440   36.435    0.396    0.169    4.044
  227.382 2081.620   35.060    0.367    0.151    3.013
  227.632 2153.580   40.673    0.325    0.260    2.433
  227.882 2203.210   40.604    0.296    0.317    2.062
  228.132 2179.860   37.034    0.310    0.394    1.941
  228.382 2205.970   36.160    0.295    0.395    1.939
  228.632 2204.190   32.736    0.296    0.377    1.940
  228.882 2188.310   27.561    0.305    0.363    2.034
  229.132 2176.450   29.131    0.312    0.365    2.086
  229.382 2174.200   32.369    0.313    0.386    2.087
  229.632 2213.940   32.080    0.290    0.402    2.091
  229.882 2195.570   34.787    0.301    0.411    2.071
  230.132 2193.300   37.044    0.302    0.395    2.005
  230.382 2181.230   34.630    0.309    0.376    1.941
  230.632 2171.120   36.375    0.315    0.367    1.926
  230.882 2190.660   37.123    0.304    0.392    1.863
  231.132 2187.830   41.408    0.305    0.400    1.863
  231.382 2195.800   46.909    0.301    0.395    1.860
  231.632 2198.240   42.520    0.299    0.407    1.892
  231.882 2232.170   37.479    0.279    0.395    1.894
  232.132 2213.570   38.039    0.290    0.389    1.895
  232.382 2170.320   40.973    0.316    0.384    1.894
  232.632 2170.420   44.329    0.316    0.396    1.894
  232.882 2176.330   43.785    0.312    0.411    1.893
  233.132 2201.380   41.995    0.297    0.408    1.892
  233.382 2221.700   40.251    0.286    0.399    1.883
  233.632 2214.190   38.492    0.290    0.388    1.824
  233.882 2198.820   32.498    0.299    0.388    1.792
  234.132 2147.590   31.194    0.329    0.399    1.755
  234.382 2186.580   30.743    0.306    0.384    1.754
  234.632 2206.540   31.614    0.294    0.379    1.820
  234.882 2198.410   35.105    0.299    0.381    1.950
  235.132 2225.150   40.079    0.284    0.374    2.094
  235.382 2249.060   43.090    0.270    0.375    2.257
  235.632 2227.380   45.318    0.282    0.359    2.267
  235.882 2272.700   45.115    0.256    0.353    2.131
  236.132 2288.680   40.620    0.246    0.375    2.045
  236.382 2210.650   33.779    0.292    0.385    1.920
  236.632 2204.730   32.117    0.295    0.388    1.917
  236.882 2197.370   32.085    0.300    0.390    2.030
  237.132 2204.010   37.417    0.296    0.375    2.179
  237.382 2242.450   44.461    0.273    0.365    2.336
  237.632 2286.220   49.015    0.248    0.376    2.388
  237.882 2313.500   49.378    0.232    0.376    2.275
  238.132 2274.630   51.568    0.255    0.390    2.122
  238.382 2243.440   44.234    0.273    0.409    1.978
  238.632 2237.700   35.758    0.276    0.407    1.895
  238.882 2172.280   32.136    0.314    0.394    1.828
  239.132 2186.270   31.650    0.306    0.376    1.849
  239.382 2213.590   31.447    0.290    0.372    1.846
  239.632 2208.570   33.551    0.293    0.385    1.845
  239.882 2215.800   35.921    0.289    0.388    1.846
  240.132 2226.970   34.941    0.282    0.389    1.816
  240.382 2217.290   31.374    0.288    0.388    1.739
  240.632 2184.430   28.886    0.307    0.387    1.746
  240.882 2197.880   29.138    0.299    0.384    1.743
  241.132 2200.120   30.047    0.298    0.387    1.789
  241.382 2170.520   33.255    0.315    0.393    1.903
  241.632 2148.280   36.254    0.328    0.393    2.059
  241.882 2163.080   43.856    0.320    0.389    2.177
  242.132 2212.680   49.216    0.291    0.376    2.191
  242.382 2261.720   54.491    0.262    0.385    2.023
  242.632 2254.210   50.842    0.267    0.402    1.870
  242.882 2251.810   41.363    0.268    0.420    1.740
  243.132 2201.060   34.739    0.298    0.420    1.637
  243.382 2167.910   31.401    0.317    0.409    1.589
  243.632 2142.870   30.089    0.332    0.414    1.607
  243.882 2131.190   29.084    0.338    0.421    1.617
  244.132 2153.300   30.186    0.326    0.404    1.615
  244.382 2152.610   32.034    0.326    0.388    1.649
  244.632 2165.870   35.352    0.318    0.368    1.645
  244.882 2189.500   38.179    0.304    0.357    1.672
  245.132 2219.360   41.944    0.287    0.362    1.688
  245.382 2219.140   40.144    0.287    0.399    1.705
  245.632 2186.990   34.960    0.306    0.382    1.708
  245.882 2185.330   38.304    0.307    0.385    1.669
  246.132 2200.640   40.514    0.298    0.396    1.706
  246.382 2194.930   40.718    0.301    0.384    1.790
  246.632 2203.930   46.944    0.296    0.396    1.836
  246.882 2240.940   54.178    0.274    0.440    1.834
  247.132 2261.660   52.588    0.262    0.432    1.800
  247.382 2189.330   47.951    0.304    0.408    1.763
  247.632 2176.500   47.730    0.312    0.403    1.765
  247.882 2212.190   51.364    0.291    0.412    1.831
  248.132 2196.100   57.569    0.301    0.439    1.902
  248.382 2220.970   66.842    0.286    0.479    1.848
  248.632 2256.130   68.437    0.265    0.517    1.756
  248.882 2156.260   58.919    0.324    0.494    1.604
  249.132 2104.350   36.350    0.354    0.457    1.540
  249.382 2156.830   34.157    0.323    0.438    1.486
