~VERSION INFORMATION
 VERS.                 2.0:   CWLS LOG ASCII STANDARD -VERSION 2.0
 WRAP.                  NO:   ONE LINE PER DEPTH STEP
~WELL INFORMATION BLOCK
#MNEM.UNIT           DATA                    DESCRIPTION OF MNEMONIC
#---------    -------------------            -------------------------------
# Generated from Intellog Unique Number	CX_WELLS/WELL/2793
WELL.         TRITON ATCOR HANGST            : Well_name    - WELL
LOC .         00/11-13-081-11W4/0            : Location     - LOCATION
UWI .         00/11-13-081-11W400            : Uwi          - UNIQUE WELL ID
ENTR.         T                              : Entered      - ENTERED BY
SRVC.         SCHLUMBERGER                   : Scn          - SERVICE COMPANY
STRT.M        260                            : top_depth    - START DEPTH
STOP.M        480                            : bot_depth    - STOP DEPTH
STEP.M        0.25                           : increment    - STEP LENGTH
 NULL. -999.2500:NULL Value
~CURVE INFORMATION BLOCK
#MNEM UNIT       ERCB CURVE CODE    CURVE DESCRIPTION
#-----------   ------------------   ----------------------------------
DEPT.M        00 001 00 00         : DEPTH        - DEPTH
GR  .API      00 310 00 00         : GR           - GAMMA RAY
NPHI.V/V      00 330 00 00         : PHIN         - NEUTRON POROSITY (SANDSTONE)
DPHI.V/V      00 890 00 00         : PHID         - DENSITY POROSITY (SANDSTONE)
ILD .OHMM     00 120 00 00         : RESD         - DEEP RESISTIVITY (OTHER)
~PARAMETER INFORMATION
#MNEM.UNIT           DATA             DESCRIPTION OF MNEMONIC
#---------         -----------     ------------------------------
GL  .M        696                  : gl           - GROUND LEVEL ELEVATION
EREF.M        698                  : kb           - ELEVATION OF DEPTH REFERENCE
DATM.M        698                  : datum        - DATUM ELEVATION
TDD .M        488                  : tdd          - TOTAL DEPTH DRILLER
RUN .         ONE                  : Run          - RUN NUMBER
ENG .         BILL                 : Engineer     - RECORDING ENGINEER
WIT .         JIM                  : Witness      - WITNESSED BY
MUD .         GEL                  : Mud_type     - MUD TYPE
MATR.         SANDSTONE            : Logunit      - NEUTRON MATRIX
TMAX.C        22                   : BHT          - MAXIMUM RECORDED TEMPERATURE
BHTD.M        488                  : BHTDEP       - MAXIMUM RECORDED TEMPERATURE
MATR.         1                    : LOGUNIT      - NEUTRON MATRIX
RMT .C        18                   : MDTP         - TEMPERATURE OF MUD
NEUT.         1                    : NEUTRON      - NEUTRON TYPE
RESI.         9.7                  : RESIST       - RESISTIVITY TYPE
RMC .OHMM     0.25                 : RMC          - RESISTIVITY OF MUD CAKE
RMF .OHMM     7                    : RMF          - RESISTIVITY OF MUD FILTRATE
SUFT.C        4                    : SUFT         - SURFACE TEMPERATURE
~A  DEPTH       GR     PHIN     PHID     RESD
# ...
  303.500   95.329    0.434    0.263   10.417
  303.750   92.475    0.463    0.261   11.226
  304.000   91.352    0.474    0.257   11.881
  304.250   86.766    0.486    0.251   12.348
  304.500   87.416    0.484    0.246   12.366
  304.750   89.811    0.478    0.242   12.609
  305.000   91.002    0.468    0.243   12.417
  305.250   93.397    0.469    0.249   12.210
  305.500   95.211    0.475    0.254   11.808
  305.750   95.833    0.481    0.261   11.398
  306.000   96.456    0.486    0.264   10.824
  306.250   98.865    0.481    0.270   10.453
  306.500  100.678    0.476    0.273   10.094
  306.750  101.882    0.479    0.275    9.244
  307.000  103.114    0.477    0.278    8.927
  307.250  103.141    0.466    0.280    8.470
  307.500  100.301    0.458    0.284    8.333
  307.750   97.446    0.444    0.285    8.976
  308.000   93.997    0.438    0.286    9.492
  308.250   90.561    0.437    0.291   10.607
  308.500   85.379    0.441    0.298   12.076
  308.750   80.198    0.450    0.301   12.769
  309.000   74.435    0.461    0.307   13.259
  309.250   68.672    0.456    0.312   14.825
  309.500   62.327    0.436    0.312   15.675
  309.750   58.323    0.419    0.314   17.203
  310.000   58.946    0.415    0.319   17.863
  310.250   59.582    0.408    0.325   19.242
  310.500   60.814    0.406    0.332   21.127
  310.750   62.032    0.411    0.338   22.350
  311.000   62.086    0.416    0.343   23.654
  311.250   61.545    0.424    0.348   24.550
  311.500   61.600    0.444    0.349   25.994
  311.750   61.695    0.450    0.352   27.004
  312.000   61.723    0.440    0.355   27.537
  312.250   62.359    0.429    0.357   28.646
  312.500   61.250    0.431    0.359   29.197
  312.750   58.991    0.437    0.362   29.237
  313.000   59.627    0.442    0.364   29.318
  313.250   60.264    0.445    0.364   29.358
  313.500   60.900    0.439    0.362   29.398
  313.750   60.954    0.423    0.357   29.480
  314.000   60.441    0.417    0.355   29.520
  314.250   60.482    0.420    0.351   29.056
  314.500   59.954    0.422    0.351   28.586
  314.750   60.009    0.424    0.351   28.111
  315.000   60.063    0.426    0.352   27.184
  315.250   60.132    0.425    0.352   27.222
  315.500   60.172    0.424    0.351   26.769
  315.750   60.836    0.430    0.351   26.819
  316.000   60.877    0.416    0.350   26.868
  316.250   60.931    0.417    0.350   26.930
  316.500   60.404    0.426    0.350   27.473
  316.750   60.459    0.434    0.349   27.549
  317.000   59.931    0.438    0.349   27.091
  317.250   59.404    0.440    0.352   27.128
  317.500   59.472    0.440    0.358   27.178
  317.750   59.513    0.432    0.353   26.282
  318.000   60.163    0.430    0.336   26.306
  318.250   60.786    0.436    0.341   25.439
  318.500   60.854    0.439    0.348   25.486
  318.750   60.922    0.445    0.359   25.062
  319.000   60.963    0.451    0.359   24.668
  319.250   61.031    0.455    0.356   23.833
  319.500   61.099    0.457    0.355   23.877
  319.750   61.126    0.457    0.354   23.079
  320.000   61.763    0.456    0.352   22.695
  320.250   61.235    0.454    0.351   22.318
  320.500   60.708    0.452    0.353   22.380
  320.750   60.763    0.449    0.354   22.400
  321.000   61.426    0.447    0.355   22.462
  321.250   62.049    0.442    0.358   22.493
  321.500   62.712    0.438    0.356   22.545
  321.750   62.739    0.438    0.350   22.576
  322.000   62.808    0.435    0.345   22.628
  322.250   62.294    0.439    0.344   22.680
  322.500   61.753    0.444    0.345   22.700
  322.750   61.808    0.453    0.343   22.753
  323.000   61.876    0.462    0.342   22.784
  323.250   61.335    0.459    0.344   22.826
  323.500   60.821    0.452    0.348   22.878
  323.750   60.294    0.446    0.353   22.920
  324.000   59.199    0.439    0.354   22.973
  324.250   58.062    0.427    0.354   23.005
  324.500   57.549    0.431    0.355   23.047
  324.750   57.022    0.439    0.358   23.523
  325.000   57.062    0.447    0.357   23.566
  325.250   57.130    0.452    0.360   23.620
  325.500   57.171    0.452    0.362   23.642
  325.750   57.849    0.450    0.363   23.270
  326.000   58.471    0.451    0.364   23.323
  326.250   58.512    0.453    0.364   23.356
  326.500   58.567    0.457    0.363   22.988
  326.750   58.053    0.460    0.362   23.020
  327.000   56.944    0.454    0.361   23.084
  327.250   56.985    0.427    0.360   22.690
  327.500   58.812    0.416    0.360   22.742
  327.750   59.421    0.417    0.359   22.374
  328.000   60.666    0.424    0.359   22.425
  328.250   60.707    0.434    0.358   22.053
  328.500   60.207    0.443    0.358   22.103
  328.750   59.653    0.447    0.358   21.746
  329.000   60.884    0.447    0.358   21.776
  329.250   61.507    0.443    0.358   21.424
  329.500   62.725    0.443    0.358   21.483
  329.750   63.956    0.442    0.355   21.512
  330.000   65.188    0.439    0.353   21.165
  330.250   64.079    0.437    0.351   21.194
  330.500   62.970    0.434    0.349   21.242
  330.750   63.025    0.433    0.348   20.918
  331.000   63.688    0.437    0.347   20.947
  331.250   64.297    0.443    0.346   20.976
  331.500   64.933    0.449    0.346   20.637
  331.750   65.583    0.453    0.347   20.312
  332.000   65.056    0.450    0.349   20.340
  332.250   65.097    0.448    0.348   20.011
  332.500   66.315    0.448    0.347   20.057
  332.750   66.965    0.450    0.345   20.094
  333.000   68.197    0.452    0.344   19.769
  333.250   68.224    0.457    0.344   19.833
  333.500   68.860    0.464    0.343   19.851
  333.750   69.510    0.470    0.339   19.521
  334.000   70.146    0.468    0.338   19.557
  334.250   70.796    0.462    0.340   19.593
  334.500   71.432    0.460    0.342   19.629
  334.750   72.069    0.460    0.342   19.311
  335.000   72.109    0.460    0.342   19.025
  335.250   72.164    0.461    0.342   19.043
  335.500   72.218    0.461    0.342   19.087
  335.750   72.273    0.465    0.343   19.122
  336.000   72.936    0.471    0.340   18.812
  336.250   73.573    0.477    0.337   18.517
  336.500   74.195    0.480    0.333   17.873
  336.750   74.263    0.481    0.328   16.361
  337.000   73.736    0.481    0.324   15.237
  337.250   73.804    0.483    0.324   13.451
  337.500   74.413    0.486    0.325   12.533
  337.750   75.631    0.492    0.325   12.324
  338.000   75.727    0.495    0.325   12.347
  338.250   74.591    0.495    0.326   12.602
  338.500   72.318    0.491    0.327   13.098
  338.750   70.059    0.484    0.328   14.109
  339.000   67.219    0.475    0.332   15.206
  339.250   65.514    0.469    0.335   15.789
  339.500   64.405    0.465    0.339   16.100
  339.750   64.446    0.463    0.345   17.047
  340.000   64.514    0.460    0.350   17.071
  340.250   65.137    0.458    0.353   17.742
  340.500   66.950    0.452    0.345   17.775
  340.750   70.509    0.444    0.327   18.134
  341.000   74.636    0.436    0.292   17.840
  341.250   76.449    0.449    0.279   17.236
  341.500   77.058    0.471    0.278   16.059
  341.750   77.694    0.481    0.288   14.423
  342.000   77.749    0.480    0.301   12.273
  342.250   76.072    0.476    0.316   10.072
  342.500   74.367    0.449    0.319    9.384
  342.750   71.513    0.440    0.325    9.574
  343.000   68.077    0.446    0.323   10.313
  343.250   63.477    0.449    0.321   11.313
  343.500   64.723    0.450    0.321   13.600
  343.750   65.927    0.445    0.321   14.650
  344.000   67.727    0.443    0.324   15.491
  344.250   69.527    0.440    0.326   16.107
  344.500   72.490    0.449    0.327   15.847
  344.750   76.630    0.473    0.329   15.584
  345.000   76.117    0.478    0.330   14.785
  345.250   74.412    0.482    0.332   12.133
  345.500   71.004    0.479    0.333   10.325
  345.750   69.867    0.452    0.335   10.927
  346.000   69.340    0.442    0.338   11.559
  346.250   71.722    0.432    0.343   11.793
  346.500   75.267    0.427    0.343   12.251
  346.750   81.734    0.433    0.330   12.058
