~VERSION INFORMATION
 VERS.                 2.0:   CWLS LOG ASCII STANDARD -VERSION 2.0
 WRAP.                  NO:   ONE LINE PER DEPTH STEP
~WELL INFORMATION BLOCK
#MNEM.UNIT           DATA                    DESCRIPTION OF MNEMONIC
#---------    -------------------            -------------------------------
# Generated from Intellog Unique Number	CS_73_76/WELL/829
WELL.         BRASCAN RESOURCES LIMITED      : Well_name    - WELL
LOC .         00/10-22-073-18W4/0            : Location     - LOCATION
UWI .         00/10-22-073-18W4/0            : Uwi          - UNIQUE WELL ID
ENTR.         SP                             : Entered      - ENTERED BY
SRVC.         SCHLUMBERGER                   : Scn          - SERVICE COMPANY
STRT.M        243.84                         : top_depth    - START DEPTH
STOP.M        438.09                         : bot_depth    - STOP DEPTH
STEP.M        0.25                           : increment    - STEP LENGTH
 NULL. -999.2500:NULL Value
~CURVE INFORMATION BLOCK
#MNEM UNIT       ERCB CURVE CODE    CURVE DESCRIPTION
#-----------   ------------------   ----------------------------------
DEPT.M        00 001 00 00         : DEPTH        - DEPTH
GR  .API      00 310 00 00         : GR           - GAMMA RAY
DPHI.V/V      00 890 00 00         : PHID         - DENSITY POROSITY (SANDSTONE)
NPHI.V/V      00 330 00 00         : PHIN         - NEUTRON POROSITY (SANDSTONE)
ILD .OHMM     00 120 00 00         : RESD         - DEEP RESISTIVITY (DIL)
~PARAMETER INFORMATION
#MNEM.UNIT           DATA             DESCRIPTION OF MNEMONIC
#---------         -----------     ------------------------------
GL  .M        574.243              : gl           - GROUND LEVEL ELEVATION
EREF.M        577.596              : kb           - ELEVATION OF DEPTH REFERENCE
DATM.M        574.243              : datum        - DATUM ELEVATION
TDD .M        439.826              : tdd          - TOTAL DEPTH DRILLER
RUN .         ONE                  : Run          - RUN NUMBER
ENG .         BILL                 : Engineer     - RECORDING ENGINEER
WIT .         JIM                  : Witness      - WITNESSED BY
MUD .         GEL                  : Mud_type     - MUD TYPE
MATR.         SANDSTONE            : Logunit      - NEUTRON MATRIX
TMAX.C        15.5556              : BHT          - MAXIMUM RECORDED TEMPERATURE
BHTD.M        439.826              : BHTDEP       - MAXIMUM RECORDED TEMPERATURE
MATR.         1                    : LOGUNIT      - NEUTRON MATRIX
RMT .C        25                   : MDTP         - TEMPERATURE OF MUD
NEUT.         1                    : NEUTRON      - NEUTRON TYPE
RESI.         0                    : RESIST       - RESISTIVITY TYPE
RMC .OHMM     0.25                 : RMC          - RESISTIVITY OF MUD CAKE
RMF .OHMM     0.25                 : RMF          - RESISTIVITY OF MUD FILTRATE
SUFT.C        15                   : SUFT         - SURFACE TEMPERATURE
~A  DEPTH       GR     PHID     PHIN     RESD
# ...
  287.340   86.982    0.280    0.519    8.246
  287.590   83.136    0.281    0.493    8.083
  287.840   77.770    0.270    0.478    7.882
  288.090   81.972    0.259    0.463    7.545
  288.340   90.445    0.248    0.455    6.868
  288.590   98.884    0.233    0.486    6.405
  288.840  102.025    0.251    0.515    5.842
  289.090   98.942    0.255    0.532    5.437
  289.340   97.599    0.259    0.521    4.963
  289.590   95.976    0.282    0.511    4.766
  289.840   86.152    0.302    0.514    5.166
  290.090   61.540    0.315    0.495    5.529
  290.340   54.352    0.321    0.456    6.180
  290.590   44.965    0.320    0.430    6.529
  290.840   45.290    0.316    0.419    6.971
  291.090   46.537    0.315    0.437    7.260
  291.340   46.761    0.319    0.438    7.394
  291.590   46.759    0.313    0.428    7.353
  291.840   47.138    0.308    0.441    7.255
  292.090   48.816    0.302    0.461    7.256
  292.340   49.831    0.297    0.482    7.258
  292.590   51.838    0.292    0.488    7.258
  292.840   53.531    0.286    0.474    7.259
  293.090   54.355    0.281    0.465    7.259
  293.340   52.216    0.284    0.457    7.260
  293.590   52.314    0.290    0.454    7.264
  293.840   53.349    0.297    0.468    7.268
  294.090   55.858    0.301    0.476    7.403
  294.340   57.131    0.303    0.463    7.394
  294.590   57.528    0.307    0.445    7.396
  294.840   57.212    0.317    0.420    7.238
  295.090   56.231    0.323    0.414    7.410
  295.340   54.716    0.317    0.430    7.397
  295.590   53.339    0.308    0.450    7.398
  295.840   53.489    0.314    0.468    7.399
  296.090   55.043    0.323    0.478    7.399
  296.340   57.114    0.324    0.485    7.400
  296.590   57.632    0.310    0.477    7.400
  296.840   56.090    0.312    0.471    7.401
  297.090   57.013    0.305    0.474    7.401
  297.340   58.333    0.308    0.480    7.402
  297.590   58.740    0.319    0.485    7.402
  297.840   58.737    0.329    0.473    7.403
  298.090   58.417    0.336    0.482    7.403
  298.340   56.506    0.347    0.492    7.403
  298.590   55.861    0.342    0.493    7.403
  298.840   54.919    0.334    0.494    7.413
  299.090   53.915    0.335    0.486    7.255
  299.340   53.685    0.342    0.478    7.254
  299.590   54.171    0.346    0.474    7.136
  299.840   55.159    0.335    0.482    7.142
  300.090   56.887    0.329    0.473    7.144
  300.340   59.015    0.323    0.462    7.045
  300.590   59.652    0.328    0.457    7.018
  300.840   58.579    0.334    0.461    7.015
  301.090   57.540    0.328    0.498    7.015
  301.340   58.377    0.322    0.513    7.016
  301.590   59.776    0.321    0.495    7.016
  301.840   61.420    0.330    0.481    7.017
  302.090   62.243    0.337    0.476    7.017
  302.340   60.702    0.330    0.474    7.018
  302.590   57.726    0.335    0.467    7.017
  302.840   56.236    0.331    0.486    7.015
  303.090   54.256    0.327    0.482    7.123
  303.340   52.665    0.330    0.477    7.145
  303.590   53.456    0.327    0.471    7.149
  303.840   55.431    0.329    0.467    7.150
  304.090   57.153    0.336    0.506    7.150
  304.340   56.483    0.341    0.511    7.151
  304.590   54.754    0.340    0.516    7.151
  304.840   55.425    0.338    0.512    7.150
  305.090   57.010    0.335    0.501    7.160
  305.340   56.843    0.328    0.492    7.011
  305.590   55.935    0.333    0.487    7.023
  305.840   55.414    0.336    0.499    7.025
  306.090   55.948    0.333    0.503    7.026
  306.340   53.483    0.325    0.512    7.028
  306.590   51.158    0.333    0.508    6.930
  306.840   48.180    0.340    0.504    6.913
  307.090   45.890    0.336    0.500    6.775
  307.340   44.781    0.334    0.502    6.775
  307.590   46.319    0.338    0.528    6.745
  307.840   48.285    0.342    0.518    6.653
  308.090   49.339    0.339    0.512    6.651
  308.340   49.534    0.335    0.515    6.634
  308.590   50.131    0.330    0.534    6.532
  308.840   50.318    0.335    0.545    6.535
  309.090   48.959    0.326    0.532    6.537
  309.340   49.001    0.319    0.505    6.537
  309.590   51.095    0.317    0.482    6.538
  309.840   52.731    0.315    0.474    6.538
  310.090   54.346    0.314    0.466    6.535
  310.340   55.267    0.326    0.456    6.502
  310.590   56.892    0.332    0.451    6.421
  310.840   57.842    0.339    0.452    6.421
  311.090   57.370    0.329    0.471    6.421
  311.340   53.934    0.325    0.486    6.426
  311.590   56.929    0.319    0.508    6.553
  311.840   62.822    0.319    0.517    6.657
  312.090   65.193    0.324    0.523    6.666
  312.340   65.643    0.327    0.533    6.719
  312.590   62.887    0.325    0.545    6.784
  312.840   61.307    0.324    0.525    6.787
  313.090   62.133    0.319    0.515    6.786
  313.340   63.109    0.314    0.508    6.787
  313.590   63.693    0.328    0.508    6.874
  313.840   63.288    0.331    0.520    6.910
  314.090   61.343    0.325    0.505    6.914
  314.340   60.102    0.329    0.484    6.914
  314.590   56.921    0.323    0.469    6.915
  314.840   58.146    0.323    0.457    6.915
  315.090   61.616    0.333    0.486    6.912
  315.340   66.546    0.339    0.494    6.902
  315.590   69.475    0.330    0.498    6.785
  315.840   69.871    0.333    0.503    6.780
  316.090   66.081    0.336    0.521    6.922
  316.340   62.665    0.327    0.535    6.917
  316.590   63.551    0.330    0.541    6.928
  316.840   64.540    0.327    0.531    6.795
  317.090   65.522    0.327    0.515    6.797
  317.340   66.393    0.327    0.503    6.795
  317.590   66.934    0.326    0.516    6.795
  317.840   66.415    0.322    0.549    6.795
  318.090   64.361    0.319    0.560    6.791
  318.340   63.869    0.314    0.522    6.908
  318.590   65.845    0.309    0.509    6.982
  318.840   67.017    0.302    0.532    7.060
  319.090   65.338    0.287    0.547    7.170
  319.340   66.415    0.267    0.536    7.597
  319.590   67.764    0.252    0.494    8.485
  319.840   67.297    0.213    0.422    9.875
  320.090   64.349    0.077    0.350   11.648
  320.340   63.024    0.053    0.257   13.809
  320.590   63.382    0.036    0.219   14.975
  320.840   64.611    0.043    0.211   15.446
  321.090   66.639    0.055    0.229   14.437
  321.340   66.756    0.067    0.245   13.021
  321.590   65.263    0.107    0.257   11.177
  321.840   64.206    0.172    0.302    9.454
  322.090   67.831    0.203    0.483    8.074
  322.340   74.215    0.255    0.559    7.421
  322.590   80.789    0.291    0.588    6.768
  322.840   85.896    0.298    0.581    6.525
  323.090   87.710    0.294    0.584    6.327
  323.340   84.280    0.300    0.558    6.219
  323.590   80.125    0.302    0.548    6.090
  323.840   77.730    0.307    0.560    6.103
  324.090   76.400    0.304    0.529    6.102
  324.340   75.262    0.310    0.517    6.101
  324.590   77.769    0.309    0.522    6.185
  324.840   82.157    0.290    0.506    6.505
  325.090   85.655    0.222    0.495    6.838
  325.340   88.215    0.163    0.494    7.367
  325.590   85.023    0.109    0.492    7.845
  325.840   78.730    0.077    0.469    8.332
  326.090   68.029    0.059    0.409    8.591
  326.340   59.769    0.054    0.264    8.595
  326.590   60.954    0.067    0.247    8.194
  326.840   66.140    0.090    0.268    7.439
  327.090   72.883    0.123    0.320    6.728
  327.340   77.056    0.164    0.387    6.358
  327.590   80.694    0.207    0.528    6.156
  327.840   77.985    0.249    0.569    6.112
  328.090   73.565    0.276    0.576    6.099
  328.340   70.831    0.281    0.584    6.231
  328.590   72.746    0.287    0.524    6.216
  328.840   76.167    0.286    0.508    6.117
  329.090   78.144    0.291    0.506    6.003
  329.340   76.811    0.293    0.513    5.785
  329.590   74.805    0.282    0.511    5.679
  329.840   76.009    0.265    0.521    5.684
  330.090   80.286    0.250    0.533    5.679
  330.340   85.309    0.236    0.552    5.785
  330.590   87.341    0.221    0.550    5.901
