~VERSION INFORMATION
 VERS.                 2.0:   CWLS LOG ASCII STANDARD -VERSION 2.0
 WRAP.                  NO:   ONE LINE PER DEPTH STEP
~WELL INFORMATION BLOCK
#MNEM.UNIT           DATA                    DESCRIPTION OF MNEMONIC
#---------    -------------------            -------------------------------
# Generated from Intellog Unique Number	CN_91_93/WELL/3595
WELL.         EPIC RESOURCES LTD.            : Well_name    - WELL
LOC .         00/10-07-093-15W4/0            : Location     - LOCATION
UWI .         00/10-07-093-15W400            : Uwi          - UNIQUE WELL ID
ENTR.         JOETTE                         : Entered      - ENTERED BY
SRVC.         SCHLUMBERGER                   : Scn          - SERVICE COMPANY
DATE.         03/18/92                       : Date         - LOG DATE
STRT.M        100                            : top_depth    - START DEPTH
STOP.M        205                            : bot_depth    - STOP DEPTH
STEP.M        0.25                           : increment    - STEP LENGTH
 NULL. -999.2500:NULL Value
~CURVE INFORMATION BLOCK
#MNEM UNIT       ERCB CURVE CODE    CURVE DESCRIPTION
#-----------   ------------------   ----------------------------------
DEPT.M        00 001 00 00         : DEPTH        - DEPTH
GR  .API      00 310 00 00         : GR           - GAMMA RAY
CALI.MM       00 280 01 00         : CAL          - CALIPER
NPHI.V/V      00 330 00 00         : PHIN         - NEUTRON POROSITY (SANDSTONE)
DPHI.V/V      00 890 00 00         : PHID         - DENSITY POROSITY (SANDSTONE)
ILD .OHMM     00 120 00 00         : RESD         - DEEP RESISTIVITY (DIL)
~PARAMETER INFORMATION
#MNEM.UNIT           DATA             DESCRIPTION OF MNEMONIC
#---------         -----------     ------------------------------
GL  .M        466                  : gl           - GROUND LEVEL ELEVATION
EREF.M        469.5                : kb           - ELEVATION OF DEPTH REFERENCE
DATM.M        469.5                : datum        - DATUM ELEVATION
TDD .M        208                  : tdd          - TOTAL DEPTH DRILLER
RUN .         ONE                  : Run          - RUN NUMBER
ENG .         BILL                 : Engineer     - RECORDING ENGINEER
WIT .         JIM                  : Witness      - WITNESSED BY
MUD .         GEL                  : Mud_type     - MUD TYPE
MATR.         SANDSTONE            : Logunit      - NEUTRON MATRIX
TMAX.C        18                   : BHT          - MAXIMUM RECORDED TEMPERATURE
BHTD.M        208                  : BHTDEP       - MAXIMUM RECORDED TEMPERATURE
RMT .C        20                   : MDTP         - TEMPERATURE OF MUD
MUDD.KG/M     1020                 : MWT          - MUD DENSITY
NEUT.         1                    : NEUTRON      - NEUTRON TYPE
RESI.         0                    : RESIST       - RESISTIVITY TYPE
RM  .OHMM     0.29                 : RM           - RESISTIVITY OF MUD
RMC .OHMM     0.26                 : RMC          - RESISTIVITY OF MUD CAKE
RMF .OHMM     0.26                 : RMF          - RESISTIVITY OF MUD FILTRATE
SUFT.C        4                    : SUFT         - SURFACE TEMPERATURE
~A  DEPTH       GR      CAL     PHIN     PHID     RESD
# ...
  136.500  108.387  173.134    0.463    0.236   10.309
  136.750  116.831  174.060    0.486    0.227   10.502
  137.000  114.001  175.922    0.496    0.228   10.501
  137.250  111.174  175.904    0.485    0.237    9.929
  137.500  108.344  172.118    0.441    0.241    9.745
  137.750  106.075  171.169    0.446    0.237    9.215
  138.000  107.756  173.031    0.473    0.226    8.877
  138.250   98.163  174.888    0.481    0.167    8.876
  138.500  104.918  173.930    0.454    0.139    8.875
  138.750  116.184  172.033    0.448    0.156    8.874
  139.000  118.429  170.140    0.467    0.199    8.874
  139.250  113.343  168.243    0.484    0.209    9.040
  139.500  107.694  168.225    0.477    0.227    9.738
  139.750  102.609  168.207    0.447    0.238    9.920
  140.000   99.215  168.194    0.410    0.242   10.296
  140.250  108.787  170.051    0.428    0.240   10.886
  140.500  107.651  170.037    0.440    0.145   11.090
  140.750  104.258  170.015    0.413    0.137   11.297
  141.000  108.758  166.234    0.422    0.173   11.509
  141.250  111.002  165.280    0.527    0.192   11.087
  141.500  108.736  166.202    0.542    0.216   10.680
  141.750  104.778  167.129    0.530    0.221   10.289
  142.000  100.254  168.046    0.509    0.156    9.911
  142.250   97.427  168.033    0.398    0.153    9.728
  142.500  103.055  168.033    0.417    0.184    9.029
  142.750  111.502  164.233    0.438    0.203    8.537
  143.000  117.129  169.849    0.467    0.239    8.072
  143.250  117.119  171.720    0.486    0.233    7.923
  143.500  117.672  172.642    0.485    0.215    7.632
  143.750  113.714  173.559    0.495    0.215    7.217
  144.000  105.810  172.597    0.396    0.150    7.083
  144.250   97.341  172.588    0.366    0.122    6.952
  144.500  104.097  171.626    0.392    0.213    6.951
  144.750  109.724  173.483    0.430    0.251    6.950
  145.000  109.714  175.354    0.503    0.252    6.950
  145.250  109.703  176.275    0.547    0.175    7.080
  145.500  104.051  173.438    0.482    0.094    7.079
  145.750  109.681  167.778    0.426    0.100    6.948
  146.000  116.439  167.760    0.438    0.139    6.819
  146.250  120.373  169.617    0.483    0.226    6.818
  146.500  118.673  171.487    0.478    0.241    6.817
  146.750  115.843  174.284    0.496    0.236    6.817
  147.000  122.599  175.211    0.500    0.241    6.816
  147.250  121.460  176.132    0.498    0.245    6.944
  147.500  110.737  174.231    0.499    0.235    7.910
  147.750  109.598  172.338    0.494    0.200    8.844
  148.000  112.968  170.436    0.444    0.189    9.010
  148.250  116.340  169.478    0.427    0.204    9.351
  148.500  119.715  169.465    0.460    0.219    9.350
  148.750  124.212  169.447    0.493    0.227    9.525
  149.000  126.460  171.304    0.514    0.227    9.524
  149.250  119.683  172.230    0.505    0.215    9.523
  149.500  111.215  173.143    0.484    0.206    9.523
  149.750  106.129  172.190    0.447    0.205    9.173
  150.000  106.682  169.349    0.406    0.181    8.837
  150.250  107.235  168.395    0.357    0.117    8.513
  150.500  104.406  167.438    0.352    0.149    8.355
  150.750  106.086  167.420    0.380    0.190    8.200
  151.000  112.278  167.406    0.439    0.208    8.048
  151.250  119.597  168.324    0.466    0.226    7.610
  151.500  120.150  168.310    0.450    0.223    7.196
  151.750  115.065  169.228    0.403    0.212    6.679
  152.000  108.288  170.150    0.391    0.210    6.084
  152.250  105.458  172.946    0.398    0.222    5.647
  152.500  106.572  173.877    0.418    0.221    5.339
  152.750  109.947  173.855    0.442    0.230    5.144
  153.000  109.937  173.841    0.483    0.253    5.541
  153.250  108.234  173.824    0.519    0.263    5.969
  153.500  112.170  174.745    0.522    0.258    6.928
  153.750  118.926  174.723    0.511    0.250    8.502
  154.000  117.787  173.765    0.517    0.245   11.034
  154.250  111.011  172.812    0.531    0.251   13.796
  154.500  103.106  171.850    0.512    0.256   15.140
  154.750   91.819  170.893    0.438    0.269   15.139
  155.000   79.403  167.111    0.427    0.283   14.315
  155.250   68.680  166.163    0.435    0.238   13.536
  155.500   61.900  165.205    0.424    0.209   14.581
  155.750   59.634  165.183    0.403    0.191   15.708
  156.000   57.935  166.100    0.372    0.233   17.564
  156.250   61.868  167.031    0.368    0.260   18.920
  156.500   60.163  167.013    0.386    0.274   20.006
  156.750   59.030  166.051    0.409    0.275   19.272
  157.000   56.764  166.037    0.433    0.269   18.915
  157.250   61.828  165.075    0.470    0.280   17.231
  157.500   58.998  167.872    0.518    0.306   15.993
  157.750   56.168  167.863    0.500    0.327   14.301
  158.000   59.540  167.841    0.480    0.324   12.551
  158.250   63.474  166.888    0.447    0.295   11.223
  158.500   65.718  165.926    0.420    0.247    9.490
  158.750   70.221  166.847    0.434    0.220    8.486
  159.000   73.029  167.774    0.494    0.209    7.448
  159.250   76.402  168.696    0.505    0.244    6.912
  159.500   88.793  169.613    0.451    0.265    6.415
  159.750   85.402  169.600    0.441    0.276    6.297
  160.000   91.029  170.517    0.425    0.265    6.783
  160.250   96.093  170.503    0.451    0.263    7.872
  160.500  103.412  170.486    0.485    0.262   13.015
  160.750  104.529  169.519    0.511    0.256   24.063
  161.000  102.827  169.506    0.530    0.231   31.229
  161.250   98.869  167.608    0.454    0.219   33.020
  161.500   89.837  167.586    0.322    0.202   29.526
  161.750   77.986  167.572    0.233    0.193   27.403
  162.000   66.698  168.499    0.192    0.380   24.503
  162.250   59.358  169.421    0.198    0.415   22.322
  162.500   55.964  169.403    0.207    0.411   21.505
  162.750   55.389  169.389    0.224    0.407   21.502
  163.000   57.634  168.427    0.318    0.396   24.043
  163.250   61.568  168.409    0.380    0.348   26.387
  163.500   63.248  167.452    0.409    0.323   28.960
  163.750   62.110  167.438    0.443    0.308   32.380
  164.000   58.152  166.481    0.464    0.309   35.537
  164.250   55.325  166.458    0.471    0.314   38.282
  164.500   50.804  166.445    0.446    0.317   40.478
  164.750   51.357  166.427    0.435    0.319   41.236
  165.000   55.857  166.409    0.437    0.321   40.471
  165.250   56.974  166.391    0.453    0.321   38.268
  165.500   55.835  166.373    0.456    0.324   35.518
  165.750   54.133  167.295    0.451    0.321   31.173
  166.000   55.814  167.273    0.456    0.305   28.932
  166.250   56.367  167.255    0.453    0.293   28.929
  166.500   52.970  167.233    0.458    0.304   30.025
  166.750   50.143  167.224    0.465    0.317   30.586
  167.000   45.619  167.206    0.470    0.328   28.921
  167.250   43.917  167.183    0.452    0.335   25.384
  167.500   45.034  167.166    0.459    0.340   21.068
  167.750   45.590  167.143    0.469    0.335   17.815
  168.000   42.760  167.134    0.476    0.336   15.929
  168.250   37.672  168.056    0.463    0.339   15.634
  168.500   35.972  168.038    0.446    0.345   15.926
  168.750   36.525  168.020    0.434    0.347   16.529
  169.000   43.280  168.938    0.419    0.338   17.477
  169.250   49.472  168.920    0.375    0.314   18.480
  169.500   49.461  168.902    0.321    0.267   18.137
  169.750   51.142  168.880    0.322    0.205   17.801
  170.000   68.610  168.871    0.356    0.208   17.471
  170.250   83.259  169.788    0.392    0.226   17.147
  170.500   83.812  169.775    0.406    0.276   17.145
  170.750   83.238  170.696    0.421    0.276   17.466
  171.000   89.429  170.674    0.444    0.266   18.469
  171.250   91.108  170.656    0.416    0.251   19.895
  171.500   86.586  170.643    0.414    0.257   22.245
  171.750   82.067  170.625    0.425    0.269   25.341
  172.000   74.727  170.602    0.442    0.277   28.867
  172.250   69.078  170.589    0.433    0.301   34.774
  172.500   62.301  170.567    0.400    0.317   41.116
  172.750   57.779  169.614    0.410    0.329   42.671
