~VERSION INFORMATION
 VERS.                 2.0:   CWLS LOG ASCII STANDARD -VERSION 2.0
 WRAP.                  NO:   ONE LINE PER DEPTH STEP
~WELL INFORMATION BLOCK
#MNEM.UNIT           DATA                    DESCRIPTION OF MNEMONIC
#---------    -------------------            -------------------------------
# Generated from Intellog Unique Number	CX_WELLS/WELL/3301
WELL.         ANDERSON ET AL NEWBY           : Well_name    - WELL
LOC .         00/10-35-084-05W4/0            : Location     - LOCATION
UWI .         00/10-35-084-05W400            : Uwi          - UNIQUE WELL ID
ENTR.         T                              : Entered      - ENTERED BY
SRVC.         SCHLUMBERGER                   : Scn          - SERVICE COMPANY
STRT.M        80                             : top_depth    - START DEPTH
STOP.M        330                            : bot_depth    - STOP DEPTH
STEP.M        0.25                           : increment    - STEP LENGTH
 NULL. -999.2500:NULL Value
~CURVE INFORMATION BLOCK
#MNEM UNIT       ERCB CURVE CODE    CURVE DESCRIPTION
#-----------   ------------------   ----------------------------------
DEPT.M        00 001 00 00         : DEPTH        - DEPTH
GR  .API      00 310 00 00         : GR           - GAMMA RAY
NPHI.V/V      00 330 00 00         : PHIN         - NEUTRON POROSITY (SANDSTONE)
DPHI.V/V      00 890 00 00         : PHID         - DENSITY POROSITY (SANDSTONE)
ILD .OHMM     00 120 00 00         : RESD         - DEEP RESISTIVITY (DIL)
~PARAMETER INFORMATION
#MNEM.UNIT           DATA             DESCRIPTION OF MNEMONIC
#---------         -----------     ------------------------------
GL  .M        470                  : gl           - GROUND LEVEL ELEVATION
EREF.M        474                  : kb           - ELEVATION OF DEPTH REFERENCE
DATM.M        474                  : datum        - DATUM ELEVATION
TDD .M        345                  : tdd          - TOTAL DEPTH DRILLER
RUN .         ONE                  : Run          - RUN NUMBER
ENG .         BILL                 : Engineer     - RECORDING ENGINEER
WIT .         JIM                  : Witness      - WITNESSED BY
MUD .         GEL                  : Mud_type     - MUD TYPE
MATR.         SANDSTONE            : Logunit      - NEUTRON MATRIX
TMAX.C        21                   : BHT          - MAXIMUM RECORDED TEMPERATURE
BHTD.M        345                  : BHTDEP       - MAXIMUM RECORDED TEMPERATURE
MATR.         1                    : LOGUNIT      - NEUTRON MATRIX
RMT .C        20                   : MDTP         - TEMPERATURE OF MUD
NEUT.         1                    : NEUTRON      - NEUTRON TYPE
RESI.         4                    : RESIST       - RESISTIVITY TYPE
RMC .OHMM     3.3                  : RMC          - RESISTIVITY OF MUD CAKE
RMF .OHMM     3.3                  : RMF          - RESISTIVITY OF MUD FILTRATE
SUFT.C        4                    : SUFT         - SURFACE TEMPERATURE
~A  DEPTH       GR     PHIN     PHID     RESD
# ...
  297.500   23.282    0.324    0.202    3.096
  297.750   23.920    0.327    0.218    3.100
  298.000   23.967    0.330    0.220    3.162
  298.250   23.411    0.332    0.211    3.167
  298.500   22.843    0.332    0.201    3.232
  298.750   23.527    0.328    0.191    3.236
  299.000   24.166    0.322    0.188    3.240
  299.250   25.453    0.314    0.181    3.243
  299.500   26.114    0.303    0.171    3.249
  299.750   26.149    0.306    0.179    3.252
  300.000   26.811    0.312    0.190    3.256
  300.250   28.099    0.315    0.197    3.259
  300.500   28.169    0.323    0.205    3.263
  300.750   28.192    0.329    0.210    3.267
  301.000   28.250    0.326    0.211    3.272
  301.250   28.285    0.319    0.211    3.276
  301.500   28.958    0.321    0.204    3.220
  301.750   29.005    0.327    0.189    3.222
  302.000   28.437    0.329    0.199    3.166
  302.250   27.255    0.330    0.205    3.112
  302.500   26.072    0.327    0.198    3.116
  302.750   24.263    0.324    0.192    3.063
  303.000   23.092    0.323    0.199    3.065
  303.250   21.910    0.324    0.208    3.068
  303.500   21.956    0.320    0.205    3.073
  303.750   23.244    0.317    0.200    3.021
  304.000   23.905    0.314    0.192    3.023
  304.250   22.735    0.307    0.187    3.028
  304.500   22.155    0.302    0.193    2.974
  304.750   22.816    0.310    0.195    3.034
  305.000   22.851    0.317    0.197    3.039
  305.250   23.513    0.318    0.196    3.044
  305.500   25.403    0.318    0.189    3.046
  305.750   27.317    0.317    0.184    3.050
  306.000   27.352    0.315    0.176    2.998
  306.250   28.628    0.311    0.170    3.001
  306.500   28.675    0.309    0.166    2.951
  306.750   28.119    0.308    0.167    2.898
  307.000   27.551    0.311    0.171    2.902
  307.250   27.586    0.316    0.178    2.850
  307.500   27.633    0.317    0.182    2.854
  307.750   28.305    0.311    0.186    2.804
  308.000   28.352    0.303    0.185    2.809
  308.250   27.796    0.295    0.182    2.811
  308.500   27.228    0.282    0.179    2.763
  308.750   26.648    0.268    0.144    2.820
  309.000   27.322    0.272    0.106    2.876
  309.250   27.983    0.277    0.121    2.935
  309.500   28.644    0.280    0.134    2.993
  309.750   29.920    0.287    0.147    3.055
  310.000   31.811    0.294    0.160    3.115
  310.250   33.087    0.301    0.152    3.179
  310.500   33.772    0.309    0.152    3.124
  310.750   33.795    0.315    0.156    3.128
  311.000   33.842    0.314    0.157    3.253
  311.250   33.309    0.312    0.157    3.255
  311.500   33.344    0.307    0.159    3.199
  311.750   33.379    0.303    0.160    3.144
  312.000   33.425    0.297    0.164    3.031
  312.250   32.869    0.294    0.173    2.870
  312.500   32.904    0.295    0.181    2.819
  312.750   32.951    0.298    0.183    2.770
  313.000   34.239    0.299    0.187    2.672
  313.250   34.900    0.299    0.190    2.624
  313.500   35.561    0.304    0.194    2.579
  313.750   35.596    0.308    0.195    2.535
  314.000   35.643    0.312    0.197    2.587
  314.250   35.690    0.313    0.196    2.590
  314.500   34.507    0.313    0.187    2.692
  314.750   33.348    0.310    0.174    2.907
  315.000   33.395    0.304    0.153    3.077
  315.250   32.827    0.299    0.132    3.139
  315.500   32.259    0.295    0.140    3.203
  315.750   32.306    0.299    0.157    3.208
  316.000   32.340    0.301    0.169    3.093
  316.250   32.411    0.304    0.177    2.427
  316.500   32.434    0.306    0.178    2.253
  316.750   31.866    0.308    0.178    2.093
  317.000   30.695    0.312    0.168    2.057
  317.250   30.742    0.314    0.164    2.098
  317.500   31.403    0.317    0.171    2.181
  317.750   31.450    0.320    0.176    2.311
  318.000   32.111    0.321    0.154    2.448
  318.250   32.784    0.329    0.150    2.593
  318.500   34.072    0.332    0.155    2.801
  318.750   34.722    0.326    0.161    2.910
  319.000   35.371    0.321    0.148    3.082
  319.250   36.056    0.309    0.138    3.144
  319.500   35.488    0.311    0.164    3.207
  319.750   34.305    0.315    0.189    3.399
  320.000   33.737    0.317    0.198    3.465
  320.250   33.784    0.322    0.202    3.407
  320.500   34.446    0.319    0.187    3.347
  320.750   35.733    0.315    0.162    3.109
  321.000   35.757    0.315    0.150    2.999
  321.250   37.033    0.316    0.141    3.002
  321.500   36.476    0.320    0.120    3.063
  321.750   36.523    0.324    0.114    3.183
  322.000   35.340    0.326    0.120    3.309
  322.250   34.158    0.328    0.136    3.314
  322.500   34.216    0.331    0.144    3.079
  322.750   34.251    0.332    0.149    2.968
  323.000   34.298    0.332    0.144    2.758
  323.250   33.742    0.334    0.148    2.709
  323.500   33.788    0.339    0.151    2.564
  323.750   33.835    0.340    0.155    2.568
  324.000   33.882    0.341    0.161    2.669
  324.250   35.773    0.344    0.158    2.935
  324.500   37.663    0.345    0.134    3.227
  324.750   43.242    0.347    0.016    3.550
  325.000   69.115    0.348   -0.008    3.904
  325.250   74.091    0.343   -0.005    4.543
  325.500   67.979    0.320   -0.003    6.027
  325.750   58.192    0.221   -0.002   10.211
  326.000   51.477    0.220   -0.002   12.569
  326.250   54.609    0.218   -0.002   14.901
  326.500   54.679    0.212   -0.003   17.676
  326.750   54.099    0.202   -0.005   19.814
  327.000   53.508    0.197   -0.005   20.591
  327.250   50.481    0.199   -0.004   21.811
  327.500   46.852    0.205   -0.003   22.251
  327.750   48.140    0.223    0.002   21.052
  328.000   50.633    0.241    0.007   16.513
  328.250   57.441    0.255    0.015   13.203
  328.500   68.552    0.269    0.030   12.732
  328.750   93.810    0.284    0.031   12.510
  329.000   94.483    0.292    0.023   12.522
  329.250   89.601    0.292    0.020   12.541
  329.500   84.116    0.288    0.019   12.798
  329.750   80.487    0.281    0.020   13.056
  330.000   78.689    0.272    0.020   13.320
