~VERSION INFORMATION
 VERS.                 2.0:   CWLS LOG ASCII STANDARD -VERSION 2.0
 WRAP.                  NO:   ONE LINE PER DEPTH STEP
~WELL INFORMATION BLOCK
#MNEM.UNIT           DATA                    DESCRIPTION OF MNEMONIC
#---------    -------------------            -------------------------------
# Generated from Intellog Unique Number	CS_73_76/WELL/3257
WELL.         CANADIAN WORLDWIDE ENERGY      : Well_name    - WELL
LOC .         00/11-07-076-03W4/0            : Location     - LOCATION
UWI .         00/11-07-076-03W4/0            : Uwi          - UNIQUE WELL ID
ENTR.         SP                             : Entered      - ENTERED BY
SRVC.         SCHLUMBERGER                   : Scn          - SERVICE COMPANY
STRT.M        225                            : top_depth    - START DEPTH
STOP.M        485                            : bot_depth    - STOP DEPTH
STEP.M        0.25                           : increment    - STEP LENGTH
 NULL. -999.2500:NULL Value
~CURVE INFORMATION BLOCK
#MNEM UNIT       ERCB CURVE CODE    CURVE DESCRIPTION
#-----------   ------------------   ----------------------------------
DEPT.M        00 001 00 00         : DEPTH        - DEPTH
DPHI.V/V      00 890 00 00         : PHID         - DENSITY POROSITY (LIMESTONE)
NPHI.V/V      00 330 00 00         : PHIN         - NEUTRON POROSITY (LIMESTONE)
GR  .API      00 310 00 00         : GR           - GAMMA RAY
ILD .OHMM     00 120 00 00         : RESD         - DEEP RESISTIVITY (DIL)
~PARAMETER INFORMATION
#MNEM.UNIT           DATA             DESCRIPTION OF MNEMONIC
#---------         -----------     ------------------------------
GL  .M        617.13               : gl           - GROUND LEVEL ELEVATION
EREF.M        620.23               : kb           - ELEVATION OF DEPTH REFERENCE
DATM.M        617.13               : datum        - DATUM ELEVATION
TDD .M        492                  : tdd          - TOTAL DEPTH DRILLER
RUN .         ONE                  : Run          - RUN NUMBER
ENG .         BILL                 : Engineer     - RECORDING ENGINEER
WIT .         JIM                  : Witness      - WITNESSED BY
MUD .         GEL                  : Mud_type     - MUD TYPE
MATR.         LIMESTONE            : Logunit      - NEUTRON MATRIX
TMAX.C        18                   : BHT          - MAXIMUM RECORDED TEMPERATURE
BHTD.M        492                  : BHTDEP       - MAXIMUM RECORDED TEMPERATURE
MATR.         1                    : LOGUNIT      - NEUTRON MATRIX
RMT .C        25                   : MDTP         - TEMPERATURE OF MUD
NEUT.         1                    : NEUTRON      - NEUTRON TYPE
RESI.         0                    : RESIST       - RESISTIVITY TYPE
RMC .OHMM     0.25                 : RMC          - RESISTIVITY OF MUD CAKE
RMF .OHMM     0.25                 : RMF          - RESISTIVITY OF MUD FILTRATE
SUFT.C        15                   : SUFT         - SURFACE TEMPERATURE
~A  DEPTH     PHID     PHIN       GR     RESD
  225.000    0.265    0.519  107.492    3.202
  225.250    0.261    0.524  106.282    3.141
  225.500    0.250    0.536  101.428    3.082
  225.750    0.259    0.524  100.825    3.081
  226.000    0.268    0.534  101.437    3.022
  226.250    0.272    0.543  106.298    2.965
  226.500    0.275    0.544  111.770    2.909
  226.750    0.264    0.546  112.380    2.963
  227.000    0.259    0.547  110.563    3.018
  227.250    0.259    0.541  108.745    2.961
  227.500    0.258    0.529  109.964    2.905
  227.750    0.257    0.509  111.183    2.904
  228.000    0.258    0.506  111.188    2.903
  228.250    0.266    0.516  109.978    2.957
  228.500    0.276    0.520  109.981    3.012
  228.750    0.270    0.509  109.379    3.126
  229.000    0.263    0.489  108.168    3.184
  229.250    0.267    0.497  109.388    3.066
  229.500    0.264    0.520  110.608    3.008
  229.750    0.258    0.529  110.610    2.950
  230.000    0.259    0.529  110.008    3.005
  230.250    0.261    0.550  106.368    3.061
  230.500    0.264    0.537  110.017    3.299
  230.750    0.265    0.531  108.807    3.622
  231.000    0.271    0.537  106.989    3.690
  231.250    0.280    0.552  103.957    3.620
  231.500    0.276    0.548  103.353    3.551
  231.750    0.272    0.497  101.536    3.419
  232.000    0.275    0.504  100.325    3.292
  232.250    0.289    0.529  103.366    3.053
  232.500    0.284    0.525  100.942    2.939
  232.750    0.286    0.529   96.087    2.884
  233.000    0.292    0.524   93.664    2.776
  233.250    0.287    0.529   93.667    2.623
  233.500    0.289    0.534   94.885    2.574
  233.750    0.297    0.510   97.320    2.525
  234.000    0.302    0.523   97.931    2.572
  234.250    0.292    0.541   96.114    2.620
  234.500    0.288    0.550   94.904    2.668
  234.750    0.289    0.545   93.694    2.770
  235.000    0.294    0.546   93.697    2.769
  235.250    0.297    0.559   91.879    2.874
  235.500    0.289    0.558   95.529    2.873
  235.750    0.281    0.540   97.353    2.872
  236.000    0.268    0.530   99.788    2.871
  236.250    0.271    0.547   99.792    2.870
  236.500    0.275    0.560   96.153    2.869
  236.750    0.272    0.542   91.905    2.922
  237.000    0.266    0.493   90.088    2.976
  237.250    0.259    0.487   93.736    3.207
  237.500    0.260    0.507   97.384    3.206
  237.750    0.257    0.514   91.316    3.205
  238.000    0.263    0.529   90.713    3.265
  238.250    0.273    0.531   93.146    3.388
  238.500    0.254    0.537   93.150    3.387
  238.750    0.230    0.535   94.369    3.450
  239.000    0.228    0.516   96.196    3.449
  239.250    0.238    0.513   96.807    3.448
  239.500    0.245    0.529   96.205    3.446
  239.750    0.251    0.538   97.424    3.577
  240.000    0.266    0.521  101.071    3.644
  240.250    0.259    0.516  102.290    3.643
  240.500    0.251    0.516  101.080    3.641
  240.750    0.250    0.492  101.692    3.572
  241.000    0.244    0.527  107.769    3.439
  241.250    0.233    0.555  103.522    3.503
  241.500    0.223    0.507   98.668    3.705
  241.750    0.219    0.469   97.458    3.704
  242.000    0.230    0.463   97.463    3.634
  242.250    0.222    0.469  103.539    3.565
  242.500    0.219    0.488  105.365    3.497
  242.750    0.218    0.509  104.763    3.496
  243.000    0.218    0.503  101.125    3.495
  243.250    0.232    0.475   99.306    3.429
  243.500    0.236    0.489   95.667    3.492
  243.750    0.238    0.502   95.671    3.557
  244.000    0.235    0.487   98.105    3.692
  244.250    0.225    0.481  100.537    3.761
  244.500    0.216    0.488   96.898    3.903
  244.750    0.213    0.488   89.615    3.976
  245.000    0.208    0.489   79.902    4.205
  245.250    0.225    0.489   71.405    4.617
  245.500    0.228    0.467   65.336    5.264
  245.750    0.231    0.407   57.445    6.348
  246.000    0.251    0.360   46.519    7.801
  246.250    0.251    0.354   39.843    9.234
  246.500    0.258    0.360   35.596   10.331
  246.750    0.299    0.392   48.960    8.888
  247.000    0.329    0.435   88.439    7.092
  247.250    0.284    0.475   92.089    5.768
  247.500    0.224    0.515   90.269    6.099
  247.750    0.204    0.490   81.772    7.638
  248.000    0.211    0.393   81.170   12.207
  248.250    0.229    0.379   79.352   12.669
  248.500    0.233    0.379   77.534   13.398
  248.750    0.240    0.384   73.287   14.170
  249.000    0.242    0.383   72.077   14.434
  249.250    0.242    0.378   75.118   14.980
  249.500    0.244    0.371   75.730   14.975
  249.750    0.234    0.378   73.305   15.543
  250.000    0.248    0.396   67.236   15.537
  250.250    0.268    0.390   62.989   14.960
  250.500    0.266    0.360   60.564   14.135
  250.750    0.247    0.360   70.892   13.108
  251.000    0.219    0.369   87.294   12.156
  251.250    0.215    0.393   90.335   11.704
  251.500    0.214    0.393   90.339   11.700
  251.750    0.196    0.380   88.522   12.144
  252.000    0.213    0.383   83.060   12.842
  252.250    0.262    0.395   74.562   13.838
  252.500    0.283    0.401   70.316   14.636
  252.750    0.251    0.390   69.105   15.190
  253.000    0.220    0.367   72.753   14.625
  253.250    0.229    0.363   80.653   14.348
  253.500    0.280    0.439   80.050   14.614
  253.750    0.309    0.468   65.479   15.749
  254.000    0.326    0.452   55.766   17.955
  254.250    0.317    0.406   49.091   19.715
  254.500    0.313    0.380   47.880   20.847
  254.750    0.304    0.369   54.565   20.842
  255.000    0.276    0.356   74.002   18.968
  255.250    0.241    0.364   94.655   17.262
  255.500    0.251    0.385   91.623   16.618
  255.750    0.252    0.394   86.162   16.616
  256.000    0.246    0.366   87.380   16.300
  256.250    0.252    0.377   78.883   16.294
  256.500    0.270    0.389   77.672   15.398
  256.750    0.270    0.408   79.499   14.825
  257.000    0.230    0.420   75.252   14.274
  257.250    0.187    0.431   72.827   13.486
  257.500    0.247    0.442   78.904   13.232
  257.750    0.262    0.425   83.767   13.228
  258.000    0.273    0.414   84.379   13.223
  258.250    0.259    0.411   80.740   13.219
  258.500    0.246    0.412   83.780   12.727
  258.750    0.248    0.413   88.036   12.025
  259.000    0.247    0.409   88.647   11.152
  259.250    0.237    0.412   94.117   10.150
  259.500    0.230    0.418   98.980    8.897
  259.750    0.227    0.429   99.591    8.406
  260.000    0.219    0.455   88.665    8.404
  260.250    0.187    0.444   86.239    8.400
  260.500    0.169    0.330   90.495    8.719
  260.750    0.155    0.301   96.572    8.881
  261.000    0.156    0.316   97.184    9.046
  261.250    0.160    0.330   98.403    9.566
  261.500    0.160    0.330   95.978   10.309
  261.750    0.154    0.325   88.088   11.319
  262.000    0.164    0.332   84.449   12.428
  262.250    0.180    0.343   83.846   13.145
  262.500    0.189    0.342   85.064   13.900
  262.750    0.211    0.359   78.996   14.700
  263.000    0.227    0.376   73.534   15.258
  263.250    0.247    0.390   65.643   16.137
  263.500    0.266    0.385   58.967   16.748
  263.750    0.270    0.371   57.150   17.383
  264.000    0.274    0.373   57.761   17.706
  264.250    0.256    0.382   58.981   17.046
  264.500    0.242    0.396   57.163   16.414
  264.750    0.241    0.392   61.419   14.938
  265.000    0.238    0.379   69.317   13.095
  265.250    0.231    0.377   83.897   10.647
  265.500    0.222    0.419   95.440    9.511
  265.750    0.199    0.435  100.910    8.337
  266.000    0.161    0.440  105.773    7.446
  266.250    0.186    0.457  111.243    6.650
  266.500    0.200    0.474  117.927    6.167
  266.750    0.194    0.467  118.538    5.508
  267.000    0.192    0.471  112.471    5.013
  267.250    0.177    0.492  110.046    4.737
  267.500    0.183    0.504  116.123    4.231
  267.750    0.207    0.512  122.200    3.924
  268.000    0.221    0.515  127.063    3.639
  268.250    0.210    0.534  122.816    3.503
