~VERSION INFORMATION
 VERS.                 2.0:   CWLS LOG ASCII STANDARD -VERSION 2.0
 WRAP.                  NO:   ONE LINE PER DEPTH STEP
~WELL INFORMATION BLOCK
#MNEM.UNIT           DATA                    DESCRIPTION OF MNEMONIC
#---------    -------------------            -------------------------------
# Generated from Intellog Unique Number	CS_71_72/WELL/871
WELL.         PACIFIC PHILLIPS AEC WIAU      : Well_name    - WELL
LOC .         00/10-25-072-09W4/0            : Location     - LOCATION
UWI .         00/10-25-072-09W4/0            : Uwi          - UNIQUE WELL ID
ENTR.         SP                             : Entered      - ENTERED BY
SRVC.         SCHLUMBERGER                   : Scn          - SERVICE COMPANY
STRT.M        315                            : top_depth    - START DEPTH
STOP.M        520                            : bot_depth    - STOP DEPTH
STEP.M        0.25                           : increment    - STEP LENGTH
 NULL. -999.2500:NULL Value
~CURVE INFORMATION BLOCK
#MNEM UNIT       ERCB CURVE CODE    CURVE DESCRIPTION
#-----------   ------------------   ----------------------------------
DEPT.M        00 001 00 00         : DEPTH        - DEPTH
GR  .API      00 310 00 00         : GR           - GAMMA RAY
NPHI.V/V      00 330 00 00         : PHIN         - NEUTRON POROSITY (LIMESTONE)
DPHI.V/V      00 890 00 00         : PHID         - DENSITY POROSITY (LIMESTONE)
ILD .OHMM     00 120 00 00         : RESD         - DEEP RESISTIVITY (DIL)
~PARAMETER INFORMATION
#MNEM.UNIT           DATA             DESCRIPTION OF MNEMONIC
#---------         -----------     ------------------------------
GL  .M        682.3                : gl           - GROUND LEVEL ELEVATION
EREF.M        685.3                : kb           - ELEVATION OF DEPTH REFERENCE
DATM.M        682.3                : datum        - DATUM ELEVATION
TDD .M        530                  : tdd          - TOTAL DEPTH DRILLER
RUN .         ONE                  : Run          - RUN NUMBER
ENG .         BILL                 : Engineer     - RECORDING ENGINEER
WIT .         JIM                  : Witness      - WITNESSED BY
MUD .         GEL                  : Mud_type     - MUD TYPE
MATR.         LIMESTONE            : Logunit      - NEUTRON MATRIX
TMAX.C        16                   : BHT          - MAXIMUM RECORDED TEMPERATURE
BHTD.M        530                  : BHTDEP       - MAXIMUM RECORDED TEMPERATURE
MATR.         1                    : LOGUNIT      - NEUTRON MATRIX
RMT .C        25                   : MDTP         - TEMPERATURE OF MUD
NEUT.         1                    : NEUTRON      - NEUTRON TYPE
RESI.         0                    : RESIST       - RESISTIVITY TYPE
RMC .OHMM     0.25                 : RMC          - RESISTIVITY OF MUD CAKE
RMF .OHMM     0.25                 : RMF          - RESISTIVITY OF MUD FILTRATE
SUFT.C        15                   : SUFT         - SURFACE TEMPERATURE
~A  DEPTH       GR     PHIN     PHID     RESD
# ...
  358.500   43.629    0.410    0.288   15.006
  358.750   41.823    0.417    0.306   15.291
  359.000   44.235    0.427    0.306   14.742
  359.250   48.453    0.428    0.293   13.951
  359.500   52.069    0.437    0.285   12.962
  359.750   51.468    0.445    0.271   12.967
  360.000   47.855    0.456    0.285   13.716
  360.250   43.640    0.446    0.303   14.506
  360.500   41.833    0.445    0.303   14.783
  360.750   38.221    0.446    0.299   15.636
  361.000   35.812    0.446    0.302   16.232
  361.250   35.212    0.443    0.315   16.855
  361.500   35.816    0.434    0.303   17.175
  361.750   35.817    0.442    0.300   17.184
  362.000   35.216    0.446    0.315   17.190
  362.250   34.615    0.436    0.318   17.201
  362.500   34.014    0.432    0.312   17.209
  362.750   34.016    0.422    0.304   17.214
  363.000   35.222    0.419    0.316   16.910
  363.250   36.428    0.417    0.318   16.916
  363.500   37.634    0.428    0.314   16.921
  363.750   41.251    0.436    0.304   16.616
  364.000   41.854    0.427    0.306   15.728
  364.250   43.663    0.422    0.315   15.444
  364.500   48.484    0.416    0.300   14.347
  364.750   50.895    0.403    0.286   13.329
  365.000   53.909    0.396    0.257   12.158
  365.250   56.319    0.392    0.246   11.719
  365.500   58.128    0.397    0.268   11.093
  365.750   57.528    0.416    0.270   11.305
  366.000   59.938    0.419    0.260   11.520
  366.250   65.362    0.423    0.275   11.962
  366.500   70.183    0.449    0.259   11.745
  366.750   74.401    0.471    0.230   10.713
  367.000   77.415    0.477    0.216    9.770
  367.250   79.826    0.486    0.231    9.075
  367.500   84.044    0.490    0.224    8.125
  367.750   87.058    0.495    0.229    7.274
  368.000   88.263    0.496    0.196    6.634
  368.250   88.867    0.486    0.192    6.163
  368.500   85.857    0.477    0.209    6.764
  368.750   79.232    0.471    0.216    8.143
  369.000   76.221    0.462    0.235    9.806
  369.250   72.608    0.462    0.241   10.370
  369.500   72.007    0.480    0.224   10.765
  369.750   72.611    0.497    0.229   11.177
  370.000   73.817    0.514    0.236   10.775
  370.250   75.627    0.498    0.223   10.013
  370.500   75.628    0.478    0.215    9.654
  370.750   75.629    0.469    0.228    9.656
  371.000   75.028    0.463    0.228    9.840
  371.250   72.621    0.462    0.222   10.030
  371.500   71.417    0.480    0.227   10.034
  371.750   70.213    0.473    0.233   10.037
  372.000   73.830    0.470    0.234    9.501
  372.250   75.036    0.474    0.228    9.329
  372.500   75.640    0.475    0.221    9.333
  372.750   74.436    0.475    0.239   10.056
  373.000   73.835    0.458    0.248   11.245
  373.250   70.824    0.451    0.256   11.890
  373.500   69.019    0.446    0.265   12.811
  373.750   68.418    0.431    0.275   13.300
  374.000   70.227    0.420    0.260   13.305
  374.250   72.036    0.417    0.245   12.827
  374.500   73.242    0.434    0.227   11.698
  374.750   75.051    0.440    0.210   11.703
  375.000   76.257    0.449    0.217   12.380
  375.250   75.656    0.438    0.234   12.384
  375.500   75.657    0.429    0.248   12.389
  375.750   76.261    0.421    0.252   11.091
  376.000   78.672    0.431    0.221   10.114
  376.250   79.878    0.438    0.204    9.751
  376.500   80.483    0.455    0.221    9.757
  376.750   79.881    0.470    0.210    9.943
  377.000   69.642    0.483    0.236   11.326
  377.250   66.028    0.463    0.276   12.429
  377.500   60.006    0.446    0.289   13.640
  377.750   58.803    0.437    0.293   14.971
  378.000   58.201    0.428    0.303   15.542
  378.250   57.600    0.423    0.312   15.841
  378.500   57.000    0.440    0.309   16.147
  378.750   55.797    0.451    0.300   16.453
  379.000   55.196    0.457    0.281   15.862
  379.250   52.787    0.461    0.297   15.576
  379.500   49.174    0.464    0.310   15.583
  379.750   47.971    0.443    0.312   15.592
  380.000   46.768    0.441    0.322   15.890
  380.250   47.974    0.452    0.327   16.497
  380.500   47.373    0.438    0.313   16.813
  380.750   47.374    0.433    0.299   17.139
  381.000   47.979    0.419    0.301   17.145
  381.250   47.979    0.432    0.285   17.151
  381.500   47.379    0.414    0.256   16.843
  381.750   46.778    0.391    0.241   16.544
  382.000   46.177    0.386    0.237   16.549
  382.250   45.575    0.386    0.247   16.559
  382.500   44.975    0.411    0.263   16.877
  382.750   44.976    0.425    0.278   16.885
  383.000   44.376    0.417    0.292   17.209
  383.250   43.774    0.425    0.281   17.217
  383.500   43.776    0.432    0.286   17.547
  383.750   43.778    0.437    0.300   17.877
  384.000   43.779    0.441    0.307   18.220
  384.250   43.780    0.445    0.316   18.918
  384.500   43.782    0.444    0.321   19.284
  384.750   45.591    0.429    0.327   17.911
  385.000   46.194    0.419    0.328   17.917
  385.250   46.196    0.423    0.329   17.925
  385.500   46.197    0.431    0.330   17.936
  385.750   46.199    0.435    0.329   17.942
  386.000   46.803    0.444    0.324   17.624
  386.250   47.407    0.452    0.320   17.629
  386.500   48.010    0.445    0.315   17.314
  386.750   48.614    0.433    0.311   17.323
  387.000   49.218    0.433    0.316   17.328
  387.250   49.219    0.446    0.323   17.339
  387.500   49.221    0.453    0.330   17.344
  387.750   48.620    0.453    0.334   17.036
  388.000   49.224    0.449    0.336   17.044
  388.250   49.828    0.450    0.332   17.052
  388.500   51.034    0.460    0.327   17.057
  388.750   51.638    0.463    0.323   17.069
  389.000   52.845    0.455    0.327   17.075
  389.250   53.448    0.450    0.336   16.767
  389.500   52.847    0.450    0.333   16.776
  389.750   51.644    0.453    0.328   16.784
  390.000   51.646    0.461    0.332   16.791
  390.250   52.250    0.463    0.338   16.796
  390.500   53.456    0.466    0.328   16.806
  390.750   55.265    0.472    0.324   16.811
  391.000   56.471    0.478    0.322   16.823
  391.250   57.074    0.481    0.334   16.520
  391.500   58.281    0.469    0.335   16.526
  391.750   58.885    0.456    0.321   16.532
  392.000   59.489    0.456    0.313   16.545
  392.250   58.285    0.464    0.313   16.550
  392.500   55.878    0.476    0.317   16.556
  392.750   55.276    0.472    0.335   16.562
  393.000   54.675    0.462    0.346   16.267
  393.250   54.075    0.460    0.322   16.580
  393.500   54.678    0.462    0.328   16.588
  393.750   55.282    0.470    0.334   16.593
  394.000   56.489    0.474    0.334   16.298
  394.250   56.490    0.475    0.333   16.305
  394.500   56.491    0.457    0.330   16.310
  394.750   56.492    0.445    0.324   16.318
  395.000   55.891    0.457    0.322   16.025
  395.250   54.086    0.462    0.319   16.033
  395.500   53.485    0.468    0.323   16.040
  395.750   52.884    0.469    0.336   15.753
  396.000   54.090    0.467    0.341   15.471
  396.250   58.309    0.461    0.344   14.373
  396.500   60.117    0.452    0.333   12.399
  396.750   63.733    0.449    0.319    9.932
  397.000   67.952    0.462    0.309    7.253
  397.250   69.760    0.479    0.303    5.919
  397.500   69.159    0.515    0.294    5.202
  397.750   68.558    0.526    0.303    5.015
  398.000   69.765    0.515    0.321    5.017
  398.250   70.971    0.509    0.303    4.927
  398.500   72.177    0.510    0.293    5.022
  398.750   72.781    0.531    0.283    5.024
  399.000   72.782    0.552    0.274    4.497
  399.250   72.182    0.562    0.274    3.952
  399.500   70.978    0.575    0.287    3.604
  399.750   69.173    0.584    0.309    3.540
  400.000   67.969    0.572    0.317    3.744
  400.250   66.766    0.539    0.309    4.425
  400.500   64.358    0.544    0.315    5.040
  400.750   62.553    0.527    0.322    5.957
  401.000   62.553    0.504    0.324    6.417
  401.250   63.157    0.510    0.327    6.914
  401.500   66.171    0.515    0.305    7.178
  401.750   67.980    0.507    0.275    7.181
