~VERSION INFORMATION
 VERS.                 2.0:   CWLS LOG ASCII STANDARD -VERSION 2.0
 WRAP.                  NO:   ONE LINE PER DEPTH STEP
~WELL INFORMATION BLOCK
#MNEM.UNIT           DATA                    DESCRIPTION OF MNEMONIC
#---------    -------------------            -------------------------------
# Generated from Intellog Unique Number	CN_91_93/WELL/3265
WELL.         PARAMOUNT RESOURCES LTD.       : Well_name    - WELL
LOC .         00/14-03-093-19W4/0            : Location     - LOCATION
UWI .         00/14-03-093-19W4/0            : Uwi          - UNIQUE WELL ID
ENTR.         JOETTE                         : Entered      - ENTERED BY
SRVC.         COMPUTALOG                     : Scn          - SERVICE COMPANY
DATE.         04/29/92                       : Date         - LOG DATE
STRT.M        95                             : top_depth    - START DEPTH
STOP.M        260                            : bot_depth    - STOP DEPTH
STEP.M        0.25                           : increment    - STEP LENGTH
 NULL. -999.2500:NULL Value
~CURVE INFORMATION BLOCK
#MNEM UNIT       ERCB CURVE CODE    CURVE DESCRIPTION
#-----------   ------------------   ----------------------------------
DEPT.M        00 001 00 00         : DEPTH        - DEPTH
CALI.MM       00 280 01 00         : CAL          - CALIPER
GR  .API      00 310 00 00         : GR           - GAMMA RAY
NPHI.V/V      00 330 00 00         : PHIN         - NEUTRON POROSITY (SANDSTONE)
DPHI.V/V      00 890 00 00         : PHID         - DENSITY POROSITY (SANDSTONE)
ILD .OHMM     00 120 00 00         : RESD         - DEEP RESISTIVITY (DIL)
~PARAMETER INFORMATION
#MNEM.UNIT           DATA             DESCRIPTION OF MNEMONIC
#---------         -----------     ------------------------------
GL  .M        519.8                : gl           - GROUND LEVEL ELEVATION
EREF.M        523.2                : kb           - ELEVATION OF DEPTH REFERENCE
DATM.M        523.2                : datum        - DATUM ELEVATION
TDD .M        260.5                : tdd          - TOTAL DEPTH DRILLER
RUN .         ONE                  : Run          - RUN NUMBER
ENG .         BILL                 : Engineer     - RECORDING ENGINEER
WIT .         JIM                  : Witness      - WITNESSED BY
MUD .         GEL                  : Mud_type     - MUD TYPE
MATR.         SANDSTONE            : Logunit      - NEUTRON MATRIX
TMAX.C        18                   : BHT          - MAXIMUM RECORDED TEMPERATURE
BHTD.M        260.5                : BHTDEP       - MAXIMUM RECORDED TEMPERATURE
RMT .C        18.9                 : MDTP         - TEMPERATURE OF MUD
MUDD.KG/M     1080                 : MWT          - MUD DENSITY
NEUT.         1                    : NEUTRON      - NEUTRON TYPE
RESI.         0                    : RESIST       - RESISTIVITY TYPE
RM  .OHMM     2.5                  : RM           - RESISTIVITY OF MUD
RMC .OHMM     2.5                  : RMC          - RESISTIVITY OF MUD CAKE
RMF .OHMM     2.5                  : RMF          - RESISTIVITY OF MUD FILTRATE
SUFT.C        4                    : SUFT         - SURFACE TEMPERATURE
~A  DEPTH      CAL       GR     PHIN     PHID     RESD
# ...
  131.500  169.908  104.258    0.429    0.256    5.848
  131.750  176.952  110.292    0.421    0.241    5.484
  132.000  177.482  115.423    0.429    0.208    5.238
  132.250  179.517  110.627    0.445    0.174    4.957
  132.500  172.029  110.043    0.462    0.145    4.648
  132.750  168.050  119.689    0.476    0.180    4.608
  133.000  168.577  124.221    0.476    0.203    4.740
  133.250  176.126  121.230    0.478    0.229    4.875
  133.500  172.147  117.635    0.482    0.219    5.109
  133.750  172.674  113.441    0.477    0.226    5.304
  134.000  174.210  107.742    0.451    0.246    5.456
  134.250  168.223  107.461    0.438    0.256    5.613
  134.500  165.247  111.993    0.446    0.252    5.616
  134.750  173.294  115.317    0.455    0.241    5.566
  135.000  176.331  115.036    0.461    0.233    5.517
  135.250  173.352  111.746    0.459    0.235    5.419
  135.500  167.869  110.259    0.465    0.241    5.371
  135.750  171.909  111.179    0.465    0.244    5.227
  136.000  177.453  112.397    0.461    0.247    5.229
  136.250  179.487  111.512    0.458    0.245    5.793
  136.500  178.012  100.098    0.452    0.242    6.537
  136.750  179.548   90.188    0.438    0.236    7.376
  137.000  172.554   85.695    0.430    0.201    8.402
  137.250  161.055   89.022    0.413    0.185    8.887
  137.500  161.593   91.143    0.395    0.251    9.312
  137.750  162.116   92.363    0.411    0.271    9.145
  138.000  162.646   93.285    0.417    0.268    8.655
  138.250  164.684   95.709    0.425    0.254    8.115
  138.500  165.715  106.857    0.436    0.237    7.752
  138.750  168.251  103.868    0.427    0.202    7.474
  139.000  170.787  100.273    0.414    0.152    7.273
  139.250  161.791   94.575    0.410    0.088    7.077
  139.500  163.324  109.936    0.429    0.122    6.886
  139.750  163.356  122.889    0.437    0.149    6.577
  140.000  174.913  120.199    0.452    0.184    6.111
  140.250  175.443  123.833    0.469    0.200    5.783
  140.500  170.967  120.837    0.465    0.195    5.323
  140.750  168.994  116.342    0.461    0.177    4.945
  141.000  167.010  119.368    0.473    0.158    4.427
  141.250  166.036  123.298    0.481    0.174    4.113
  141.500  169.578  124.518    0.468    0.201    3.928
  141.750  171.609  121.528    0.465    0.227    3.684
  142.000  170.635  122.449    0.475    0.239    3.519
  142.250  173.679  121.867    0.488    0.249    3.392
  142.500  173.210  120.077    0.505    0.257    3.240
  142.750  172.734  116.483    0.521    0.260    3.153
  143.000  173.765  115.598    0.515    0.248    3.125
  143.250  174.793  115.015    0.515    0.234    3.127
  143.500  175.323  113.531    0.518    0.252    3.247
  143.750  174.353  114.152    0.503    0.274    3.982
  144.000  174.883  115.669    0.475    0.278    4.330
  144.250  175.922  113.280    0.463    0.266    5.411
  144.500  174.439  104.874    0.463    0.246    6.050
  144.750  174.472   99.175    0.436    0.226    6.701
  145.000  171.492   99.496    0.428    0.220    7.776
  145.250  170.014   96.803    0.424    0.216    8.939
  145.500  174.057   92.308    0.382    0.207   11.378
  145.750  173.584   82.699    0.352    0.174   12.372
  146.000  165.090   73.090    0.316    0.138   13.706
  146.250  158.100   72.205    0.308    0.096   13.969
  146.500  158.136   83.957    0.315    0.172   13.220
  146.750  160.664   91.495    0.328    0.190   11.618
  147.000  160.696   93.018    0.365    0.223   10.023
  147.250  165.739   97.546    0.381    0.240    8.727
  147.500  163.265  102.077    0.401    0.228    8.414
  147.750  170.309   96.680    0.395    0.213    8.574
  148.000  177.357   92.189    0.384    0.231    8.659
  148.250  176.884   95.212    0.379    0.239    8.503
  148.500  169.396   98.837    0.387    0.225    7.973
  148.750  168.924  104.570    0.404    0.218    7.617
  149.000  175.975  112.113    0.417    0.209    7.343
  149.250  182.021  110.624    0.425    0.206    7.415
  149.500  173.021  103.421    0.409    0.247    9.011
  149.750  160.014   91.405    0.399    0.268    9.530
  150.000  161.547   80.292    0.400    0.206   12.020
  150.250  166.092   70.382    0.396    0.163   12.831
  150.500  163.614   74.611    0.397    0.210   13.198
  150.750  161.136   75.533    0.400    0.258   13.083
  151.000  161.165   78.559    0.380    0.285   13.965
  151.250  162.200   83.389    0.365    0.253   14.772
  151.500  161.229   82.504    0.348    0.204   14.641
  151.750  160.757   73.797    0.317    0.179   13.230
  152.000  160.281   69.302    0.300    0.128    9.054
  152.250  161.316   73.531    0.311    0.101    7.597
  152.500  161.846   87.386    0.351    0.179    6.676
  152.750  167.888  103.048    0.386    0.219    6.145
  153.000  176.440  104.873    0.426    0.231    5.252
  153.250  174.470  108.197    0.455    0.236    5.064
  153.500  169.987  105.206    0.453    0.240    5.405
  153.750  161.990  101.616    0.439    0.215    6.100
  154.000  163.523  101.332    0.439    0.196    7.277
  154.250  175.585  106.163    0.433    0.196    7.485
  154.500  181.136  109.491    0.407    0.200    7.772
  154.750  181.165  108.002    0.416    0.196    7.994
  155.000  178.185  105.615    0.426    0.191    8.148
  155.250  176.706  103.827    0.422    0.192    7.855
  155.500  177.738  103.544    0.418    0.197    7.644
  155.750  170.250  105.970    0.428    0.220    7.718
  156.000  165.261  104.180    0.437    0.235    8.471
  156.250  164.792   91.864    0.385    0.181   12.162
  156.500  159.302   75.035    0.322    0.063   15.057
  156.750  156.824   69.336    0.289    0.015   16.373
  157.000  156.359   79.882    0.267    0.057   16.842
  157.250  157.394   85.014    0.288    0.108   15.360
  157.500  159.425   94.662    0.323    0.149   14.402
  157.750  162.963   96.783    0.343    0.182   13.757
  158.000  159.479  100.410    0.360    0.195   13.263
  158.250  163.021  107.346    0.368    0.202   13.643
  158.500  171.075  106.463    0.369    0.211   16.427
  158.750  166.588   89.933    0.369    0.213   16.743
  159.000  159.598   78.218    0.366    0.132   17.544
  159.250  156.622   70.113    0.324    0.058   18.215
  159.500  156.654   81.865    0.322    0.043   18.224
  159.750  157.679   89.403    0.359    0.099   17.247
  160.000  159.717   90.924    0.376    0.193   15.729
  160.250  164.265   89.138    0.384    0.226   14.613
  160.500  164.287   91.560    0.380    0.243   13.701
  160.750  163.821   95.793    0.379    0.246   12.967
  161.000  165.354   98.516    0.390    0.241   12.159
  161.250  168.388  100.338    0.412    0.232   11.400
  161.500  163.900   97.046    0.415    0.229   10.113
  161.750  174.462   91.348    0.395    0.229    9.138
  162.000  170.981   88.056    0.392    0.215    8.030
  162.250  153.963   97.403    0.404    0.212    6.614
  162.500  162.014  104.941    0.397    0.218    5.921
  162.750  174.076  109.168    0.398    0.220    5.350
  163.000  179.122  109.185    0.424    0.222    5.304
  163.250  176.644  106.800    0.450    0.226    6.040
  163.500  175.670  102.905    0.461    0.227    7.832
  163.750  174.696   94.800    0.430    0.231    9.257
  164.000  171.720   85.792    0.392    0.221   13.169
  164.250  166.731   74.075    0.370    0.197   15.711
  164.500  160.242   68.379    0.364    0.231   16.463
  164.750  158.767   71.707    0.364    0.258   17.250
  165.000  158.305   74.733    0.373    0.297   16.325
  165.250  158.327   76.553    0.390    0.246   12.838
  165.500  158.861   79.879    0.383    0.211   10.477
  165.750  160.394   88.322    0.374    0.189    9.206
  166.000  165.433   98.868    0.377    0.223    8.091
  166.250  174.493  102.495    0.385    0.231    6.915
  166.500  174.021  106.726    0.403    0.215    6.855
  166.750  173.545  109.150    0.419    0.207    7.052
  167.000  170.064  110.072    0.421    0.206    7.668
  167.250  167.586  104.674    0.417    0.209    8.338
  167.500  156.083  100.478    0.405    0.210   10.228
  167.750  164.635   95.682    0.403    0.206   10.918
