~VERSION INFORMATION
 VERS.                 2.0:   CWLS LOG ASCII STANDARD -VERSION 2.0
 WRAP.                  NO:   ONE LINE PER DEPTH STEP
~WELL INFORMATION BLOCK
#MNEM.UNIT           DATA                    DESCRIPTION OF MNEMONIC
#---------    -------------------            -------------------------------
# Generated from Intellog Unique Number	CW_70_72/WELL/1037
NULL.         -999.25                        : NULL_VALUE
WELL.         SULPETRO SMITH 10-15           : Well_name    - WELL              
LOC .         10-15-071-26W4                 : Location     - LOCATION          
UWI .         00/10-15-071-26W4/0            : Uwi          - UNIQUE WELL ID    
ENTR.         JAYE                           : Entered      - ENTERED BY        
SRVC.         SCHLUMBERGER                   : Scn          - SERVICE COMPANY   
DATE.         24 FEB 72                      : Date         - LOG DATE          
STRT.M        426.11                         : top_depth    - START DEPTH       
STOP.M        685.86                         : bot_depth    - STOP DEPTH        
STEP.M        0.25                           : increment    - STEP LENGTH       
~CURVE INFORMATION BLOCK
#MNEM UNIT       ERCB CURVE CODE    CURVE DESCRIPTION
#-----------   ------------------   ----------------------------------
DEPT.M        00 001 00 00         : DEPTH        - DEPTH                       
DPHI.V/V      00 890 00 00         : PHID         - DENSITY POROSITY (SANDSTONE)
NPHI.V/V      00 330 00 00         : PHIN         - NEUTRON POROSITY (SANDSTONE)
GR  .API      00 310 00 00         : GR           - GAMMA RAY                   
CALI.MM       00 280 01 00         : CAL          - CALIPER                     
ILD .OHMM     00 120 00 00         : RESD         - DEEP RESISTIVITY (DIL)      
~PARAMETER INFORMATION       
#MNEM.UNIT           DATA             DESCRIPTION OF MNEMONIC
#---------         -----------     ------------------------------
GL  .M        617.22               : gl           - GROUND LEVEL ELEVATION      
EREF.M        620.573              : kb           - ELEVATION OF DEPTH REFERENCE
DATM.M        617.22               : datum        - DATUM ELEVATION             
TDD .M        701.04               : tdd          - TOTAL DEPTH DRILLER         
RUN .         ONE                  : Run          - RUN NUMBER                  
ENG .         ASHTON               : Engineer     - RECORDING ENGINEER          
WIT .         DRUMMOND             : Witness      - WITNESSED BY                
BASE.         LLOYD                : Branch       - HOME BASE OF LOGGING UNIT   
MUD .         CHEM GEL             : Mud_type     - MUD TYPE                    
MATR.         SANDSTONE            : Logunit      - NEUTRON MATRIX              
TMAX.C        26.6667              : BHT          - MAXIMUM RECORDED TEMPERATURE
BHTD.M        701.04               : BHTDEP       - MAXIMUM RECORDED TEMPERATURE
RMT .C        15.5556              : MDTP         - TEMPERATURE OF MUD          
MUDD.KG/M     1224                 : MWT          - MUD DENSITY                 
NEUT.         1                    : NEUTRON      - NEUTRON TYPE                
RESI.         0                    : RESIST       - RESISTIVITY TYPE            
RM  .OHMM     3.04                 : RM           - RESISTIVITY OF MUD          
RMC .OHMM     2.3                  : RMC          - RESISTIVITY OF MUD CAKE     
RMF .OHMM     2.66                 : RMF          - RESISTIVITY OF MUD FILTRATE 
SUFT.C        0                    : SUFT         - SURFACE TEMPERATURE         
~A  DEPTH     PHID     PHIN       GR      CAL     RESD
# ...
  535.610    0.092    0.216   69.462  184.088    9.685
  535.860    0.099    0.267   72.779  181.646    7.476
  536.110    0.148    0.318   77.863  178.693    5.292
  536.360    0.226    0.351   82.526  175.838    4.304
  536.610    0.257    0.378   82.977  176.294    4.033
  536.860    0.246    0.365   83.487  177.048    4.051
  537.110    0.242    0.382   84.059  177.914    4.083
  537.360    0.232    0.373   79.875  178.477    4.068
  537.610    0.215    0.365   81.606  178.925    3.926
  537.860    0.223    0.357   83.643  179.382    3.679
  538.110    0.227    0.362   86.592  179.833    3.433
  538.360    0.248    0.378   90.218  180.494    3.290
  538.610    0.244    0.433   91.034  180.324    3.299
  538.860    0.251    0.402   85.935  180.366    3.459
  539.110    0.257    0.382   87.785  180.720    3.715
  539.360    0.229    0.360   87.200  181.262    4.155
  539.610    0.201    0.330   86.126  181.722    4.370
  539.860    0.172    0.346   86.087  181.959    4.236
  540.110    0.194    0.375   86.659  181.602    3.918
  540.360    0.208    0.396   87.415  181.435    3.719
  540.610    0.213    0.380   89.881  181.779    3.592
  540.860    0.218    0.345   89.839  182.958    3.545
  541.110    0.198    0.398   92.367  183.822    3.538
  541.360    0.211    0.436   95.625  183.764    3.619
  541.610    0.223    0.413   93.449  183.179    3.779
  541.860    0.188    0.386   91.646  183.324    4.027
  542.110    0.161    0.368   90.325  183.980    4.331
  542.360    0.150    0.357   92.911  185.261    4.611
  542.610    0.155    0.368   96.903  186.335    4.788
  542.860    0.163    0.357   95.032  187.517    4.772
  543.110    0.161    0.342   92.740  188.681    4.869
  543.360    0.154    0.353   92.092  188.835    5.165
  543.610    0.173    0.365   94.495  188.666    5.509
  543.860    0.158    0.327   84.879  187.882    5.837
  544.110    0.120    0.274   75.447  187.193    6.467
  544.360    0.077    0.254   70.590  186.928    7.633
  544.610    0.088    0.268   72.383  187.483    8.200
  544.860    0.099    0.268   76.796  187.208    8.432
  545.110    0.121    0.284   80.056  184.357    8.306
  545.360    0.153    0.309   85.261  182.439    7.843
  545.610    0.176    0.319   88.034  181.240    6.321
  545.860    0.145    0.324   92.875  180.553    5.325
  546.110    0.172    0.361   97.049  180.596    4.600
  546.360    0.190    0.396   96.093  180.632    4.123
  546.610    0.201    0.383   98.069  180.773    3.956
  546.860    0.191    0.371  100.472  181.332    3.989
  547.110    0.168    0.386  102.388  183.436    4.069
  547.360    0.175    0.405  102.779  184.511    4.134
  547.610    0.190    0.417  102.313  184.658    4.207
  547.860    0.188    0.383   99.467  184.696    4.288
  548.110    0.179    0.384  101.991  184.839    4.287
  548.360    0.187    0.392  104.945  184.983    4.321
  548.610    0.164    0.390  109.118  185.126    4.409
  548.860    0.180    0.392  108.228  185.057    4.515
  549.110    0.184    0.408  107.088  185.203    4.522
  549.360    0.174    0.385  103.513  184.934    4.548
  549.610    0.189    0.369  100.241  184.665    4.636
  549.860    0.159    0.386  102.404  184.082    4.685
  550.110    0.170    0.375  102.610  184.221    4.598
  550.360    0.190    0.387   98.852  184.780    4.527
  550.610    0.184    0.401  103.630  185.441    4.505
  550.860    0.158    0.389  103.352  186.101    4.466
  551.110    0.166    0.362  101.301  187.172    4.411
  551.360    0.168    0.370   98.823  188.351    4.402
  551.610    0.194    0.383  100.736  188.908    4.563
  551.860    0.174    0.393  103.141  188.736    4.635
  552.110    0.165    0.388  103.348  188.154    4.589
  552.360    0.176    0.372  105.562  187.065    4.597
  552.610    0.193    0.363  104.431  186.588    4.606
  552.860    0.194    0.382  101.221  186.524    4.496
  553.110    0.169    0.399  102.038  187.393    4.448
  553.360    0.135    0.412  109.626  187.943    4.393
  553.610    0.138    0.441  113.249  188.500    4.442
  553.860    0.136    0.436  107.472  188.644    4.555
  554.110    0.160    0.403  104.205  188.170    4.579
  554.360    0.177    0.402  102.584  186.866    4.588
  554.610    0.193    0.385  105.104  185.354    4.501
  554.860    0.178    0.374  106.900  183.743    4.342
  555.110    0.181    0.399  105.030  184.402    4.303
  555.360    0.175    0.394  103.224  186.306    4.200
  555.610    0.163    0.401  103.552  188.307    4.281
  555.860    0.160    0.429  104.555  188.762    4.466
  556.110    0.168    0.404  106.956  188.897    4.650
  556.360    0.186    0.426  107.224  188.531    4.986
  556.610    0.206    0.443  102.062  188.259    5.354
  556.860    0.193    0.455   96.474  187.671    5.808
  557.110    0.223    0.448   94.119  187.196    6.353
  557.360    0.240    0.422   96.522  186.199    6.504
  557.610    0.197    0.400  104.109  185.728    6.489
  557.860    0.174    0.392  106.022  185.253    6.410
  558.110    0.162    0.404  100.863  185.089    6.331
  558.360    0.182    0.366   94.845  185.233    6.595
  558.610    0.168    0.351   88.585  185.886    6.700
  558.860    0.175    0.352   91.538  186.963    6.326
  559.110    0.165    0.339   92.900  188.554    6.072
  559.360    0.153    0.333   94.144  189.628    6.057
  559.610    0.152    0.338   94.415  189.869    6.081
  559.860    0.166    0.359   94.374  190.017    6.138
  560.110    0.163    0.351   94.582  189.943    6.322
  560.360    0.164    0.345   94.726  189.986    6.682
  560.610    0.144    0.349   94.326  190.030    7.057
  560.860    0.139    0.357   92.092  189.857    7.720
  561.110    0.157    0.342   88.271  189.491    8.407
  561.360    0.145    0.288   83.659  189.017    8.854
  561.610    0.146    0.291   79.715  188.638    8.058
  561.860    0.179    0.332   82.853  188.376    6.854
  562.110    0.192    0.351   84.279  188.306    5.850
  562.360    0.204    0.349   84.975  188.448    5.094
  562.610    0.194    0.362   89.631  188.483    4.632
  562.860    0.202    0.410   91.972  188.618    4.337
  563.110    0.202    0.437   91.328  188.670    4.123
  563.360    0.202    0.394   90.925  188.822    4.084
  563.610    0.188    0.386   92.473  188.739    4.531
  563.860    0.177    0.402   94.326  188.375    5.186
  564.110    0.175    0.412   94.412  188.522    5.745
  564.360    0.168    0.377   89.613  188.671    5.794
  564.610    0.197    0.356   88.478  188.498    5.556
  564.860    0.183    0.342   92.772  188.432    5.262
  565.110    0.163    0.354   94.441  188.274    4.912
  565.360    0.180    0.357   95.933  188.613    4.801
  565.610    0.190    0.366   97.480  188.757    5.080
  565.860    0.188    0.372   97.260  188.701    5.328
  566.110    0.167    0.372   95.879  188.942    5.537
  566.360    0.150    0.361   92.610  188.886    5.641
  566.610    0.157    0.341   91.230  188.911    5.675
  566.860    0.130    0.356   90.273  188.960    5.683
  567.110    0.144    0.365   89.874  188.685    5.572
  567.360    0.175    0.356   91.728  188.612    5.461
  567.610    0.172    0.357   93.765  188.563    5.430
  567.860    0.169    0.343   94.641  188.496    5.502
  568.110    0.170    0.347   99.241  188.425    5.703
  568.360    0.164    0.336   99.873  188.262    5.927
  568.610    0.152    0.339   99.958  188.313    5.841
  568.860    0.130    0.354  103.278  188.347    5.602
  569.110    0.154    0.344  105.863  188.285    5.404
  569.360    0.148    0.368  102.773  188.639    5.254
  569.610    0.147    0.374  100.967  188.879    5.253
  569.860    0.148    0.362  101.296  189.121    5.326
  570.110    0.146    0.333  102.173  189.072    5.455
  570.360    0.147    0.345  103.113  189.111    5.352
  570.610    0.134    0.351  101.854  189.045    5.122
  570.860    0.143    0.348  100.964  189.185    4.930
  571.110    0.139    0.353  103.791  189.537    4.764
  571.360    0.122    0.366  107.293  189.677    4.598
  571.610    0.135    0.351  104.267  189.813    4.471
  571.860    0.130    0.362  105.567  189.968    4.376
