~VERSION INFORMATION
 VERS.                 2.0:   CWLS LOG ASCII STANDARD -VERSION 2.0
 WRAP.                  NO:   ONE LINE PER DEPTH STEP
~WELL INFORMATION BLOCK
#MNEM.UNIT           DATA                    DESCRIPTION OF MNEMONIC
#---------    -------------------            -------------------------------
# Generated from Intellog Unique Number	CW_73_75/WELL/1052
WELL.         MANNVILLE ER AL FRANCIS 15-08  : Well_name    - WELL
LOC .         00/15-08-074-22W4/0            : Location     - LOCATION
UWI .         00/15-08-074-22W4/0            : Uwi          - UNIQUE WELL ID
ENTR.         JAYE                           : Entered      - ENTERED BY
SRVC.         SCHLUMBERGER                   : Scn          - SERVICE COMPANY
DATE.         4 DEC 81                       : Date         - LOG DATE
STRT.M        365                            : top_depth    - START DEPTH
STOP.M        587                            : bot_depth    - STOP DEPTH
STEP.M        0.25                           : increment    - STEP LENGTH
 NULL. -999.2500:NULL Value
~CURVE INFORMATION BLOCK
#MNEM UNIT       ERCB CURVE CODE    CURVE DESCRIPTION
#-----------   ------------------   ----------------------------------
DEPT.M        00 001 00 00         : DEPTH        - DEPTH
CALI.MM       00 280 01 00         : CAL          - CALIPER
GR  .API      00 310 00 00         : GR           - GAMMA RAY
NPHI.V/V      00 330 00 00         : PHIN         - NEUTRON POROSITY (SANDSTONE)
DPHI.V/V      00 890 00 00         : PHID         - DENSITY POROSITY (SANDSTONE)
ILD .OHMM     00 120 00 00         : RESD         - DEEP RESISTIVITY (DIL)
~PARAMETER INFORMATION
#MNEM.UNIT           DATA             DESCRIPTION OF MNEMONIC
#---------         -----------     ------------------------------
GL  .M        655.1                : gl           - GROUND LEVEL ELEVATION
EREF.M        658                  : kb           - ELEVATION OF DEPTH REFERENCE
DATM.M        655.1                : datum        - DATUM ELEVATION
TDD .M        588                  : tdd          - TOTAL DEPTH DRILLER
RUN .         ONE                  : Run          - RUN NUMBER
ENG .         WRIGHT               : Engineer     - RECORDING ENGINEER
WIT .         SAMOTA               : Witness      - WITNESSED BY
BASE.         WAUN                 : Branch       - HOME BASE OF LOGGING UNIT
MUD .         GEL CHEM             : Mud_type     - MUD TYPE
MATR.         SANDSTONE            : Logunit      - NEUTRON MATRIX
TMAX.C        25.5                 : BHT          - MAXIMUM RECORDED TEMPERATURE
BHTD.M        588.5                : BHTDEP       - MAXIMUM RECORDED TEMPERATURE
RMT .C        15.5                 : MDTP         - TEMPERATURE OF MUD
MUDD.KG/M     1100                 : MWT          - MUD DENSITY
NEUT.         1                    : NEUTRON      - NEUTRON TYPE
RESI.         0                    : RESIST       - RESISTIVITY TYPE
RM  .OHMM     4.098                : RM           - RESISTIVITY OF MUD
RMC .OHMM     0                    : RMC          - RESISTIVITY OF MUD CAKE
RMF .OHMM     3.54                 : RMF          - RESISTIVITY OF MUD FILTRATE
SUFT.C        0                    : SUFT         - SURFACE TEMPERATURE
~A  DEPTH      CAL       GR     PHIN     PHID     RESD
# ...
  511.000  159.967  100.034    0.440    0.175    6.379
  511.250  160.028  107.186    0.438    0.177    6.273
  511.500  160.305  111.062    0.432    0.173    6.180
  511.750  160.271  109.865    0.425    0.173    6.076
  512.000  160.232  104.334    0.420    0.178    5.975
  512.250  160.504  103.633    0.420    0.182    5.908
  512.500  160.673  104.725    0.424    0.181    5.864
  512.750  161.152  107.670    0.416    0.179    5.864
  513.000  158.225  112.907    0.425    0.175    5.898
  513.250  156.641  112.574    0.442    0.172    6.009
  513.500  156.090  110.821    0.433    0.176    6.215
  513.750  157.702  105.355    0.407    0.183    6.428
  514.000  159.312   98.713    0.387    0.159    6.587
  514.250  159.485   99.805    0.392    0.152    6.392
  514.500  159.238  103.925    0.419    0.183    6.169
  514.750  158.274  101.863    0.428    0.188    6.078
  515.000  157.929  100.480    0.429    0.186    6.010
  515.250  158.097   99.715    0.428    0.188    5.943
  515.500  158.164   96.167    0.413    0.187    5.932
  515.750  158.126   99.917    0.403    0.184    5.965
  516.000  158.084  106.327    0.421    0.185    6.010
  516.250  157.742  106.862    0.433    0.182    6.044
  516.500  157.697  106.840    0.430    0.179    6.112
  516.750  157.976  105.146    0.414    0.186    6.135
  517.000  158.143  102.401    0.404    0.178    6.090
  517.250  158.309  100.463    0.403    0.172    6.090
  517.500  158.586  100.873    0.410    0.190    6.136
  517.750  159.268  108.521    0.423    0.196    6.159
  518.000  159.949  112.891    0.429    0.180    6.136
  518.250  160.329  112.002    0.421    0.170    6.090
  518.500  160.085  109.072    0.411    0.174    6.056
  518.750  160.049  106.511    0.419    0.179    6.011
  519.000  160.218  104.328    0.433    0.177    6.011
  519.250  160.180  104.861    0.442    0.168    6.011
  519.500  160.034  109.539    0.438    0.162    6.011
  519.750  160.102  112.301    0.439    0.170    5.989
  520.000  160.373  110.423    0.430    0.181    5.845
  520.250  160.952  105.204    0.422    0.178    5.694
  520.500  161.123  103.635    0.424    0.166    5.547
  520.750  161.082  107.139    0.417    0.164    5.434
  521.000  160.638  106.248    0.415    0.176    5.313
  521.250  160.080  102.021    0.418    0.185    5.244
  521.500  159.530   97.794    0.423    0.186    5.293
  521.750  159.187   98.202    0.418    0.174    5.454
  522.000  158.831  100.285    0.416    0.166    5.578
  522.250  158.695   97.417    0.414    0.167    5.673
  522.500  158.455   93.806    0.416    0.176    5.737
  522.750  158.417   98.114    0.431    0.166    5.857
  523.000  158.484  102.545    0.441    0.170    5.957
  523.250  158.548   99.306    0.434    0.186    6.024
  523.500  158.513  100.583    0.430    0.197    6.092
  523.750  158.575  101.796    0.421    0.190    6.126
  524.000  158.847   99.302    0.420    0.172    6.150
  524.250  159.123   94.268    0.419    0.161    6.196
  524.500  159.391   95.545    0.417    0.148    6.243
  524.750  159.354  100.594    0.410    0.165    6.290
  525.000  159.318  102.055    0.395    0.177    6.361
  525.250  159.180   99.251    0.394    0.192    6.469
  525.500  158.520   95.455    0.389    0.205    6.554
  525.750  157.970   95.804    0.389    0.205    6.754
  526.000  157.724   96.833    0.408    0.205    7.487
  526.250  158.305   95.202    0.416    0.199    8.503
  526.500  159.198   78.788    0.383    0.164    9.251
  526.750  160.601   67.384    0.304    0.026    9.804
  527.000  162.317   64.145    0.208    0.023    9.131
  527.250  163.624   85.339    0.210    0.108    8.191
  527.500  160.488  105.854    0.249    0.159    6.960
  527.750  160.342  109.356    0.349    0.180    6.654
  528.000  160.727  111.372    0.377    0.165    6.244
  528.250  162.024  113.270    0.403    0.158    6.048
  528.500  162.199  114.917    0.401    0.166    6.003
  528.750  160.511  118.793    0.388    0.166    5.981
  529.000  159.647  118.522    0.400    0.161    6.015
  529.250  159.097  115.902    0.416    0.159    5.959
  529.500  158.953  111.550    0.417    0.160    6.094
  529.750  158.502   98.352    0.390    0.164    6.495
  530.000  157.846   95.360    0.381    0.178    7.159
  530.250  157.091   95.956    0.376    0.190    7.789
  530.500  156.437   97.787    0.374    0.196    7.803
  530.750  157.430   98.138    0.370    0.192    7.503
  531.000  158.113  100.280    0.362    0.190    7.336
  531.250  158.792  103.103    0.358    0.183    7.254
  531.500  159.167  107.041    0.363    0.179    7.323
  531.750  159.850  111.286    0.376    0.182    7.489
  532.000  160.024  100.191    0.391    0.174    8.117
  532.250  160.295   85.324    0.397    0.137    9.571
  532.500  160.055   73.858    0.298    0.040   12.534
  532.750  160.013   68.516    0.198    0.024   17.558
  533.000  160.392   61.009    0.205    0.027   20.055
  533.250  160.764   56.842    0.209    0.029   19.390
  533.500  160.927   67.150    0.196    0.024   17.041
  533.750  160.893   82.096    0.223    0.080   13.459
  534.000  160.963   91.723    0.286    0.120   10.913
  534.250  160.926   95.350    0.345    0.150    9.555
  534.500  160.680   99.534    0.364    0.160    8.685
  534.750  160.435  100.873    0.384    0.158    7.879
  535.000  160.194  100.665    0.405    0.150    7.449
  535.250  160.158  102.310    0.405    0.135    7.161
  535.500  160.224  104.640    0.389    0.133    6.924
  535.750  160.280  108.019    0.397    0.143    6.834
  536.000  160.047  109.915    0.400    0.156    6.873
  536.250  159.905  109.646    0.398    0.165    6.951
  536.500  159.967  106.159    0.401    0.164    6.964
  536.750  160.137  103.102    0.384    0.164    6.938
  537.000  160.306  104.197    0.380    0.168    6.835
  537.250  160.470  107.514    0.383    0.172    6.733
  537.500  160.743  106.192    0.392    0.168    6.658
  537.750  160.912  102.705    0.391    0.143    6.608
  538.000  161.087  104.354    0.387    0.121    6.572
  538.250  161.147  111.753    0.378    0.137    6.559
  538.500  161.012  117.176    0.377    0.151    6.523
  538.750  160.973  113.133    0.379    0.161    6.450
  539.000  160.727  105.316    0.376    0.147    6.390
  539.250  160.481  111.045    0.375    0.133    6.330
  539.500  160.347  117.519    0.372    0.143    6.295
  539.750  159.791  110.754    0.369    0.157    6.260
  540.000  159.647  104.544    0.368    0.161    6.225
  540.250  159.717  102.606    0.368    0.170    6.202
  540.500  159.987  101.284    0.367    0.148    6.179
  540.750  160.261  104.478    0.378    0.126    6.179
  541.000  160.227  106.867    0.378    0.154    5.974
  541.250  160.283  107.650    0.377    0.173    5.648
  541.500  160.457  111.463    0.400    0.187    5.182
  541.750  160.524  115.462    0.396    0.177    4.428
  542.000  160.898  115.192    0.377    0.166    3.898
  542.250  160.965  110.654    0.370    0.154    3.452
  542.500  161.133  112.362    0.395    0.178    2.999
  542.750  160.892  112.897    0.435    0.219    2.696
  543.000  160.855  110.090    0.543    0.238    2.427
  543.250  160.918  109.448    0.548    0.235    2.265
  543.500  160.987  111.283    0.518    0.225    2.190
  543.750  160.633  111.942    0.511    0.214    2.161
  544.000  160.493  111.237    0.517    0.207    2.170
  544.250  159.843  112.453    0.507    0.201    2.282
  544.500  159.491  111.256    0.511    0.198    2.641
  544.750  159.354  108.201    0.497    0.198    3.057
  545.000  159.212  110.098    0.455    0.167    3.728
  545.250  159.281  108.342    0.429    0.145    4.470
  545.500  159.244  107.392    0.386    0.111    5.030
  545.750  159.208  110.834    0.347    0.130    5.618
  546.000  159.375  116.441    0.394    0.157    5.976
  546.250  159.441  104.728    0.439    0.147    6.298
  546.500  159.507   76.808    0.395    0.050    6.637
  546.750  159.676   62.621    0.224    0.015    6.737
  547.000  159.843   86.474    0.200    0.049    6.600
  547.250  159.906  104.019    0.222    0.098    6.393
