~VERSION INFORMATION
 VERS.                 2.0:   CWLS LOG ASCII STANDARD -VERSION 2.0
 WRAP.                  NO:   ONE LINE PER DEPTH STEP
~WELL INFORMATION BLOCK
#MNEM.UNIT           DATA                    DESCRIPTION OF MNEMONIC
#---------    -------------------            -------------------------------
# Generated from Intellog Unique Number	CS_73_76/WELL/2191
WELL.         HOUSTON OILS LIMITED           : Well_name    - WELL
LOC .         00/10-16-074-17W4/0            : Location     - LOCATION
UWI .         00/10-16-074-17W4/0            : Uwi          - UNIQUE WELL ID
ENTR.         SP                             : Entered      - ENTERED BY
SRVC.         SCHLUMBERGER                   : Scn          - SERVICE COMPANY
STRT.M        234.696                        : top_depth    - START DEPTH
STOP.M        426.446                        : bot_depth    - STOP DEPTH
STEP.M        0.25                           : increment    - STEP LENGTH
 NULL. -999.2500:NULL Value
~CURVE INFORMATION BLOCK
#MNEM UNIT       ERCB CURVE CODE    CURVE DESCRIPTION
#-----------   ------------------   ----------------------------------
DEPT.M        00 001 00 00         : DEPTH        - DEPTH
GR  .API      00 310 00 00         : GR           - GAMMA RAY
DPHI.V/V      00 890 00 00         : PHID         - DENSITY POROSITY (SANDSTONE)
NPHI.V/V      00 330 00 00         : PHIN         - NEUTRON POROSITY (SANDSTONE)
ILD .OHMM     00 120 00 00         : RESD         - DEEP RESISTIVITY (DIL)
~PARAMETER INFORMATION
#MNEM.UNIT           DATA             DESCRIPTION OF MNEMONIC
#---------         -----------     ------------------------------
GL  .M        575.767              : gl           - GROUND LEVEL ELEVATION
EREF.M        578.206              : kb           - ELEVATION OF DEPTH REFERENCE
DATM.M        575.767              : datum        - DATUM ELEVATION
TDD .M        429.768              : tdd          - TOTAL DEPTH DRILLER
RUN .         ONE                  : Run          - RUN NUMBER
ENG .         BILL                 : Engineer     - RECORDING ENGINEER
WIT .         JIM                  : Witness      - WITNESSED BY
MUD .         GEL                  : Mud_type     - MUD TYPE
MATR.         SANDSTONE            : Logunit      - NEUTRON MATRIX
TMAX.C        21.1111              : BHT          - MAXIMUM RECORDED TEMPERATURE
BHTD.M        429.768              : BHTDEP       - MAXIMUM RECORDED TEMPERATURE
MATR.         1                    : LOGUNIT      - NEUTRON MATRIX
RMT .C        25                   : MDTP         - TEMPERATURE OF MUD
NEUT.         1                    : NEUTRON      - NEUTRON TYPE
RESI.         0                    : RESIST       - RESISTIVITY TYPE
RMC .OHMM     0.25                 : RMC          - RESISTIVITY OF MUD CAKE
RMF .OHMM     0.25                 : RMF          - RESISTIVITY OF MUD FILTRATE
SUFT.C        15                   : SUFT         - SURFACE TEMPERATURE
~A  DEPTH       GR     PHID     PHIN     RESD
  234.696  102.192    0.202    0.606    3.406
  234.946  102.669    0.197    0.615    3.239
  235.196  101.941    0.201    0.624    3.131
  235.446  105.234    0.187    0.639    2.995
  235.696  104.301    0.206    0.622    2.939
  235.946  102.055    0.193    0.645    2.884
  236.196  101.489    0.182    0.662    2.983
  236.446  104.367    0.179    0.665    3.068
  236.696  105.752    0.191    0.615    3.227
  236.946  105.131    0.181    0.630    3.275
  237.196  106.277    0.193    0.641    3.218
  237.446  107.611    0.206    0.664    3.159
  237.696  106.304    0.210    0.606    3.108
  237.946  105.841    0.201    0.616    3.042
  238.196  105.265    0.189    0.623    3.048
  238.446  101.001    0.192    0.624    3.048
  238.696   99.239    0.193    0.628    3.049
  238.946   99.961    0.186    0.635    3.045
  239.196   96.405    0.170    0.653    3.105
  239.446   93.548    0.168    0.615    3.167
  239.696   90.367    0.182    0.628    3.207
  239.946   83.729    0.206    0.645    3.431
  240.196   66.732    0.241    0.708    3.771
  240.446   58.662    0.336    0.784    4.436
  240.696   55.035    0.450    0.782    5.576
  240.946   60.426    0.467    0.729    6.909
  241.196   63.136    0.383    0.674    8.312
  241.446   61.629    0.309    0.632    9.434
  241.696   61.509    0.272    0.493    9.488
  241.946   63.364    0.287    0.469    8.925
  242.196   67.182    0.296    0.446    8.390
  242.446   68.669    0.278    0.445    8.153
  242.696   69.551    0.274    0.465    8.219
  242.946   71.972    0.262    0.464    8.483
  243.196   71.637    0.254    0.507    8.884
  243.446   69.285    0.238    0.508    9.187
  243.696   72.048    0.225    0.536    9.475
  243.946   78.666    0.222    0.492    9.787
  244.196   80.737    0.237    0.479    9.850
  244.446   83.096    0.243    0.487    9.310
  244.696   84.254    0.219    0.485    8.722
  244.946   79.697    0.221    0.488    7.935
  245.196   73.359    0.244    0.500    7.598
  245.446   68.251    0.257    0.503    7.562
  245.696   66.259    0.279    0.480    7.926
  245.946   68.298    0.288    0.492    8.284
  246.196   72.525    0.293    0.513    8.414
  246.446   85.115    0.302    0.468    8.316
  246.696   93.551    0.278    0.443    8.332
  246.946   96.053    0.248    0.477    8.189
  247.196   93.886    0.250    0.477    8.473
  247.446   93.183    0.259    0.461    8.855
  247.696   93.663    0.259    0.455    9.230
  247.946   92.661    0.257    0.449    9.470
  248.196   96.380    0.246    0.449    9.773
  248.446  102.875    0.227    0.453    9.826
  248.696  104.348    0.213    0.443    9.830
  248.946   96.776    0.226    0.444    9.830
  249.196   88.893    0.232    0.471    9.831
  249.446   80.683    0.251    0.474    9.822
  249.696   76.926    0.253    0.472   10.177
  249.946   72.190    0.261    0.446   10.604
  250.196   66.152    0.266    0.426   11.431
  250.446   65.003    0.251    0.416   12.611
  250.696   61.104    0.242    0.445   13.725
  250.946   62.349    0.252    0.444   14.631
  251.196   75.021    0.250    0.418   14.727
  251.446   80.446    0.239    0.442   14.294
  251.696   73.227    0.235    0.464   13.598
  251.946   70.225    0.271    0.461   12.934
  252.196   74.707    0.270    0.438   12.359
  252.446   80.923    0.242    0.432   11.875
  252.696   84.637    0.214    0.466   11.142
  252.946   90.653    0.210    0.495   10.179
  253.196   99.925    0.204    0.471    9.118
  253.446  106.522    0.147    0.510    7.849
  253.696  105.930    0.111    0.588    6.849
  253.946  109.925    0.096    0.581    6.310
  254.196  115.457    0.135    0.566    5.448
  254.446  114.504    0.159    0.628    5.123
  254.696  113.630    0.155    0.643    4.813
  254.946  116.809    0.140    0.635    4.600
  255.196  121.221    0.162    0.651    4.380
  255.446  119.312    0.191    0.692    4.162
  255.696  117.367    0.188    0.666    3.841
  255.946  115.047    0.173    0.656    3.635
  256.196  113.176    0.159    0.670    3.609
  256.446  117.248    0.145    0.652    3.650
  256.696  120.161    0.149    0.671    3.731
  256.946  121.450    0.151    0.692    3.610
  257.196  122.193    0.170    0.691    3.389
  257.446  121.714    0.181    0.665    3.264
  257.696  124.541    0.198    0.634    3.057
  257.946  119.206    0.214    0.577    3.159
  258.196  116.688    0.200    0.546    3.613
  258.446  112.140    0.209    0.496    4.188
  258.696  109.556    0.210    0.507    5.093
  258.946  110.786    0.191    0.531    5.916
  259.196  110.681    0.189    0.531    6.813
  259.446  109.014    0.192    0.543    7.260
  259.696  105.240    0.197    0.580    7.884
  259.946  101.157    0.205    0.562    7.774
  260.196   96.741    0.195    0.545    7.511
  260.446   92.344    0.187    0.539    7.055
  260.696   88.120    0.191    0.563    6.628
  260.946   80.971    0.170    0.634    6.391
  261.196   75.261    0.193    0.619    6.378
  261.446   68.382    0.249    0.476    7.414
  261.696   76.268    0.268    0.461    9.506
  261.946   81.602    0.269    0.451   10.511
  262.196   87.280    0.262    0.463   11.307
  262.446   91.844    0.265    0.506   11.848
  262.696   91.886    0.266    0.566   11.121
  262.946   88.254    0.264    0.583   10.220
  263.196   88.026    0.273    0.565   10.028
  263.446   88.938    0.257    0.546    9.719
  263.696   92.917    0.255    0.524    9.411
  263.946   98.665    0.212    0.552    8.674
  264.196  104.023    0.193    0.564    7.979
  264.446  107.399    0.224    0.597    7.563
  264.696  110.521    0.225    0.565    7.559
  264.946  112.780    0.213    0.500    7.754
  265.196  115.008    0.215    0.479    7.571
  265.446  108.448    0.224    0.484    7.359
  265.696   97.749    0.218    0.480    6.977
  265.946   91.993    0.189    0.527    6.780
  266.196   82.569    0.206    0.554    6.596
  266.446   76.932    0.244    0.473    7.005
  266.696   74.336    0.250    0.456    7.443
  266.946   74.250    0.244    0.454    7.799
  267.196   78.145    0.237    0.453    8.400
  267.446   83.503    0.227    0.422    8.626
  267.696   90.529    0.216    0.409    8.844
  267.946   94.460    0.212    0.409    8.409
  268.196   90.388    0.207    0.456    7.788
  268.446   84.361    0.204    0.533    7.384
  268.696   77.027    0.234    0.516    7.184
  268.946   73.470    0.258    0.493    7.416
  269.196   74.828    0.281    0.504    7.592
  269.446   77.308    0.298    0.527    7.737
  269.696   79.328    0.294    0.548    7.531
  269.946   84.221    0.273    0.561    6.754
  270.196   81.712    0.257    0.576    6.104
  270.446   75.885    0.241    0.632    5.512
  270.696   72.039    0.236    0.638    5.232
  270.946   67.024    0.230    0.608    6.003
  271.196   75.189    0.243    0.562    6.479
  271.446   81.402    0.289    0.535    6.970
  271.696   86.616    0.283    0.527    7.436
  271.946   88.224    0.268    0.504    7.645
  272.196   88.144    0.258    0.485    8.045
  272.446   90.432    0.265    0.499    8.183
  272.696   89.166    0.286    0.500    8.137
  272.946   85.748    0.285    0.482    8.031
  273.196   81.973    0.266    0.475    8.032
  273.446   82.550    0.255    0.454    8.035
  273.696   84.999    0.255    0.489    8.025
  273.946   87.066    0.253    0.509    8.201
  274.196   82.886    0.255    0.537    8.200
  274.446   81.153    0.260    0.536    8.484
  274.696   82.201    0.254    0.520    8.640
  274.946   84.350    0.232    0.517    8.820
  275.196   81.135    0.234    0.540    9.103
  275.446   80.386    0.223    0.491    9.318
  275.696   82.130    0.194    0.440    9.495
  275.946   84.347    0.182    0.443    9.330
  276.196   88.551    0.234    0.512    8.837
  276.446   86.457    0.217    0.507    8.060
  276.696   80.936    0.207    0.518    7.268
  276.946   72.484    0.221    0.551    6.759
  277.196   61.420    0.218    0.565    6.771
  277.446   55.096    0.250    0.520    7.245
  277.696   48.208    0.280    0.497    7.938
  277.946   46.234    0.289    0.473    8.427
