~VERSION INFORMATION
 VERS.                 2.0:   CWLS LOG ASCII STANDARD -VERSION 2.0
 WRAP.                  NO:   ONE LINE PER DEPTH STEP
~WELL INFORMATION BLOCK
#MNEM.UNIT           DATA                    DESCRIPTION OF MNEMONIC
#---------    -------------------            -------------------------------
# Generated from Intellog Unique Number	CX_WELLS/WELL/4063
WELL.         10-01-079-01W5                 : Well_name    - WELL
LOC .         00/10-01-079-01W5/0            : Location     - LOCATION
UWI .         00/10-01-079-01W5/0            : Uwi          - UNIQUE WELL ID
ENTR.         MAX                            : Entered      - ENTERED BY
SRVC.         COMPUTALOG                     : Scn          - SERVICE COMPANY
STRT.F        950                            : top_depth    - START DEPTH
STOP.F        1789.9                         : bot_depth    - STOP DEPTH
STEP.F        0.82                           : increment    - STEP LENGTH
 NULL. -999.2500:NULL Value
~CURVE INFORMATION BLOCK
#MNEM UNIT       ERCB CURVE CODE    CURVE DESCRIPTION
#-----------   ------------------   ----------------------------------
DEPT.F        00 001 00 00         : DEPTH        - DEPTH
ILD .OHMM     00 120 00 00         : RESD         - DEEP RESISTIVITY (DIL)
GR  .API      00 310 00 00         : GR           - GAMMA RAY
NPHI.V/V      00 330 00 00         : PHIN         - NEUTRON POROSITY (SANDSTONE)
DPHI.V/V      00 890 00 00         : PHID         - DENSITY POROSITY (SANDSTONE)
~PARAMETER INFORMATION
#MNEM.UNIT           DATA             DESCRIPTION OF MNEMONIC
#---------         -----------     ------------------------------
GL  .F        1935.5               : gl           - GROUND LEVEL ELEVATION
EREF.F        1947.5               : kb           - ELEVATION OF DEPTH REFERENCE
DATM.F        1935.5               : datum        - DATUM ELEVATION
TDD .F        1802                 : tdd          - TOTAL DEPTH DRILLER
RUN .         ONE                  : Run          - RUN NUMBER
ENG .         BILL                 : Engineer     - RECORDING ENGINEER
WIT .         JIM                  : Witness      - WITNESSED BY
MUD .         GEL                  : Mud_type     - MUD TYPE
MATR.         SANDSTONE            : Logunit      - NEUTRON MATRIX
TMAX.F        65                   : BHT          - MAXIMUM RECORDED TEMPERATURE
BHTD.F        1800                 : BHTDEP       - MAXIMUM RECORDED TEMPERATURE
RMT .F        62.06                : MDTP         - TEMPERATURE OF MUD
MUDD.LB/G     1.15                 : MWT          - MUD DENSITY
NEUT.         1                    : NEUTRON      - NEUTRON TYPE
RESI.         0                    : RESIST       - RESISTIVITY TYPE
RM  .OHMM     5.1                  : RM           - RESISTIVITY OF MUD
RMC .OHMM     0                    : RMC          - RESISTIVITY OF MUD CAKE
RMF .OHMM     4.7                  : RMF          - RESISTIVITY OF MUD FILTRATE
SUFT.F        -4                   : SUFT         - SURFACE TEMPERATURE
~A  DEPTH     RESD       GR     PHIN     PHID
  950.000    4.202   72.593    0.601    0.281
  950.820    6.628   72.000    0.608    0.286
  951.640    7.543   70.184    0.609    0.289
  952.461    8.903   69.591    0.603    0.300
  953.281   13.796   65.870    0.598    0.323
  954.101   19.881   62.754    0.598    0.326
  954.921   23.442   55.865    0.599    0.326
  955.741   28.161   50.239    0.572    0.326
  956.562   37.740   43.351    0.539    0.326
  957.382   41.441   40.878    0.542    0.326
  958.202   40.752   40.942    0.559    0.326
  959.022   40.130   40.992    0.577    0.326
  959.843   40.167   41.043    0.581    0.325
  960.663   41.017   41.094    0.566    0.325
  961.483   41.807   41.775    0.561    0.325
  962.303   42.691   43.744    0.570    0.326
  963.123   43.574   45.043    0.577    0.326
  963.944   43.614   47.642    0.580    0.326
  964.764   45.332   48.929    0.556    0.325
  965.584   47.117   50.873    0.531    0.324
  966.404   48.972   52.828    0.520    0.322
  967.224   49.018   53.510    0.504    0.320
  968.045   50.008   52.312    0.490    0.315
  968.865   50.101   49.221    0.471    0.310
  969.685   50.217   46.723    0.444    0.281
  970.505   49.428   41.097    0.401    0.235
  971.325   46.895   35.470    0.358    0.100
  972.146   43.711   30.474    0.247    0.045
  972.966   42.965   29.263    0.192    0.016
  973.786   41.510   29.327    0.172    0.010
  974.606   38.709   30.034    0.198    0.011
  975.427   37.381   30.059    0.228    0.023
  976.247   35.449   32.015    0.292    0.050
  977.067   33.027   37.743    0.353    0.080
  977.887   29.687   42.222    0.419    0.107
  978.707   27.174   43.534    0.471    0.131
  979.528   25.329   43.585    0.513    0.282
  980.348   24.897   43.017    0.529    0.303
  981.168   23.632   43.081    0.534    0.317
  981.988   22.831   43.749    0.547    0.319
  982.808   22.058   43.800    0.548    0.320
  983.629   21.701   43.220    0.524    0.324
  984.449   20.986   42.653    0.519    0.326
  985.269   21.015   42.060    0.511    0.332
  986.089   21.054   42.110    0.501    0.334
  986.909   20.704   41.543    0.501    0.335
  987.730   20.761   40.963    0.510    0.340
  988.550   20.800   40.395    0.538    0.344
  989.370   20.838   39.184    0.546    0.343
  990.190   20.877   40.497    0.553    0.341
  991.010   20.530   41.809    0.554    0.334
  991.831   20.568   41.873    0.547    0.331
  992.651   20.245   40.674    0.543    0.328
  993.471   20.282   40.069    0.547    0.329
  994.291   20.329   39.489    0.552    0.333
  995.112   20.376   39.552    0.538    0.339
  995.932   20.405   39.615    0.538    0.342
  996.752   20.452   40.928    0.569    0.346
  997.572   20.480   42.883    0.587    0.347
  998.392   20.537   43.552    0.585    0.347
  999.213   20.566   44.259    0.537    0.347
 1000.030   20.972   44.310    0.526    0.352
 1000.850   21.020   44.348    0.514    0.355
 1001.670   21.050   43.755    0.507    0.358
 1002.490   21.505   43.200    0.513    0.360
 1003.310   21.525   43.251    0.541    0.359
 1004.130   21.565   42.658    0.547    0.355
 1004.950   21.216   42.734    0.550    0.354
 1005.770   20.497   42.772    0.547    0.350
 1006.590   18.771   42.836    0.519    0.341
 1007.410   17.472   42.874    0.495    0.329
 1008.230   14.599   42.937    0.485    0.280
 1009.060   12.198   42.357    0.474    0.250
 1009.880   10.378   41.159    0.461    0.228
 1010.700   10.210   39.935    0.455    0.249
 1011.520   16.407   38.119    0.480    0.270
 1012.340   21.204   37.513    0.500    0.294
 1013.160   23.262   35.672    0.529    0.357
 1013.980   20.900   33.843    0.545    0.355
 1014.800   17.782   33.263    0.537    0.354
 1015.620   15.130   33.326    0.490    0.342
 1016.440   12.879   33.995    0.464    0.314
 1017.260   11.994   35.320    0.456    0.286
 1018.080   10.978   37.881    0.452    0.263
 1018.900   10.796   44.252    0.477    0.258
 1019.720   10.816   44.934    0.504    0.254
 1020.540   11.044   41.856    0.541    0.279
 1021.360   11.474   41.250    0.565    0.302
 1022.180   11.921   37.541    0.569    0.308
 1023.000   12.611   35.082    0.568    0.320
 1023.820   13.586   33.227    0.538    0.322
 1024.640   14.905   30.137    0.515    0.324
 1025.460   16.064   28.913    0.509    0.324
 1026.280   17.306   28.320    0.508    0.322
 1027.100   18.309   27.122    0.508    0.323
 1027.920   19.021   25.911    0.501    0.329
 1028.740   19.414   24.713    0.468    0.334
 1029.560   19.450   24.133    0.456    0.340
 1030.380   18.809   24.196    0.446    0.343
 1031.200   18.496   23.591    0.436    0.343
 1032.020   18.197   23.667    0.444    0.336
 1032.840   17.895   24.348    0.452    0.327
 1033.660   16.680   25.030    0.454    0.319
 1034.480   15.540   26.342    0.454    0.306
 1035.300   14.737   28.323    0.460    0.280
 1036.120   13.483   29.623    0.472    0.274
 1036.940   11.913   30.292    0.484    0.272
 1037.760   11.498   30.986    0.493    0.280
 1038.580   10.914   31.024    0.499    0.288
 1039.400   10.550   31.113    0.504    0.295
 1040.220   10.374   31.151    0.509    0.299
 1041.040   10.202   31.189    0.515    0.316
 1041.860   10.041   31.870    0.521    0.316
 1042.680   10.065   32.551    0.524    0.319
 1043.500   10.088   31.997    0.524    0.321
 1044.320   10.102   32.022    0.523    0.324
 1045.140   10.116   32.086    0.523    0.324
 1045.960    9.606   32.161    0.520    0.320
 1046.780    9.110   32.200    0.520    0.317
 1047.600    8.185   32.881    0.520    0.315
 1048.430    7.622   32.944    0.532    0.309
 1049.250    8.996   32.970    0.553    0.300
 1050.070   10.234   31.141    0.562    0.286
 1050.890   11.025   29.942    0.469    0.276
 1051.710   12.106   29.375    0.431    0.262
 1052.530   12.571   30.031    0.449    0.259
 1053.350   13.299   31.343    0.476    0.284
 1054.170   12.855   35.192    0.512    0.315
 1054.990   12.202   38.422    0.523    0.334
 1055.810   11.783   39.709    0.552    0.346
 1056.630   11.805   41.664    0.564    0.358
 1057.450   11.619   42.977    0.612    0.382
 1058.270   11.635   44.289    0.634    0.411
 1059.090   11.252   44.983    0.623    0.361
 1059.910   11.070   45.665    0.626    0.351
 1060.730   10.896   45.085    0.621    0.338
 1061.550   11.111   41.981    0.588    0.332
 1062.370   11.330   38.891    0.582    0.336
 1063.190   11.986   35.787    0.554    0.338
 1064.010   12.925   33.958    0.539    0.338
 1064.830   13.680   34.009    0.547    0.337
 1065.650   13.944   34.691    0.557    0.332
 1066.470   14.758   35.385    0.556    0.328
 1067.290   15.613   36.041    0.546    0.324
 1068.110   16.221   37.366    0.533    0.321
 1068.930   16.852   38.678    0.530    0.317
 1069.750   17.523   39.990    0.529    0.315
 1070.570   17.869   41.303    0.522    0.316
 1071.390   18.239   42.010    0.519    0.317
 1072.210   18.264   41.417    0.524    0.323
 1073.030   18.650   40.849    0.550    0.330
 1073.850   18.668   40.887    0.559    0.336
 1074.670   18.720   40.320    0.554    0.343
 1075.490   18.763   40.371    0.549    0.343
 1076.310   18.442   40.434    0.539    0.339
 1077.130   18.477   40.472    0.521    0.339
 1077.950   18.511   39.904    0.513    0.340
 1078.770   18.212   39.324    0.517    0.340
 1079.590   18.262   38.126    0.522    0.341
 1080.410   17.975   38.190    0.521    0.341
 1081.230   17.685   38.215    0.518    0.343
 1082.050   17.391   38.909    0.515    0.345
 1082.870   17.102   38.947    0.511    0.348
 1083.690   16.538   38.392    0.507    0.349
 1084.510   16.263   37.812    0.509    0.350
 1085.330   16.000   37.863    0.537    0.350
 1086.150   15.465   37.283    0.557    0.350
 1086.980   15.208   37.964    0.565    0.350
 1087.800   14.969   38.015    0.568    0.350
 1088.620   14.720   39.365    0.566    0.352
 1089.440   14.489   40.034    0.576    0.359
 1090.260   14.261   40.072    0.585    0.365
 1091.080   14.281   40.123    0.579    0.370
 1091.900   14.063   39.555    0.568    0.367
