~VERSION INFORMATION
 VERS.                 2.0:   CWLS LOG ASCII STANDARD -VERSION 2.0
 WRAP.                  NO:   ONE LINE PER DEPTH STEP
~WELL INFORMATION BLOCK
#MNEM.UNIT           DATA                    DESCRIPTION OF MNEMONIC
#---------    -------------------            -------------------------------
# Generated from Intellog Unique Number	CW_70_72/WELL/1037
NULL.         -999.25                        : NULL_VALUE
WELL.         SULPETRO SMITH 10-15           : Well_name    - WELL              
LOC .         10-15-071-26W4                 : Location     - LOCATION          
UWI .         00/10-15-071-26W4/0            : Uwi          - UNIQUE WELL ID    
ENTR.         JAYE                           : Entered      - ENTERED BY        
SRVC.         SCHLUMBERGER                   : Scn          - SERVICE COMPANY   
DATE.         24 FEB 72                      : Date         - LOG DATE          
STRT.M        426.11                         : top_depth    - START DEPTH       
STOP.M        685.86                         : bot_depth    - STOP DEPTH        
STEP.M        0.25                           : increment    - STEP LENGTH       
~CURVE INFORMATION BLOCK
#MNEM UNIT       ERCB CURVE CODE    CURVE DESCRIPTION
#-----------   ------------------   ----------------------------------
DEPT.M        00 001 00 00         : DEPTH        - DEPTH                       
DPHI.V/V      00 890 00 00         : PHID         - DENSITY POROSITY (SANDSTONE)
NPHI.V/V      00 330 00 00         : PHIN         - NEUTRON POROSITY (SANDSTONE)
GR  .API      00 310 00 00         : GR           - GAMMA RAY                   
CALI.MM       00 280 01 00         : CAL          - CALIPER                     
ILD .OHMM     00 120 00 00         : RESD         - DEEP RESISTIVITY (DIL)      
~PARAMETER INFORMATION       
#MNEM.UNIT           DATA             DESCRIPTION OF MNEMONIC
#---------         -----------     ------------------------------
GL  .M        617.22               : gl           - GROUND LEVEL ELEVATION      
EREF.M        620.573              : kb           - ELEVATION OF DEPTH REFERENCE
DATM.M        617.22               : datum        - DATUM ELEVATION             
TDD .M        701.04               : tdd          - TOTAL DEPTH DRILLER         
RUN .         ONE                  : Run          - RUN NUMBER                  
ENG .         ASHTON               : Engineer     - RECORDING ENGINEER          
WIT .         DRUMMOND             : Witness      - WITNESSED BY                
BASE.         LLOYD                : Branch       - HOME BASE OF LOGGING UNIT   
MUD .         CHEM GEL             : Mud_type     - MUD TYPE                    
MATR.         SANDSTONE            : Logunit      - NEUTRON MATRIX              
TMAX.C        26.6667              : BHT          - MAXIMUM RECORDED TEMPERATURE
BHTD.M        701.04               : BHTDEP       - MAXIMUM RECORDED TEMPERATURE
RMT .C        15.5556              : MDTP         - TEMPERATURE OF MUD          
MUDD.KG/M     1224                 : MWT          - MUD DENSITY                 
NEUT.         1                    : NEUTRON      - NEUTRON TYPE                
RESI.         0                    : RESIST       - RESISTIVITY TYPE            
RM  .OHMM     3.04                 : RM           - RESISTIVITY OF MUD          
RMC .OHMM     2.3                  : RMC          - RESISTIVITY OF MUD CAKE     
RMF .OHMM     2.66                 : RMF          - RESISTIVITY OF MUD FILTRATE 
SUFT.C        0                    : SUFT         - SURFACE TEMPERATURE         
~A  DEPTH     PHID     PHIN       GR      CAL     RESD
# ...
  572.110    0.140    0.382  106.935  190.006    4.305
  572.360    0.122    0.394  105.985  190.357    4.241
  572.610    0.129    0.410  107.288  190.500    4.171
  572.860    0.144    0.420  111.155  190.736    4.076
  573.110    0.155    0.425  114.164  190.992    3.997
  573.360    0.149    0.410  117.422  190.932    3.911
  573.610    0.147    0.380  118.792  190.969    3.887
  573.860    0.143    0.376  117.413  190.798    3.960
  574.110    0.131    0.374  116.887  190.425    4.080
  574.360    0.145    0.364  114.406  190.056    4.400
  574.610    0.149    0.365  115.469  189.164    4.672
  574.860    0.142    0.372  112.869  188.382    4.904
  575.110    0.123    0.387  106.550  187.802    5.032
  575.360    0.144    0.389  104.927  187.321    5.090
  575.610    0.153    0.365  108.729  187.154    5.098
  575.860    0.151    0.373  103.691  187.195    5.044
  576.110    0.148    0.375   97.859  187.329    4.980
  576.360    0.139    0.344   97.334  187.571    4.854
  576.610    0.126    0.333  102.359  187.922    4.735
  576.860    0.139    0.362  108.605  187.871    4.663
  577.110    0.155    0.354  111.188  187.807    4.609
  577.360    0.157    0.355  110.483  188.356    4.578
  577.610    0.148    0.368  108.432  188.607    4.570
  577.860    0.159    0.369  110.651  189.257    4.667
  578.110    0.156    0.361  112.444  189.409    4.915
  578.360    0.146    0.351  107.588  190.173    5.115
  578.610    0.140    0.352  102.730  190.320    5.004
  578.860    0.136    0.373  104.825  190.150    4.775
  579.110    0.112    0.388  111.012  189.989    4.599
  579.360    0.127    0.385  115.186  189.405    4.689
  579.610    0.154    0.355  110.695  189.553    5.008
  579.860    0.142    0.367  105.838  189.279    5.814
  580.110    0.140    0.369   99.820  188.287    6.724
  580.360    0.122    0.357   93.071  186.779    7.523
  580.610    0.135    0.347   89.008  185.369    7.930
  580.860    0.143    0.316   88.607  183.755    7.964
  581.110    0.108    0.321   90.091  182.351    7.805
  581.360    0.172    0.336   90.723  181.352    7.598
  581.610    0.179    0.348   87.639  180.254    7.990
  581.860    0.158    0.339   83.333  179.470    8.860
  582.110    0.134    0.265   80.062  179.101    9.834
  582.360    0.104    0.245   77.704  179.350   11.255
  582.610    0.081    0.246   76.937  181.868   11.718
  582.860    0.068    0.259   79.822  185.212   11.424
  583.110    0.075    0.280   82.347  184.009   10.228
  583.360    0.118    0.303   84.997  181.266    9.144
  583.610    0.138    0.324   90.023  178.619    7.693
  583.860    0.174    0.340   93.343  177.004    6.769
  584.110    0.175    0.348   88.972  175.909    6.084
  584.360    0.169    0.352   84.726  175.016    5.814
  584.610    0.180    0.357   88.712  174.436    5.783
  584.860    0.186    0.372   91.117  173.948    5.776
  585.110    0.187    0.348   94.436  173.795    5.808
  585.360    0.176    0.332   98.852  174.451    5.833
  585.610    0.170    0.321  104.424  176.047    5.834
  585.860    0.178    0.311  104.876  178.562    5.827
  586.110    0.160    0.302  107.706  183.559    5.732
  586.360    0.145    0.317  110.719  188.142    5.550
  586.610    0.140    0.329  113.062  190.048    5.406
  586.860    0.131    0.330  110.340  189.462    5.583
  587.110    0.121    0.312  102.494  186.922    5.767
  587.360    0.103    0.278   92.695  185.826    6.071
  587.610    0.081    0.278   84.178  184.937    6.414
  587.860    0.114    0.335   77.187  184.457    7.293
  588.110    0.060    0.280   71.780  184.184    7.828
  588.360    0.034    0.253   75.708  184.019    8.339
  588.610    0.016    0.253   80.916  183.841    9.202
  588.860    0.064    0.307   83.318  183.479    9.657
  589.110    0.087    0.333   87.003  182.800    8.302
  589.360    0.110    0.352   93.371  182.636    7.250
  589.610    0.137    0.345   95.162  182.262    6.541
  589.860    0.135    0.346   94.515  182.193    5.976
  590.110    0.141    0.358   95.883  181.723    5.562
  590.360    0.121    0.359   97.425  181.031    5.635
  590.610    0.116    0.342  101.237  180.872    5.660
  590.860    0.110    0.359   99.550  181.213    5.725
  591.110    0.127    0.351   95.792  181.570    5.789
  591.360    0.130    0.349   96.487  182.334    5.869
  591.610    0.121    0.347   96.998  182.892    5.854
  591.860    0.136    0.365   97.081  183.757    5.704
  592.110    0.121    0.343   97.900  182.247    5.522
  592.360    0.091    0.332   99.998  180.736    5.386
  592.610    0.118    0.355  101.850  180.880    5.299
  592.860    0.123    0.369  100.838  180.297    5.340
  593.110    0.116    0.373   99.519  181.890    5.453
  593.360    0.128    0.346   97.286  183.681    5.502
  593.610    0.120    0.323   98.406  183.930    5.470
  593.860    0.120    0.338  102.331  182.731    5.439
  594.110    0.102    0.352  106.079  180.594    5.521
  594.360    0.101    0.348  104.699  180.225    5.577
  594.610    0.097    0.345  101.855  179.548    5.650
  594.860    0.113    0.356  103.467  179.172    5.698
  595.110    0.111    0.338  106.297  178.783    5.714
  595.360    0.130    0.341  100.708  178.832    5.883
  595.610    0.105    0.325   96.339  179.286    6.394
  595.860    0.101    0.302   91.968  179.536    6.857
  596.110    0.088    0.279   90.834  179.778    7.105
  596.360    0.069    0.284   95.921  179.825    7.202
  596.610    0.115    0.330   99.789  179.755    6.748
  596.860    0.121    0.332  101.338  179.483    6.103
  597.110    0.116    0.331   98.371  179.215    5.832
  597.360    0.112    0.320   93.269  178.846    5.930
  597.610    0.086    0.300   95.917  178.682    6.098
  597.860    0.094    0.305  100.453  178.715    6.266
  598.110    0.127    0.313  104.932  178.650    6.482
  598.360    0.104    0.291  102.637  178.901    6.706
  598.610    0.124    0.294  103.393  179.253    7.225
  598.860    0.110    0.299  101.829  179.909    7.745
  599.110    0.087    0.301   98.743  181.083    8.408
  599.360    0.074    0.300   98.396  182.466    9.055
  599.610    0.071    0.299  103.059  184.465    8.656
  599.860    0.091    0.297  107.352  186.061    8.003
  600.110    0.118    0.295  110.428  186.930    7.326
  600.360    0.142    0.295  114.049  187.481    6.864
  600.610    0.130    0.329  114.133  187.940    6.666
  600.860    0.108    0.340  108.240  186.535    6.587
  601.110    0.104    0.302   99.172  180.788    6.572
  601.360    0.079    0.289   94.500  178.660    6.589
  601.610    0.081    0.276   95.135  180.147    6.630
  601.860    0.100    0.299   98.757  181.939    6.327
  602.110    0.112    0.359  103.478  183.940    5.634
  602.360    0.129    0.405  111.432  186.671    4.343
  602.610    0.161    0.449  116.764  192.286    3.003
  602.860    0.188    0.463  119.836  199.972    2.270
  603.110    0.208    0.447  114.493  211.272    2.081
  603.360    0.162    0.430  110.185  213.792    2.121
  603.610    0.138    0.443  110.570  202.261    2.241
  603.860    0.161    0.453  113.161  200.955    2.250
  604.110    0.177    0.459  118.979  203.783    2.187
  604.360    0.188    0.457  117.478  204.654    2.260
  604.610    0.147    0.419  111.521  197.668    2.268
  604.860    0.133    0.367  107.276  189.542    2.971
  605.110    0.097    0.353  104.372  183.906    3.857
  605.360    0.095    0.344  104.147  181.567    4.664
  605.610    0.113    0.327  101.491  180.882    5.032
  605.860    0.096    0.345  104.928  181.434    5.192
  606.110    0.099    0.357  111.357  181.475    5.376
  606.360    0.103    0.332  116.627  181.311    5.329
  606.610    0.107    0.346  116.526  183.100    5.266
  606.860    0.108    0.339  111.552  184.075    5.522
  607.110    0.108    0.324  108.891  185.772    6.281
  607.360    0.109    0.295  103.360  186.839    7.733
  607.610    0.089    0.254   97.223  186.577    9.018
  607.860    0.068    0.227   92.001  185.272   10.567
  608.110   -0.007    0.208   89.890  185.306    7.752
  608.360    0.007    0.284  101.869  186.383    6.286
