~VERSION INFORMATION
 VERS.                 2.0:   CWLS LOG ASCII STANDARD -VERSION 2.0
 WRAP.                  NO:   ONE LINE PER DEPTH STEP
~WELL INFORMATION BLOCK
#MNEM.UNIT           DATA                    DESCRIPTION OF MNEMONIC
#---------    -------------------            -------------------------------
# Generated from Intellog Unique Number	CW_70_72/WELL/1051
NULL.         -999.25                        : NULL_VALUE
WELL.         DECALTA ET AL SMITH 11-03      : Well_name    - WELL              
LOC .         11-03-071-01W5                 : Location     - LOCATION          
UWI .         00/11-03-071-01W5/0            : Uwi          - UNIQUE WELL ID    
ENTR.         JAYE                           : Entered      - ENTERED BY        
SRVC.         SCHLUMBERGER                   : Scn          - SERVICE COMPANY   
DATE.         1 NOV 77                       : Date         - LOG DATE          
STRT.M        384.048                        : top_depth    - START DEPTH       
STOP.M        644.298                        : bot_depth    - STOP DEPTH        
STEP.M        0.25                           : increment    - STEP LENGTH       
~CURVE INFORMATION BLOCK
#MNEM UNIT       ERCB CURVE CODE    CURVE DESCRIPTION
#-----------   ------------------   ----------------------------------
DEPT.M        00 001 00 00         : DEPTH        - DEPTH                       
DPHI.V/V      00 890 00 00         : PHID         - DENSITY POROSITY (SANDSTONE)
NPHI.V/V      00 330 00 00         : PHIN         - NEUTRON POROSITY (SANDSTONE)
GR  .API      00 310 00 00         : GR           - GAMMA RAY                   
CALI.MM       00 280 01 00         : CAL          - CALIPER                     
ILD .OHMM     00 120 00 00         : RESD         - DEEP RESISTIVITY (DIL)      
~PARAMETER INFORMATION       
#MNEM.UNIT           DATA             DESCRIPTION OF MNEMONIC
#---------         -----------     ------------------------------
GL  .M        572.11               : gl           - GROUND LEVEL ELEVATION      
EREF.M        575.158              : kb           - ELEVATION OF DEPTH REFERENCE
DATM.M        572.11               : datum        - DATUM ELEVATION             
TDD .M        649.224              : tdd          - TOTAL DEPTH DRILLER         
RUN .         ONE                  : Run          - RUN NUMBER                  
ENG .         KUBICA               : Engineer     - RECORDING ENGINEER          
WIT .         RIES                 : Witness      - WITNESSED BY                
BASE.         EDM                  : Branch       - HOME BASE OF LOGGING UNIT   
MUD .         GEL                  : Mud_type     - MUD TYPE                    
MATR.         SANDSTONE            : Logunit      - NEUTRON MATRIX              
TMAX.C        26.6667              : BHT          - MAXIMUM RECORDED TEMPERATURE
BHTD.M        651.358              : BHTDEP       - MAXIMUM RECORDED TEMPERATURE
RMT .C        8.88889              : MDTP         - TEMPERATURE OF MUD          
MUDD.KG/M     1116                 : MWT          - MUD DENSITY                 
NEUT.         1                    : NEUTRON      - NEUTRON TYPE                
RESI.         0                    : RESIST       - RESISTIVITY TYPE            
RM  .OHMM     4.03                 : RM           - RESISTIVITY OF MUD          
RMC .OHMM     0                    : RMC          - RESISTIVITY OF MUD CAKE     
RMF .OHMM     4.38                 : RMF          - RESISTIVITY OF MUD FILTRATE 
SUFT.C        0                    : SUFT         - SURFACE TEMPERATURE         
~A  DEPTH     PHID     PHIN       GR      CAL     RESD
# ...
  420.548    0.296    0.444   99.456  161.959    1.899
  420.798    0.292    0.446   97.926  162.033    1.886
  421.048    0.290    0.442   96.644  162.103    1.876
  421.298    0.298    0.436   94.301  161.446    1.866
  421.548    0.308    0.425   94.695  160.466    1.859
  421.798    0.306    0.431   97.770  160.429    1.846
  422.048    0.278    0.436   99.780  160.404    1.833
  422.298    0.297    0.425   97.444  160.156    1.827
  422.548    0.296    0.416   97.654  160.235    1.831
  422.798    0.293    0.424   99.664  161.148    1.845
  423.048    0.301    0.437  102.047  162.269    1.846
  423.298    0.300    0.431  102.320  162.872    1.839
  423.548    0.289    0.425  104.269  163.056    1.833
  423.798    0.296    0.429  104.605  163.018    1.827
  424.048    0.300    0.443  102.019  162.779    1.834
  424.298    0.282    0.458   93.902  163.696    1.855
  424.548    0.203    0.280   83.862  165.241    1.923
  424.798    0.132    0.209   73.756  166.792    2.228
  425.048    0.106    0.258   73.533  167.918    2.664
  425.298    0.194    0.303   78.710  167.882    2.916
  425.548    0.237    0.348   86.440  167.432    3.068
  425.798    0.310    0.410   97.585  166.874    2.874
  426.048    0.316    0.425   97.975  166.109    2.423
  426.298    0.305    0.434   96.201  165.653    2.162
  426.548    0.300    0.442   97.838  165.409    1.917
  426.798    0.292    0.446  101.338  165.272    1.756
  427.048    0.290    0.451  104.784  165.240    1.711
  427.298    0.286    0.457  104.990  165.209    1.724
  427.548    0.277    0.462  100.854  165.076    1.804
  427.798    0.260    0.438   90.626  164.935    1.957
  428.048    0.243    0.425   84.185  164.797    2.044
  428.298    0.312    0.417   83.027  164.875    2.079
  428.548    0.312    0.404   83.423  164.841    2.100
  428.798    0.307    0.406   81.152  164.808    2.092
  429.048    0.309    0.411   80.547  164.561    2.058
  429.298    0.308    0.403   81.320  164.537    2.017
  429.548    0.307    0.404   81.279  164.293    1.980
  429.798    0.302    0.405   80.805  163.942    1.944
  430.048    0.319    0.412   80.768  163.708    1.922
  430.298    0.313    0.422   81.412  163.676    1.909
  430.548    0.308    0.439   82.433  163.635    1.898
  430.798    0.313    0.441   83.016  163.603    1.895
  431.048    0.311    0.429   83.225  163.572    1.900
  431.298    0.302    0.420   83.434  163.759    1.918
  431.548    0.288    0.421   81.470  163.716    1.944
  431.798    0.271    0.432   81.120  163.803    1.974
  432.048    0.287    0.431   85.490  163.766    1.997
  432.298    0.287    0.425   95.205  163.737    2.051
  432.548    0.285    0.415  102.994  163.707    2.130
  432.798    0.262    0.409  106.498  163.669    2.225
  433.048    0.247    0.421  108.260  163.643    2.350
  433.298    0.249    0.425  109.836  163.717    2.464
  433.548    0.249    0.421  110.793  164.000    2.598
  433.798    0.244    0.411  110.942  164.178    2.673
  434.048    0.247    0.412  112.209  164.141    2.704
  434.298    0.255    0.441  114.904  164.224    2.746
  434.548    0.308    0.520  109.955  164.397    2.836
  434.798    0.364    0.557  101.156  164.579    2.990
  435.048    0.472    0.606   91.675  164.549    3.335
  435.298    0.498    0.627   83.622  164.411    3.827
  435.548    0.461    0.571   86.874  163.744    4.349
  435.798    0.436    0.425   92.428  162.873    4.779
  436.048    0.307    0.395   94.065  161.476    4.578
  436.298    0.307    0.391   91.601  160.495    3.926
  436.548    0.318    0.391   92.310  159.623    3.249
  436.798    0.309    0.398  100.471  159.277    2.678
  437.048    0.318    0.413  110.065  159.454    2.284
  437.298    0.301    0.429  121.334  159.839    2.221
  437.548    0.309    0.440  129.062  160.333    2.238
  437.798    0.295    0.453  145.983  160.620    2.329
  438.048    0.271    0.465  146.131  161.221    2.401
  438.298    0.300    0.458  114.220  161.925    2.384
  438.548    0.295    0.412  100.448  162.524    2.301
  438.798    0.284    0.385   98.232  163.013    2.250
  439.048    0.276    0.412   97.262  163.302    2.277
  439.298    0.268    0.430   94.680  163.486    2.378
  439.548    0.284    0.455   87.684  163.663    2.526
  439.798    0.297    0.477   75.219  163.944    2.744
  440.048    0.310    0.424   64.617  163.913    3.021
  440.298    0.302    0.400   65.635  163.464    3.034
  440.548    0.284    0.408   67.456  161.643    2.901
  440.798    0.270    0.410   69.092  159.505    2.748
  441.048    0.294    0.404   70.552  158.942    2.579
  441.298    0.298    0.375   69.704  158.911    2.402
  441.548    0.274    0.386   63.516  159.194    2.241
  441.798    0.286    0.393   64.594  159.275    2.127
  442.048    0.302    0.387   65.732  159.765    2.053
  442.298    0.304    0.373   66.876  160.261    1.982
  442.548    0.307    0.375   70.068  160.856    1.949
  442.798    0.309    0.383   70.399  160.830    1.906
  443.048    0.304    0.385   70.362  160.904    1.868
  443.298    0.314    0.372   71.561  160.978    1.827
  443.548    0.319    0.362   71.653  161.262    1.797
  443.798    0.323    0.377   71.739  161.439    1.764
  444.048    0.333    0.388   71.450  161.513    1.729
  444.298    0.320    0.384   70.913  161.377    1.681
  444.548    0.313    0.381   70.875  161.349    1.647
  444.798    0.315    0.392   67.669  161.418    1.638
  445.048    0.314    0.405   67.316  161.705    1.614
  445.298    0.328    0.391   69.953  161.669    1.627
  445.548    0.342    0.400   72.274  161.643    1.649
  445.798    0.339    0.413   72.734  161.611    1.672
  446.048    0.327    0.430   73.375  161.577    1.685
  446.298    0.332    0.421   74.582  161.648    1.695
  446.548    0.332    0.415   77.153  161.620    1.689
  446.798    0.306    0.408   78.042  161.796    1.715
  447.048    0.321    0.402   74.091  162.075    1.748
  447.298    0.329    0.394   72.001  162.260    1.779
  447.548    0.330    0.390   73.206  162.226    1.803
  447.798    0.335    0.385   76.895  162.197    1.824
  448.048    0.327    0.399   79.649  162.371    1.835
  448.298    0.332    0.408   83.714  162.556    1.832
  448.548    0.337    0.412   84.976  162.733    1.778
  448.798    0.337    0.413   83.514  162.803    1.678
  449.048    0.333    0.410   81.420  162.674    1.595
  449.298    0.326    0.401   79.452  162.748    1.569
  449.548    0.312    0.386   78.051  161.451    1.602
  449.798    0.283    0.366   76.272  161.207    1.706
  450.048    0.245    0.343   73.627  161.493    1.836
  450.298    0.158    0.238   70.355  161.884    2.114
  450.548    0.194    0.299   68.269  162.581    2.385
  450.798    0.272    0.327   70.527  162.971    2.586
  451.048    0.303    0.390   73.657  163.254    2.549
  451.298    0.320    0.408   73.737  163.640    2.273
  451.548    0.326    0.409   74.201  163.609    1.968
  451.798    0.326    0.420   75.653  163.896    1.789
  452.048    0.329    0.429   76.918  164.081    1.672
  452.298    0.328    0.420   74.832  164.152    1.639
  452.548    0.313    0.405   77.463  164.022    1.621
  452.798    0.318    0.400   79.598  163.566    1.627
  453.048    0.331    0.406   80.430  162.799    1.646
  453.298    0.322    0.411   79.646  161.926    1.665
  453.548    0.323    0.415   78.798  161.261    1.669
  453.798    0.325    0.423   79.880  160.913    1.660
  454.048    0.328    0.431   79.589  160.881    1.651
  454.298    0.333    0.434   78.991  160.635    1.655
  454.548    0.330    0.415   79.760  160.188    1.668
  454.798    0.314    0.400   81.459  159.212    1.691
  455.048    0.292    0.386   80.990  158.336    1.749
  455.298    0.258    0.348   76.167  158.299    1.834
  455.548    0.208    0.272   72.585  159.009    2.061
  455.798    0.165    0.327   74.596  160.342    2.330
  456.048    0.276    0.369   79.715  161.156    2.594
  456.298    0.312    0.405   83.092  161.965    2.750
  456.548    0.315    0.432   82.373  162.671    2.538
  456.798    0.312    0.439   79.041  163.268    2.172
