~VERSION INFORMATION
 VERS.                 2.0:   CWLS LOG ASCII STANDARD -VERSION 2.0
 WRAP.                  NO:   ONE LINE PER DEPTH STEP
~WELL INFORMATION BLOCK
#MNEM.UNIT           DATA                    DESCRIPTION OF MNEMONIC
#---------    -------------------            -------------------------------
# Generated from Intellog Unique Number	CW_79_81/WELL/2466
WELL.         10-15-080-23W4                 : Well_name    - WELL
LOC .         00/10-15-080-23W4/0            : Location     - LOCATION
UWI .         00/10-15-080-23W4/0            : Uwi          - UNIQUE WELL ID
ENTR.         MAX                            : Entered      - ENTERED BY
SRVC.         SCHLUMBERGER                   : Scn          - SERVICE COMPANY
STRT.M        220                            : top_depth    - START DEPTH
STOP.M        464.75                         : bot_depth    - STOP DEPTH
STEP.M        0.25                           : increment    - STEP LENGTH
 NULL. -999.2500:NULL Value
~CURVE INFORMATION BLOCK
#MNEM UNIT       ERCB CURVE CODE    CURVE DESCRIPTION
#-----------   ------------------   ----------------------------------
DEPT.M        00 001 00 00         : DEPTH        - DEPTH
ILD .OHMM     00 120 00 00         : RESD         - DEEP RESISTIVITY (DIL)
NPHI.V/V      00 330 00 00         : PHIN         - NEUTRON POROSITY (SANDSTONE)
DPHI.V/V      00 890 00 00         : PHID         - DENSITY POROSITY (SANDSTONE)
GR  .API      00 310 00 00         : GR           - GAMMA RAY
CALI.MM       00 280 01 00         : CAL          - CALIPER
~PARAMETER INFORMATION
#MNEM.UNIT           DATA             DESCRIPTION OF MNEMONIC
#---------         -----------     ------------------------------
GL  .M        586.4                : gl           - GROUND LEVEL ELEVATION
EREF.M        590                  : kb           - ELEVATION OF DEPTH REFERENCE
DATM.M        586.4                : datum        - DATUM ELEVATION
TDD .M        469                  : tdd          - TOTAL DEPTH DRILLER
RUN .         ONE                  : Run          - RUN NUMBER
ENG .         BILL                 : Engineer     - RECORDING ENGINEER
WIT .         JIM                  : Witness      - WITNESSED BY
MUD .         GEL                  : Mud_type     - MUD TYPE
MATR.         SANDSTONE            : Logunit      - NEUTRON MATRIX
TMAX.C        23                   : BHT          - MAXIMUM RECORDED TEMPERATURE
BHTD.M        469                  : BHTDEP       - MAXIMUM RECORDED TEMPERATURE
MATR.         1                    : LOGUNIT      - NEUTRON MATRIX
RMT .C        17                   : MDTP         - TEMPERATURE OF MUD
NEUT.         1                    : NEUTRON      - NEUTRON TYPE
RESI.         0                    : RESIST       - RESISTIVITY TYPE
RMC .OHMM     6.73                 : RMC          - RESISTIVITY OF MUD CAKE
RMF .OHMM     6.46                 : RMF          - RESISTIVITY OF MUD FILTRATE
SUFT.C        -25                  : SUFT         - SURFACE TEMPERATURE
~A  DEPTH     RESD     PHIN     PHID       GR      CAL
# ...
  293.000   29.989    0.453    0.347   52.673  206.776
  293.250   32.998    0.444    0.350   51.917  208.104
  293.500   36.820    0.406    0.328   52.925  212.706
  293.750   39.637    0.313    0.137   52.930  218.729
  294.000   42.461    0.259    0.066   50.950  220.241
  294.250   43.634    0.243    0.077   49.753  219.648
  294.500   42.187    0.261    0.129   50.419  218.452
  294.750   36.639    0.331    0.185   52.700  216.926
  295.000   29.045    0.427    0.220   54.459  215.265
  295.250   24.620    0.437    0.338   53.983  213.669
  295.500   22.681    0.428    0.375   53.146  212.074
  295.750   21.555    0.427    0.379   52.069  210.879
  296.000   20.830    0.445    0.372   51.171  210.386
  296.250   20.783    0.469    0.356   51.177  210.713
  296.500   21.281    0.452    0.349   51.182  210.306
  296.750   22.744    0.422    0.244   50.947  210.713
  297.000   25.495    0.323    0.135   50.531  209.920
  297.250   26.950    0.263    0.112   49.814  208.925
  297.500   24.271    0.282    0.172   49.639  209.134
  297.750   17.507    0.367    0.221   52.661  212.352
  298.000   14.085    0.411    0.263   56.926  212.362
  298.250   10.963    0.441    0.274   61.500  211.568
  298.500    9.597    0.446    0.275   62.648  211.374
  298.750    8.966    0.439    0.276   62.894  212.985
  299.000    8.645    0.433    0.279   63.801  215.500
  299.250    8.300    0.434    0.279   66.171  215.996
  299.500    8.115    0.419    0.275   67.179  216.420
  299.750    8.118    0.411    0.271   65.981  216.428
  300.000    8.258    0.434    0.268   64.243  215.234
  300.250    8.509    0.455    0.269   63.887  213.840
  300.500    8.819    0.456    0.274   64.914  212.746
  300.750    9.131    0.432    0.282   65.151  211.952
  301.000    9.351    0.418    0.283   63.902  211.962
  301.250    9.425    0.446    0.278   63.427  212.772
  301.500    9.501    0.455    0.277   63.673  214.183
  301.750    9.541    0.449    0.280   63.919  215.193
  302.000    9.527    0.438    0.282   63.743  215.402
  302.250    9.434    0.433    0.282   63.778  215.095
  302.500    9.295    0.435    0.279   67.541  215.523
  302.750    8.960    0.441    0.279   70.673  216.331
  303.000    8.348    0.450    0.275   71.460  217.140
  303.250    7.820    0.466    0.269   71.344  217.951
  303.500    7.502    0.483    0.264   71.109  219.163
  303.750    7.408    0.478    0.264   70.924  221.745
  304.000    7.469    0.454    0.262   71.180  222.589
  304.250    7.584    0.435    0.264   70.704  221.795
  304.500    7.616    0.451    0.266   69.686  219.798
  304.750    7.564    0.470    0.268   67.767  218.603
  305.000    7.513    0.479    0.269   65.427  218.912
  305.250    7.699    0.484    0.269   64.140  220.042
  305.500    8.068    0.506    0.271   64.898  219.632
  305.750    8.561    0.513    0.265   66.345  218.038
  306.000    8.988    0.511    0.266   67.433  217.344
  306.250    9.333    0.505    0.279   66.235  216.750
  306.500    9.584    0.496    0.297   63.654  215.456
  306.750    9.704    0.483    0.304   63.670  212.327
  307.000    9.561    0.490    0.314   64.928  210.664
  307.250    9.355    0.477    0.309   65.654  210.271
  307.500    9.051    0.477    0.310   65.659  211.081
  307.750    8.595    0.479    0.312   65.664  213.695
  308.000    8.032    0.482    0.312   66.331  217.311
  308.250    7.262    0.498    0.305   68.762  219.727
  308.500    6.386    0.520    0.287   71.272  219.736
  308.750    5.581    0.523    0.279   73.683  219.343
  309.000    4.854    0.513    0.277   74.110  219.252
  309.250    4.408    0.508    0.277   73.513  219.260
  309.500    4.190    0.511    0.275   72.737  219.266
  309.750    4.064    0.515    0.275   72.551  219.194
  310.000    4.035    0.531    0.280   72.807  218.784
  310.250    4.038    0.519    0.291   71.851  218.793
  310.500    4.040    0.504    0.296   71.615  218.500
  310.750    4.071    0.487    0.294   73.062  218.308
  311.000    4.179    0.474    0.291   75.051  218.317
  311.250    4.505    0.478    0.294   73.835  218.159
  311.500    4.870    0.477    0.305   71.335  217.333
  311.750    5.594    0.480    0.310   67.972  214.936
  312.000    6.733    0.474    0.323   65.151  213.141
  312.250    8.157    0.448    0.335   64.314  211.947
  312.500    9.440    0.431    0.342   65.401  211.353
  312.750    9.841    0.490    0.344   66.850  211.279
  313.000    9.332    0.477    0.326   66.856  210.869
  313.250    7.670    0.473    0.317   66.860  211.280
  313.500    6.823    0.480    0.318   66.144  211.689
  313.750    6.493    0.485    0.330   65.187  212.098
  314.000    6.566    0.478    0.351   63.929  212.607
  314.250    7.131    0.455    0.374   61.269  213.585
  314.500    7.711    0.432    0.370   58.770  214.429
  314.750    8.730    0.441    0.352   58.533  215.238
  315.000    9.895    0.465    0.352   57.756  216.951
  315.250   11.265    0.480    0.357   57.400  218.162
  315.500   12.495    0.476    0.360   57.586  218.471
  315.750   12.484    0.458    0.357   57.341  218.148
  316.000   12.396    0.447    0.354   56.094  216.487
  316.250   12.311    0.468    0.351   56.099  215.292
  316.500   12.226    0.486    0.348   55.923  213.796
  316.750   12.142    0.492    0.346   55.447  212.601
  317.000   12.081    0.483    0.346   54.671  211.909
  317.250   12.088    0.460    0.350   53.463  211.517
  317.500   12.095    0.458    0.351   52.215  211.526
  317.750   12.101    0.451    0.347   51.499  211.934
  318.000   11.973    0.462    0.344   51.684  212.343
  318.250   11.715    0.472    0.338   51.810  212.352
  318.500   11.402    0.469    0.330   51.815  211.760
  318.750   11.194    0.454    0.321   52.342  210.065
  319.000   11.374    0.457    0.323   51.345  207.569
  319.250   11.550    0.451    0.321   50.147  205.573
  319.500   11.663    0.452    0.322   47.867  204.780
  319.750   11.798    0.456    0.327   46.910  205.188
  320.000   11.980    0.460    0.331   48.178  206.699
  320.250   12.205    0.460    0.327   51.621  209.114
  320.500   12.400    0.462    0.323   54.382  209.123
  320.750   12.407    0.466    0.323   55.349  209.133
  321.000   12.276    0.464    0.321   55.595  209.140
  321.250   12.056    0.452    0.316   55.720  209.548
  321.500   11.730    0.438    0.310   56.026  210.458
  321.750   11.071    0.455    0.313   56.813  211.839
  322.000   10.341    0.463    0.323   58.321  212.682
  322.250    9.602    0.474    0.314   61.453  214.294
  322.500    9.177    0.479    0.305   64.765  215.605
  322.750    8.915    0.472    0.303   67.296  216.815
  323.000    8.773    0.452    0.306   67.782  217.926
  323.250    8.819    0.434    0.302   64.561  218.822
  323.500    9.030    0.442    0.296   64.065  219.246
  323.750    9.442    0.449    0.298   64.550  220.057
  324.000    9.662    0.450    0.302   64.135  220.867
  324.250    9.594    0.451    0.295   63.900  221.677
  324.500    8.945    0.457    0.276   64.687  222.588
  324.750    7.306    0.466    0.253   67.799  223.967
  325.000    6.376    0.474    0.237   71.311  224.810
  325.250    6.010    0.488    0.235   73.481  222.815
  325.500    5.862    0.482    0.238   74.027  218.114
  325.750    5.929    0.469    0.240   73.070  215.115
  326.000    6.178    0.460    0.236   70.790  215.322
  326.250    6.718    0.454    0.212   66.828  217.922
  326.500    7.985    0.404    0.182   63.826  220.854
  326.750    9.569    0.396    0.199   61.426  221.263
  327.000   11.092    0.416    0.230   60.107  220.770
  327.250   12.466    0.459    0.280   59.511  220.578
  327.500   13.404    0.496    0.327   59.517  220.887
  327.750   12.591    0.470    0.316   60.646  220.395
  328.000    9.909    0.466    0.289   62.654  217.899
  328.250    8.019    0.460    0.276   62.178  215.902
  328.500    7.362    0.455    0.262   64.047  215.710
  328.750    7.208    0.451    0.250   66.097  217.121
  329.000    7.305    0.447    0.243   66.823  219.734
  329.250    7.609    0.435    0.245   64.484  223.370
