~VERSION INFORMATION
 VERS.                 2.0:   CWLS LOG ASCII STANDARD -VERSION 2.0
 WRAP.                  NO:   ONE LINE PER DEPTH STEP
~WELL INFORMATION BLOCK
#MNEM.UNIT           DATA                    DESCRIPTION OF MNEMONIC
#---------    -------------------            -------------------------------
# Generated from Intellog Unique Number	CS_71_72/WELL/926
WELL.         CAVALIER ET AL NIXON           : Well_name    - WELL
LOC .         00/15-17-072-14W4/0            : Location     - LOCATION
UWI .         00/15-17-072-14W4/0            : Uwi          - UNIQUE WELL ID
ENTR.         SP                             : Entered      - ENTERED BY
SRVC.         SCHLUMBERGER                   : Scn          - SERVICE COMPANY
STRT.M        285                            : top_depth    - START DEPTH
STOP.M        485                            : bot_depth    - STOP DEPTH
STEP.M        0.25                           : increment    - STEP LENGTH
 NULL. -999.2500:NULL Value
~CURVE INFORMATION BLOCK
#MNEM UNIT       ERCB CURVE CODE    CURVE DESCRIPTION
#-----------   ------------------   ----------------------------------
DEPT.M        00 001 00 00         : DEPTH        - DEPTH
ILD .OHMM     00 120 00 00         : RESD         - DEEP RESISTIVITY (DIL)
DPHI.V/V      00 890 00 00         : PHID         - DENSITY POROSITY (LIMESTONE)
NPHI.V/V      00 330 00 00         : PHIN         - NEUTRON POROSITY (LIMESTONE)
GR  .API      00 310 00 00         : GR           - GAMMA RAY
~PARAMETER INFORMATION
#MNEM.UNIT           DATA             DESCRIPTION OF MNEMONIC
#---------         -----------     ------------------------------
GL  .M        614.5                : gl           - GROUND LEVEL ELEVATION
EREF.M        618                  : kb           - ELEVATION OF DEPTH REFERENCE
DATM.M        614.5                : datum        - DATUM ELEVATION
TDD .M        491                  : tdd          - TOTAL DEPTH DRILLER
RUN .         ONE                  : Run          - RUN NUMBER
ENG .         BILL                 : Engineer     - RECORDING ENGINEER
WIT .         JIM                  : Witness      - WITNESSED BY
MUD .         GEL                  : Mud_type     - MUD TYPE
MATR.         LIMESTONE            : Logunit      - NEUTRON MATRIX
TMAX.C        20                   : BHT          - MAXIMUM RECORDED TEMPERATURE
BHTD.M        491                  : BHTDEP       - MAXIMUM RECORDED TEMPERATURE
MATR.         1                    : LOGUNIT      - NEUTRON MATRIX
RMT .C        25                   : MDTP         - TEMPERATURE OF MUD
NEUT.         1                    : NEUTRON      - NEUTRON TYPE
RESI.         0                    : RESIST       - RESISTIVITY TYPE
RMC .OHMM     0.25                 : RMC          - RESISTIVITY OF MUD CAKE
RMF .OHMM     0.25                 : RMF          - RESISTIVITY OF MUD FILTRATE
SUFT.C        15                   : SUFT         - SURFACE TEMPERATURE
~A  DEPTH     RESD     PHID     PHIN       GR
# ...
  415.500    4.656    0.337    0.428   66.855
  415.750    4.744    0.321    0.408   70.519
  416.000    4.743    0.318    0.388   71.729
  416.250    4.743    0.317    0.396   69.254
  416.500    4.742    0.313    0.405   64.926
  416.750    4.742    0.308    0.409   63.059
  417.000    4.741    0.297    0.396   62.422
  417.250    4.741    0.284    0.390   63.020
  417.500    4.740    0.276    0.385   67.301
  417.750    4.652    0.291    0.387   74.028
  418.000    4.566    0.296    0.408   76.473
  418.250    4.481    0.287    0.436   78.917
  418.500    4.398    0.311    0.460   82.573
  418.750    4.316    0.329    0.488   83.785
  419.000    4.316    0.310    0.513   81.926
  419.250    4.564    0.278    0.496   77.599
  419.500    4.917    0.277    0.498   80.037
  419.750    5.103    0.282    0.507   82.473
  420.000    5.199    0.288    0.515   84.293
  420.250    5.297    0.202    0.492   80.585
  420.500    5.396    0.174    0.510   82.410
  420.750    5.396    0.181    0.519   88.533
  421.000    5.395    0.212    0.436   86.669
  421.250    5.295    0.235    0.455   81.732
  421.500    5.196    0.229    0.468   83.549
  421.750    5.100    0.257    0.480   84.763
  422.000    4.913    0.274    0.465   81.053
  422.250    4.732    0.222    0.444   79.188
  422.500    4.732    0.223    0.432   82.843
  422.750    4.558    0.252    0.461   84.676
  423.000    4.473    0.283    0.480   87.721
  423.250    4.390    0.293    0.510   88.936
  423.500    4.229    0.270    0.501   91.364
  423.750    4.150    0.273    0.533   91.963
  424.000    4.073    0.280    0.558   91.940
  424.250    4.072    0.285    0.552   91.924
  424.500    4.307    0.267    0.494   90.672
  424.750    4.640    0.283    0.514   85.114
  425.000    4.907    0.301    0.448   88.164
  425.250    5.591    0.311    0.426   91.218
  425.500    5.804    0.246    0.409   89.356
  425.750    6.371    0.278    0.402   93.631
  426.000    6.613    0.295    0.407   96.074
  426.250    6.864    0.171    0.420   84.373
  426.500    7.258    0.140    0.434   77.593
  426.750    7.258    0.171    0.397   83.707
  427.000    7.257    0.208    0.379   85.542
  427.250    7.122    0.239    0.373   70.154
  427.500    6.990    0.130    0.380   67.057
  427.750    6.860    0.125    0.391   74.406
  428.000    6.608    0.190    0.402   79.922
  428.250    6.607    0.275    0.419   79.899
  428.500    6.858    0.265    0.430   80.495
  428.750    7.118    0.260    0.426   79.846
  429.000    7.389    0.265    0.407   79.838
  429.250    7.669    0.270    0.399   79.815
  429.500    8.110    0.264    0.386   79.168
  429.750    8.576    0.262    0.375   78.545
  430.000    8.737    0.016    0.364   63.772
  430.250    8.901   -0.003    0.338   46.534
  430.500    8.574    0.008    0.298   52.046
  430.750    7.665    0.148    0.295   63.708
  431.000    7.247    0.190    0.331   79.048
  431.250    6.980    0.218    0.379   81.484
  431.500    6.724    0.212    0.402   81.467
  431.750    6.723    0.233    0.419   77.752
  432.000    6.849    0.250    0.410   80.803
  432.250    6.848    0.155    0.396   83.857
  432.500    6.721    0.163    0.386   85.069
  432.750    6.596    0.194    0.403   86.889
  433.000    6.354    0.237    0.418   87.479
  433.250    6.236    0.217    0.432   87.459
  433.500    6.235    0.219    0.429   85.599
  433.750    6.352    0.241    0.412   80.654
  434.000    6.471    0.173    0.402   82.474
  434.250    6.471    0.147    0.395   84.305
  434.500    6.470    0.196    0.380   89.195
  434.750    6.349    0.226    0.393   92.243
  435.000    6.232    0.249    0.402   92.842
  435.250    6.231    0.230    0.412   94.045
  435.500    6.115    0.209    0.397   90.957
  435.750    6.115    0.190    0.390   85.397
  436.000    6.001    0.183    0.379   88.457
  436.250    6.000    0.196    0.378   94.576
  436.500    5.889    0.207    0.373   96.403
  436.750    5.888    0.213    0.381   97.613
  437.000    5.888    0.220    0.386   90.827
  437.250    5.778    0.123    0.388   81.589
  437.500    5.566    0.098    0.398   79.098
  437.750    5.165    0.140    0.406   82.154
  438.000    4.617    0.204    0.420   85.821
  438.250    4.285    0.227    0.402   83.959
  438.500    3.622    0.232    0.414   80.252
  438.750    3.178    0.257    0.445   78.383
  439.000    2.841    0.277    0.468   80.208
  439.250    2.686    0.350    0.500   83.866
  439.500    2.587    0.308    0.529   86.312
  439.750    2.539    0.289    0.517   89.979
  440.000    2.492    0.296    0.499   93.639
  440.250    2.538    0.279    0.509   94.839
  440.500    2.893    0.261    0.514   94.213
  440.750    3.059    0.244    0.446   93.582
  441.000    3.421    0.236    0.434   87.413
  441.250    3.898    0.227    0.383   83.705
  441.500    4.123    0.210    0.373   86.747
  441.750    4.611    0.242    0.379   87.955
  442.000    4.968    0.212    0.385   86.094
  442.250    5.453    0.176    0.384   78.698
  442.500    5.660    0.134    0.378   70.072
  442.750    5.767    0.117    0.376   66.365
  443.000    6.098    0.091    0.379   73.713
  443.250    6.449    0.195    0.374   81.688
  443.500    6.820    0.221    0.354   83.511
  443.750    7.212    0.173    0.349   70.581
  444.000    7.770    0.112    0.345   53.961
  444.250    7.916    0.055    0.339   65.001
  444.500    8.217    0.183    0.347   75.435
  444.750    8.216    0.212    0.363   75.406
  445.000    7.209    0.114    0.366   74.776
  445.250    6.208    0.069    0.370   82.745
  445.500    5.654    0.115    0.376   90.712
  445.750    4.869    0.188    0.385   94.996
  446.000    4.435    0.216    0.409   97.431
  446.250    3.891    0.203    0.434   99.254
  446.500    3.679    0.198    0.453   99.842
  446.750    3.414    0.200    0.464   99.829
  447.000    3.414    0.210    0.489   98.576
  447.250    3.350    0.227    0.500   99.785
  447.500    3.413    0.225    0.486   97.303
  447.750    3.609    0.236    0.469   89.284
  448.000    3.817    0.239    0.478   84.355
  448.250    4.036    0.134    0.488   77.572
  448.500    4.189    0.128    0.486   84.926
  448.750    4.112    0.180    0.426   93.507
  449.000    3.887    0.210    0.447   95.327
  449.250    3.815    0.220    0.462   94.687
  449.500    3.744    0.198    0.448   94.061
  449.750    3.814    0.197    0.435   91.579
  450.000    3.886    0.210    0.420   95.241
  450.250    4.033    0.224    0.419   97.679
  450.500    4.109    0.230    0.429   95.201
  450.750    4.186    0.161    0.411   92.107
  451.000    4.426    0.145    0.405   93.922
  451.250    4.510    0.181    0.400   95.139
  451.500    4.594    0.212    0.411   97.569
  451.750    4.680    0.208    0.417   98.167
  452.000    4.768    0.200    0.406   92.613
  452.250    4.768    0.092    0.395   80.299
  452.500    4.593    0.134    0.388   87.648
  452.750    4.261    0.174    0.389   94.390
  453.000    4.105    0.191    0.403   99.290
  453.250    3.954    0.200    0.411  103.568
  453.500    3.881    0.194    0.445  106.003
  453.750    4.340    0.200    0.439  107.212
  454.000    5.134    0.204    0.420  105.348
  454.250    5.636    0.190    0.403   96.110
  454.500    6.543    0.171    0.381   83.183
  454.750    7.596    0.141    0.367   91.759
  455.000    8.184    0.049    0.353  100.958
  455.250    8.655    0.091    0.358  112.004
  455.500    9.153    0.151    0.362  105.838
  455.750    9.679    0.215    0.349   68.321
  456.000   10.429    0.097    0.319   60.310
  456.250   10.825    0.016    0.306   53.527
  456.500   11.236    0.102    0.290   64.569
  456.750   11.662    0.176    0.301   75.611
  457.000   11.445    0.191    0.317   79.278
  457.250   11.444    0.176    0.332   81.715
  457.500   12.330    0.163    0.339   79.233
  457.750   12.798    0.219    0.339   74.296
  458.000   14.313    0.251    0.343   76.117
  458.250   15.137    0.297    0.351   82.245
  458.500   16.309    0.273    0.356   80.991
  458.750   16.928    0.251    0.356   88.956
