~VERSION INFORMATION
 VERS.                 2.0:   CWLS LOG ASCII STANDARD -VERSION 2.0
 WRAP.                  NO:   ONE LINE PER DEPTH STEP
~WELL INFORMATION BLOCK
#MNEM.UNIT           DATA                    DESCRIPTION OF MNEMONIC
#---------    -------------------            -------------------------------
# Generated from Intellog Unique Number	CS_77_79/WELL/928
WELL.         NORCEN ENERGY RESOURCES        : Well_name    - WELL
LOC .         00/10-02-077-12W4/0            : Location     - LOCATION
UWI .         00/10-02-077-12W4/0            : Uwi          - UNIQUE WELL ID
ENTR.         SP                             : Entered      - ENTERED BY
SRVC.         SCHLUMBERGER                   : Scn          - SERVICE COMPANY
STRT.M        260                            : top_depth    - START DEPTH
STOP.M        520                            : bot_depth    - STOP DEPTH
STEP.M        0.25                           : increment    - STEP LENGTH
 NULL. -999.2500:NULL Value
~CURVE INFORMATION BLOCK
#MNEM UNIT       ERCB CURVE CODE    CURVE DESCRIPTION
#-----------   ------------------   ----------------------------------
DEPT.M        00 001 00 00         : DEPTH        - DEPTH
ILD .OHMM     00 120 00 00         : RESD         - DEEP RESISTIVITY (DIL)
DPHI.V/V      00 890 00 00         : PHID         - DENSITY POROSITY (LIMESTONE)
NPHI.V/V      00 330 00 00         : PHIN         - NEUTRON POROSITY (LIMESTONE)
GR  .API      00 310 00 00         : GR           - GAMMA RAY
~PARAMETER INFORMATION
#MNEM.UNIT           DATA             DESCRIPTION OF MNEMONIC
#---------         -----------     ------------------------------
GL  .M        662.7                : gl           - GROUND LEVEL ELEVATION
EREF.M        666                  : kb           - ELEVATION OF DEPTH REFERENCE
DATM.M        662.7                : datum        - DATUM ELEVATION
TDD .M        531                  : tdd          - TOTAL DEPTH DRILLER
RUN .         ONE                  : Run          - RUN NUMBER
ENG .         BILL                 : Engineer     - RECORDING ENGINEER
WIT .         JIM                  : Witness      - WITNESSED BY
MUD .         GEL                  : Mud_type     - MUD TYPE
MATR.         LIMESTONE            : Logunit      - NEUTRON MATRIX
TMAX.C        15.5                 : BHT          - MAXIMUM RECORDED TEMPERATURE
BHTD.M        531                  : BHTDEP       - MAXIMUM RECORDED TEMPERATURE
MATR.         1                    : LOGUNIT      - NEUTRON MATRIX
RMT .C        25                   : MDTP         - TEMPERATURE OF MUD
NEUT.         1                    : NEUTRON      - NEUTRON TYPE
RESI.         0                    : RESIST       - RESISTIVITY TYPE
RMC .OHMM     0.25                 : RMC          - RESISTIVITY OF MUD CAKE
RMF .OHMM     0.25                 : RMF          - RESISTIVITY OF MUD FILTRATE
SUFT.C        15                   : SUFT         - SURFACE TEMPERATURE
~A  DEPTH     RESD     PHID     PHIN       GR
# ...
  303.500   11.271    0.278    0.396   81.451
  303.750    9.718    0.275    0.403   88.116
  304.000    8.225    0.255    0.408  100.848
  304.250    7.639    0.237    0.419  109.332
  304.500    7.785    0.256    0.454  103.239
  304.750    8.546    0.297    0.467   95.940
  305.000    9.919    0.326    0.484   85.604
  305.250   11.092    0.343    0.462   81.938
  305.500   12.636    0.338    0.444   79.491
  305.750   14.396    0.333    0.436   78.874
  306.000   14.401    0.326    0.438   80.064
  306.250   14.140    0.339    0.449   81.265
  306.500   12.893    0.338    0.477   81.852
  306.750   11.754    0.330    0.476   82.449
  307.000   10.917    0.331    0.459   83.644
  307.250   10.328    0.325    0.457   87.271
  307.500    9.242    0.332    0.452   89.686
  307.750    8.272    0.307    0.458   94.517
  308.000    8.122    0.289    0.454   96.328
  308.250    7.829    0.267    0.460   97.525
  308.500    7.687    0.278    0.476   96.903
  308.750    7.549    0.277    0.481   95.065
  309.000    7.552    0.270    0.477   95.040
  309.250    7.416    0.270    0.463   95.028
  309.500    7.281    0.265    0.459   95.003
  309.750    7.286    0.258    0.475   94.385
  310.000    7.288    0.260    0.481   93.160
  310.250    7.426    0.265    0.491   93.748
  310.500    7.711    0.275    0.504   94.948
  310.750    7.857    0.278    0.485   98.572
  311.000    8.008    0.268    0.469  100.984
  311.250    7.863    0.276    0.458  102.786
  311.500    7.867    0.281    0.454  100.948
  311.750    7.869    0.271    0.444   98.506
  312.000    8.019    0.280    0.445   96.665
  312.250    8.640    0.290    0.440   97.258
  312.500    9.310    0.294    0.425   94.197
  312.750   10.221    0.284    0.404   92.974
  313.000   10.415    0.274    0.397   87.490
  313.250   10.616    0.270    0.409   83.226
  313.500   10.424    0.286    0.421   80.172
  313.750    9.862    0.295    0.438   80.757
  314.000    8.991    0.319    0.453   81.956
  314.250    8.508    0.334    0.467   84.973
  314.500    8.354    0.331    0.476   87.993
  314.750    7.905    0.329    0.477   90.403
  315.000    7.618    0.331    0.471   91.608
  315.250    7.343    0.320    0.487   97.053
  315.500    6.948    0.255    0.487  100.075
  315.750    6.823    0.261    0.470  103.697
  316.000    6.825    0.256    0.474  101.253
  316.250    6.702    0.271    0.462   96.984
  316.500    6.581    0.294    0.457   92.718
  316.750    6.344    0.322    0.472   90.881
  317.000    6.002    0.352    0.462   96.323
  317.250    5.471    0.305    0.480   97.526
  317.500    4.988    0.284    0.491   93.858
  317.750    4.808    0.285    0.492   91.416
  318.000    4.549    0.300    0.470   87.147
  318.250    4.636    0.316    0.492   82.884
  318.500    5.281    0.330    0.516   76.796
  318.750    6.130    0.356    0.548   70.101
  319.000    7.522    0.391    0.562   65.836
  319.250    8.894    0.405    0.590   62.174
  319.500   10.516    0.367    0.602   57.301
  319.750   11.979    0.371    0.511   52.425
  320.000   13.648    0.379    0.455   48.158
  320.250   14.704    0.397    0.513   48.752
  320.500   15.552    0.434    0.571   54.798
  320.750   15.851    0.449    0.592   57.216
  321.000   16.154    0.362    0.594   59.629
  321.250   16.159    0.354    0.442   58.398
  321.500   15.578    0.363    0.437   55.947
  321.750   15.581    0.352    0.424   55.326
  322.000   15.020    0.351    0.427   56.519
  322.250   14.747    0.365    0.429   58.326
  322.500   14.218    0.372    0.427   60.735
  322.750   14.221    0.383    0.429   61.331
  323.000   14.227    0.383    0.436   63.739
  323.250   14.231    0.377    0.448   65.539
  323.500   13.976    0.372    0.460   66.139
  323.750   13.979    0.385    0.455   64.908
  324.000   13.476    0.388    0.452   63.068
  324.250   12.990    0.380    0.459   64.260
  324.500   12.520    0.372    0.458   64.250
  324.750   12.067    0.376    0.453   63.014
  325.000   11.633    0.373    0.449   61.783
  325.250   11.637    0.381    0.436   59.336
  325.500   11.427    0.366    0.443   57.499
  325.750   11.430    0.351    0.440   55.663
  326.000   11.868    0.347    0.450   55.648
  326.250   12.094    0.346    0.469   59.268
  326.500   12.325    0.374    0.469   62.288
  326.750   12.562    0.368    0.433   64.094
  327.000   12.567    0.360    0.417   64.689
  327.250   12.806    0.371    0.415   62.845
  327.500   12.813    0.366    0.416   61.620
  327.750   13.057    0.377    0.423   60.383
  328.000   13.061    0.382    0.438   61.583
  328.250   12.826    0.364    0.453   61.570
  328.500   12.831    0.345    0.456   59.728
  328.750   12.835    0.330    0.439   61.535
  329.000   12.603    0.332    0.440   66.368
  329.250   12.606    0.341    0.440   68.179
  329.500   12.612    0.347    0.436   69.376
  329.750   12.853    0.375    0.434   69.361
  330.000   12.858    0.382    0.443   66.913
  330.250   13.103    0.378    0.446   65.074
  330.500   13.109    0.370    0.455   65.664
  330.750   13.112    0.369    0.460   63.821
  331.000   13.119    0.372    0.462   61.985
  331.250   13.124    0.358    0.459   60.147
  331.500   13.374    0.345    0.455   60.742
  331.750   13.378    0.351    0.456   62.547
  332.000   13.382    0.363    0.452   63.738
  332.250   13.389    0.366    0.461   64.326
  332.500   13.392    0.370    0.459   64.316
  332.750   13.154    0.376    0.455   63.691
  333.000   13.158    0.368    0.460   62.451
  333.250   13.161    0.379    0.463   61.832
  333.500   13.165    0.373    0.464   60.604
  333.750   12.927    0.368    0.467   59.366
  334.000   14.193    0.375    0.477   58.747
  334.250   14.734    0.378    0.474   58.122
  334.500   15.015    0.370    0.445   57.498
  334.750   15.021    0.340    0.425   55.662
  335.000   13.950    0.334    0.353   53.824
  335.250   12.254    0.358    0.341   53.808
  335.500   11.382    0.380    0.382   56.220
  335.750   10.972    0.392    0.412   58.633
  336.000   10.774    0.391    0.446   58.611
  336.250   10.385    0.380    0.451   58.600
  336.500   10.197    0.376    0.446   58.583
  336.750   10.200    0.373    0.435   59.770
  337.000   10.017    0.374    0.459   60.367
  337.250   10.207    0.380    0.468   61.560
  337.500   10.212    0.380    0.474   61.546
  337.750   10.215    0.374    0.458   61.535
  338.000   10.220    0.368    0.460   61.513
  338.250   10.223    0.357    0.460   60.894
  338.500   10.226    0.353    0.460   62.083
  338.750   10.044    0.364    0.461   62.678
  339.000   10.047    0.372    0.462   62.049
  339.250   10.049    0.355    0.454   61.428
  339.500   10.054    0.340    0.451   61.413
  339.750    9.871    0.328    0.467   61.998
  340.000    9.693    0.339    0.472   62.593
  340.250    9.520    0.345    0.457   63.795
  340.500    9.348    0.349    0.472   64.992
  340.750    9.180    0.356    0.459   64.368
  341.000    9.015    0.361    0.456   66.172
  341.250    8.689    0.372    0.449   67.976
  341.500    8.532    0.378    0.444   65.529
  341.750    8.378    0.374    0.437   64.905
  342.000    8.381    0.360    0.442   64.888
  342.250    8.383    0.352    0.447   65.480
  342.500    8.386    0.342    0.452   67.278
  342.750    8.235    0.354    0.458   67.876
  343.000    8.237    0.369    0.464   67.242
  343.250    8.712    0.370    0.463   66.019
  343.500    8.715    0.369    0.457   63.571
  343.750    8.719    0.361    0.463   65.372
  344.000    8.722    0.363    0.469   67.177
  344.250    8.888    0.376    0.474   67.773
  344.500    8.729    0.377    0.476   67.148
  344.750    8.570    0.369    0.461   64.703
  345.000    7.529    0.370    0.461   65.287
  345.250    6.027    0.375    0.468   66.491
  345.500    4.825    0.371    0.481   69.508
  345.750    4.084    0.374    0.486   73.133
  346.000    4.240    0.363    0.486   77.366
  346.250    4.484    0.345    0.487   79.783
  346.500    4.743    0.351    0.508   79.159
  346.750    5.304    0.353    0.528   76.104
