~VERSION INFORMATION
 VERS.                 2.0:   CWLS LOG ASCII STANDARD -VERSION 2.0
 WRAP.                  NO:   ONE LINE PER DEPTH STEP
~WELL INFORMATION BLOCK
#MNEM.UNIT           DATA                    DESCRIPTION OF MNEMONIC
#---------    -------------------            -------------------------------
# Generated from Intellog Unique Number	CS_77_79/WELL/927
WELL.         ALLIED ET AL HOUSE             : Well_name    - WELL
LOC .         00/10-01-079-16W4/0            : Location     - LOCATION
UWI .         00/10-01-079-16W4/0            : Uwi          - UNIQUE WELL ID
ENTR.         JHS                            : Entered      - ENTERED BY
SRVC.         SCHLUMBERGER                   : Scn          - SERVICE COMPANY
STRT.M        198.12                         : top_depth    - START DEPTH
STOP.M        426.37                         : bot_depth    - STOP DEPTH
STEP.M        0.25                           : increment    - STEP LENGTH
 NULL. -999.2500:NULL Value
~CURVE INFORMATION BLOCK
#MNEM UNIT       ERCB CURVE CODE    CURVE DESCRIPTION
#-----------   ------------------   ----------------------------------
DEPT.M        00 001 00 00         : DEPTH        - DEPTH
RHOB.KG/M3    00 350 00 00         : DENS         - BULK DENSITY
GR  .API      00 310 00 00         : GR           - GAMMA RAY
DPHI.V/V      00 890 00 00         : PHID         - DENSITY POROSITY (SANDSTONE)
NPHI.V/V      00 330 00 00         : PHIN         - NEUTRON POROSITY (SANDSTONE)
ILD .OHMM     00 120 00 00         : RESD         - DEEP RESISTIVITY (DIL)
~PARAMETER INFORMATION
#MNEM.UNIT           DATA             DESCRIPTION OF MNEMONIC
#---------         -----------     ------------------------------
GL  .M        603.504              : gl           - GROUND LEVEL ELEVATION
EREF.M        606.552              : kb           - ELEVATION OF DEPTH REFERENCE
DATM.M        606.552              : datum        - DATUM ELEVATION
TDD .M        466.344              : tdd          - TOTAL DEPTH DRILLER
RUN .         ONE                  : Run          - RUN NUMBER
ENG .         BILL                 : Engineer     - RECORDING ENGINEER
WIT .         JIM                  : Witness      - WITNESSED BY
MUD .         GEL                  : Mud_type     - MUD TYPE
MATR.         SANDSTONE            : Logunit      - NEUTRON MATRIX
TMAX.C        31.1111              : BHT          - MAXIMUM RECORDED TEMPERATURE
BHTD.M        466.344              : BHTDEP       - MAXIMUM RECORDED TEMPERATURE
MATR.         1                    : LOGUNIT      - NEUTRON MATRIX
RMT .C        25                   : MDTP         - TEMPERATURE OF MUD
NEUT.         1                    : NEUTRON      - NEUTRON TYPE
RESI.         0                    : RESIST       - RESISTIVITY TYPE
RMC .OHMM     0.25                 : RMC          - RESISTIVITY OF MUD CAKE
RMF .OHMM     0.25                 : RMF          - RESISTIVITY OF MUD FILTRATE
SUFT.C        15                   : SUFT         - SURFACE TEMPERATURE
~A  DEPTH     DENS       GR     PHID     PHIN     RESD
# ...
  380.620 2372.600   98.110    0.197    0.512    4.215
  380.870 2411.550   96.085    0.175    0.500    4.291
  381.120 2435.440   93.918    0.161    0.477    4.653
  381.370 2448.690   96.488    0.153    0.464    4.685
  381.620 2436.120  105.288    0.160    0.479    4.695
  381.870 2341.910  109.731    0.215    0.490    4.561
  382.120 2329.180  109.835    0.223    0.524    4.513
  382.370 2312.950  104.652    0.232    0.530    4.503
  382.620 2336.540  102.208    0.218    0.496    4.714
  382.870 2373.800  100.536    0.197    0.494    4.968
  383.120 2380.070   93.052    0.193    0.499    5.297
  383.370 2398.130   87.160    0.182    0.462    5.674
  383.620 2379.800   75.136    0.193    0.374    6.820
  383.870 2445.580   60.984    0.155    0.354    8.120
  384.120 2445.620   56.315    0.155    0.367    9.504
  384.370 2323.960   57.108    0.226    0.393   10.132
  384.620 2274.840   59.938    0.254    0.425    9.846
  384.870 2244.430   62.743    0.272    0.433    9.453
  385.120 2271.710   63.034    0.256    0.445    9.540
  385.370 2297.840   59.133    0.241    0.437   10.203
  385.620 2281.090   52.929    0.251    0.415   11.270
  385.870 2242.510   52.819    0.273    0.402   13.937
  386.120 2275.570   57.224    0.254    0.395   18.703
  386.370 2307.440   68.076    0.235    0.385   22.503
  386.620 2311.350   76.871    0.233    0.378   21.629
  386.870 2303.020   86.976    0.238    0.375   20.218
  387.120 2332.650   94.731    0.221    0.394   18.542
  387.370 2343.250  100.377    0.214    0.454   18.621
  387.620 2324.350   96.258    0.226    0.449   18.255
  387.870 2367.460   93.471    0.200    0.423   18.820
  388.120 2432.680   86.175    0.162    0.381   22.410
  388.370 2502.250   78.597    0.121    0.354   24.098
  388.620 2460.800   82.027    0.146    0.373   23.591
  388.870 2371.920   87.951    0.198    0.366   22.016
  389.120 2384.740   90.543    0.190    0.373   19.610
  389.370 2394.560   91.635    0.184    0.388   17.517
  389.620 2374.410   94.281    0.196    0.390   16.274
  389.870 2399.870   95.306    0.181    0.374   15.588
  390.120 2411.940   93.783    0.174    0.368   15.738
  390.370 2384.670   91.894    0.190    0.364   16.540
  390.620 2355.570   83.829    0.207    0.366   17.070
  390.870 2381.340   73.663    0.192    0.367   17.906
  391.120 2432.340   71.698    0.162    0.359   18.861
  391.370 2502.920   73.052    0.121    0.364   20.829
  391.620 2553.160   75.524    0.092    0.388   22.372
  391.870 2516.290   80.557    0.113    0.413   22.720
  392.120 2325.220   83.547    0.225    0.384   21.152
  392.370 2400.010   89.144    0.181    0.365   18.714
  392.620 2428.660   92.940    0.165    0.394   17.826
  392.870 2403.180   90.205    0.179    0.423   17.548
  393.120 2394.900   86.686    0.184    0.407   16.601
  393.370 2402.770   86.411    0.180    0.389   16.946
  393.620 2417.170   91.974    0.171    0.393   17.994
  393.870 2444.880   96.507    0.155    0.383   17.742
  394.120 2472.620   96.310    0.139    0.370   16.875
  394.370 2503.790   92.146    0.121    0.380   17.008
  394.620 2494.610   87.456    0.126    0.380   17.553
  394.870 2410.760   82.047    0.175    0.369   16.941
  395.120 2453.970   78.599    0.150    0.379   15.006
  395.370 2443.730   84.968    0.156    0.403   13.191
  395.620 2489.770   94.694    0.129    0.426   11.802
  395.870 2462.060   98.948    0.145    0.460   11.011
  396.120 2526.440   98.257    0.107    0.483   10.736
  396.370 2513.810   94.420    0.115    0.425   10.908
  396.620 2347.240   87.562    0.212    0.396   11.652
  396.870 2332.670   82.964    0.221    0.393   13.695
  397.120 2333.210   83.003    0.220    0.413   18.308
  397.370 2305.560   84.537    0.237    0.423   22.892
  397.620 2305.600   86.077    0.236    0.416   25.139
  397.870 2348.710   85.910    0.211    0.413   26.896
  398.120 2374.010   84.702    0.196    0.402   28.888
  398.370 2356.400   87.546    0.207    0.403   30.483
  398.620 2358.790   94.341    0.205    0.416   30.509
  398.870 2314.120   95.650    0.232    0.412   27.802
  399.120 2329.420   95.208    0.223    0.384   22.956
  399.370 2402.600   93.065    0.180    0.375   19.913
  399.620 2448.220   92.407    0.153    0.378   17.229
  399.870 2452.240   89.322    0.151    0.395   15.971
  400.120 2426.830   86.859    0.166    0.405   15.302
  400.370 2387.310   79.032    0.189    0.419   15.444
  400.620 2338.220   66.115    0.217    0.440   16.682
  400.870 2290.780   46.581    0.245    0.461   19.522
  401.120 2221.680   36.236    0.286    0.455   25.941
  401.370 2207.270   33.583    0.294    0.434   45.544
  401.620 2199.860   34.387    0.298    0.423   74.031
  401.870 2211.070   37.066    0.292    0.419   84.999
  402.120 2243.180   42.611    0.273    0.420   93.907
  402.370 2278.670   49.074    0.252    0.429   99.178
  402.620 2275.880   61.184    0.254    0.415  101.983
  402.870 2253.930   75.283    0.267    0.396   48.906
  403.120 2286.420   92.759    0.248    0.389   36.102
  403.370 2337.280  101.468    0.218    0.401   23.203
  403.620 2382.860  102.450    0.191    0.424   18.628
  403.870 2358.080   96.029    0.206    0.416   15.259
  404.120 2403.970   97.367    0.179    0.406   14.663
  404.370 2428.960   96.575    0.164    0.402   14.965
  404.620 2431.190   88.552    0.163    0.409   15.286
  404.870 2417.400   76.441    0.171    0.396   16.499
  405.120 2397.170   68.999    0.183    0.343   17.605
  405.370 2406.600   64.970    0.177    0.325   18.083
  405.620 2431.950   63.501    0.163    0.318   19.025
  405.870 2419.760   59.797    0.170    0.318   21.233
  406.120 2364.410   59.901    0.202    0.324   22.179
  406.370 2344.810   61.656    0.214    0.348   22.825
  406.620 2292.520   62.272    0.244    0.377   24.407
  406.870 2271.310   60.106    0.257    0.388   26.927
  407.120 2247.910   60.699    0.270    0.398   28.546
  407.370 2244.940   70.686    0.272    0.397   28.114
  407.620 2290.310   77.478    0.245    0.392   27.146
  407.870 2303.370   82.087    0.238    0.403   25.567
  408.120 2281.720   82.755    0.250    0.414   24.045
  408.370 2299.320   82.425    0.240    0.415   22.271
  408.620 2341.180   82.219    0.216    0.413   20.770
  408.870 2369.230   83.267    0.199    0.415   19.634
  409.120 2352.690   83.299    0.209    0.413   18.765
  409.370 2377.070   83.277    0.195    0.402   18.139
  409.620 2395.890   84.666    0.184    0.402   17.496
  409.870 2427.880   85.695    0.165    0.414   16.894
  410.120 2468.720   81.329    0.141    0.414   16.809
  410.370 2500.700   72.553    0.122    0.405   17.269
  410.620 2539.740   62.118    0.100    0.412   20.219
  410.870 2335.860   52.345    0.219    0.416   22.927
  411.120 2274.300   44.470    0.255    0.386   24.679
  411.370 2244.010   48.402    0.273    0.363   25.915
  411.620 2278.710   57.344    0.252    0.343   26.561
  411.870 2344.410   72.656    0.214    0.358   26.514
  412.120 2418.030   74.445    0.171    0.386   25.908
  412.370 2402.620   67.609    0.180    0.372   24.319
  412.620 2365.450   65.976    0.201    0.339   22.082
  412.870 2408.610   76.612    0.176    0.332   21.188
  413.120 2431.240   84.108    0.163    0.343   20.363
  413.370 2449.770   91.326    0.153    0.389   19.350
  413.620 2447.150   88.590    0.154    0.404   17.471
  413.870 2392.200   79.943    0.144    0.377   16.288
  414.120 1880.860   68.039    0.129    0.349   16.073
  414.370  -37.402   56.271    0.102    0.304   16.326
  414.620  -16.494   39.122    0.038    0.242   33.041
  414.870   -1.101   24.512    0.003    0.086   42.325
  415.120    0.111   12.319   -0.000    0.062   64.191
  415.370    0.025   11.188   -0.000    0.057  119.869
  415.620    0.001   11.123   -0.000    0.061  203.574
  415.870   -0.000   11.545   -0.000    0.064  240.530
  416.120   -0.000   12.360   -0.000    0.069  221.309
  416.370   -0.000   12.309   -0.000    0.074  193.572
  416.620    0.000   12.345    0.000    0.078  198.600
  416.870    0.000   11.451    0.007    0.085  210.703
