~VERSION INFORMATION
 VERS.                 2.0:   CWLS LOG ASCII STANDARD -VERSION 2.0
 WRAP.                  NO:   ONE LINE PER DEPTH STEP
~WELL INFORMATION BLOCK
#MNEM.UNIT           DATA                    DESCRIPTION OF MNEMONIC
#---------    -------------------            -------------------------------
# Generated from Intellog Unique Number	CS_71_72/WELL/853
WELL.         HOL BVX UNIGAS NIXON           : Well_name    - WELL
LOC .         00/10-10-071-15W4/0            : Location     - LOCATION
UWI .         00/10-10-071-15W4/0            : Uwi          - UNIQUE WELL ID
ENTR.         SP                             : Entered      - ENTERED BY
SRVC.         SCHLUMBERGER                   : Scn          - SERVICE COMPANY
STRT.M        313.944                        : top_depth    - START DEPTH
STOP.M        517.944                        : bot_depth    - STOP DEPTH
STEP.M        0.25                           : increment    - STEP LENGTH
 NULL. -999.2500:NULL Value
~CURVE INFORMATION BLOCK
#MNEM UNIT       ERCB CURVE CODE    CURVE DESCRIPTION
#-----------   ------------------   ----------------------------------
DEPT.M        00 001 00 00         : DEPTH        - DEPTH
GR  .API      00 310 00 00         : GR           - GAMMA RAY
DPHI.V/V      00 890 00 00         : PHID         - DENSITY POROSITY (SANDSTONE)
NPHI.V/V      00 330 00 00         : PHIN         - NEUTRON POROSITY (SANDSTONE)
ILD .OHMM     00 120 00 00         : RESD         - DEEP RESISTIVITY (DIL)
~PARAMETER INFORMATION
#MNEM.UNIT           DATA             DESCRIPTION OF MNEMONIC
#---------         -----------     ------------------------------
GL  .M        620.573              : gl           - GROUND LEVEL ELEVATION
EREF.M        623.011              : kb           - ELEVATION OF DEPTH REFERENCE
DATM.M        620.573              : datum        - DATUM ELEVATION
TDD .M        523.646              : tdd          - TOTAL DEPTH DRILLER
RUN .         ONE                  : Run          - RUN NUMBER
ENG .         BILL                 : Engineer     - RECORDING ENGINEER
WIT .         JIM                  : Witness      - WITNESSED BY
MUD .         GEL                  : Mud_type     - MUD TYPE
MATR.         SANDSTONE            : Logunit      - NEUTRON MATRIX
TMAX.C        21.6667              : BHT          - MAXIMUM RECORDED TEMPERATURE
BHTD.M        523.646              : BHTDEP       - MAXIMUM RECORDED TEMPERATURE
MATR.         1                    : LOGUNIT      - NEUTRON MATRIX
RMT .C        25                   : MDTP         - TEMPERATURE OF MUD
NEUT.         1                    : NEUTRON      - NEUTRON TYPE
RESI.         0                    : RESIST       - RESISTIVITY TYPE
RMC .OHMM     0.25                 : RMC          - RESISTIVITY OF MUD CAKE
RMF .OHMM     0.25                 : RMF          - RESISTIVITY OF MUD FILTRATE
SUFT.C        15                   : SUFT         - SURFACE TEMPERATURE
~A  DEPTH       GR     PHID     PHIN     RESD
# ...
  400.944   63.274    0.314    0.578    3.811
  401.194   61.269    0.307    0.583    3.684
  401.444   60.860    0.307    0.562    3.511
  401.694   61.030    0.304    0.542    3.446
  401.944   61.921    0.293    0.521    3.527
  402.194   62.109    0.275    0.507    3.929
  402.444   61.481    0.251    0.499    4.691
  402.694   59.652    0.219    0.457    6.027
  402.944   54.520    0.183    0.334    7.335
  403.194   49.193    0.149    0.236    8.345
  403.444   49.201    0.119    0.220    8.989
  403.694   54.024    0.145    0.281    9.300
  403.944   57.204    0.191    0.453    8.007
  404.194   61.899    0.225    0.531    6.101
  404.444   64.231    0.252    0.576    5.113
  404.694   64.965    0.281    0.582    4.185
  404.944   64.643    0.310    0.569    3.584
  405.194   63.945    0.310    0.557    3.325
  405.444   63.853    0.307    0.553    3.237
  405.694   63.870    0.304    0.542    3.230
  405.944   64.073    0.301    0.519    3.289
  406.194   64.601    0.300    0.502    3.363
  406.444   65.047    0.296    0.509    3.452
  406.694   65.854    0.288    0.527    3.637
  406.944   67.354    0.273    0.546    3.753
  407.194   70.136    0.260    0.556    3.945
  407.444   71.298    0.253    0.550    4.077
  407.694   72.208    0.252    0.562    4.230
  407.944   70.795    0.246    0.576    4.329
  408.194   71.422    0.250    0.542    4.417
  408.444   72.766    0.246    0.505    4.478
  408.694   74.407    0.243    0.489    4.528
  408.944   74.177    0.232    0.484    4.559
  409.194   73.652    0.220    0.504    4.535
  409.444   74.070    0.218    0.536    4.336
  409.694   74.365    0.213    0.525    4.147
  409.944   73.041    0.201    0.530    4.236
  410.194   71.171    0.186    0.547    4.595
  410.444   65.007    0.163    0.437    5.068
  410.694   56.006    0.117    0.225    5.793
  410.944   44.728    0.048    0.183    6.520
  411.194   40.471    0.031    0.175    7.091
  411.444   44.240    0.038    0.195    7.008
  411.694   49.796    0.056    0.248    6.049
  411.944   55.335    0.096    0.373    5.054
  412.194   65.681    0.196    0.454    4.371
  412.444   70.618    0.215    0.514    3.956
  412.694   73.546    0.240    0.553    3.636
  412.944   72.132    0.267    0.575    3.526
  413.194   71.269    0.280    0.580    3.678
  413.444   73.840    0.272    0.563    3.832
  413.694   77.918    0.263    0.551    4.032
  413.944   82.226    0.251    0.537    4.183
  414.194   84.591    0.242    0.535    4.317
  414.444   87.067    0.236    0.546    4.413
  414.694   87.330    0.231    0.536    4.472
  414.944   83.402    0.231    0.539    4.493
  415.194   79.804    0.234    0.529    4.491
  415.444   76.826    0.237    0.505    4.471
  415.694   76.182    0.239    0.491    4.436
  415.944   77.151    0.236    0.480    4.417
  416.194   79.410    0.231    0.470    4.414
  416.444   83.061    0.223    0.506    4.456
  416.694   84.935    0.212    0.533    4.514
  416.944   85.600    0.205    0.558    4.558
  417.194   83.125    0.198    0.576    4.599
  417.444   81.413    0.211    0.563    4.618
  417.694   79.135    0.205    0.544    4.605
  417.944   77.753    0.196    0.542    4.602
  418.194   76.307    0.206    0.541    4.585
  418.444   76.939    0.214    0.556    4.568
  418.694   77.686    0.222    0.585    4.558
  418.944   77.957    0.238    0.578    4.535
  419.194   76.216    0.255    0.549    4.511
  419.444   71.776    0.264    0.534    4.469
  419.694   68.940    0.271    0.521    4.424
  419.944   67.291    0.280    0.512    4.341
  420.194   69.678    0.277    0.505    4.271
  420.444   73.396    0.277    0.500    4.296
  420.694   75.020    0.283    0.491    4.411
  420.944   76.150    0.288    0.480    4.433
  421.194   76.114    0.290    0.475    4.348
  421.444   74.219    0.287    0.477    4.226
  421.694   72.706    0.286    0.481    4.189
  421.944   71.331    0.287    0.490    4.159
  422.194   68.202    0.285    0.489    4.170
  422.444   66.129    0.277    0.487    4.203
  422.694   68.751    0.273    0.480    4.237
  422.944   71.119    0.273    0.492    4.314
  423.194   73.167    0.275    0.485    4.404
  423.444   75.563    0.276    0.475    4.446
  423.694   76.466    0.279    0.472    4.435
  423.944   75.825    0.285    0.480    4.303
  424.194   75.538    0.294    0.507    4.042
  424.444   73.312    0.310    0.528    3.616
  424.694   74.621    0.325    0.552    3.141
  424.944   76.829    0.332    0.571    2.624
  425.194   78.861    0.320    0.599    2.245
  425.444   76.856    0.333    0.648    2.015
  425.694   78.266    0.334    0.736    1.855
  425.944   79.915    0.318    0.715    1.795
  426.194   80.553    0.314    0.749    1.830
  426.444   80.456    0.331    0.711    1.998
  426.694   80.376    0.318    0.715    2.269
  426.944   81.559    0.294    0.650    2.645
  427.194   83.096    0.267    0.606    2.977
  427.444   84.537    0.250    0.562    3.408
  427.694   84.760    0.245    0.508    3.737
  427.944   84.672    0.241    0.512    3.990
  428.194   83.413    0.236    0.534    4.086
  428.444   82.296    0.232    0.551    4.095
  428.694   79.647    0.231    0.573    3.983
  428.944   78.956    0.237    0.575    3.796
  429.194   79.051    0.242    0.553    3.729
  429.444   78.922    0.246    0.540    3.797
  429.694   78.811    0.247    0.542    3.972
  429.944   77.903    0.233    0.542    4.320
  430.194   74.905    0.207    0.508    4.917
  430.444   71.183    0.179    0.454    5.425
  430.694   64.475    0.153    0.384    5.919
  430.944   58.527    0.130    0.324    6.163
  431.194   56.611    0.127    0.311    6.108
  431.444   62.984    0.192    0.398    5.725
  431.694   67.967    0.237    0.448    4.947
  431.944   70.275    0.282    0.482    4.199
  432.194   69.327    0.306    0.490    3.527
  432.444   63.435    0.324    0.494    2.912
  432.694   55.338    0.334    0.507    2.690
  432.944   52.303    0.334    0.496    2.615
  433.194   51.581    0.339    0.437    2.586
  433.444   50.690    0.345    0.433    2.595
  433.694   50.246    0.339    0.427    2.603
  433.944   50.752    0.336    0.444    2.628
  434.194   52.228    0.338    0.459    2.652
  434.444   53.131    0.339    0.472    2.670
  434.694   52.112    0.336    0.500    2.644
  434.944   53.056    0.334    0.538    2.614
  435.194   53.289    0.332    0.547    2.605
  435.444   52.682    0.334    0.525    2.628
  435.694   53.551    0.335    0.509    2.644
  435.944   55.074    0.330    0.535    2.648
  436.194   55.882    0.326    0.567    2.644
  436.444   55.165    0.327    0.593    2.649
  436.694   55.405    0.329    0.580    2.672
  436.944   57.950    0.320    0.571    2.710
  437.194   59.600    0.308    0.512    2.779
  437.444   62.888    0.297    0.481    2.894
  437.694   63.630    0.280    0.468    3.001
  437.944   62.601    0.265    0.452    3.171
  438.194   65.636    0.248    0.447    3.340
  438.444   69.245    0.233    0.488    3.475
  438.694   72.001    0.223    0.508    3.585
  438.944   74.703    0.224    0.509    3.672
  439.194   76.995    0.229    0.524    3.685
  439.444   76.694    0.238    0.534    3.608
  439.694   76.508    0.251    0.537    3.481
  439.944   75.838    0.261    0.530    3.409
  440.194   74.021    0.266    0.544    3.344
  440.444   71.514    0.269    0.539    3.338
  440.694   72.964    0.271    0.524    3.335
  440.944   73.041    0.275    0.512    3.375
  441.194   72.397    0.282    0.519    3.449
  441.444   70.257    0.288    0.529    3.485
  441.694   68.770    0.284    0.515    3.530
  441.944   71.596    0.280    0.504    3.542
  442.194   71.606    0.280    0.497    3.501
  442.444   70.944    0.274    0.527    3.494
  442.694   69.274    0.262    0.557    3.521
  442.944   67.793    0.250    0.550    3.599
  443.194   66.749    0.240    0.535    3.708
  443.444   70.143    0.235    0.521    3.861
  443.694   75.391    0.233    0.507    3.989
  443.944   78.807    0.236    0.528    4.090
  444.194   81.925    0.249    0.554    4.088
