~VERSION INFORMATION
 VERS.                 2.0:   CWLS LOG ASCII STANDARD -VERSION 2.0
 WRAP.                  NO:   ONE LINE PER DEPTH STEP
~WELL INFORMATION BLOCK
#MNEM.UNIT           DATA                    DESCRIPTION OF MNEMONIC
#---------    -------------------            -------------------------------
# Generated from Intellog Unique Number	CS_73_76/WELL/3261
WELL.         ALLIED ROXANA MINERALS         : Well_name    - WELL
LOC .         00/11-10-076-15W4/0            : Location     - LOCATION
UWI .         00/11-10-076-15W4/0            : Uwi          - UNIQUE WELL ID
ENTR.         SP                             : Entered      - ENTERED BY
SRVC.         SCHLUMBERGER                   : Scn          - SERVICE COMPANY
STRT.M        341.376                        : top_depth    - START DEPTH
STOP.M        569.626                        : bot_depth    - STOP DEPTH
STEP.M        0.25                           : increment    - STEP LENGTH
 NULL. -999.2500:NULL Value
~CURVE INFORMATION BLOCK
#MNEM UNIT       ERCB CURVE CODE    CURVE DESCRIPTION
#-----------   ------------------   ----------------------------------
DEPT.M        00 001 00 00         : DEPTH        - DEPTH
GR  .API      00 310 00 00         : GR           - GAMMA RAY
DPHI.V/V      00 890 00 00         : PHID         - DENSITY POROSITY (SANDSTONE)
NPHI.V/V      00 330 00 00         : PHIN         - NEUTRON POROSITY (SANDSTONE)
ILD .OHMM     00 120 00 00         : RESD         - DEEP RESISTIVITY (DIL)
~PARAMETER INFORMATION
#MNEM.UNIT           DATA             DESCRIPTION OF MNEMONIC
#---------         -----------     ------------------------------
GL  .M        715.518              : gl           - GROUND LEVEL ELEVATION
EREF.M        718.566              : kb           - ELEVATION OF DEPTH REFERENCE
DATM.M        715.518              : datum        - DATUM ELEVATION
TDD .M        579.12               : tdd          - TOTAL DEPTH DRILLER
RUN .         ONE                  : Run          - RUN NUMBER
ENG .         BILL                 : Engineer     - RECORDING ENGINEER
WIT .         JIM                  : Witness      - WITNESSED BY
MUD .         GEL                  : Mud_type     - MUD TYPE
MATR.         SANDSTONE            : Logunit      - NEUTRON MATRIX
TMAX.C        23.3333              : BHT          - MAXIMUM RECORDED TEMPERATURE
BHTD.M        579.12               : BHTDEP       - MAXIMUM RECORDED TEMPERATURE
MATR.         1                    : LOGUNIT      - NEUTRON MATRIX
RMT .C        25                   : MDTP         - TEMPERATURE OF MUD
NEUT.         1                    : NEUTRON      - NEUTRON TYPE
RESI.         0                    : RESIST       - RESISTIVITY TYPE
RMC .OHMM     0.25                 : RMC          - RESISTIVITY OF MUD CAKE
RMF .OHMM     0.25                 : RMF          - RESISTIVITY OF MUD FILTRATE
SUFT.C        15                   : SUFT         - SURFACE TEMPERATURE
~A  DEPTH       GR     PHID     PHIN     RESD
# ...
  471.876   62.855    0.251    0.470    6.758
  472.126   59.031    0.274    0.441    6.577
  472.376   56.776    0.300    0.455    6.130
  472.626   54.494    0.322    0.467    5.980
  472.876   54.655    0.329    0.474    5.707
  473.126   54.869    0.336    0.479    5.538
  473.376   55.907    0.320    0.495    5.371
  473.626   57.470    0.312    0.506    5.373
  473.876   58.407    0.308    0.497    5.355
  474.126   59.369    0.309    0.495    5.618
  474.376   60.347    0.316    0.505    5.609
  474.626   61.338    0.318    0.511    5.614
  474.876   61.709    0.310    0.483    5.616
  475.126   61.947    0.310    0.478    5.665
  475.376   63.677    0.307    0.488    5.694
  475.626   64.124    0.308    0.500    5.699
  475.876   62.215    0.320    0.504    5.740
  476.126   60.333    0.331    0.478    5.776
  476.376   61.227    0.330    0.465    5.786
  476.626   64.610    0.328    0.468    5.693
  476.876   66.396    0.321    0.474    5.702
  477.126   65.232    0.317    0.470    5.701
  477.376   64.905    0.307    0.480    5.677
  477.626   65.123    0.307    0.492    5.626
  477.876   65.047    0.319    0.492    5.574
  478.126   65.880    0.301    0.500    5.550
  478.376   63.476    0.305    0.492    5.549
  478.626   60.645    0.315    0.484    5.550
  478.876   60.145    0.325    0.489    5.551
  479.126   60.142    0.329    0.514    5.553
  479.376   60.360    0.326    0.524    5.561
  479.626   62.044    0.320    0.496    5.472
  479.876   62.463    0.325    0.491    5.412
  480.126   62.783    0.325    0.494    5.374
  480.376   63.149    0.334    0.498    5.237
  480.626   63.174    0.336    0.519    5.110
  480.876   62.149    0.331    0.528    5.004
  481.126   60.708    0.330    0.519    4.928
  481.376   62.050    0.320    0.518    4.929
  481.626   63.234    0.313    0.520    4.929
  481.876   63.660    0.321    0.513    4.929
  482.126   63.361    0.329    0.514    4.931
  482.376   62.247    0.329    0.507    4.934
  482.626   60.664    0.332    0.492    4.864
  482.876   60.624    0.337    0.494    4.827
  483.126   60.635    0.327    0.481    4.689
  483.376   63.071    0.315    0.479    4.615
  483.626   66.068    0.309    0.497    4.619
  483.876   67.727    0.297    0.545    4.620
  484.126   68.102    0.293    0.574    4.620
  484.376   68.158    0.293    0.531    4.617
  484.626   67.122    0.281    0.502    4.698
  484.876   66.125    0.293    0.508    4.709
  485.126   65.139    0.297    0.505    4.618
  485.376   66.755    0.292    0.493    4.626
  485.626   68.631    0.281    0.487    4.627
  485.876   68.094    0.282    0.493    4.627
  486.126   67.241    0.291    0.510    4.628
  486.376   64.799    0.296    0.523    4.629
  486.626   63.935    0.302    0.504    4.630
  486.876   64.381    0.306    0.493    4.631
  487.126   64.468    0.287    0.494    4.632
  487.376   65.092    0.282    0.505    4.633
  487.626   66.502    0.289    0.513    4.635
  487.876   66.957    0.301    0.524    4.648
  488.126   67.999    0.305    0.537    4.417
  488.376   68.785    0.301    0.546    4.405
  488.626   67.168    0.302    0.553    4.401
  488.876   65.770    0.299    0.536    4.401
  489.126   64.390    0.296    0.551    4.404
  489.376   66.894    0.309    0.562    4.408
  489.626   67.826    0.315    0.547    4.536
  489.876   67.772    0.317    0.520    4.784
  490.126   66.729    0.320    0.506    5.042
  490.376   66.350    0.305    0.514    5.440
  490.626   65.165    0.293    0.506    5.717
  490.876   63.710    0.281    0.514    5.981
  491.126   62.664    0.283    0.526    6.071
  491.376   62.442    0.297    0.538    6.057
  491.626   62.950    0.303    0.538    5.928
  491.876   64.232    0.300    0.547    5.707
  492.126   65.541    0.310    0.555    5.580
  492.376   64.601    0.311    0.545    5.312
  492.626   63.678    0.302    0.533    5.181
  492.876   66.073    0.293    0.527    4.961
  493.126   67.245    0.304    0.541    4.828
  493.376   66.395    0.304    0.551    4.790
  493.626   64.133    0.307    0.542    4.734
  493.876   61.809    0.306    0.528    4.873
  494.126   59.863    0.307    0.500    4.907
  494.376   62.078    0.308    0.478    5.047
  494.626   64.513    0.305    0.493    5.220
  494.876   64.647    0.308    0.511    5.384
  495.126   64.088    0.304    0.510    5.517
  495.376   63.933    0.298    0.496    5.645
  495.626   65.338    0.305    0.484    5.771
  495.876   66.708    0.309    0.470    5.832
  496.126   68.925    0.284    0.460    5.854
  496.376   72.393    0.267    0.450    5.770
  496.626   74.722    0.249    0.479    5.782
  496.876   77.031    0.244    0.474    5.685
  497.126   78.901    0.239    0.471    5.697
  497.376   78.206    0.250    0.499    5.561
  497.626   79.301    0.257    0.508    5.527
  497.876   82.855    0.250    0.512    5.397
  498.126   84.801    0.238    0.482    5.184
  498.376   86.665    0.242    0.459    4.971
  498.626   86.986    0.243    0.492    4.843
  498.876   88.825    0.225    0.516    4.830
  499.126   91.424    0.215    0.542    4.922
  499.376   91.043    0.211    0.528    5.128
  499.626   88.527    0.211    0.503    5.401
  499.876   84.737    0.235    0.456    5.625
  500.126   80.771    0.234    0.459    5.917
  500.376   79.619    0.242    0.468    6.114
  500.626   77.062    0.243    0.450    6.173
  500.876   73.962    0.237    0.462    6.304
  501.126   77.788    0.228    0.480    6.561
  501.376   80.261    0.208    0.471    6.982
  501.626   78.254    0.189    0.431    8.171
  501.876   72.175    0.126    0.377    9.178
  502.126   62.289    0.067    0.295    9.842
  502.376   67.322    0.038    0.250   10.106
  502.626   78.107    0.076    0.447    9.569
  502.876   84.125    0.152    0.467    8.896
  503.126   89.088    0.187    0.477    8.091
  503.376   89.270    0.178    0.463    7.708
  503.626   91.248    0.165    0.457    7.272
  503.876   92.272    0.177    0.462    7.154
  504.126   89.942    0.189    0.483    7.220
  504.376   91.976    0.198    0.503    7.315
  504.626   90.161    0.183    0.518    7.324
  504.876   90.652    0.179    0.538    7.461
  505.126   93.107    0.179    0.538    7.544
  505.376   94.666    0.193    0.524    7.624
  505.626   93.895    0.196    0.506    7.684
  505.876   91.745    0.188    0.518    7.729
  506.126   89.710    0.191    0.506    7.783
  506.376   89.041    0.185    0.500    7.862
  506.626   87.171    0.180    0.488    7.964
  506.876   87.813    0.187    0.493    8.166
  507.126   88.541    0.182    0.500    8.377
  507.376   87.697    0.166    0.493    8.708
  507.626   86.412    0.151    0.499    9.097
  507.876   81.711    0.173    0.478    9.556
  508.126   77.772    0.173    0.425   10.121
  508.376   76.311    0.158    0.381   10.224
  508.626   82.533    0.154    0.363    9.682
  508.876   87.287    0.152    0.378    9.028
  509.126   91.843    0.142    0.397    8.185
  509.376  100.194    0.136    0.420    7.414
  509.626  104.427    0.141    0.450    7.089
  509.876  105.829    0.165    0.469    6.902
  510.126  105.176    0.176    0.460    7.130
  510.376  103.843    0.163    0.447    7.319
  510.626  103.042    0.182    0.431    7.319
  510.876   99.806    0.179    0.424    7.301
  511.126   97.845    0.173    0.428    6.884
  511.376   97.753    0.167    0.438    6.714
  511.626   94.655    0.179    0.458    6.449
  511.876   91.993    0.178    0.476    6.315
  512.126   88.681    0.164    0.460    6.281
  512.376   89.939    0.152    0.439    6.144
  512.626   91.790    0.140    0.423    5.813
  512.876   94.452    0.179    0.468    4.979
  513.126   96.978    0.199    0.496    4.052
  513.376   97.946    0.208    0.535    3.276
  513.626   94.085    0.231    0.544    2.510
  513.876   91.757    0.239    0.571    2.074
  514.126   90.732    0.227    0.607    1.705
  514.376   90.625    0.208    0.635    1.640
  514.626   94.055    0.204    0.677    1.567
  514.876   99.127    0.190    0.633    1.603
  515.126  101.905    0.180    0.643    1.654
