~VERSION INFORMATION
 VERS.                 2.0:   CWLS LOG ASCII STANDARD -VERSION 2.0
 WRAP.                  NO:   ONE LINE PER DEPTH STEP
~WELL INFORMATION BLOCK
#MNEM.UNIT           DATA                    DESCRIPTION OF MNEMONIC
#---------    -------------------            -------------------------------
# Generated from Intellog Unique Number	CS_73_76/WELL/813
WELL.         PEX PHILLIPS AEC WIAB          : Well_name    - WELL
LOC .         00/10-11-073-08W4/0            : Location     - LOCATION
UWI .         00/10-11-073-08W4/0            : Uwi          - UNIQUE WELL ID
ENTR.         SP                             : Entered      - ENTERED BY
SRVC.         SCHLUMBERGER                   : Scn          - SERVICE COMPANY
STRT.M        335                            : top_depth    - START DEPTH
STOP.M        560                            : bot_depth    - STOP DEPTH
STEP.M        0.25                           : increment    - STEP LENGTH
 NULL. -999.2500:NULL Value
~CURVE INFORMATION BLOCK
#MNEM UNIT       ERCB CURVE CODE    CURVE DESCRIPTION
#-----------   ------------------   ----------------------------------
DEPT.M        00 001 00 00         : DEPTH        - DEPTH
GR  .API      00 310 00 00         : GR           - GAMMA RAY
NPHI.V/V      00 330 00 00         : PHIN         - NEUTRON POROSITY (LIMESTONE)
DPHI.V/V      00 890 00 00         : PHID         - DENSITY POROSITY (LIMESTONE)
ILD .OHMM     00 120 00 00         : RESD         - DEEP RESISTIVITY (DIL)
~PARAMETER INFORMATION
#MNEM.UNIT           DATA             DESCRIPTION OF MNEMONIC
#---------         -----------     ------------------------------
GL  .M        702.8                : gl           - GROUND LEVEL ELEVATION
EREF.M        706.3                : kb           - ELEVATION OF DEPTH REFERENCE
DATM.M        702.3                : datum        - DATUM ELEVATION
TDD .M        570                  : tdd          - TOTAL DEPTH DRILLER
RUN .         ONE                  : Run          - RUN NUMBER
ENG .         BILL                 : Engineer     - RECORDING ENGINEER
WIT .         JIM                  : Witness      - WITNESSED BY
MUD .         GEL                  : Mud_type     - MUD TYPE
MATR.         LIMESTONE            : Logunit      - NEUTRON MATRIX
TMAX.C        24                   : BHT          - MAXIMUM RECORDED TEMPERATURE
BHTD.M        570                  : BHTDEP       - MAXIMUM RECORDED TEMPERATURE
MATR.         1                    : LOGUNIT      - NEUTRON MATRIX
RMT .C        25                   : MDTP         - TEMPERATURE OF MUD
NEUT.         1                    : NEUTRON      - NEUTRON TYPE
RESI.         0                    : RESIST       - RESISTIVITY TYPE
RMC .OHMM     0.25                 : RMC          - RESISTIVITY OF MUD CAKE
RMF .OHMM     0.25                 : RMF          - RESISTIVITY OF MUD FILTRATE
SUFT.C        15                   : SUFT         - SURFACE TEMPERATURE
~A  DEPTH       GR     PHIN     PHID     RESD
# ...
  465.500   78.181    0.428    0.235    6.122
  465.750   80.613    0.456    0.235    6.121
  466.000   81.222    0.464    0.224    6.006
  466.250   79.402    0.464    0.218    6.005
  466.500   82.441    0.462    0.210    6.117
  466.750   84.264    0.468    0.206    6.116
  467.000   85.481    0.472    0.202    6.231
  467.250   84.876    0.475    0.222    6.229
  467.500   84.877    0.459    0.238    6.346
  467.750   85.487    0.439    0.230    6.345
  468.000   85.489    0.440    0.219    6.344
  468.250   86.098    0.455    0.212    6.342
  468.500   85.493    0.461    0.228    6.341
  468.750   86.102    0.440    0.237    6.340
  469.000   86.105    0.451    0.228    6.222
  469.250   84.892    0.480    0.218    6.105
  469.500   83.072    0.459    0.223    6.103
  469.750   82.467    0.446    0.233    5.989
  470.000   82.469    0.441    0.238    5.988
  470.250   80.649    0.437    0.229    5.987
  470.500   78.222    0.445    0.212    5.986
  470.750   77.616    0.461    0.226    6.098
  471.000   80.655    0.474    0.248    6.097
  471.250   82.479    0.453    0.260    6.211
  471.500   83.696    0.447    0.248    6.327
  471.750   86.734    0.428    0.227    6.445
  472.000   89.165    0.409    0.206    6.444
  472.250   88.560    0.401    0.196    6.443
  472.500   87.954    0.415    0.203    6.205
  472.750   89.778    0.432    0.226    5.976
  473.000   88.566    0.436    0.230    5.649
  473.250   86.138    0.434    0.229    4.772
  473.500   84.927    0.441    0.248    4.108
  473.750   83.714    0.450    0.256    3.342
  474.000   81.894    0.462    0.257    3.101
  474.250   80.681    0.502    0.255    2.823
  474.500   80.683    0.524    0.271    2.570
  474.750   78.863    0.545    0.265    2.522
  475.000   80.080    0.562    0.274    2.475
  475.250   80.690    0.572    0.299    2.429
  475.500   80.692    0.546    0.308    2.428
  475.750   81.301    0.522    0.289    2.474
  476.000   83.732    0.511    0.274    2.473
  476.250   87.985    0.527    0.273    2.665
  476.500   89.201    0.514    0.261    2.872
  476.750   84.952    0.538    0.250    3.153
  477.000   80.096    0.566    0.256    3.397
  477.250   77.062    0.519    0.267    3.593
  477.500   76.456    0.481    0.236    3.871
  477.750   76.459    0.463    0.232    4.018
  478.000   75.246    0.456    0.245    4.171
  478.250   74.641    0.462    0.261    4.249
  478.500   77.072    0.463    0.306    4.410
  478.750   77.681    0.473    0.285    4.664
  479.000   77.076    0.465    0.249    5.026
  479.250   74.649    0.449    0.269    5.518
  479.500   71.007    0.475    0.309    6.058
  479.750   65.543    0.494    0.326    6.288
  480.000   61.294    0.511    0.337    7.167
  480.250   61.904    0.502    0.333    8.169
  480.500   61.299    0.489    0.338    9.487
  480.750   60.693    0.454    0.340   10.223
  481.000   58.266    0.440    0.328   11.652
  481.250   59.483    0.435    0.329   12.793
  481.500   60.092    0.442    0.331   13.530
  481.750   59.487    0.448    0.325   13.782
  482.000   58.881    0.446    0.318   13.780
  482.250   57.669    0.456    0.323   14.038
  482.500   57.671    0.470    0.325   14.571
  482.750   60.102    0.485    0.331   15.410
  483.000   61.319    0.484    0.333   16.297
  483.250   61.928    0.465    0.329   16.915
  483.500   59.501    0.458    0.317   17.232
  483.750   55.252    0.459    0.305   17.554
  484.000   51.611    0.447    0.265   17.550
  484.250   49.790    0.400    0.103   17.221
  484.500   52.222    0.356    0.089   16.586
  484.750   56.474    0.246    0.240   15.386
  485.000   60.120    0.429    0.290   14.819
  485.250   60.730    0.467    0.316   14.271
  485.500   60.124    0.475    0.324   13.743
  485.750   61.341    0.469    0.334   13.486
  486.000   60.128    0.478    0.335   13.484
  486.250   58.916    0.500    0.321   13.996
  486.500   60.132    0.476    0.298   14.801
  486.750   60.742    0.443    0.284   15.653
  487.000   60.136    0.425    0.310   15.947
  487.250   56.495    0.410    0.310   15.648
  487.500   54.675    0.397    0.293   15.070
  487.750   54.069    0.383    0.264   13.466
  488.000   53.464    0.370    0.250   12.261
  488.250   56.502    0.432    0.283   10.956
  488.500   61.970    0.458    0.302    9.430
  488.750   62.580    0.468    0.321    8.427
  489.000   61.974    0.466    0.332    7.530
  489.250   63.799    0.455    0.329    7.118
  489.500   63.800    0.453    0.317    6.242
  489.750   62.588    0.471    0.318    6.012
  490.000   62.590    0.480    0.323    5.683
  490.250   62.592    0.458    0.318    5.371
  490.500   65.023    0.441    0.307    5.271
  490.750   68.061    0.451    0.304    5.172
  491.000   69.885    0.458    0.313    5.075
  491.250   69.888    0.460    0.323    5.170
  491.500   69.282    0.446    0.316    5.784
  491.750   67.463    0.444    0.310    6.470
  492.000   63.821    0.452    0.316    7.800
  492.250   58.357    0.446    0.305    8.250
  492.500   53.501    0.357    0.113    8.724
  492.750   51.073    0.218    0.006    8.723
  493.000   54.112    0.192    0.001    7.369
  493.250   58.973    0.282    0.060    6.343
  493.500   62.011    0.410    0.274    5.358
  493.750   65.657    0.453    0.299    4.879
  494.000   66.266    0.459    0.307    4.611
  494.250   66.268    0.461    0.311    4.525
  494.500   65.662    0.461    0.315    4.524
  494.750   64.450    0.459    0.315    4.523
  495.000   65.667    0.449    0.313    4.523
  495.250   69.314    0.436    0.316    4.521
  495.500   71.136    0.424    0.299    4.606
  495.750   73.567    0.425    0.267    4.871
  496.000   74.177    0.432    0.251    5.348
  496.250   69.321    0.417    0.250    5.872
  496.500   66.893    0.420    0.252    6.210
  496.750   65.681    0.412    0.246    6.567
  497.000   65.683    0.414    0.241    6.691
  497.250   63.255    0.401    0.243    6.815
  497.500   65.080    0.388    0.235    6.814
  497.750   69.332    0.388    0.229    6.687
  498.000   73.586    0.414    0.214    6.941
  498.250   76.624    0.449    0.237    7.620
  498.500   76.626    0.476    0.284    8.685
  498.750   71.162    0.486    0.289    9.536
  499.000   73.594    0.444    0.283   10.085
  499.250   77.847    0.423    0.275    9.896
  499.500   80.886    0.417    0.289    8.842
  499.750   82.709    0.412    0.297    8.203
  500.000   82.711    0.392    0.270    7.610
  500.250   80.284    0.363    0.213    7.192
  500.500   79.071    0.374    0.190    7.057
  500.750   77.859    0.390    0.205    6.925
  501.000   76.646    0.393    0.186    6.796
  501.250   76.041    0.400    0.169    6.795
  501.500   79.080    0.400    0.171    6.794
  501.750   81.511    0.384    0.183    6.921
  502.000   80.905    0.366    0.188    6.920
  502.250   79.693    0.383    0.178    7.049
  502.500   79.088    0.400    0.170    7.316
  502.750   76.661    0.411    0.176    7.453
  503.000   76.662    0.421    0.201    7.593
  503.250   80.308    0.418    0.198    7.591
  503.500   80.918    0.412    0.183    7.590
  503.750   83.956    0.406    0.193    7.732
  504.000   85.780    0.398    0.199    7.731
  504.250   85.782    0.388    0.198    7.729
  504.500   85.784    0.374    0.197    7.728
  504.750   85.786    0.383    0.193    7.726
  505.000   87.003    0.390    0.188    7.582
  505.250   87.005    0.382    0.193    7.301
  505.500   82.148    0.382    0.207    7.300
  505.750   77.899    0.395    0.216    7.164
  506.000   74.865    0.404    0.226    7.162
  506.250   83.369    0.388    0.209    7.161
  506.500   85.800    0.379    0.199    7.160
  506.750   79.122    0.384    0.199    7.158
  507.000   77.302    0.389    0.202    7.157
  507.250   80.948    0.391    0.199    7.156
  507.500   82.772    0.396    0.197    7.154
  507.750   80.345    0.406    0.199    7.288
  508.000   80.954    0.409    0.202    7.286
  508.250   82.171    0.396    0.198    7.423
  508.500   82.173    0.388    0.200    7.421
  508.750   82.174    0.382    0.213    7.420
