~VERSION INFORMATION
 VERS.                 2.0:   CWLS LOG ASCII STANDARD -VERSION 2.0
 WRAP.                  NO:   ONE LINE PER DEPTH STEP
~WELL INFORMATION BLOCK
#MNEM.UNIT           DATA                    DESCRIPTION OF MNEMONIC
#---------    -------------------            -------------------------------
# Generated from Intellog Unique Number	CS_77_79/WELL/974
WELL.         AMOCO B-3 LEISMER              : Well_name    - WELL
LOC .         00/10-27-078-09W4/0            : Location     - LOCATION
UWI .         00/10-27-078-09W4/0            : Uwi          - UNIQUE WELL ID
ENTR.         JHS                            : Entered      - ENTERED BY
SRVC.         SCHLUMBERGER                   : Scn          - SERVICE COMPANY
STRT.M        192.024                        : top_depth    - START DEPTH
STOP.M        420.274                        : bot_depth    - STOP DEPTH
STEP.M        0.25                           : increment    - STEP LENGTH
 NULL. -999.2500:NULL Value
~CURVE INFORMATION BLOCK
#MNEM UNIT       ERCB CURVE CODE    CURVE DESCRIPTION
#-----------   ------------------   ----------------------------------
DEPT.M        00 001 00 00         : DEPTH        - DEPTH
GR  .API      00 310 00 00         : GR           - GAMMA RAY
DPHI.V/V      00 890 00 00         : PHID         - DENSITY POROSITY (SANDSTONE)
NPHI.V/V      00 330 00 00         : PHIN         - NEUTRON POROSITY (SANDSTONE)
ILD .OHMM     00 120 00 00         : RESD         - DEEP RESISTIVITY (DIL)
~PARAMETER INFORMATION
#MNEM.UNIT           DATA             DESCRIPTION OF MNEMONIC
#---------         -----------     ------------------------------
GL  .M        625.693              : gl           - GROUND LEVEL ELEVATION
EREF.M        629.26               : kb           - ELEVATION OF DEPTH REFERENCE
DATM.M        629.26               : datum        - DATUM ELEVATION
TDD .M        419.1                : tdd          - TOTAL DEPTH DRILLER
RUN .         ONE                  : Run          - RUN NUMBER
ENG .         BILL                 : Engineer     - RECORDING ENGINEER
WIT .         JIM                  : Witness      - WITNESSED BY
MUD .         GEL                  : Mud_type     - MUD TYPE
MATR.         SANDSTONE            : Logunit      - NEUTRON MATRIX
TMAX.C        60                   : BHT          - MAXIMUM RECORDED TEMPERATURE
BHTD.M        419.1                : BHTDEP       - MAXIMUM RECORDED TEMPERATURE
MATR.         1                    : LOGUNIT      - NEUTRON MATRIX
RMT .C        25                   : MDTP         - TEMPERATURE OF MUD
NEUT.         1                    : NEUTRON      - NEUTRON TYPE
RESI.         0                    : RESIST       - RESISTIVITY TYPE
RMC .OHMM     0.25                 : RMC          - RESISTIVITY OF MUD CAKE
RMF .OHMM     0.25                 : RMF          - RESISTIVITY OF MUD FILTRATE
SUFT.C        15                   : SUFT         - SURFACE TEMPERATURE
~A  DEPTH       GR     PHID     PHIN     RESD
# ...
  366.024   97.219    0.197    0.449    4.448
  366.274   94.570    0.183    0.428    4.842
  366.524   98.987    0.196    0.420    5.237
  366.774  100.558    0.182    0.422    5.866
  367.024   96.460    0.140    0.424    6.491
  367.274   90.010    0.099    0.390    7.652
  367.524   77.448    0.140    0.328   10.249
  367.774   72.265    0.213    0.327   12.676
  368.024   70.839    0.272    0.346   12.567
  368.274   68.734    0.280    0.363   12.514
  368.524   68.958    0.289    0.371   11.869
  368.774   72.024    0.255    0.377   11.353
  369.024   73.838    0.250    0.378   10.899
  369.274   76.800    0.226    0.369   10.440
  369.524   80.416    0.234    0.367   10.255
  369.774   80.267    0.223    0.380   10.001
  370.024   74.617    0.214    0.398    9.704
  370.274   74.040    0.208    0.403    9.320
  370.524   78.984    0.167    0.394    8.732
  370.774   87.720    0.141    0.367    8.073
  371.024   95.207    0.151    0.367    7.744
  371.274  100.194    0.169    0.376    7.616
  371.524   98.341    0.175    0.385    7.599
  371.774   95.181    0.167    0.382    7.822
  372.024  100.219    0.171    0.369    8.065
  372.274   99.039    0.181    0.370    8.473
  372.524   91.799    0.188    0.374    8.727
  372.774   93.960    0.190    0.364    8.996
  373.024   96.489    0.204    0.357    9.275
  373.274   94.244    0.220    0.355    9.560
  373.524   95.572    0.212    0.358    9.869
  373.774  100.501    0.205    0.357    9.962
  374.024  100.761    0.209    0.358   10.295
  374.274  100.295    0.207    0.365   10.434
  374.524   99.563    0.221    0.369   10.660
  374.774   98.867    0.214    0.358   10.637
  375.024   94.331    0.208    0.344   10.798
  375.274   92.072    0.200    0.338   10.850
  375.524   95.474    0.182    0.342   10.635
  375.774   96.564    0.197    0.352   10.805
  376.024   98.421    0.177    0.379   10.612
  376.274  100.327    0.187    0.380   10.645
  376.524   97.346    0.202    0.375   10.325
  376.774   95.372    0.197    0.368   10.009
  377.024   95.996    0.195    0.370    9.885
  377.274   98.318    0.184    0.384    9.695
  377.524   98.925    0.196    0.390    9.507
  377.774   97.213    0.188    0.385    9.372
  378.024   99.366    0.200    0.370    9.346
  378.274  101.675    0.199    0.388    9.341
  378.524   98.935    0.172    0.392    9.308
  378.774   96.436    0.176    0.386    9.777
  379.024   98.051    0.186    0.387   10.062
  379.274   93.632    0.164    0.385   10.184
  379.524   90.192    0.176    0.372   10.243
  379.774   95.552    0.177    0.359   10.259
  380.024   96.152    0.171    0.366    9.959
  380.274   98.463    0.179    0.386    9.687
  380.524   99.910    0.191    0.400    9.554
  380.774   98.202    0.209    0.412    9.327
  381.024  100.177    0.210    0.406    9.341
  381.274   99.698    0.188    0.381    9.321
  381.524   96.287    0.190    0.370    9.507
  381.774   95.809    0.188    0.376    9.889
  382.024   95.457    0.185    0.378   10.202
  382.274   93.312    0.202    0.388   10.247
  382.524   89.824    0.208    0.383   10.252
  382.774   88.781    0.200    0.371   10.250
  383.024   88.582    0.191    0.361   10.242
  383.274   89.147    0.196    0.352   10.425
  383.524   90.454    0.196    0.354   10.401
  383.774   91.671    0.207    0.378   10.884
  384.024   89.716    0.223    0.369   11.384
  384.274   86.129    0.209    0.357   11.764
  384.524   84.916    0.195    0.362   12.129
  384.774   80.524    0.190    0.384   12.134
  385.024   74.977    0.222    0.383   11.768
  385.274   70.552    0.209    0.373   10.837
  385.524   84.620    0.203    0.365   10.071
  385.774   93.285    0.160    0.357    9.379
  386.024  100.713    0.142    0.388    8.685
  386.274  103.623    0.155    0.403    8.408
  386.524  102.216    0.158    0.406    8.348
  386.774   98.087    0.172    0.407    8.496
  387.024   97.984    0.164    0.417    8.640
  387.274   97.916    0.160    0.427    9.221
  387.524   94.979    0.173    0.434   10.222
  387.774   89.780    0.174    0.432   12.062
  388.024   81.382    0.188    0.403   13.867
  388.274   72.640    0.208    0.411   15.290
  388.524   67.235    0.241    0.414   16.245
  388.774   64.675    0.238    0.392   16.939
  389.024   65.335    0.248    0.387   17.465
  389.274   65.176    0.262    0.388   18.001
  389.524   66.092    0.243    0.394   18.578
  389.774   73.157    0.244    0.397   18.586
  390.024   73.228    0.263    0.400   18.560
  390.274   71.981    0.234    0.409   18.009
  390.524   75.719    0.242    0.412   17.078
  390.774   74.310    0.250    0.415   16.585
  391.024   70.158    0.255    0.410   15.793
  391.274   71.345    0.259    0.405   15.332
  391.524   75.822    0.248    0.401   14.873
  391.774   76.709    0.238    0.403   14.405
  392.024   76.768    0.233    0.400   14.355
  392.274   78.205    0.212    0.399   14.081
  392.524   82.954    0.210    0.403   14.104
  392.774   85.660    0.200    0.400   13.794
  393.024   85.106    0.219    0.408   13.603
  393.274   85.884    0.218    0.416   13.309
  393.524   88.372    0.218    0.399   13.034
  393.774   93.587    0.222    0.406   12.262
  394.024   94.932    0.224    0.394   11.826
  394.274   91.080    0.242    0.375   11.463
  394.524   90.197    0.220    0.390   11.978
  394.774   88.035    0.224    0.405   12.713
  395.024   83.970    0.230    0.424   12.584
  395.274   79.945    0.244    0.425   12.451
  395.524   77.928    0.239    0.399   12.005
  395.774   82.809    0.214    0.380   11.670
  396.024   91.591    0.206    0.391   11.656
  396.274   91.479    0.217    0.404   11.934
  396.524   85.860    0.220    0.392   12.505
  396.774   82.839    0.230    0.386   13.556
  397.024   83.976    0.249    0.386   14.059
  397.274   82.847    0.235    0.381   13.903
  397.524   85.176    0.223    0.378   13.025
  397.774   93.929    0.197    0.381   12.355
  398.024   99.673    0.180    0.388   13.004
  398.274  100.725    0.206    0.396   13.431
  398.524   90.675    0.264    0.406   14.316
  398.774   77.951    0.266    0.415   15.075
  399.024   69.818    0.247    0.415   16.177
  399.274   69.174    0.236    0.409   16.643
  399.524   64.328    0.254    0.403   16.482
  399.774   66.683    0.276    0.392   16.329
  400.024   73.176    0.253    0.386   16.530
  400.274   76.109    0.245    0.405   17.467
  400.524   70.048    0.271    0.426   17.604
  400.774   69.493    0.282    0.411   17.945
  401.024   73.164    0.225    0.392   17.942
  401.274   77.029    0.212    0.396   17.596
  401.524   75.788    0.210    0.404   17.162
  401.774   75.242    0.234    0.383   15.529
  402.024   81.629    0.200    0.372   14.380
  402.274   83.525    0.198    0.380   14.203
  402.524   78.320    0.214    0.389   14.070
  402.774   70.229    0.227    0.354   14.259
  403.024   64.557    0.245    0.330   15.050
  403.274   64.699    0.228    0.342   15.524
  403.524   66.481    0.247    0.381   16.600
  403.774   67.380    0.268    0.389   17.221
  404.024   72.455    0.253    0.393   17.589
  404.274   72.612    0.251    0.393   17.389
  404.524   71.662    0.246    0.379   16.817
  404.774   70.027    0.211    0.387   16.658
  405.024   69.717    0.207    0.397   15.701
  405.274   68.668    0.215    0.407   15.006
  405.524   68.117    0.176    0.349   14.135
  405.774   71.123    0.172    0.340   13.276
  406.024   77.317    0.180    0.347   12.780
  406.274   79.773    0.183    0.357   12.557
  406.524   78.234    0.199    0.356   12.926
  406.774   74.809    0.221    0.366   13.326
  407.024   71.651    0.238    0.393   13.586
  407.274   68.609    0.228    0.385   13.214
  407.524   74.425    0.210    0.373   12.818
  407.774   81.399    0.208    0.365   12.287
  408.024   82.896    0.214    0.362   11.890
  408.274   86.510    0.199    0.366   11.890
  408.524   86.148    0.195    0.382   12.212
  408.774   81.247    0.216    0.405   13.202
  409.024   75.549    0.232    0.399   14.700
  409.274   74.379    0.241    0.383   15.807
