~VERSION INFORMATION
 VERS.                 2.0:   CWLS LOG ASCII STANDARD -VERSION 2.0
 WRAP.                  NO:   ONE LINE PER DEPTH STEP
~WELL INFORMATION BLOCK
#MNEM.UNIT           DATA                    DESCRIPTION OF MNEMONIC
#---------    -------------------            -------------------------------
# Generated from Intellog Unique Number	CS_71_72/WELL/854
WELL.         BOW VALLEY INDUSTRIES          : Well_name    - WELL
LOC .         00/10-12-072-18W4/0            : Location     - LOCATION
UWI .         00/10-12-072-18W4/0            : Uwi          - UNIQUE WELL ID
ENTR.         SP                             : Entered      - ENTERED BY
SRVC.         SCHLUMBERGER                   : Scn          - SERVICE COMPANY
STRT.M        283.464                        : top_depth    - START DEPTH
STOP.M        462.964                        : bot_depth    - STOP DEPTH
STEP.M        0.25                           : increment    - STEP LENGTH
 NULL. -999.2500:NULL Value
~CURVE INFORMATION BLOCK
#MNEM UNIT       ERCB CURVE CODE    CURVE DESCRIPTION
#-----------   ------------------   ----------------------------------
DEPT.M        00 001 00 00         : DEPTH        - DEPTH
GR  .API      00 310 00 00         : GR           - GAMMA RAY
DPHI.V/V      00 890 00 00         : PHID         - DENSITY POROSITY (SANDSTONE)
NPHI.V/V      00 330 00 00         : PHIN         - NEUTRON POROSITY (SANDSTONE)
ILD .OHMM     00 120 00 00         : RESD         - DEEP RESISTIVITY (DIL)
~PARAMETER INFORMATION
#MNEM.UNIT           DATA             DESCRIPTION OF MNEMONIC
#---------         -----------     ------------------------------
GL  .M        593.507              : gl           - GROUND LEVEL ELEVATION
EREF.M        596.494              : kb           - ELEVATION OF DEPTH REFERENCE
DATM.M        593.507              : datum        - DATUM ELEVATION
TDD .M        505.968              : tdd          - TOTAL DEPTH DRILLER
RUN .         ONE                  : Run          - RUN NUMBER
ENG .         BILL                 : Engineer     - RECORDING ENGINEER
WIT .         JIM                  : Witness      - WITNESSED BY
MUD .         GEL                  : Mud_type     - MUD TYPE
MATR.         SANDSTONE            : Logunit      - NEUTRON MATRIX
TMAX.C        23.8889              : BHT          - MAXIMUM RECORDED TEMPERATURE
BHTD.M        502.92               : BHTDEP       - MAXIMUM RECORDED TEMPERATURE
MATR.         1                    : LOGUNIT      - NEUTRON MATRIX
RMT .C        25                   : MDTP         - TEMPERATURE OF MUD
NEUT.         1                    : NEUTRON      - NEUTRON TYPE
RESI.         0                    : RESIST       - RESISTIVITY TYPE
RMC .OHMM     0.25                 : RMC          - RESISTIVITY OF MUD CAKE
RMF .OHMM     0.25                 : RMF          - RESISTIVITY OF MUD FILTRATE
SUFT.C        15                   : SUFT         - SURFACE TEMPERATURE
~A  DEPTH       GR     PHID     PHIN     RESD
# ...
  370.464   71.442    0.315    0.467    4.565
  370.714   71.274    0.308    0.464    4.568
  370.964   67.880    0.308    0.469    4.577
  371.214   68.298    0.319    0.474    4.660
  371.464   70.171    0.328    0.467    4.657
  371.714   70.439    0.345    0.470    4.658
  371.964   69.413    0.329    0.483    4.722
  372.214   69.548    0.331    0.479    4.740
  372.464   71.662    0.321    0.466    4.839
  372.714   71.991    0.318    0.470    4.839
  372.964   73.057    0.331    0.491    4.839
  373.214   73.496    0.343    0.505    4.928
  373.464   73.265    0.344    0.486    4.886
  373.714   71.443    0.318    0.473    4.850
  373.964   67.813    0.320    0.463    4.855
  374.214   66.555    0.327    0.491    4.711
  374.464   67.722    0.329    0.495    4.667
  374.714   72.002    0.334    0.498    4.443
  374.964   73.202    0.335    0.498    4.344
  375.214   72.281    0.328    0.488    4.266
  375.464   69.793    0.322    0.480    4.273
  375.714   68.984    0.330    0.507    4.292
  375.964   67.444    0.325    0.519    4.353
  376.214   71.094    0.329    0.510    4.346
  376.464   73.125    0.331    0.502    4.445
  376.714   73.540    0.331    0.504    4.431
  376.964   73.290    0.336    0.503    4.533
  377.214   72.249    0.344    0.495    4.533
  377.464   71.676    0.343    0.495    4.617
  377.714   72.635    0.335    0.499    4.648
  377.964   72.922    0.323    0.499    4.700
  378.214   72.575    0.315    0.500    4.694
  378.464   75.051    0.306    0.511    4.808
  378.714   76.555    0.293    0.528    4.707
  378.964   77.208    0.288    0.510    4.761
  379.214   76.017    0.304    0.494    4.934
  379.464   73.556    0.315    0.496    5.156
  379.714   74.786    0.300    0.513    5.443
  379.964   76.734    0.282    0.523    6.370
  380.214   77.751    0.271    0.368    7.588
  380.464   73.092    0.095    0.289   10.637
  380.714   64.778    0.031    0.218   14.316
  380.964   57.162    0.036    0.198   16.700
  381.214   53.925    0.049    0.194   18.037
  381.464   52.572    0.068    0.207   17.611
  381.714   58.906    0.089    0.235   12.889
  381.964   63.998    0.115    0.318   10.050
  382.214   69.919    0.165    0.406    7.858
  382.464   71.707    0.220    0.445    6.616
  382.714   72.468    0.271    0.468    5.647
  382.964   73.117    0.299    0.487    4.644
  383.214   71.705    0.297    0.498    4.458
  383.464   71.821    0.293    0.502    4.312
  383.714   71.759    0.302    0.499    4.382
  383.964   70.667    0.309    0.498    4.526
  384.214   67.563    0.309    0.503    4.570
  384.464   67.709    0.311    0.513    4.572
  384.714   70.370    0.313    0.519    4.574
  384.964   70.640    0.315    0.515    4.575
  385.214   69.609    0.321    0.511    4.577
  385.464   69.553    0.311    0.508    4.577
  385.714   70.631    0.307    0.501    4.585
  385.964   71.267    0.308    0.494    4.499
  386.214   72.564    0.317    0.492    4.412
  386.464   73.523    0.329    0.484    4.349
  386.714   75.288    0.323    0.476    4.341
  386.964   75.531    0.318    0.467    4.340
  387.214   76.078    0.321    0.455    4.342
  387.464   76.987    0.326    0.473    4.343
  387.714   77.296    0.337    0.479    4.344
  387.964   77.679    0.339    0.491    4.346
  388.214   78.710    0.331    0.503    4.348
  388.464   79.674    0.323    0.494    4.349
  388.714   81.307    0.318    0.491    4.351
  388.964   82.061    0.326    0.494    4.352
  389.214   81.538    0.334    0.506    4.354
  389.464   82.144    0.328    0.512    4.356
  389.714   83.576    0.337    0.523    4.358
  389.964   85.725    0.328    0.516    4.361
  390.214   85.551    0.314    0.508    4.397
  390.464   84.520    0.309    0.502    4.446
  390.714   83.523    0.319    0.509    4.581
  390.964   82.398    0.322    0.505    4.827
  391.214   80.359    0.309    0.509    5.066
  391.464   78.924    0.301    0.506    5.257
  391.714   78.486    0.170    0.452    5.551
  391.964   77.354    0.148    0.368    5.887
  392.214   77.996    0.187    0.412    5.491
  392.464   78.819    0.214    0.448    5.130
  392.714   80.223    0.260    0.474    4.910
  392.964   82.880    0.305    0.489    4.655
  393.214   84.028    0.323    0.506    4.623
  393.464   83.952    0.319    0.521    4.542
  393.714   84.851    0.304    0.530    4.549
  393.964   85.827    0.297    0.529    4.552
  394.214   85.929    0.312    0.544    4.634
  394.464   84.393    0.305    0.530    4.737
  394.714   82.846    0.292    0.530    4.725
  394.964   81.499    0.290    0.524    4.815
  395.214   80.353    0.289    0.508    4.917
  395.464   80.967    0.290    0.510    4.917
  395.714   81.022    0.273    0.516    4.824
  395.964   81.098    0.283    0.515    4.736
  396.214   84.321    0.293    0.519    4.534
  396.464   86.535    0.295    0.529    4.247
  396.714   88.904    0.290    0.522    3.989
  396.964   91.469    0.286    0.520    3.635
  397.214   94.101    0.257    0.512    3.186
  397.464   97.922    0.223    0.509    2.983
  397.714  101.640    0.223    0.522    2.833
  397.964  105.669    0.237    0.584    2.716
  398.214  109.196    0.233    0.603    2.811
  398.464  109.617    0.223    0.606    2.925
  398.714  108.998    0.231    0.599    3.191
  398.964  110.951    0.202    0.587    3.627
  399.214  113.360    0.233    0.579    3.909
  399.464  114.127    0.220    0.567    4.200
  399.714  112.566    0.207    0.555    4.407
  399.964  111.105    0.199    0.541    4.574
  400.214  110.543    0.204    0.533    4.768
  400.464  108.621    0.225    0.517    4.919
  400.714  105.906    0.236    0.503    5.077
  400.964  104.585    0.224    0.493    5.139
  401.214  105.580    0.206    0.504    5.201
  401.464  106.546    0.218    0.498    5.235
  401.714  107.577    0.224    0.489    5.239
  401.964  107.868    0.212    0.490    5.242
  402.214  107.920    0.207    0.504    5.243
  402.464  106.911    0.216    0.526    5.246
  402.714  106.376    0.201    0.526    5.256
  402.964  105.769    0.217    0.513    5.147
  403.214  103.886    0.204    0.509    5.165
  403.464  103.132    0.191    0.512    5.050
  403.714  105.239    0.197    0.506    5.062
  403.964  106.666    0.229    0.508    4.965
  404.214  106.862    0.246    0.514    4.971
  404.464  105.907    0.246    0.517    4.978
  404.714  103.350    0.229    0.515    4.875
  404.964  105.498    0.236    0.512    4.870
  405.214  106.347    0.231    0.497    4.795
  405.464  107.088    0.235    0.489    4.757
  405.714  107.010    0.231    0.486    4.718
  405.964  105.980    0.226    0.486    4.645
  406.214  104.976    0.227    0.478    4.641
  406.464  103.972    0.236    0.492    4.544
  406.714  101.751    0.258    0.502    4.559
  406.964   98.100    0.270    0.510    4.456
  407.214   93.334    0.266    0.496    4.469
  407.464   84.170    0.246    0.487    4.382
  407.714   83.906    0.237    0.502    4.392
  407.964   80.838    0.246    0.516    4.320
  408.214   76.846    0.273    0.529    4.233
  408.464   72.763    0.272    0.524    4.138
  408.714   70.188    0.267    0.507    4.079
  408.964   72.237    0.274    0.503    4.083
  409.214   72.811    0.280    0.511    4.088
  409.464   73.005    0.304    0.516    4.235
  409.714   72.180    0.303    0.506    4.347
  409.964   70.913    0.291    0.495    4.842
  410.214   67.774    0.209    0.510    5.492
  410.464   64.090    0.133    0.257    6.512
  410.714   58.496    0.077    0.245    7.647
  410.964   54.806    0.035    0.206    9.730
  411.214   58.569    0.052    0.193   12.692
  411.464   61.850    0.074    0.191   15.059
  411.714   64.454    0.085    0.210   16.252
  411.964   66.254    0.115    0.237   12.520
  412.214   66.776    0.159    0.282   10.104
  412.464   67.838    0.220    0.436    8.899
  412.714   70.551    0.259    0.477    7.395
  412.964   75.092    0.290    0.489    6.188
  413.214   77.544    0.310    0.483    5.002
  413.464   77.647    0.299    0.484    4.345
  413.714   76.980    0.274    0.494    4.180
