~VERSION INFORMATION
 VERS.                 2.0:   CWLS LOG ASCII STANDARD -VERSION 2.0
 WRAP.                  NO:   ONE LINE PER DEPTH STEP
~WELL INFORMATION BLOCK
#MNEM.UNIT           DATA                    DESCRIPTION OF MNEMONIC
#---------    -------------------            -------------------------------
# Generated from Intellog Unique Number	CS_73_76/WELL/2189
WELL.         AMOCO KIRBY                    : Well_name    - WELL
LOC .         00/10-15-074-06W4/0            : Location     - LOCATION
UWI .         00/10-15-074-06W4/0            : Uwi          - UNIQUE WELL ID
ENTR.         SP                             : Entered      - ENTERED BY
SRVC.         SCHLUMBERGER                   : Scn          - SERVICE COMPANY
STRT.M        235                            : top_depth    - START DEPTH
STOP.M        455                            : bot_depth    - STOP DEPTH
STEP.M        0.25                           : increment    - STEP LENGTH
 NULL. -999.2500:NULL Value
~CURVE INFORMATION BLOCK
#MNEM UNIT       ERCB CURVE CODE    CURVE DESCRIPTION
#-----------   ------------------   ----------------------------------
DEPT.M        00 001 00 00         : DEPTH        - DEPTH
DPHI.V/V      00 890 00 00         : PHID         - DENSITY POROSITY (LIMESTONE)
ILD .OHMM     00 120 00 00         : RESD         - DEEP RESISTIVITY (DIL)
NPHI.V/V      00 330 00 00         : PHIN         - NEUTRON POROSITY (LIMESTONE)
GR  .API      00 310 00 00         : GR           - GAMMA RAY
~PARAMETER INFORMATION
#MNEM.UNIT           DATA             DESCRIPTION OF MNEMONIC
#---------         -----------     ------------------------------
GL  .M        627.32               : gl           - GROUND LEVEL ELEVATION
EREF.M        631.57               : kb           - ELEVATION OF DEPTH REFERENCE
DATM.M        627.32               : datum        - DATUM ELEVATION
TDD .M        464                  : tdd          - TOTAL DEPTH DRILLER
RUN .         ONE                  : Run          - RUN NUMBER
ENG .         BILL                 : Engineer     - RECORDING ENGINEER
WIT .         JIM                  : Witness      - WITNESSED BY
MUD .         GEL                  : Mud_type     - MUD TYPE
MATR.         LIMESTONE            : Logunit      - NEUTRON MATRIX
TMAX.C        23                   : BHT          - MAXIMUM RECORDED TEMPERATURE
BHTD.M        464                  : BHTDEP       - MAXIMUM RECORDED TEMPERATURE
MATR.         1                    : LOGUNIT      - NEUTRON MATRIX
RMT .C        25                   : MDTP         - TEMPERATURE OF MUD
NEUT.         1                    : NEUTRON      - NEUTRON TYPE
RESI.         0                    : RESIST       - RESISTIVITY TYPE
RMC .OHMM     0.25                 : RMC          - RESISTIVITY OF MUD CAKE
RMF .OHMM     0.25                 : RMF          - RESISTIVITY OF MUD FILTRATE
SUFT.C        15                   : SUFT         - SURFACE TEMPERATURE
~A  DEPTH     PHID     RESD     PHIN       GR
# ...
  365.500    0.244    5.392    0.445   97.080
  365.750    0.219    4.825    0.461   95.877
  366.000    0.216    4.649    0.503   95.281
  366.250    0.224    4.317    0.511   97.121
  366.500    0.237    3.863    0.501   97.133
  366.750    0.254    3.521    0.492   95.325
  367.000    0.253    3.150    0.519   91.090
  367.250    0.268    2.716    0.542   89.886
  367.500    0.284    2.522    0.561   89.291
  367.750    0.272    2.385    0.568   88.699
  368.000    0.271    2.215    0.577   88.105
  368.250    0.290    2.215    0.552   85.691
  368.500    0.299    2.258    0.527   83.883
  368.750    0.287    2.258    0.514   83.290
  369.000    0.282    2.258    0.535   85.733
  369.250    0.283    2.344    0.550   89.389
  369.500    0.291    2.433    0.562   86.372
  369.750    0.300    2.621    0.566   85.772
  370.000    0.301    3.042    0.558   85.790
  370.250    0.300    3.217    0.553   85.194
  370.500    0.273    3.401    0.528   83.991
  370.750    0.265    3.664    0.466   80.970
  371.000    0.282    4.665    0.454   76.730
  371.250    0.306    6.640    0.162   71.889
  371.500    0.340   12.720    0.138   68.258
  371.750    0.457   30.451    0.142   64.629
  372.000    0.425   42.544    0.266   62.818
  372.250    0.376   40.246    0.286   61.014
  372.500    0.361   34.696    0.267   61.633
  372.750    0.354   31.044    0.290   62.862
  373.000    0.353   29.366    0.302   64.695
  373.250    0.367   31.637    0.311   67.138
  373.500    0.368   34.083    0.211   68.974
  373.750    0.418   34.725    0.184   69.597
  374.000    0.430   32.849    0.166   69.006
  374.250    0.443   31.075    0.147   68.412
  374.500    0.415   29.949    0.185   68.427
  374.750    0.397   29.402    0.203   67.827
  375.000    0.392   29.959    0.198   67.236
  375.250    0.413   31.679    0.153   65.427
  375.500    0.435   32.882    0.127   64.836
  375.750    0.454   34.773    0.135   65.458
  376.000    0.443   35.430    0.142   66.688
  376.250    0.441   32.899    0.156   66.697
  376.500    0.432   29.988    0.175   66.712
  376.750    0.375   29.442    0.181   65.509
  377.000    0.365   29.445    0.177   66.742
  377.250    0.380   30.566    0.177   67.365
  377.500    0.409   30.571    0.167   67.372
  377.750    0.425   28.918    0.148   66.778
  378.000    0.403   26.358    0.174   64.970
  378.250    0.386   20.709    0.201   63.165
  378.500    0.369   18.876    0.218   61.967
  378.750    0.376   17.529    0.246   61.977
  379.000    0.389   17.208    0.251   63.205
  379.250    0.390   16.584    0.270   65.046
  379.500    0.370   15.399    0.309   65.663
  379.750    0.363   13.031    0.296   65.675
  380.000    0.370   11.234    0.275   65.688
  380.250    0.379   10.240    0.247   67.524
  380.500    0.399    8.196    0.263   69.360
  380.750    0.423    6.559    0.301   66.342
  381.000    0.384    4.525    0.344   65.136
  381.250    0.353    3.555    0.386   62.720
  381.500    0.332    2.899    0.417   59.698
  381.750    0.327    2.642    0.446   59.109
  382.000    0.288    3.066    0.440   59.117
  382.250    0.196    3.904    0.276   59.135
  382.500    0.150    4.789    0.255   54.896
  382.750    0.103    4.971    0.276   58.552
  383.000    0.281    3.834    0.410   67.069
  383.250    0.321    3.069    0.451   67.085
  383.500    0.323    2.597    0.470   64.671
  383.750    0.323    2.457    0.462   62.250
  384.000    0.322    2.367    0.456   60.442
  384.250    0.333    2.325    0.464   61.063
  384.500    0.341    2.325    0.474   63.510
  384.750    0.346    2.325    0.480   65.348
  385.000    0.342    2.369    0.482   66.571
  385.250    0.333    2.369    0.486   67.194
  385.500    0.320    2.506    0.491   66.601
  385.750    0.317    2.750    0.492   66.619
  386.000    0.324    3.191    0.503   66.628
  386.250    0.331    4.376    0.504   63.605
  386.500    0.336    6.345    0.491   63.622
  386.750    0.341    8.702    0.497   64.248
  387.000    0.324   14.105    0.475   64.257
  387.250    0.325   19.343    0.457   63.053
  387.500    0.325   20.455    0.443   61.852
  387.750    0.318   20.082    0.446   61.265
  388.000    0.327   19.354    0.453   61.881
  388.250    0.303   19.000    0.440   63.717
  388.500    0.320   18.311    0.453   64.943
  388.750    0.336   17.647    0.480   66.170
  389.000    0.331   17.649    0.489   66.791
  389.250    0.329   17.328    0.480   64.983
  389.500    0.330   17.011    0.473   64.999
  389.750    0.335   17.015    0.461   66.226
  390.000    0.329   16.704    0.460   67.454
  390.250    0.326   16.400    0.467   68.077
  390.500    0.327   16.102    0.471   67.481
  390.750    0.320   15.807    0.478   66.896
  391.000    0.325   15.234    0.471   66.907
  391.250    0.327   14.411    0.475   66.915
  391.500    0.326   13.887    0.478   65.715
  391.750    0.327   12.896    0.467   64.516
  392.000    0.320   12.198    0.447   66.355
  392.250    0.322   11.539    0.456   66.969
  392.500    0.281   11.329    0.472   65.162
  392.750    0.235   11.331    0.408   63.354
  393.000    0.186   11.125    0.354   63.977
  393.250    0.204   10.720    0.363   65.811
  393.500    0.209    9.955    0.389   70.081
  393.750    0.258    8.907    0.426   71.912
  394.000    0.304    9.075    0.451   73.749
  394.250    0.296   10.930    0.467   71.334
  394.500    0.311   11.773    0.475   69.525
  394.750    0.328   12.921    0.482   67.718
  395.000    0.326   12.923    0.489   68.944
  395.250    0.320   12.225    0.500   71.386
  395.500    0.318   11.352    0.504   73.829
  395.750    0.320   10.157    0.481   73.236
  396.000    0.312    9.608    0.471   72.038
  396.250    0.297    9.259    0.464   72.661
  396.500    0.291    9.611    0.452   71.462
  396.750    0.269   10.355    0.437   69.040
  397.000    0.251   10.749    0.416   64.806
  397.250    0.235   11.157    0.396   63.605
  397.500    0.225   11.368    0.384   62.401
  397.750    0.254   11.582    0.370   64.847
  398.000    0.243   12.023    0.357   66.680
  398.250    0.257   12.025    0.354   66.087
  398.500    0.255   12.253    0.356   64.278
  398.750    0.245   12.255    0.359   64.899
  399.000    0.252   12.031    0.362   63.703
  399.250    0.265   12.033    0.368   64.328
  399.500    0.248   12.491    0.368   64.943
  399.750    0.243   12.726    0.380   65.563
  400.000    0.254   13.458    0.383   65.580
  400.250    0.259   14.232    0.369   65.592
  400.500    0.261   14.501    0.360   65.606
  400.750    0.266   14.774    0.369   66.832
  401.000    0.247   14.506    0.381   68.063
  401.250    0.248   14.507    0.366   69.288
  401.500    0.246   13.724    0.361   68.090
  401.750    0.250   13.474    0.365   68.101
  402.000    0.238   13.728    0.383   70.546
  402.250    0.235   14.250    0.388   71.773
  402.500    0.235   14.792    0.392   68.753
  402.750    0.235   14.794    0.395   65.120
  403.000    0.251   13.738    0.400   66.955
  403.250    0.267   12.996    0.377   73.045
  403.500    0.261   12.758    0.382   75.486
  403.750    0.238   12.069    0.381   76.713
  404.000    0.245   11.632    0.384   80.380
  404.250    0.236   11.419    0.384   81.603
  404.500    0.231   11.422    0.377   82.227
  404.750    0.227   11.423    0.387   81.627
  405.000    0.225   11.640    0.387   79.215
  405.250    0.231   11.642    0.383   79.228
  405.500    0.232   11.644    0.384   79.847
  405.750    0.227   11.863    0.389   78.645
  406.000    0.234   11.865    0.376   76.840
  406.250    0.236   12.090    0.365   78.069
  406.500    0.234   12.318    0.370   78.690
  406.750    0.236   12.551    0.376   75.668
  407.000    0.234   13.273    0.384   72.038
  407.250    0.229   13.777    0.395   70.226
  407.500    0.241   14.038    0.391   70.242
  407.750    0.244   14.040    0.388   73.294
  408.000    0.250   14.043    0.388   78.167
  408.250    0.256   13.039    0.378   82.430
  408.500    0.251   11.885    0.368   86.086
  408.750    0.237   10.834    0.363   87.316
