~VERSION INFORMATION
 VERS.                 2.0:   CWLS LOG ASCII STANDARD -VERSION 2.0
 WRAP.                  NO:   ONE LINE PER DEPTH STEP
~WELL INFORMATION BLOCK
#MNEM.UNIT           DATA                    DESCRIPTION OF MNEMONIC
#---------    -------------------            -------------------------------
# Generated from Intellog Unique Number	CW_70_72/WELL/3024
NULL.         -999.25                        : NULL_VALUE
WELL.         CHIEFCO ET AL RANCH 10-32      : Well_name    - WELL              
LOC .         10-32-070-26W4                 : Location     - LOCATION          
UWI .         00/10-32-070-26W4/0            : Uwi          - UNIQUE WELL ID    
ENTR.         J                              : Entered      - ENTERED BY        
SRVC.         SCHLUMBERGER                   : Scn          - SERVICE COMPANY   
DATE.         31 DEC 75                      : Date         - LOG DATE          
STRT.M        435.864                        : top_depth    - START DEPTH       
STOP.M        701.114                        : bot_depth    - STOP DEPTH        
STEP.M        0.25                           : increment    - STEP LENGTH       
~CURVE INFORMATION BLOCK
#MNEM UNIT       ERCB CURVE CODE    CURVE DESCRIPTION
#-----------   ------------------   ----------------------------------
DEPT.M        00 001 00 00         : DEPTH        - DEPTH                       
ILD .OHMM     00 120 00 00         : RESD         - DEEP RESISTIVITY (DIL)      
CALI.MM       00 280 01 00         : CAL          - CALIPER                     
GR  .API      00 310 00 00         : GR           - GAMMA RAY                   
NPHI.V/V      00 330 00 00         : PHIN         - NEUTRON POROSITY (SANDSTONE)
DPHI.V/V      00 890 00 00         : PHID         - DENSITY POROSITY (SANDSTONE)
~PARAMETER INFORMATION       
#MNEM.UNIT           DATA             DESCRIPTION OF MNEMONIC
#---------         -----------     ------------------------------
GL  .M        612.953              : gl           - GROUND LEVEL ELEVATION      
EREF.M        615.696              : kb           - ELEVATION OF DEPTH REFERENCE
DATM.M        612.953              : datum        - DATUM ELEVATION             
TDD .M        715.975              : tdd          - TOTAL DEPTH DRILLER         
RUN .         ONE                  : Run          - RUN NUMBER                  
ENG .         WILTSHIRE            : Engineer     - RECORDING ENGINEER          
BASE.         EDM                  : Branch       - HOME BASE OF LOGGING UNIT   
MUD .         GEL CHEM             : Mud_type     - MUD TYPE                    
MATR.         SANDSTONE            : Logunit      - NEUTRON MATRIX              
TMAX.C        -17.7778             : BHT          - MAXIMUM RECORDED TEMPERATURE
BHTD.M        717.194              : BHTDEP       - MAXIMUM RECORDED TEMPERATURE
RMT .C        21.1111              : MDTP         - TEMPERATURE OF MUD          
MUDD.KG/M     1128                 : MWT          - MUD DENSITY                 
NEUT.         1                    : NEUTRON      - NEUTRON TYPE                
RESI.         0                    : RESIST       - RESISTIVITY TYPE            
RM  .OHMM     3.87                 : RM           - RESISTIVITY OF MUD          
RMC .OHMM     0.25                 : RMC          - RESISTIVITY OF MUD CAKE     
RMF .OHMM     4.74                 : RMF          - RESISTIVITY OF MUD FILTRATE 
SUFT.C        -17.7778             : SUFT         - SURFACE TEMPERATURE         
~A  DEPTH     RESD      CAL       GR     PHIN     PHID
# ...
  472.364    3.367  172.858   83.498    0.399    0.238
  472.614    3.961  174.674   83.904    0.406    0.237
  472.864    4.353  175.353   80.483    0.418    0.237
  473.114    4.839  176.750   76.817    0.405    0.220
  473.364    5.056  178.163   73.516    0.382    0.206
  473.614    4.832  178.536   69.911    0.335    0.173
  473.864    4.225  179.117   72.746    0.305    0.157
  474.114    3.763  176.608   80.739    0.317    0.194
  474.364    3.291  174.415   87.400    0.344    0.246
  474.614    2.990  172.532   87.864    0.396    0.231
  474.864    2.736  171.778   84.927    0.425    0.221
  475.114    2.527  172.255   80.414    0.440    0.210
  475.364    2.446  172.626   76.323    0.434    0.255
  475.614    2.399  173.314   79.702    0.427    0.274
  475.864    2.394  174.611   77.979    0.417    0.257
  476.114    2.391  175.394   76.135    0.409    0.248
  476.364    2.400  175.774   76.600    0.405    0.262
  476.614    2.410  175.737   78.458    0.401    0.275
  476.864    2.433  175.911   81.173    0.404    0.279
  477.114    2.438  176.080   84.798    0.410    0.274
  477.364    2.462  176.045   88.057    0.405    0.273
  477.614    2.480  176.523   92.468    0.400    0.291
  477.864    2.539  178.132   98.761    0.399    0.306
  478.114    2.658  196.299  104.936    0.438    0.331
  478.364    2.864  216.729  102.972    0.503    0.313
  478.614    3.260  179.670   99.307    0.457    0.244
  478.864    3.731  172.431   94.972    0.433    0.220
  479.114    4.087  171.881   89.425    0.402    0.203
  479.364    4.363  172.255   87.884    0.396    0.180
  479.614    4.389  173.040   85.922    0.387    0.151
  479.864    4.248  174.239   86.567    0.361    0.126
  480.114    3.909  175.745   92.984    0.304    0.117
  480.364    3.590  176.849   99.947    0.349    0.157
  480.614    3.540  178.969  104.603    0.381    0.189
  480.864    3.605  182.632  107.311    0.400    0.178
  481.114    3.672  185.994  108.443    0.420    0.165
  481.364    3.741  190.073  109.459    0.430    0.163
  481.614    3.813  193.324  112.110    0.439    0.154
  481.864    3.834  193.908  115.793    0.439    0.161
  482.114    3.877  193.359  120.509    0.431    0.163
  482.364    3.929  192.189  125.164    0.427    0.185
  482.614    3.987  191.431  110.988    0.444    0.237
  482.864    4.025  192.324  104.046    0.477    0.256
  483.114    4.011  201.340   97.466    0.551    0.327
  483.364    3.897  195.648   99.873    0.509    0.325
  483.614    3.684  189.442  101.555    0.441    0.194
  483.864    3.466  192.379  101.528    0.413    0.148
  484.114    3.372  193.581  100.781    0.411    0.122
  484.364    3.319  194.673   95.478    0.409    0.145
  484.614    3.352  195.566   89.505    0.399    0.190
  484.864    3.488  196.657   95.071    0.382    0.212
  485.114    3.683  197.447  101.304    0.361    0.194
  485.364    3.871  198.028  100.796    0.367    0.162
  485.614    3.865  197.892   98.585    0.392    0.176
  485.864    3.702  197.755   97.048    0.404    0.183
  486.114    3.487  197.101   95.208    0.394    0.168
  486.364    3.122  196.037   91.478    0.389    0.177
  486.614    2.801  194.561   84.537    0.403    0.182
  486.864    2.586  189.899   67.874    0.413    0.177
  487.114    2.357  180.915   59.594    0.426    0.207
  487.364    2.242  175.420   49.978    0.404    0.261
  487.614    2.108  174.366   46.313    0.385    0.276
  487.864    2.040  173.604   46.288    0.384    0.266
  488.114    1.972  173.265   46.998    0.385    0.263
  488.364    1.973  173.015   49.711    0.381    0.262
  488.614    1.995  172.675   51.631    0.377    0.273
  488.864    2.051  172.640   52.643    0.397    0.282
  489.114    2.139  172.908   54.079    0.380    0.250
  489.364    2.334  173.391   55.637    0.368    0.250
  489.614    2.676  173.864   53.186    0.362    0.259
  489.864    2.969  174.445   51.158    0.353    0.252
  490.114    3.074  174.931   50.105    0.353    0.236
  490.364    3.037  175.185   50.087    0.354    0.208
  490.614    2.908  175.164   52.678    0.354    0.218
  490.864    2.684  175.125   56.117    0.355    0.234
  491.114    2.430  175.495   58.283    0.357    0.230
  491.364    2.265  175.674   61.053    0.350    0.223
  491.614    2.180  175.841   64.251    0.342    0.231
  491.864    2.131  175.708   66.904    0.340    0.254
  492.114    2.097  175.465   64.696    0.355    0.263
  492.364    2.086  176.251   62.913    0.374    0.260
  492.614    2.084  175.380   64.956    0.378    0.247
  492.864    2.099  175.030   62.625    0.370    0.251
  493.114    2.111  175.014   60.177    0.364    0.237
  493.364    2.113  174.771   58.271    0.360    0.226
  493.614    2.113  174.530   57.766    0.369    0.245
  493.864    2.105  174.179   56.952    0.386    0.254
  494.114    2.087  173.827   56.142    0.401    0.244
  494.364    2.053  173.598   57.642    0.385    0.240
  494.614    2.031  173.563   57.191    0.384    0.260
  494.864    2.021  174.033   55.351    0.384    0.266
  495.114    2.047  174.821   52.533    0.380    0.267
  495.364    2.124  175.094   50.267    0.373    0.261
  495.614    2.344  175.156   47.333    0.374    0.249
  495.864    2.643  174.919   48.465    0.381    0.224
  496.114    3.029  174.581   50.265    0.378    0.175
  496.364    3.562  173.925   50.545    0.363    0.165
  496.614    3.804  173.270   50.285    0.322    0.149
  496.864    3.551  172.823   50.138    0.309    0.134
  497.114    3.186  165.183   50.239    0.318    0.135
  497.364    2.926  170.595   50.828    0.333    0.151
  497.614    2.667  170.658   52.262    0.342    0.191
  497.864    2.508  170.622   57.039    0.344    0.183
  498.114    2.420  170.481   58.719    0.355    0.225
  498.364    2.365  170.553   56.451    0.363    0.225
  498.614    2.335  170.821   56.310    0.370    0.235
  498.864    2.311  171.102   58.473    0.364    0.244
  499.114    2.311  171.166   61.247    0.349    0.249
  499.364    2.328  171.126   62.623    0.349    0.232
  499.614    2.361  171.403   60.718    0.359    0.215
  499.864    2.405  171.674   59.786    0.362    0.198
  500.114    2.439  171.848   63.466    0.345    0.213
  500.364    2.539  172.108   67.151    0.341    0.212
  500.614    2.648  171.977   71.383    0.345    0.221
  500.864    2.742  172.250   74.278    0.343    0.221
  501.114    2.813  172.007   70.914    0.337    0.207
  501.364    2.909  171.967   66.702    0.340    0.184
  501.614    3.040  172.247   63.766    0.350    0.191
  501.864    3.174  172.308   65.625    0.344    0.197
  502.114    3.555  172.787   67.670    0.343    0.216
  502.364    3.844  173.268   70.019    0.346    0.230
  502.614    4.083  173.745   69.816    0.347    0.208
  502.864    4.212  174.226   73.136    0.339    0.187
  503.114    4.260  174.290   76.152    0.346    0.194
  503.364    4.186  174.156   71.454    0.352    0.187
  503.614    4.155  174.015   69.791    0.339    0.157
  503.864    3.986  173.565   69.831    0.318    0.131
  504.114    3.735  173.429   69.807    0.327    0.136
  504.364    3.488  172.873   71.490    0.327    0.162
  504.614    3.279  172.837   69.159    0.325    0.169
  504.864    2.910  172.909   69.558    0.315    0.156
  505.114    2.624  172.568   70.875    0.314    0.180
  505.364    2.354  172.223   72.679    0.346    0.241
  505.614    2.185  171.775   74.477    0.378    0.269
  505.864    2.051  170.803   75.612    0.388    0.255
  506.114    1.964  170.262   76.200    0.398    0.253
  506.364    1.940  169.816   74.175    0.408    0.246
  506.614    1.966  169.677   72.389    0.413    0.260
  506.864    2.010  169.638   70.913    0.411    0.264
  507.114    2.047  169.601   67.975    0.406    0.261
  507.364    2.097  169.977   69.227    0.395    0.252
  507.614    2.152  170.356   69.635    0.380    0.250
  507.864    2.192  172.060   67.123    0.368    0.260
  508.114    2.221  174.192   63.459    0.375    0.264
  508.364    2.237  176.931   63.496    0.384    0.262
  508.614    2.242  178.127   65.844    0.391    0.246
