~VERSION INFORMATION
 VERS.                 2.0:   CWLS LOG ASCII STANDARD -VERSION 2.0
 WRAP.                  NO:   ONE LINE PER DEPTH STEP
~WELL INFORMATION BLOCK
#MNEM.UNIT           DATA                    DESCRIPTION OF MNEMONIC
#---------    -------------------            -------------------------------
# Generated from Intellog Unique Number	CS_73_76/WELL/852
WELL.         WAINCO OIL & GAS LIMITED       : Well_name    - WELL
LOC .         00/11-31-073-12W4/0            : Location     - LOCATION
UWI .         00/11-31-073-12W4/0            : Uwi          - UNIQUE WELL ID
ENTR.         SP                             : Entered      - ENTERED BY
SRVC.         SCHLUMBERGER                   : Scn          - SERVICE COMPANY
STRT.M        295                            : top_depth    - START DEPTH
STOP.M        513                            : bot_depth    - STOP DEPTH
STEP.M        0.25                           : increment    - STEP LENGTH
 NULL. -999.2500:NULL Value
~CURVE INFORMATION BLOCK
#MNEM UNIT       ERCB CURVE CODE    CURVE DESCRIPTION
#-----------   ------------------   ----------------------------------
DEPT.M        00 001 00 00         : DEPTH        - DEPTH
ILD .OHMM     00 120 00 00         : RESD         - DEEP RESISTIVITY (DIL)
DPHI.V/V      00 890 00 00         : PHID         - DENSITY POROSITY (LIMESTONE)
NPHI.V/V      00 330 00 00         : PHIN         - NEUTRON POROSITY (LIMESTONE)
GR  .API      00 310 00 00         : GR           - GAMMA RAY
~PARAMETER INFORMATION
#MNEM.UNIT           DATA             DESCRIPTION OF MNEMONIC
#---------         -----------     ------------------------------
GL  .M        657                  : gl           - GROUND LEVEL ELEVATION
EREF.M        660                  : kb           - ELEVATION OF DEPTH REFERENCE
DATM.M        657                  : datum        - DATUM ELEVATION
TDD .M        524                  : tdd          - TOTAL DEPTH DRILLER
RUN .         ONE                  : Run          - RUN NUMBER
ENG .         BILL                 : Engineer     - RECORDING ENGINEER
WIT .         JIM                  : Witness      - WITNESSED BY
MUD .         GEL                  : Mud_type     - MUD TYPE
MATR.         LIMESTONE            : Logunit      - NEUTRON MATRIX
TMAX.C        13                   : BHT          - MAXIMUM RECORDED TEMPERATURE
BHTD.M        524                  : BHTDEP       - MAXIMUM RECORDED TEMPERATURE
MATR.         1                    : LOGUNIT      - NEUTRON MATRIX
RMT .C        25                   : MDTP         - TEMPERATURE OF MUD
NEUT.         1                    : NEUTRON      - NEUTRON TYPE
RESI.         0                    : RESIST       - RESISTIVITY TYPE
RMC .OHMM     0.25                 : RMC          - RESISTIVITY OF MUD CAKE
RMF .OHMM     0.25                 : RMF          - RESISTIVITY OF MUD FILTRATE
SUFT.C        15                   : SUFT         - SURFACE TEMPERATURE
~A  DEPTH     RESD     PHID     PHIN       GR
# ...
  382.000    6.458    0.326    0.485   73.904
  382.250    6.342    0.334    0.479   75.121
  382.500    5.997    0.314    0.474   76.340
  382.750    5.361    0.309    0.476   79.372
  383.000    4.792    0.301    0.503   84.224
  383.250    4.447    0.297    0.527   86.043
  383.500    3.901    0.292    0.555   89.680
  383.750    3.488    0.289    0.577   92.109
  384.000    3.360    0.302    0.576   85.465
  384.250    3.426    0.300    0.523   75.804
  384.500    3.626    0.286    0.495   70.973
  384.750    4.060    0.264    0.483   67.955
  385.000    4.720    0.248    0.475   65.543
  385.250    5.487    0.279    0.486   63.737
  385.500    5.917    0.310    0.495   63.746
  385.750    6.146    0.320    0.487   65.572
  386.000    6.384    0.327    0.471   66.183
  386.250    6.509    0.326    0.459   68.007
  386.500    6.511    0.316    0.451   66.205
  386.750    6.515    0.316    0.450   65.607
  387.000    6.396    0.318    0.448   64.407
  387.250    6.281    0.313    0.440   66.228
  387.500    6.403    0.307    0.433   69.261
  387.750    6.406    0.308    0.420   73.506
  388.000    6.408    0.311    0.411   72.911
  388.250    6.532    0.317    0.405   71.103
  388.500    6.659    0.315    0.399   69.904
  388.750    7.048    0.297    0.389   69.914
  389.000    7.459    0.270    0.321   69.921
  389.250    8.199    0.236    0.260   68.719
  389.500    8.514    0.208    0.169   67.521
  389.750    9.714    0.137    0.141   65.715
  390.000   12.175    0.062    0.118   59.677
  390.250   13.891    0.033    0.096   57.263
  390.500   14.980    0.018    0.081   48.809
  390.750   15.560    0.002    0.070   46.999
  391.000   16.163    0.000    0.062   46.405
  391.250   16.788    0.000    0.048   47.624
  391.500   17.112    0.000    0.041   47.630
  391.750   17.779    0.000    0.034   47.037
  392.000   17.783    0.000    0.028   47.649
  392.250   17.792    0.000    0.024   50.687
  392.500   17.468    0.000    0.023   53.114
  392.750   15.912    0.020    0.045   55.539
  393.000   14.767    0.047    0.118   60.389
  393.250   12.245    0.258    0.184   64.633
  393.500    9.965    0.276    0.250   70.086
  393.750    8.420    0.283    0.316   73.115
  394.000    7.387    0.288    0.418   77.963
  394.250    6.603    0.274    0.444   79.785
  394.500    5.793    0.268    0.452   79.193
  394.750    5.478    0.260    0.450   79.202
  395.000    5.279    0.253    0.448   78.609
  395.250    5.281    0.250    0.450   77.409
  395.500    5.487    0.255    0.451   76.811
  395.750    5.489    0.272    0.458   76.211
  396.000    5.594    0.282    0.468   74.409
  396.250    5.704    0.290    0.470   73.811
  396.500    5.814    0.300    0.476   72.610
  396.750    5.817    0.310    0.481   71.408
  397.000    5.710    0.310    0.486   73.838
  397.250    5.714    0.303    0.479   79.897
  397.500    5.610    0.294    0.459   82.928
  397.750    5.509    0.285    0.446   87.170
  398.000    5.512    0.269    0.437   87.784
  398.250    5.513    0.256    0.434   85.376
  398.500    5.620    0.239    0.437   84.172
  398.750    5.624    0.221    0.441   82.972
  399.000    5.626    0.201    0.452   82.983
  399.250    5.735    0.206    0.463   84.205
  399.500    5.737    0.222    0.469   85.420
  399.750    5.849    0.227    0.468   89.058
  400.000    5.851    0.228    0.451   89.067
  400.250    5.853    0.214    0.444   86.051
  400.500    5.856    0.200    0.431   82.431
  400.750    5.860    0.193    0.424   81.234
  401.000    5.862    0.238    0.433   81.241
  401.250    5.757    0.269    0.447   81.254
  401.500    5.759    0.286    0.458   82.472
  401.750    5.653    0.300    0.472   83.082
  402.000    5.551    0.307    0.483   85.513
  402.250    5.450    0.295    0.488   86.123
  402.500    5.351    0.285    0.499   87.341
  402.750    5.353    0.274    0.505   86.745
  403.000    5.355    0.265    0.525   86.755
  403.250    5.359    0.261    0.537   87.368
  403.500    5.361    0.257    0.538   86.167
  403.750    5.465    0.262    0.531   84.363
  404.000    5.570    0.264    0.517   81.953
  404.250    5.679    0.263    0.510   79.544
  404.500    5.789    0.257    0.504   77.738
  404.750    5.902    0.252    0.495   76.535
  405.000    5.795    0.247    0.489   81.386
  405.250    5.797    0.245    0.492   83.815
  405.500    5.799    0.252    0.495   85.032
  405.750    5.802    0.254    0.507   85.645
  406.000    5.697    0.270    0.526   83.238
  406.250    5.699    0.286    0.537   82.640
  406.500    5.596    0.294    0.540   82.042
  406.750    5.598    0.275    0.534   85.078
  407.000    5.498    0.265    0.501   87.504
  407.250    5.500    0.255    0.509   89.933
  407.500    5.503    0.260    0.516   89.336
  407.750    5.403    0.264    0.526   88.741
  408.000    5.508    0.264    0.533   89.356
  408.250    5.614    0.257    0.533   89.967
  408.500    5.616    0.246    0.516   88.769
  408.750    5.618    0.242    0.502   87.570
  409.000    5.516    0.235    0.502   86.971
  409.250    5.519    0.230    0.507   88.191
  409.500    5.627    0.239    0.523   89.410
  409.750    5.629    0.244    0.528   90.023
  410.000    5.631    0.245    0.531   90.032
  410.250    5.741    0.248    0.514   88.227
  410.500    5.852    0.248    0.501   85.217
  410.750    5.965    0.253    0.492   84.618
  411.000    6.082    0.259    0.481   83.417
  411.250    6.200    0.265    0.477   82.822
  411.500    6.202    0.254    0.474   81.619
  411.750    5.976    0.249    0.498   81.023
  412.000    5.652    0.256    0.519   82.240
  412.250    5.052    0.256    0.545   87.091
  412.500    4.689    0.259    0.556   90.123
  412.750    4.191    0.256    0.565   93.154
  413.000    3.608    0.262    0.580   96.796
  413.250    3.049    0.272    0.590   98.616
  413.500    2.777    0.283    0.636   99.835
  413.750    2.529    0.291    0.652   99.846
  414.000    2.261    0.284    0.675   98.643
  414.250    2.305    0.273    0.642   97.442
  414.500    2.394    0.267    0.614   95.033
  414.750    2.582    0.261    0.590   92.622
  415.000    2.837    0.248    0.541   90.214
  415.250    3.177    0.250    0.523   89.010
  415.500    3.693    0.241    0.527   87.206
  415.750    3.983    0.243    0.532   87.214
  416.000    4.295    0.241    0.530   87.224
  416.250    4.811    0.237    0.524   88.445
  416.500    5.092    0.241    0.516   89.057
  416.750    5.289    0.249    0.512   90.878
  417.000    5.391    0.256    0.503   92.702
  417.250    5.393    0.250    0.501   93.318
  417.500    5.197    0.244    0.501   91.511
  417.750    5.008    0.239    0.494   86.682
  418.000    4.917    0.245    0.491   84.875
  418.250    4.918    0.255    0.494   83.677
  418.500    4.921    0.263    0.496   83.085
  418.750    4.924    0.269    0.481   83.094
  419.000    4.926    0.269    0.474   83.099
  419.250    5.021    0.274    0.459   83.107
  419.500    5.217    0.281    0.459   80.697
  419.750    5.218    0.289    0.463   78.891
  420.000    5.319    0.285    0.477   77.690
  420.250    5.322    0.273    0.482   77.703
  420.500    5.324    0.259    0.488   77.709
  420.750    5.326    0.253    0.493   78.321
  421.000    5.229    0.261    0.495   81.356
  421.250    5.135    0.263    0.477   83.785
  421.500    5.042    0.270    0.453   83.793
  421.750    5.139    0.273    0.421   81.382
  422.000    5.339    0.264    0.396   74.135
  422.250    5.545    0.206    0.354   71.722
  422.500    5.869    0.163    0.324   71.733
  422.750    5.871    0.159    0.348   76.581
  423.000    5.874    0.181    0.389   84.457
  423.250    5.767    0.207    0.473   88.091
  423.500    5.454    0.223    0.499   91.731
  423.750    5.256    0.225    0.499   92.946
  424.000    5.065    0.221    0.479   92.349
  424.250    4.973    0.231    0.476   89.338
  424.500    4.974    0.232    0.467   88.133
  424.750    4.977    0.244    0.465   83.911
  425.000    5.170    0.254    0.483   80.292
  425.250    5.370    0.260    0.490   77.276
