~VERSION INFORMATION
 VERS.                 2.0:   CWLS LOG ASCII STANDARD -VERSION 2.0
 WRAP.                  NO:   ONE LINE PER DEPTH STEP
~WELL INFORMATION BLOCK
#MNEM.UNIT           DATA                    DESCRIPTION OF MNEMONIC
#---------    -------------------            -------------------------------
# Generated from Intellog Unique Number	CS_73_76/WELL/3233
WELL.         10-08-076-08W4                 : Well_name    - WELL
LOC .         00/10-08-076-08W4/0            : Location     - LOCATION
UWI .         00/10-08-076-08W4/0            : Uwi          - UNIQUE WELL ID
ENTR.         SP                             : Entered      - ENTERED BY
SRVC.         SCHLUMBERGER                   : Scn          - SERVICE COMPANY
STRT.M        225                            : top_depth    - START DEPTH
STOP.M        455                            : bot_depth    - STOP DEPTH
STEP.M        0.25                           : increment    - STEP LENGTH
 NULL. -999.2500:NULL Value
~CURVE INFORMATION BLOCK
#MNEM UNIT       ERCB CURVE CODE    CURVE DESCRIPTION
#-----------   ------------------   ----------------------------------
DEPT.M        00 001 00 00         : DEPTH        - DEPTH
ILD .OHMM     00 120 00 00         : RESD         - DEEP RESISTIVITY (DIL)
GR  .API      00 310 00 00         : GR           - GAMMA RAY
DPHI.V/V      00 890 00 00         : PHID         - DENSITY POROSITY (LIMESTONE)
NPHI.V/V      00 330 00 00         : PHIN         - NEUTRON POROSITY (LIMESTONE)
~PARAMETER INFORMATION
#MNEM.UNIT           DATA             DESCRIPTION OF MNEMONIC
#---------         -----------     ------------------------------
GL  .M        630.79               : gl           - GROUND LEVEL ELEVATION
EREF.M        634.29               : kb           - ELEVATION OF DEPTH REFERENCE
DATM.M        630.79               : datum        - DATUM ELEVATION
TDD .M        462                  : tdd          - TOTAL DEPTH DRILLER
RUN .         ONE                  : Run          - RUN NUMBER
ENG .         BILL                 : Engineer     - RECORDING ENGINEER
WIT .         JIM                  : Witness      - WITNESSED BY
MUD .         GEL                  : Mud_type     - MUD TYPE
MATR.         LIMESTONE            : Logunit      - NEUTRON MATRIX
TMAX.C        29                   : BHT          - MAXIMUM RECORDED TEMPERATURE
BHTD.M        462                  : BHTDEP       - MAXIMUM RECORDED TEMPERATURE
MATR.         1                    : LOGUNIT      - NEUTRON MATRIX
RMT .C        25                   : MDTP         - TEMPERATURE OF MUD
NEUT.         1                    : NEUTRON      - NEUTRON TYPE
RESI.         0                    : RESIST       - RESISTIVITY TYPE
RMC .OHMM     0.25                 : RMC          - RESISTIVITY OF MUD CAKE
RMF .OHMM     0.25                 : RMF          - RESISTIVITY OF MUD FILTRATE
SUFT.C        15                   : SUFT         - SURFACE TEMPERATURE
~A  DEPTH     RESD       GR     PHID     PHIN
# ...
  268.500    9.185  115.636    0.196    0.365
  268.750    8.212  112.577    0.202    0.382
  269.000    7.764  112.580    0.202    0.369
  269.250    7.764  105.848    0.218    0.394
  269.500    7.764   94.831    0.243    0.380
  269.750    8.211   88.711    0.252    0.398
  270.000    9.184   94.225    0.257    0.405
  270.250   10.083   88.105    0.260    0.438
  270.500   10.663   83.210    0.262    0.445
  270.750   10.663   91.785    0.257    0.414
  271.000   10.465   99.747    0.252    0.380
  271.250   10.465   98.527    0.256    0.386
  271.500   10.863   94.244    0.262    0.403
  271.750   11.489   91.185    0.266    0.378
  272.000   12.150   77.718    0.274    0.388
  272.250   12.379   83.232    0.277    0.382
  272.500   12.612   91.807    0.271    0.360
  272.750   12.611  100.993    0.269    0.329
  273.000   12.611   99.772    0.252    0.334
  273.250   12.611  100.388    0.242    0.359
  273.500   12.611  102.839    0.250    0.381
  273.750   12.610   83.862    0.256    0.329
  274.000   12.848   75.906    0.241    0.317
  274.250   11.923   84.481    0.229    0.322
  274.500   11.065   88.770    0.223    0.327
  274.750   10.268   80.814    0.249    0.284
  275.000   10.268   51.428    0.430    0.447
  275.250   11.922   35.513    0.617    0.500
  275.500   13.586   33.067    0.651    0.655
  275.750   16.071   45.316    0.274    0.309
  276.000   18.660   60.012    0.258    0.315
  276.250   20.871   58.178    0.252    0.349
  276.500   21.665   57.569    0.262    0.361
  276.750   22.072   55.735    0.268    0.372
  277.000   22.488   51.452    0.261    0.391
  277.250   23.343   52.068    0.288    0.406
  277.500   23.782   55.133    0.296    0.414
  277.750   24.686   57.585    0.302    0.404
  278.000   25.625   52.689    0.304    0.338
  278.250   26.599   52.692    0.300    0.328
  278.500   27.610   51.471    0.299    0.332
  278.750   29.751   55.760    0.307    0.350
  279.000   31.464   53.315    0.316    0.377
  279.250   32.660   50.868    0.321    0.402
  279.500   34.541   50.259    0.328    0.411
  279.750   36.529   53.325    0.329    0.388
  280.000   36.529   54.551    0.321    0.389
  280.250   37.918   56.391    0.316    0.406
  280.500   39.359   57.618    0.327    0.430
  280.750   41.625   55.784    0.333    0.387
  281.000   42.409   53.951    0.321    0.351
  281.250   43.207   50.892    0.315    0.368
  281.500   43.206   53.344    0.317    0.340
  281.750   44.019   52.735    0.322    0.330
  282.000   44.847   47.840    0.324    0.356
  282.250   44.847   42.945    0.326    0.427
  282.500   44.845   42.336    0.327    0.455
  282.750   44.845   48.462    0.330    0.414
  283.000   45.689   47.853    0.334    0.383
  283.250   45.688   50.304    0.337    0.403
  283.500   45.686   49.695    0.337    0.401
  283.750   45.685   49.087    0.334    0.386
  284.000   44.840   49.701    0.333    0.394
  284.250   44.838   53.991    0.333    0.398
  284.500   44.008   57.055    0.341    0.388
  284.750   44.007   57.670    0.349    0.400
  285.000   43.192   52.776    0.346    0.408
  285.250   43.191   49.717    0.340    0.387
  285.500   43.190   44.822    0.340    0.372
  285.750   42.390   47.886    0.340    0.356
  286.000   41.605   52.176    0.332    0.343
  286.250   39.338   52.178    0.336    0.357
  286.500   37.195   47.283    0.339    0.374
  286.750   34.517   53.409    0.341    0.390
  287.000   32.636   57.085    0.347    0.356
  287.250   32.032   59.537    0.358    0.362
  287.500   32.635   55.256    0.368    0.392
  287.750   33.249   53.421    0.374    0.417
  288.000   34.513   53.424    0.358    0.411
  288.250   35.163   52.203    0.357    0.422
  288.500   35.162   47.307    0.356    0.356
  288.750   33.246   51.596    0.356    0.354
  289.000   32.027   60.783    0.354    0.382
  289.250   31.434   66.296    0.344    0.409
  289.500   33.244   68.136    0.331    0.442
  289.750   34.508   63.242    0.313    0.148
  290.000   37.182   50.387    0.012    0.138
  290.250   38.596   33.859    0.178    0.199
  290.500   39.322   47.332    0.233    0.268
  290.750   38.594   66.927    0.334    0.351
  291.000   37.179   62.645    0.365    0.334
  291.250   36.490   66.322    0.360    0.350
  291.500   36.490   67.548    0.356    0.376
  291.750   34.501   56.531    0.353    0.390
  292.000   32.621   49.799    0.346    0.405
  292.250   31.425   55.925    0.345    0.383
  292.500   30.843   56.540    0.351    0.362
  292.750   30.272   50.421    0.353    0.399
  293.000   29.711   48.587    0.353    0.424
  293.250   29.710   52.264    0.352    0.423
  293.500   29.710   53.491    0.351    0.407
  293.750   29.709   51.657    0.350    0.394
  294.000   29.708   54.722    0.349    0.404
  294.250   30.267   54.725    0.347    0.421
  294.500   30.267   51.667    0.345    0.448
  294.750   30.266   53.506    0.342    0.438
  295.000   30.836   55.347    0.342    0.418
  295.250   30.835   52.900    0.342    0.433
  295.500   31.415   45.556    0.344    0.437
  295.750   31.415   43.723    0.347    0.402
  296.000   31.414   44.951    0.351    0.419
  296.250   31.413   46.179    0.351    0.433
  296.500   31.412   46.793    0.345    0.427
  296.750   31.412   51.694    0.341    0.404
  297.000   31.411   59.044    0.348    0.384
  297.250   31.410   62.108    0.351    0.412
  297.500   30.828   53.540    0.346    0.432
  297.750   30.828   55.380    0.339    0.448
  298.000   30.257   59.056    0.347    0.419
  298.250   30.256   52.937    0.348    0.421
  298.500   30.255   47.430    0.335    0.413
  298.750   30.255   54.168    0.342    0.407
  299.000   30.254   59.069    0.341    0.419
  299.250   30.253   57.848    0.336    0.473
  299.500   30.823   54.789    0.339    0.470
  299.750   31.403   54.180    0.339    0.391
  300.000   31.402   56.632    0.336    0.339
  300.250   31.993   62.758    0.335    0.348
  300.500   33.209   60.311    0.331    0.364
  300.750   33.209   56.641    0.330    0.364
  301.000   33.834   56.645    0.346    0.396
  301.250   34.471   54.811    0.345    0.423
  301.500   35.120   54.815    0.335    0.450
  301.750   35.781   54.204    0.337    0.455
  302.000   36.454   49.921    0.345    0.406
  302.250   36.453   52.373    0.343    0.406
  302.500   37.139   54.826    0.335    0.397
  302.750   37.138   46.257    0.336    0.385
  303.000   36.450   46.261    0.340    0.374
  303.250   35.114   48.100    0.341    0.395
  303.500   34.464   51.777    0.350    0.413
  303.750   33.825   45.657    0.356    0.359
  304.000   33.199   47.497    0.332    0.362
  304.250   32.584   50.561    0.340    0.407
  304.500   31.981   53.013    0.351    0.424
  304.750   30.808   51.792    0.351    0.403
  305.000   30.807   49.958    0.338    0.400
  305.250   29.677   53.023    0.340    0.435
  305.500   29.128   54.251    0.342    0.423
  305.750   27.031   54.253    0.335    0.409
  306.000   26.530   54.256    0.336    0.416
  306.250   25.085   46.912    0.340    0.417
  306.500   24.165   48.752    0.341    0.425
  306.750   23.279   54.266    0.342    0.359
  307.000   22.848   54.269    0.345    0.353
  307.250   20.426   54.271    0.353    0.390
  307.500   18.605   53.050    0.356    0.420
  307.750   16.947   52.441    0.356    0.405
  308.000   14.870   59.179    0.324    0.373
  308.250   12.807   64.079    0.313    0.378
  308.500   10.626   67.144    0.314    0.402
  308.750    8.653   71.433    0.319    0.390
  309.000    7.881   77.559    0.280    0.330
  309.250    7.314   78.786    0.277    0.363
  309.500    6.662   86.136    0.277    0.390
  309.750    5.956   86.752    0.254    0.389
  310.000    5.425   83.693    0.260    0.353
  310.250    4.850   87.982    0.264    0.373
  310.500    4.586   95.332    0.255    0.422
  310.750    4.256   92.274    0.254    0.437
  311.000    4.177   91.053    0.256    0.457
  311.250    4.099   85.545    0.246    0.473
  311.500    4.177   78.813    0.244    0.456
  311.750    4.099   82.490    0.245    0.429
