~VERSION INFORMATION
 VERS.                 2.0:   CWLS LOG ASCII STANDARD -VERSION 2.0
 WRAP.                  NO:   ONE LINE PER DEPTH STEP
~WELL INFORMATION BLOCK
#MNEM.UNIT           DATA                    DESCRIPTION OF MNEMONIC
#---------    -------------------            -------------------------------
# Generated from Intellog Unique Number	CS_71_72/WELL/866
WELL.         PEX PHILLIPS AEC GRIST         : Well_name    - WELL
LOC .         00/10-23-071-07W4/0            : Location     - LOCATION
UWI .         00/10-23-071-07W4/0            : Uwi          - UNIQUE WELL ID
ENTR.         SP                             : Entered      - ENTERED BY
SRVC.         SCHLUMBERGER                   : Scn          - SERVICE COMPANY
STRT.M        300                            : top_depth    - START DEPTH
STOP.M        520                            : bot_depth    - STOP DEPTH
STEP.M        0.25                           : increment    - STEP LENGTH
 NULL. -999.2500:NULL Value
~CURVE INFORMATION BLOCK
#MNEM UNIT       ERCB CURVE CODE    CURVE DESCRIPTION
#-----------   ------------------   ----------------------------------
DEPT.M        00 001 00 00         : DEPTH        - DEPTH
ILD .OHMM     00 120 00 00         : RESD         - DEEP RESISTIVITY (DIL)
DPHI.V/V      00 890 00 00         : PHID         - DENSITY POROSITY (LIMESTONE)
NPHI.V/V      00 330 00 00         : PHIN         - NEUTRON POROSITY (LIMESTONE)
GR  .API      00 310 00 00         : GR           - GAMMA RAY
~PARAMETER INFORMATION
#MNEM.UNIT           DATA             DESCRIPTION OF MNEMONIC
#---------         -----------     ------------------------------
GL  .M        662.4                : gl           - GROUND LEVEL ELEVATION
EREF.M        666.2                : kb           - ELEVATION OF DEPTH REFERENCE
DATM.M        662.4                : datum        - DATUM ELEVATION
TDD .M        529                  : tdd          - TOTAL DEPTH DRILLER
RUN .         ONE                  : Run          - RUN NUMBER
ENG .         BILL                 : Engineer     - RECORDING ENGINEER
WIT .         JIM                  : Witness      - WITNESSED BY
MUD .         GEL                  : Mud_type     - MUD TYPE
MATR.         LIMESTONE            : Logunit      - NEUTRON MATRIX
TMAX.C        24                   : BHT          - MAXIMUM RECORDED TEMPERATURE
BHTD.M        529                  : BHTDEP       - MAXIMUM RECORDED TEMPERATURE
MATR.         1                    : LOGUNIT      - NEUTRON MATRIX
RMT .C        25                   : MDTP         - TEMPERATURE OF MUD
NEUT.         1                    : NEUTRON      - NEUTRON TYPE
RESI.         0                    : RESIST       - RESISTIVITY TYPE
RMC .OHMM     0.25                 : RMC          - RESISTIVITY OF MUD CAKE
RMF .OHMM     0.25                 : RMF          - RESISTIVITY OF MUD FILTRATE
SUFT.C        15                   : SUFT         - SURFACE TEMPERATURE
~A  DEPTH     RESD     PHID     PHIN       GR
# ...
  474.000   16.719    0.251    0.382   65.043
  474.250   21.164    0.277    0.392   59.246
  474.500   24.801    0.291    0.389   58.700
  474.750   28.251    0.294    0.385   62.614
  475.000   29.959    0.303    0.393   62.923
  475.250   28.109    0.265    0.387   69.279
  475.500   17.992    0.211    0.391   79.727
  475.750   13.239    0.183    0.404   87.733
  476.000   11.434    0.159    0.420   94.333
  476.250   10.727    0.197    0.434   82.367
  476.500   10.451    0.213    0.368   69.851
  476.750   12.201    0.207    0.352   61.670
  477.000   17.229    0.220    0.380   55.262
  477.250   24.327    0.234    0.393   50.563
  477.500   32.403    0.256    0.389   48.613
  477.750   41.406    0.286    0.384   48.068
  478.000   52.813    0.290    0.378   43.125
  478.250   62.471    0.302    0.372   44.901
  478.500   71.432    0.317    0.365   50.769
  478.750   80.762    0.297    0.366   53.704
  479.000   89.774    0.278    0.371   54.991
  479.250   93.248    0.286    0.380   51.758
  479.500   83.781    0.301    0.394   51.702
  479.750   72.084    0.290    0.376   53.233
  480.000   66.744    0.275    0.365   54.153
  480.250   62.859    0.267    0.374   52.570
  480.500   60.667    0.283    0.382   48.909
  480.750   60.574    0.294    0.369   45.616
  481.000   61.747    0.290    0.361   43.544
  481.250   62.110    0.299    0.360   43.914
  481.500   61.433    0.305    0.381   48.072
  481.750   57.749    0.305    0.398   51.618
  482.000   50.819    0.297    0.402   54.005
  482.250   43.806    0.289    0.372   54.803
  482.500   38.696    0.289    0.354   55.112
  482.750   33.989    0.284    0.343   57.437
  483.000   30.309    0.256    0.351   60.251
  483.250   28.814    0.218    0.364   61.416
  483.500   28.445    0.194    0.353   61.298
  483.750   27.247    0.179    0.295   63.074
  484.000   23.006    0.201    0.301   66.743
  484.250   19.794    0.229    0.346   69.556
  484.500   16.934    0.244    0.381   71.820
  484.750   14.846    0.236    0.396   74.695
  485.000   12.582    0.217    0.390   80.440
  485.250   10.948    0.203    0.388   89.362
  485.500    9.781    0.190    0.393   97.367
  485.750    9.091    0.179    0.373  103.846
  486.000    8.578    0.163    0.356  106.781
  486.250    8.310    0.167    0.353  109.595
  486.500    8.266    0.187    0.367   99.522
  486.750    8.537    0.195    0.373   92.502
  487.000    8.769    0.175    0.349   99.530
  487.250    8.689    0.136    0.334  104.665
  487.500    8.045    0.099    0.360  100.516
  487.750    7.421    0.110    0.387   96.428
  488.000    7.122    0.118    0.402   96.799
  488.250    7.005    0.130    0.397   98.452
  488.500    6.994    0.150    0.395   97.052
  488.750    6.944    0.157    0.376   93.331
  489.000    6.932    0.147    0.364   91.869
  489.250    6.935    0.139    0.382   94.439
  489.500    6.964    0.132    0.397   94.626
  489.750    6.966    0.129    0.381   91.821
  490.000    6.982    0.131    0.383   96.590
  490.250    7.023    0.136    0.396   99.219
  490.500    7.011    0.144    0.409   94.338
  490.750    7.013    0.147    0.386   91.044
  491.000    7.015    0.142    0.367   95.934
  491.250    7.111    0.132    0.366  102.047
  491.500    7.207    0.123    0.362  105.044
  491.750    7.333    0.127    0.367  107.307
  492.000    7.446    0.143    0.379  104.685
  492.250    7.547    0.139    0.395  101.391
  492.500    7.722    0.142    0.389  110.435
  492.750    7.828    0.148    0.380  119.357
  493.000    7.859    0.144    0.392  124.918
  493.250    7.996    0.147    0.400  120.098
  493.500    8.165    0.169    0.381   86.388
  493.750    8.726    0.196    0.362   67.643
  494.000    9.114    0.217    0.352   59.463
  494.250    9.556    0.238    0.347   56.535
  494.500   10.268    0.227    0.348   56.784
  494.750   10.626    0.221    0.362   57.644
  495.000   10.976    0.236    0.372   54.105
  495.250   11.082    0.236    0.370   60.828
  495.500   11.190    0.222    0.355   60.893
  495.750   11.194    0.227    0.341   59.432
  496.000   11.218    0.232    0.331   62.001
  496.250   11.371    0.219    0.341   63.899
  496.500   11.460    0.207    0.336   58.407
  496.750   11.595    0.199    0.333   62.808
  497.000   11.662    0.199    0.336   66.111
  497.250   11.800    0.200    0.347   63.977
  497.500   11.869    0.203    0.356   60.440
  497.750   11.940    0.215    0.356   58.550
  498.000   12.125    0.218    0.345   57.028
  498.250   12.292    0.217    0.340   56.605
  498.500   12.340    0.217    0.335   58.746
  498.750   12.508    0.213    0.330   61.316
  499.000   12.797    0.225    0.342   59.243
  499.250   13.143    0.239    0.368   54.911
  499.500   13.678    0.247    0.388   49.847
  499.750   14.451    0.266    0.405   45.270
  500.000   14.869    0.286    0.381   40.144
  500.250   14.651    0.208    0.311   58.227
  500.500   12.966    0.174    0.306   79.546
  500.750   11.498    0.158    0.321   82.299
  501.000   10.546    0.156    0.340   81.937
  501.250    9.895    0.147    0.354   80.292
  501.500    9.478    0.137    0.343   77.731
  501.750    9.269    0.144    0.349   73.156
  502.000    8.896    0.174    0.381   66.930
  502.250    8.699    0.197    0.401   58.689
  502.500    8.702    0.233    0.403   49.898
  502.750    8.853    0.275    0.407   42.512
  503.000   10.047    0.303    0.409   44.410
  503.250   12.111    0.269    0.381   63.225
  503.500   12.486    0.234    0.344   73.368
  503.750   12.280    0.214    0.354   69.036
  504.000   10.525    0.245    0.372   56.642
  504.250    7.223    0.285    0.384   45.348
  504.500    5.061    0.309    0.390   37.717
  504.750    4.038    0.320    0.378   36.439
  505.000    4.155    0.302    0.364   54.216
  505.250    4.465    0.252    0.364   68.757
  505.500    4.682    0.199    0.382   71.631
  505.750    4.808    0.222    0.410   62.841
  506.000    4.837    0.243    0.403   55.394
  506.250    4.793    0.250    0.394   49.474
  506.500    4.679    0.271    0.403   43.676
  506.750    4.524    0.291    0.405   42.031
  507.000    4.293    0.301    0.411   42.219
  507.250    4.159    0.305    0.405   39.414
  507.500    4.067    0.308    0.388   37.647
  507.750    4.038    0.280    0.373   43.453
  508.000    4.085    0.255    0.369   49.687
  508.250    4.148    0.262    0.387   48.165
  508.500    4.189    0.279    0.386   48.047
  508.750    4.190    0.295    0.392   46.463
  509.000    4.136    0.307    0.403   39.505
  509.250    4.023    0.315    0.410   36.516
  509.500    3.911    0.320    0.402   39.575
  509.750    3.775    0.321    0.397   38.480
  510.000    3.664    0.316    0.399   33.964
  510.250    3.638    0.307    0.387   38.244
  510.500    3.716    0.290    0.369   49.975
  510.750    3.780    0.268    0.362   57.247
  511.000    3.853    0.278    0.389   46.135
  511.250    3.883    0.299    0.423   35.879
  511.500    3.791    0.314    0.407   27.150
  511.750    3.679    0.327    0.387   27.276
  512.000    3.420    0.333    0.386   30.701
  512.250    3.344    0.338    0.395   32.905
  512.500    3.276    0.337    0.401   34.007
  512.750    3.192    0.337    0.407   32.362
  513.000    3.176    0.336    0.406   30.840
  513.250    3.176    0.330    0.373   29.073
  513.500    3.201    0.296    0.369   28.527
  513.750    3.466    0.185    0.385   25.905
  514.000    4.281    0.060    0.233   18.459
  514.250    5.999    0.013    0.172   12.600
  514.500    9.014   -0.002    0.127    9.917
  514.750   17.206    0.018    0.150    9.250
  515.000   23.798    0.035    0.167    9.131
  515.250   31.698    0.056    0.178    9.441
  515.500   33.868    0.062    0.186   10.178
  515.750   29.029    0.073    0.191   10.793
  516.000   27.237    0.084    0.199   11.531
  516.250   27.503    0.093    0.202   11.290
  516.500   28.248    0.073    0.189   10.746
  516.750   29.342    0.054    0.181   10.811
  517.000   30.361    0.043    0.177   10.998
  517.250   33.119    0.036    0.173   11.735
