~VERSION INFORMATION
 VERS.                 2.0:   CWLS LOG ASCII STANDARD -VERSION 2.0
 WRAP.                  NO:   ONE LINE PER DEPTH STEP
~WELL INFORMATION BLOCK
#MNEM.UNIT           DATA                    DESCRIPTION OF MNEMONIC
#---------    -------------------            -------------------------------
# Generated from Intellog Unique Number	CS_73_76/WELL/3239
WELL.         10-23-076-08W4                 : Well_name    - WELL
LOC .         00/10-23-076-08W4/0            : Location     - LOCATION
UWI .         00/10-23-076-08W4/0            : Uwi          - UNIQUE WELL ID
ENTR.         SP                             : Entered      - ENTERED BY
SRVC.         SCHLUMBERGER                   : Scn          - SERVICE COMPANY
STRT.M        204.216                        : top_depth    - START DEPTH
STOP.M        432.466                        : bot_depth    - STOP DEPTH
STEP.M        0.25                           : increment    - STEP LENGTH
 NULL. -999.2500:NULL Value
~CURVE INFORMATION BLOCK
#MNEM UNIT       ERCB CURVE CODE    CURVE DESCRIPTION
#-----------   ------------------   ----------------------------------
DEPT.M        00 001 00 00         : DEPTH        - DEPTH
GR  .API      00 310 00 00         : GR           - GAMMA RAY
DPHI.V/V      00 890 00 00         : PHID         - DENSITY POROSITY (SANDSTONE)
NPHI.V/V      00 330 00 00         : PHIN         - NEUTRON POROSITY (SANDSTONE)
ILD .OHMM     00 120 00 00         : RESD         - DEEP RESISTIVITY (DIL)
~PARAMETER INFORMATION
#MNEM.UNIT           DATA             DESCRIPTION OF MNEMONIC
#---------         -----------     ------------------------------
GL  .M        612.587              : gl           - GROUND LEVEL ELEVATION
EREF.M        616.427              : kb           - ELEVATION OF DEPTH REFERENCE
DATM.M        612.587              : datum        - DATUM ELEVATION
TDD .M        545.592              : tdd          - TOTAL DEPTH DRILLER
RUN .         ONE                  : Run          - RUN NUMBER
ENG .         BILL                 : Engineer     - RECORDING ENGINEER
WIT .         JIM                  : Witness      - WITNESSED BY
MUD .         GEL                  : Mud_type     - MUD TYPE
MATR.         SANDSTONE            : Logunit      - NEUTRON MATRIX
TMAX.C        60                   : BHT          - MAXIMUM RECORDED TEMPERATURE
BHTD.M        545.592              : BHTDEP       - MAXIMUM RECORDED TEMPERATURE
MATR.         1                    : LOGUNIT      - NEUTRON MATRIX
RMT .C        25                   : MDTP         - TEMPERATURE OF MUD
NEUT.         1                    : NEUTRON      - NEUTRON TYPE
RESI.         0                    : RESIST       - RESISTIVITY TYPE
RMC .OHMM     0.25                 : RMC          - RESISTIVITY OF MUD CAKE
RMF .OHMM     0.25                 : RMF          - RESISTIVITY OF MUD FILTRATE
SUFT.C        15                   : SUFT         - SURFACE TEMPERATURE
~A  DEPTH       GR     PHID     PHIN     RESD
  204.216   96.947    0.271    0.544    4.435
  204.466   99.731    0.258    0.538    4.329
  204.716   99.008    0.247    0.513    4.581
  204.966   97.579    0.243    0.516    5.554
  205.216   96.885    0.246    0.522    4.608
  205.466   97.017    0.256    0.523    4.457
  205.716   97.448    0.270    0.522    4.924
  205.966   99.129    0.260    0.528    4.882
  206.216   99.273    0.247    0.537    4.489
  206.466   98.200    0.248    0.539    4.366
  206.716   98.303    0.246    0.536    4.260
  206.966   99.339    0.234    0.533    4.176
  207.216   98.827    0.217    0.525    4.477
  207.466   94.839    0.201    0.536    4.618
  207.716   90.262    0.182    0.519    4.936
  207.966   85.273    0.209    0.500    5.231
  208.216   83.718    0.246    0.452    5.664
  208.466   84.843    0.255    0.467    6.002
  208.716   90.589    0.241    0.486    6.801
  208.966   89.243    0.246    0.501    7.368
  209.216   87.322    0.250    0.487    8.066
  209.466   84.758    0.253    0.470    8.766
  209.716   84.571    0.256    0.441    9.504
  209.966   84.861    0.255    0.437    9.928
  210.216   87.386    0.249    0.451   10.787
  210.466   91.269    0.238    0.433   12.050
  210.716   93.886    0.229    0.423   13.182
  210.966   95.919    0.257    0.422   14.843
  211.216   96.732    0.277    0.429   16.440
  211.466   96.734    0.284    0.434   18.390
  211.716   95.763    0.293    0.436   20.077
  211.966   96.331    0.289    0.430   21.010
  212.216   99.072    0.280    0.424   20.262
  212.466   97.848    0.263    0.419   19.020
  212.716   99.423    0.249    0.421   17.547
  212.966  101.219    0.242    0.423   16.985
  213.216  102.151    0.234    0.431   16.467
  213.466  102.488    0.243    0.437   15.934
  213.716  103.298    0.257    0.435   15.778
  213.966  104.533    0.262    0.426   15.855
  214.216  104.829    0.262    0.430   16.888
  214.466  105.739    0.262    0.439   17.577
  214.716  106.398    0.276    0.443   19.706
  214.966  101.896    0.290    0.442   22.320
  215.216   95.523    0.285    0.431   24.497
  215.466   86.320    0.284    0.434   26.943
  215.716   78.248    0.301    0.441   28.519
  215.966   73.928    0.311    0.443   28.706
  216.216   70.379    0.312    0.430   27.506
  216.466   69.987    0.302    0.424   25.304
  216.716   70.947    0.296    0.419   23.370
  216.966   72.917    0.298    0.423   21.247
  217.216   74.619    0.309    0.439   21.124
  217.466   75.163    0.317    0.439   22.453
  217.716   74.392    0.346    0.446   25.323
  217.966   70.240    0.359    0.502   28.480
  218.216   66.001    0.293    0.535   29.679
  218.466   56.490    0.289    0.481   30.252
  218.716   50.682    0.321    0.425   27.311
  218.966   43.369    0.341    0.373   23.774
  219.216   48.610    0.342    0.413   22.560
  219.466   55.882    0.331    0.498   24.372
  219.716   61.585    0.333    0.525   28.626
  219.966   62.889    0.346    0.521   31.273
  220.216   59.860    0.338    0.441   33.184
  220.466   64.781    0.323    0.446   34.905
  220.716   63.585    0.312    0.458   35.939
  220.966   58.434    0.328    0.458   37.030
  221.216   52.803    0.326    0.447   37.865
  221.466   46.572    0.322    0.425   37.887
  221.716   46.956    0.316    0.419   38.569
  221.966   46.348    0.330    0.408   37.704
  222.216   49.555    0.333    0.412   37.779
  222.466   50.818    0.333    0.413   36.730
  222.716   53.782    0.333    0.413   35.508
  222.966   56.760    0.335    0.417   33.713
  223.216   60.025    0.337    0.427   32.644
  223.466   61.976    0.333    0.439   32.341
  223.716   63.356    0.327    0.434   31.873
  223.966   64.572    0.330    0.426   31.519
  224.216   67.219    0.330    0.420   31.333
  224.466   69.163    0.325    0.429   30.324
  224.716   73.517    0.314    0.430   27.524
  224.966   77.116    0.302    0.424   23.173
  225.216   82.637    0.312    0.419   17.400
  225.466   89.571    0.292    0.418   11.192
  225.716   96.558    0.240    0.464    7.942
  225.966  105.762    0.219    0.487    6.347
  226.216  114.892    0.203    0.498    5.585
  226.466  117.544    0.199    0.486    5.035
  226.716  120.930    0.211    0.472    4.794
  226.966  122.923    0.194    0.485    4.530
  227.216  122.474    0.201    0.486    4.343
  227.466  120.048    0.213    0.492    4.124
  227.716  118.902    0.207    0.518    4.006
  227.966  116.478    0.224    0.533    3.880
  228.216  111.860    0.230    0.538    3.861
  228.466  108.558    0.271    0.545    4.137
  228.716   99.382    0.281    0.551    5.058
  228.966   89.732    0.280    0.509    6.389
  229.216   83.325    0.272    0.446    8.181
  229.466   85.443    0.288    0.430    9.872
  229.716   86.506    0.306    0.438   13.110
  229.966   84.043    0.301    0.450   15.561
  230.216   78.330    0.291    0.438   17.020
  230.466   70.744    0.281    0.418   17.821
  230.716   75.093    0.271    0.422   18.088
  230.966   77.790    0.280    0.427   17.405
  231.216   80.370    0.284    0.429   16.716
  231.466   82.749    0.277    0.426   15.981
  231.716   88.543    0.273    0.421   14.829
  231.966   94.484    0.271    0.427   12.857
  232.216  101.004    0.254    0.433   11.017
  232.466  106.108    0.228    0.441    9.422
  232.716  113.083    0.205    0.444    8.269
  232.966  118.730    0.209    0.448    7.309
  233.216  122.735    0.219    0.464    6.627
  233.466  126.287    0.219    0.474    6.150
  233.716  128.824    0.210    0.484    5.764
  233.966  128.203    0.205    0.496    5.672
  234.216  125.684    0.215    0.510    5.674
  234.466  122.171    0.222    0.518    5.709
  234.716  119.555    0.226    0.518    6.169
  234.966  116.963    0.233    0.506    6.919
  235.216  117.824    0.259    0.494    8.475
  235.466  120.810    0.282    0.484   10.375
  235.716  112.709    0.300    0.476   14.512
  235.966  106.873    0.307    0.466   17.677
  236.216  101.453    0.285    0.453   17.704
  236.466   97.431    0.271    0.448   16.121
  236.716   99.279    0.261    0.445   15.074
  236.966  103.178    0.258    0.439   14.435
  237.216  102.187    0.265    0.443   13.708
  237.466  102.025    0.268    0.460   13.346
  237.716  103.072    0.257    0.453   13.144
  237.966  102.666    0.247    0.434   13.087
  238.216   96.669    0.234    0.425   13.362
  238.466   88.057    0.222    0.432   14.148
  238.716   76.187    0.195    0.429   15.712
  238.966   65.864    0.196    0.377   17.983
  239.216   60.945    0.232    0.389   21.704
  239.466   60.079    0.276    0.413   24.901
  239.716   61.588    0.321    0.416   29.090
  239.966   63.495    0.318    0.419   27.407
  240.216   66.168    0.318    0.429   25.835
  240.466   65.906    0.316    0.429   23.953
  240.716   66.462    0.310    0.417   24.046
  240.966   67.863    0.305    0.410   23.056
  241.216   70.267    0.294    0.395   21.172
  241.466   74.403    0.267    0.385   19.153
  241.716   79.440    0.258    0.380   16.564
  241.966   84.869    0.247    0.394   14.920
  242.216   91.874    0.246    0.412   13.460
  242.466   96.762    0.236    0.423   11.061
  242.716  104.351    0.227    0.436    9.684
  242.966  108.788    0.220    0.447    8.569
  243.216  112.009    0.229    0.459    7.792
  243.466  115.109    0.232    0.471    7.302
  243.716  114.759    0.229    0.465    7.028
  243.966  111.751    0.232    0.463    7.457
  244.216  107.879    0.245    0.459    8.584
  244.466  103.903    0.255    0.440   10.084
  244.716  100.754    0.242    0.420   10.592
  244.966  100.237    0.238    0.403   11.831
  245.216  101.711    0.248    0.402   11.194
  245.466  102.070    0.255    0.411   10.560
  245.716  101.811    0.243    0.429    9.714
  245.966  105.239    0.237    0.442    8.985
  246.216  108.474    0.237    0.455    8.530
  246.466  111.892    0.237    0.469    8.298
  246.716  114.439    0.238    0.476    8.306
  246.966  109.285    0.251    0.483    8.748
  247.216  103.353    0.254    0.491    9.908
  247.466  102.998    0.245    0.486   10.710
