~VERSION INFORMATION
 VERS.                 2.0:   CWLS LOG ASCII STANDARD -VERSION 2.0
 WRAP.                  NO:   ONE LINE PER DEPTH STEP
~WELL INFORMATION BLOCK
#MNEM.UNIT           DATA                    DESCRIPTION OF MNEMONIC
#---------    -------------------            -------------------------------
# Generated from Intellog Unique Number	CC_80_83/WELL/2431
NULL.         -999.25                        : NULL_VALUE
WELL.         PARA ET AL HOUSE               : Well_name    - WELL
LOC .         12-24-080-18W4                 : Location     - LOCATION          
UWI .         00/12-24-080-18W4/0            : Uwi          - UNIQUE WELL ID    
ENTR.         DW                             : Entered      - ENTERED BY        
SRVC.         SCHLUMBERGER                   : Scn          - SERVICE COMPANY   
DATE.         28 FEB 79                      : Date         - LOG DATE
STRT.M        185                            : top_depth    - START DEPTH       
STOP.M        322.998                        : bot_depth    - STOP DEPTH        
STEP.M        0.3                            : increment    - STEP LENGTH       
~CURVE INFORMATION BLOCK
#MNEM UNIT       ERCB CURVE CODE    CURVE DESCRIPTION
#-----------   ------------------   ----------------------------------
DEPT.M        00 001 00 00         : DEPTH        - DEPTH                       
DPHI.V/V      00 890 00 00         : PHID         - DENSITY POROSITY (LIMESTONE)
NPHI.V/V      00 330 00 00         : PHIN         - NEUTRON POROSITY (LIMESTONE)
GR  .API      00 310 00 00         : GR           - GAMMA RAY                   
ILD .OHMM     00 120 00 00         : RESD         - DEEP RESISTIVITY (DIL)      
~PARAMETER INFORMATION       
#MNEM.UNIT           DATA             DESCRIPTION OF MNEMONIC
#---------         -----------     ------------------------------
GL  .M        545                  : gl           - GROUND LEVEL ELEVATION      
EREF.M        548                  : kb           - ELEVATION OF DEPTH REFERENCE
DATM.M        548                  : datum        - DATUM ELEVATION             
TDD .M        322                  : tdd          - TOTAL DEPTH DRILLER         
RUN .         ONE                  : Run          - RUN NUMBER                  
ENG .         BILL                 : Engineer     - RECORDING ENGINEER          
WIT .         JIM                  : Witness      - WITNESSED BY                
MUD .         GEL                  : Mud_type     - MUD TYPE                    
MATR.         LIMESTONE            : Logunit      - NEUTRON MATRIX              
TMAX.C        18                   : BHT          - MAXIMUM RECORDED TEMPERATURE
BHTD.M        322                  : BHTDEP       - MAXIMUM RECORDED TEMPERATURE
MATR.         1                    : LOGUNIT      - NEUTRON MATRIX              
RMT .C        25                   : MDTP         - TEMPERATURE OF MUD          
NEUT.         1                    : NEUTRON      - NEUTRON TYPE                
RESI.         0                    : RESIST       - RESISTIVITY TYPE            
RMC .OHMM     0.25                 : RMC          - RESISTIVITY OF MUD CAKE     
RMF .OHMM     0.25                 : RMF          - RESISTIVITY OF MUD FILTRATE 
SUFT.C        15                   : SUFT         - SURFACE TEMPERATURE         
~A  DEPTH     PHID     PHIN       GR     RESD
# ...
  237.201    0.219    0.488   86.265    9.492
  237.501    0.225    0.479   85.037    8.539
  237.801    0.221    0.495   92.933    7.984
  238.101    0.220    0.540   88.664    7.190
  238.401    0.218    0.515   81.355    6.794
  238.701    0.231    0.517   72.222    6.955
  239.001    0.238    0.480   78.901    7.514
  239.301    0.228    0.503   85.578    8.073
  239.601    0.215    0.479   83.745    8.155
  239.901    0.220    0.505   87.990    7.998
  240.201    0.237    0.497   89.195    7.920
  240.501    0.250    0.478   78.846    8.081
  240.801    0.254    0.485   80.659    8.481
  241.101    0.250    0.508   65.444    8.881
  241.401    0.243    0.551   64.825    9.042
  241.701    0.232    0.545   71.504    9.043
  242.001    0.230    0.489   85.481    8.727
  242.301    0.231    0.505   87.902    8.332
  242.601    0.230    0.498   92.755    8.015
  242.901    0.231    0.441   95.786    7.778
  243.201    0.231    0.419   83.004    7.542
  243.501    0.223    0.486   82.384    7.384
  243.801    0.220    0.489   88.456    7.307
  244.101    0.207    0.491   77.495    7.468
  244.401    0.220    0.532   76.878    8.266
  244.701    0.256    0.505   72.609    9.620
  245.001    0.253    0.513   79.287   11.134
  245.301    0.250    0.533   80.493   12.887
  245.601    0.279    0.509   73.184   13.127
  245.901    0.289    0.514   67.092   12.731
  246.201    0.283    0.528   73.771   11.858
  246.501    0.229    0.479   77.407   10.587
  246.801    0.186    0.498   73.140    9.554
  247.101    0.207    0.448   78.602    7.726
  247.401    0.210    0.504   84.674    7.251
  247.701    0.203    0.526   87.702    7.412
  248.001    0.198    0.477   87.693    8.289
  248.301    0.231    0.461   84.641    9.007
  248.601    0.241    0.470   85.846    9.487
  248.901    0.219    0.503   81.578    9.569
  249.201    0.212    0.475   90.688    9.411
  249.501    0.239    0.434   86.420    9.333
  249.801    0.247    0.451   80.937    9.494
  250.101    0.246    0.488   84.574    9.655
  250.401    0.223    0.477   82.738    9.579
  250.701    0.212    0.491   80.904    9.342
  251.001    0.217    0.511   87.581    9.105
  251.301    0.221    0.477   94.261    8.868
  251.601    0.212    0.441   93.034    8.631
  251.901    0.197    0.462   89.374    8.315
  252.201    0.206    0.493   91.187    8.157
  252.501    0.211    0.520   93.607    7.762
  252.801    0.215    0.543   86.909    7.446
  253.101    0.215    0.508   79.598    7.209
  253.401    0.214    0.446   85.668    6.972
  253.701    0.217    0.484   85.658    6.815
  254.001    0.221    0.474   86.864    6.658
  254.301    0.217    0.461   92.325    6.501
  254.601    0.209    0.471   95.357    6.502
  254.901    0.239    0.459   79.533    6.823
  255.201    0.273    0.475   71.614    8.177
  255.501    0.286    0.494   68.564   10.088
  255.801    0.281    0.528   55.782   11.364
  256.101    0.276    0.483   63.068   11.525
  256.401    0.280    0.470   56.975   11.527
  256.701    0.289    0.469   60.006   11.528
  257.001    0.304    0.489   61.820   11.451
  257.301    0.303    0.497   57.550   11.454
  257.601    0.294    0.516   53.889   11.455
  257.901    0.292    0.539   52.054   11.537
  258.201    0.293    0.541   58.124   11.857
  258.501    0.293    0.461   62.978   12.336
  258.801    0.288    0.438   59.929   13.850
  259.101    0.263    0.449   57.481   17.034
  259.401    0.124    0.292   58.081   18.071
  259.701    0.106    0.199   56.246   30.166
  260.001    0.082    0.188   53.803   35.761
  260.301    0.055    0.170   51.358   36.572
  260.601    0.014    0.131   48.306   34.998
  260.901    0.003    0.108   43.430   31.840
  261.201    0.001    0.114   41.596   27.881
  261.500    0.121    0.183   43.409   19.517
  261.800    0.244    0.237   51.912   15.461
  262.100    0.285    0.296   57.983   12.916
  262.400    0.290    0.430   56.148   11.566
  262.700    0.290    0.466   63.434   10.931
  263.000    0.279    0.495   70.112   10.536
  263.300    0.265    0.515   74.968   10.379
  263.600    0.269    0.475   57.319   10.380
  263.900    0.277    0.503   57.309   10.542
  264.200    0.281    0.487   70.070   10.782
  264.500    0.292    0.474   63.368   11.023
  264.800    0.296    0.432   56.667   11.025
  265.100    0.296    0.508   62.129   10.868
  265.400    0.290    0.514   70.025   10.552
  265.700    0.283    0.508   59.674   10.474
  266.000    0.280    0.519   57.840   10.476
  266.300    0.292    0.528   59.652   10.637
  266.600    0.280    0.489   64.508   10.798
  266.900    0.241    0.433   68.751   10.880
  267.200    0.236    0.454   71.782   10.961
  267.500    0.290    0.483   60.216   10.883
  267.800    0.312    0.509   57.773   10.408
  268.100    0.296    0.521   67.492   10.489
  268.400    0.281    0.507   74.170   11.526
  268.700    0.296    0.527   65.645   11.766
  269.000    0.173    0.548   66.852   12.803
  269.300    0.179    0.396   61.974   12.725
  269.600    0.227    0.363   67.437   11.852
  269.900    0.290    0.448   67.426   10.899
  270.200    0.278    0.490   64.984   10.264
  270.500    0.273    0.523   60.105    9.868
  270.800    0.279    0.511   63.136    9.552
  271.100    0.281    0.493   67.989    9.474
  271.400    0.252    0.502   63.114    9.476
  271.700    0.228    0.517   58.847    9.558
  272.000    0.245    0.444   58.228    9.481
  272.300    0.259    0.502   54.565    9.483
  272.600    0.256    0.447   59.422    9.485
  272.900    0.263    0.459   71.572    9.566
  273.200    0.258    0.501   71.562    9.807
  273.500    0.232    0.513   72.158    9.808
  273.800    0.221    0.507   73.365    9.651
  274.100    0.219    0.485   82.477    9.415
  274.400    0.221    0.433   85.507    9.179
  274.700    0.210    0.445   83.670    9.021
  275.000    0.199    0.468   83.049    8.943
  275.300    0.202    0.494   81.215    8.945
  275.600    0.195    0.507   84.245    8.947
  275.900    0.191    0.476   88.492    9.029
  276.200    0.207    0.471   94.563    9.110
  276.500    0.206    0.485   97.592    9.271
  276.800    0.183    0.476   88.459    9.671
  277.100    0.174    0.462   95.138   10.071
  277.400    0.180    0.445   99.384   10.312
  277.700    0.188    0.448   96.333   10.314
  278.000    0.192    0.438   93.279   10.157
  278.300    0.196    0.449   91.443   10.078
  278.600    0.201    0.476   91.430    9.922
  278.900    0.196    0.454   92.029   10.003
  279.200    0.187    0.473   96.276   10.165
  279.500    0.157    0.461   94.441   10.246
  279.800    0.154    0.435   88.956   10.247
  280.100    0.179    0.418   91.987   10.170
  280.400    0.185    0.435  103.530   10.013
  280.700    0.189    0.487  101.694    9.777
  281.000    0.172    0.439   94.995    9.380
  281.300    0.193    0.436   91.333    8.984
  281.600    0.200    0.455   92.539    9.225
  281.900    0.164    0.466   99.219   10.341
  282.200    0.108    0.428   73.662   11.218
  282.500    0.108    0.400   77.909   11.936
  282.800    0.162    0.390   93.712   12.018
  283.100    0.187    0.392   90.660   10.667
  283.400    0.176    0.402   91.256    9.634
  283.700    0.168    0.460   98.543    9.000
  284.000    0.178    0.446  102.180    8.843
  284.300    0.183    0.436  102.170    8.765
  284.600    0.180    0.447  101.550    9.404
  284.900    0.192    0.432   93.635   10.201
  285.200    0.126    0.483   96.055   11.635
  285.500    0.103    0.433   79.625   13.388
  285.799    0.226    0.318   77.182   13.549
  286.099    0.240    0.347   87.510   13.312
  286.399    0.231    0.394   80.808   12.201
  286.699    0.218    0.434   74.716   11.725
  286.999    0.215    0.465   83.826   11.090
  287.299    0.229    0.481   83.813   10.695
  287.599    0.227    0.448   83.805   10.617
  287.899    0.215    0.413   85.009   10.698
  288.199    0.201    0.422   78.918   11.178
  288.499    0.119    0.451   79.514   11.418
  288.799    0.115    0.435   75.853   11.739
  289.099    0.179    0.392   88.615   11.740
