~VERSION INFORMATION
 VERS.                 2.0:   CWLS LOG ASCII STANDARD -VERSION 2.0
 WRAP.                  NO:   ONE LINE PER DEPTH STEP
~WELL INFORMATION BLOCK
#MNEM.UNIT           DATA                    DESCRIPTION OF MNEMONIC
#---------    -------------------            -------------------------------
# Generated from Intellog Unique Number	CW_79_81/WELL/2482
WELL.         11-09-080-21W4                 : Well_name    - WELL
LOC .         00/11-09-080-21W4/0            : Location     - LOCATION
UWI .         00/11-09-080-21W4/0            : Uwi          - UNIQUE WELL ID
ENTR.         MAX                            : Entered      - ENTERED BY
SRVC.         WESTERN ATLAS                  : Scn          - SERVICE COMPANY
STRT.M        213.36                         : top_depth    - START DEPTH
STOP.M        447.86                         : bot_depth    - STOP DEPTH
STEP.M        0.25                           : increment    - STEP LENGTH
 NULL. -999.2500:NULL Value
~CURVE INFORMATION BLOCK
#MNEM UNIT       ERCB CURVE CODE    CURVE DESCRIPTION
#-----------   ------------------   ----------------------------------
DEPT.M        00 001 00 00         : DEPTH        - DEPTH
ILD .OHMM     00 120 00 00         : RESD         - DEEP RESISTIVITY (DIL)
NPHI.V/V      00 330 00 00         : PHIN         - NEUTRON POROSITY (SANDSTONE)
DPHI.V/V      00 890 00 00         : PHID         - DENSITY POROSITY (SANDSTONE)
GR  .API      00 310 00 00         : GR           - GAMMA RAY
CALI.MM       00 280 01 00         : CAL          - CALIPER
~PARAMETER INFORMATION
#MNEM.UNIT           DATA             DESCRIPTION OF MNEMONIC
#---------         -----------     ------------------------------
GL  .M        584.545              : gl           - GROUND LEVEL ELEVATION
EREF.M        588.051              : kb           - ELEVATION OF DEPTH REFERENCE
DATM.M        584.545              : datum        - DATUM ELEVATION
TDD .M        496.214              : tdd          - TOTAL DEPTH DRILLER
RUN .         ONE                  : Run          - RUN NUMBER
ENG .         BILL                 : Engineer     - RECORDING ENGINEER
WIT .         JIM                  : Witness      - WITNESSED BY
MUD .         GEL                  : Mud_type     - MUD TYPE
MATR.         SANDSTONE            : Logunit      - NEUTRON MATRIX
TMAX.C        19.4444              : BHT          - MAXIMUM RECORDED TEMPERATURE
BHTD.M        496.214              : BHTDEP       - MAXIMUM RECORDED TEMPERATURE
MATR.         1                    : LOGUNIT      - NEUTRON MATRIX
RMT .C        20                   : MDTP         - TEMPERATURE OF MUD
NEUT.         1                    : NEUTRON      - NEUTRON TYPE
RESI.         0                    : RESIST       - RESISTIVITY TYPE
RMC .OHMM     4                    : RMC          - RESISTIVITY OF MUD CAKE
RMF .OHMM     7.1                  : RMF          - RESISTIVITY OF MUD FILTRATE
SUFT.C        -6.66667             : SUFT         - SURFACE TEMPERATURE
~A  DEPTH     RESD     PHIN     PHID       GR      CAL
# ...
  322.860   11.015    0.390    0.202  105.829  161.240
  323.110   10.997    0.385    0.194  106.479  161.555
  323.360   10.979    0.384    0.186  107.841  161.561
  323.610   10.913    0.387    0.181  109.331  161.463
  323.860   10.828    0.393    0.184  110.352  161.467
  324.110   10.801    0.405    0.200  109.986  161.749
  324.360   10.698    0.412    0.219  108.440  161.638
  324.610   10.601    0.413    0.221  106.720  161.550
  324.860   10.563    0.410    0.223  103.573  161.448
  325.110   10.544    0.405    0.227  100.898  161.547
  325.360   10.525    0.401    0.232   99.945  161.957
  325.610   10.490    0.398    0.239  101.798  163.083
  325.860   10.390    0.403    0.252  104.219  165.078
  326.110   10.370    0.408    0.280  100.360  162.969
  326.360   10.409    0.400    0.285   96.674  160.550
  326.610   10.582    0.385    0.283   93.403  158.235
  326.860   10.934    0.368    0.286   90.430  155.922
  327.110   11.640    0.349    0.303   86.725  153.564
  327.360   12.450    0.334    0.311   83.936  156.397
  327.610   13.459    0.332    0.315   85.553  159.126
  327.860   15.092    0.334    0.295   87.515  159.139
  328.110   17.068    0.336    0.226   89.599  157.437
  328.360   19.103    0.338    0.138   92.994  155.328
  328.610   21.484    0.339    0.105   97.613  154.401
  328.860   23.339    0.341    0.107   84.187  154.280
  329.110   25.403    0.328    0.111   76.993  156.606
  329.360   27.092    0.321    0.111   77.294  156.511
  329.610   28.773    0.320    0.108   79.973  155.197
  329.860   30.630    0.323    0.102   82.232  154.185
  330.110   32.272    0.321    0.090   83.538  155.461
  330.360   31.482    0.304    0.091   83.225  156.198
  330.610   29.413    0.294    0.095   86.268  155.679
  330.860   26.406    0.320    0.165   91.976  155.189
  331.110   23.266    0.347    0.205   96.674  155.303
  331.360   20.257    0.360    0.196   98.820  156.309
  331.610   17.032    0.364    0.197   99.532  158.194
  331.860   15.420    0.369    0.193  102.195  158.093
  332.110   14.727    0.368    0.184  105.940  158.005
  332.360   14.466    0.363    0.181  107.903  158.212
  332.610   14.390    0.358    0.187  109.865  158.522
  332.860   14.441    0.355    0.195  111.473  158.530
  333.110   14.749    0.356    0.197  109.924  156.926
  333.360   14.840    0.358    0.196  108.379  153.461
  333.610   14.703    0.367    0.194  109.973  153.373
  333.860   14.410    0.369    0.196  111.406  153.587
  334.110   14.022    0.370    0.198  112.537  154.495
  334.360   13.673    0.374    0.199  113.009  156.003
  334.610   13.522    0.386    0.204  112.138  157.507
  334.860   13.398    0.391    0.211  111.577  157.416
  335.110   13.277    0.398    0.206  110.812  157.721
  335.360   13.085    0.404    0.190  109.687  157.717
  335.610   12.871    0.406    0.179  108.198  157.614
  335.860   12.683    0.403    0.183  106.946  157.520
  336.110   12.566    0.396    0.205  107.075  157.412
  336.360   12.540    0.387    0.203  106.762  157.310
  336.610   12.521    0.386    0.215  107.892  156.811
  336.860   12.640    0.388    0.217  109.549  156.311
  337.110   12.806    0.393    0.221  110.801  155.399
  337.360   12.948    0.399    0.227  110.993  154.688
  337.610   12.893    0.403    0.227  109.285  156.468
  337.860   12.297    0.401    0.220  107.004  159.720
  338.110   12.010    0.393    0.218  108.372  162.027
  338.360   11.727    0.390    0.261  111.526  164.651
  338.610   11.493    0.387    0.303  113.133  168.783
  338.860   11.390    0.382    0.314  112.597  171.707
  339.110   11.639    0.373    0.277  111.563  165.425
  339.360   12.162    0.367    0.250  109.028  158.597
  339.610   12.868    0.358    0.215  106.345  156.487
  339.860   14.124    0.356    0.216  101.181  155.585
  340.110   15.465    0.355    0.225   95.298  155.281
  340.360   16.671    0.351    0.222   91.192  155.182
  340.610   18.366    0.342    0.196   91.733  155.333
  340.860   19.343    0.334    0.177   89.940  156.479
  341.110   19.732    0.334    0.165   86.556  157.186
  341.360   19.806    0.330    0.157   83.524  157.592
  341.610   19.702    0.326    0.166   82.634  156.685
  341.860   19.565    0.325    0.177   83.175  155.174
  342.110   19.666    0.324    0.145   82.263  155.641
  342.360   20.389    0.316    0.121   83.936  156.398
  342.610   21.111    0.307    0.077   87.913  156.703
  342.860   21.625    0.302    0.109   90.294  157.310
  343.110   21.347    0.319    0.167   91.669  158.410
  343.360   20.079    0.348    0.212   92.208  159.812
  343.610   17.884    0.347    0.211   92.055  161.082
  343.860   16.807    0.344    0.214   93.981  161.789
  344.110   16.173    0.347    0.215   96.770  162.104
  344.360   15.822    0.355    0.212   96.711  162.426
  344.610   15.450    0.363    0.210   95.231  162.741
  344.860   14.924    0.372    0.212   94.581  163.146
  345.110   14.070    0.379    0.220   98.082  163.832
  345.360   13.233    0.384    0.220   99.266  163.720
  345.610   13.111    0.391    0.216   99.684  163.623
  345.860   13.206    0.398    0.210  100.636  163.224
  346.110   13.521    0.400    0.192  101.886  162.925
  346.360   14.076    0.398    0.166  103.253  162.627
  346.610   14.990    0.393    0.144  104.408  161.539
  346.860   15.428    0.388    0.088  103.370  160.609
  347.110   15.969    0.375    0.079  100.693  160.512
  347.360   16.267    0.371    0.092  101.049  159.803
  347.610   16.360    0.367    0.123  103.487  158.901
  347.860   16.210    0.362    0.161  106.461  158.102
  348.110   15.686    0.359    0.193  107.429  157.399
  348.360   15.541    0.362    0.197  105.394  156.480
  348.610   15.742    0.361    0.185  105.099  155.558
  348.860   16.032    0.358    0.175  104.978  155.269
  349.110   16.358    0.359    0.174  105.158  154.971
  349.360   16.632    0.366    0.182  105.519  154.559
  349.610   16.719    0.375    0.193  105.977  154.365
  349.860   16.691    0.383    0.198  107.397  153.835
  350.110   16.659    0.384    0.211  108.539  153.747
  350.360   16.629    0.382    0.220  107.712  153.659
  350.610   16.259    0.383    0.226  105.562  153.262
  350.860   15.720    0.389    0.228  103.680  152.827
  351.110   15.639    0.396    0.221  104.268  153.214
  351.360   15.861    0.404    0.197  102.559  153.206
  351.610   15.966    0.398    0.195  103.722  153.593
  351.860   16.070    0.400    0.192  104.886  153.387
  352.110   16.114    0.402    0.196  105.816  153.180
  352.360   16.099    0.402    0.206  106.162  153.272
  352.610   16.085    0.400    0.211  105.212  153.658
  352.860   16.073    0.395    0.208  103.990  153.648
  353.110   16.059    0.394    0.208  103.049  154.036
  353.360   15.957    0.393    0.209  103.336  154.424
  353.610   15.886    0.395    0.209  104.383  155.009
  353.860   15.874    0.398    0.204  106.307  155.793
  354.110   15.856    0.398    0.187  109.955  156.657
  354.360   15.845    0.397    0.161  110.680  157.061
  354.610   16.061    0.397    0.144  106.001  157.844
  354.860   16.284    0.392    0.159  106.578  158.924
  355.110   16.509    0.383    0.183  107.743  159.114
  355.360   16.675    0.376    0.203  107.796  158.117
  355.610   16.634    0.384    0.211  108.121  156.442
  355.860   16.493    0.390    0.214  108.604  156.021
  356.110   16.480    0.393    0.212  108.833  157.200
  356.360   16.377    0.391    0.202  108.712  157.488
  356.610   16.305    0.391    0.188  108.239  157.678
  356.860   16.293    0.395    0.181  108.234  157.968
  357.110   16.250    0.399    0.201  110.722  157.958
  357.360   16.114    0.396    0.210  112.665  157.949
  357.610   16.218    0.397    0.206  111.960  157.544
  357.860   16.235    0.400    0.200  108.097  157.437
  358.110   16.163    0.400    0.195  105.286  157.626
  358.360   16.031    0.393    0.191  105.691  158.014
  358.610   15.850    0.385    0.185  109.864  158.483
  358.860   15.597    0.375    0.183  112.050  158.887
  359.110   15.360    0.367    0.186  114.851  159.275
