~VERSION INFORMATION
 VERS.                 2.0:   CWLS LOG ASCII STANDARD -VERSION 2.0
 WRAP.                  NO:   ONE LINE PER DEPTH STEP
~WELL INFORMATION BLOCK
#MNEM.UNIT           DATA                    DESCRIPTION OF MNEMONIC
#---------    -------------------            -------------------------------
# Generated from Intellog Unique Number	CS_69_70/WELL/869
WELL.         BOW VALLEY EXPLORATION         : Well_name    - WELL
LOC .         00/10-18-069-13W4/0            : Location     - LOCATION
UWI .         00/10-18-069-13W4/0            : Uwi          - UNIQUE WELL ID
ENTR.         SP                             : Entered      - ENTERED BY
SRVC.         SCHLUMBERGER                   : Scn          - SERVICE COMPANY
STRT.M        243.840                        : top_depth    - START DEPTH
STOP.M        441.590                        : bot_depth    - STOP DEPTH
STEP.M        0.25                           : increment    - STEP LENGTH
 NULL. -999.2500:NULL Value
~CURVE INFORMATION BLOCK
#MNEM UNIT       ERCB CURVE CODE    CURVE DESCRIPTION
#-----------   ------------------   ----------------------------------
DEPT.M        00 001 00 00         : DEPTH        - DEPTH
GR  .API      00 310 00 00         : GR           - GAMMA RAY
DPHI.V/V      00 890 00 00         : PHID         - DENSITY POROSITY (SANDSTONE)
NPHI.V/V      00 330 00 00         : PHIN         - NEUTRON POROSITY (SANDSTONE)
ILD .OHMM     00 120 00 00         : RESD         - DEEP RESISTIVITY (DIL)
~PARAMETER INFORMATION
#MNEM.UNIT           DATA             DESCRIPTION OF MNEMONIC
#---------         -----------     ------------------------------
GL  .M        547.421              : gl           - GROUND LEVEL ELEVATION
EREF.M        550.469              : kb           - ELEVATION OF DEPTH REFERENCE
DATM.M        547.421              : datum        - DATUM ELEVATION
TDD .M        445.008              : tdd          - TOTAL DEPTH DRILLER
RUN .         ONE                  : Run          - RUN NUMBER
ENG .         BILL                 : Engineer     - RECORDING ENGINEER
WIT .         JIM                  : Witness      - WITNESSED BY
MUD .         GEL                  : Mud_type     - MUD TYPE
MATR.         SANDSTONE            : Logunit      - NEUTRON MATRIX
TMAX.C        25                   : BHT          - MAXIMUM RECORDED TEMPERATURE
BHTD.M        441.96               : BHTDEP       - MAXIMUM RECORDED TEMPERATURE
MATR.         1                    : LOGUNIT      - NEUTRON MATRIX
RMT .C        25                   : MDTP         - TEMPERATURE OF MUD
NEUT.         1                    : NEUTRON      - NEUTRON TYPE
RESI.         0                    : RESIST       - RESISTIVITY TYPE
RMC .OHMM     0.25                 : RMC          - RESISTIVITY OF MUD CAKE
RMF .OHMM     0.25                 : RMF          - RESISTIVITY OF MUD FILTRATE
SUFT.C        15                   : SUFT         - SURFACE TEMPERATURE
~A  DEPTH       GR     PHID     PHIN     RESD
  243.840  111.592    0.247    0.498    2.461
  244.090  109.664    0.255    0.497    2.402
  244.340  107.710    0.262    0.508    2.360
  244.590  106.392    0.265    0.520    2.339
  244.840  105.255    0.222    0.529    2.344
  245.090  103.470    0.183    0.532    2.355
  245.340  100.155    0.137    0.537    2.359
  245.590   95.932    0.077    0.548    2.381
  245.840   90.780    0.049    0.554    2.409
  246.090   85.696    0.166    0.483    2.447
  246.340   86.602    0.218    0.495    2.487
  246.590   95.135    0.227    0.514    2.540
  246.840  100.128    0.216    0.530    2.572
  247.090  101.455    0.222    0.505    2.624
  247.340  102.185    0.228    0.499    2.679
  247.590  102.376    0.224    0.511    2.725
  247.840  102.486    0.212    0.518    2.753
  248.090  102.504    0.222    0.519    2.781
  248.340  103.495    0.232    0.503    2.790
  248.590  107.127    0.222    0.494    2.798
  248.840  110.359    0.215    0.499    2.801
  249.090  112.410    0.215    0.512    2.767
  249.340  113.135    0.212    0.517    2.729
  249.590  111.545    0.212    0.477    2.694
  249.840  108.801    0.212    0.484    2.652
  250.090  108.872    0.214    0.503    2.625
  250.340  111.167    0.219    0.517    2.623
  250.590  113.698    0.223    0.502    2.646
  250.840  115.828    0.218    0.497    2.682
  251.090  117.318    0.209    0.506    2.720
  251.340  117.968    0.212    0.510    2.797
  251.590  116.610    0.216    0.508    2.865
  251.840  114.399    0.218    0.495    2.936
  252.090  113.050    0.218    0.481    2.955
  252.340  112.004    0.224    0.471    2.964
  252.590  111.199    0.234    0.489    2.964
  252.840  113.827    0.240    0.502    2.934
  253.090  116.172    0.243    0.509    2.896
  253.340  116.080    0.245    0.505    2.864
  253.590  113.352    0.213    0.498    2.822
  253.840  110.717    0.201    0.496    2.781
  254.090  108.444    0.201    0.496    2.755
  254.340  109.193    0.205    0.492    2.714
  254.590  110.844    0.212    0.477    2.672
  254.840  109.505    0.202    0.470    2.632
  255.090  106.993    0.204    0.481    2.592
  255.340  103.536    0.218    0.486    2.567
  255.590   98.527    0.183    0.474    2.567
  255.840   95.538    0.188    0.468    2.593
  256.090  100.986    0.200    0.480    2.667
  256.340  102.104    0.204    0.485    2.828
  256.590   95.969    0.211    0.474    2.959
  256.840   89.182    0.199    0.456    3.073
  257.090   79.858    0.174    0.422    3.141
  257.340   71.417    0.185    0.383    3.172
  257.590   79.154    0.227    0.371    3.117
  257.840   84.672    0.251    0.390    3.020
  258.090   84.924    0.259    0.392    2.917
  258.340   84.837    0.235    0.381    2.873
  258.590   84.592    0.252    0.388    2.888
  258.840   83.043    0.274    0.389    2.979
  259.090   85.918    0.266    0.385    3.143
  259.340   97.103    0.258    0.393    3.342
  259.590  104.445    0.228    0.403    3.527
  259.840  110.775    0.201    0.399    3.708
  260.090  114.324    0.185    0.407    3.816
  260.340  113.370    0.192    0.420    3.895
  260.590  114.102    0.177    0.427    3.873
  260.840  115.914    0.160    0.431    3.749
  261.090  112.477    0.219    0.444    3.469
  261.340  104.718    0.268    0.430    3.042
  261.590   94.007    0.286    0.418    2.691
  261.840   77.673    0.303    0.404    2.437
  262.090   69.646    0.314    0.395    2.230
  262.340   62.560    0.324    0.384    2.119
  262.590   57.398    0.328    0.375    2.169
  262.840   59.980    0.304    0.372    2.260
  263.090   65.767    0.280    0.369    2.393
  263.340   73.757    0.256    0.372    2.559
  263.590   80.654    0.242    0.390    2.737
  263.840   82.849    0.247    0.403    2.898
  264.090   76.147    0.262    0.401    2.945
  264.340   69.446    0.287    0.394    2.818
  264.590   61.552    0.302    0.388    2.646
  264.840   54.584    0.309    0.383    2.377
  265.090   49.934    0.307    0.376    2.229
  265.340   53.776    0.297    0.372    2.217
  265.590   67.663    0.278    0.368    2.372
  265.840   79.527    0.255    0.370    2.568
  266.090   86.411    0.244    0.383    2.786
  266.340   89.407    0.243    0.390    3.075
  266.590   90.294    0.246    0.392    3.275
  266.840   89.565    0.242    0.399    3.520
  267.090   90.617    0.233    0.403    3.638
  267.340   94.797    0.225    0.387    3.826
  267.590   97.376    0.221    0.379    4.024
  267.840  102.736    0.221    0.382    4.105
  268.090  108.656    0.220    0.396    4.083
  268.340  112.069    0.215    0.405    3.833
  268.590  116.345    0.212    0.432    3.436
  268.840  122.045    0.223    0.472    3.081
  269.090  125.330    0.241    0.496    2.726
  269.340  127.684    0.239    0.520    2.429
  269.590  127.633    0.224    0.532    2.224
  269.840  115.325    0.252    0.529    2.166
  270.090  103.799    0.273    0.515    2.303
  270.340   96.449    0.287    0.503    2.475
  270.590   89.201    0.300    0.475    2.659
  270.840   86.643    0.299    0.447    2.853
  271.090   87.970    0.277    0.448    3.063
  271.340   94.114    0.255    0.437    3.269
  271.590   98.122    0.244    0.416    3.373
  271.840   94.459    0.240    0.419    3.438
  272.090   89.712    0.242    0.430    3.468
  272.340   87.887    0.249    0.431    3.471
  272.590   89.960    0.252    0.450    3.451
  272.840   92.840    0.258    0.450    3.465
  273.090   93.881    0.246    0.441    3.556
  273.340   95.828    0.231    0.441    3.693
  273.590   98.501    0.221    0.448    3.849
  273.840  102.921    0.215    0.450    3.963
  274.090  108.157    0.219    0.445    4.043
  274.340  111.761    0.219    0.442    4.051
  274.590  112.729    0.203    0.447    4.030
  274.840  113.640    0.192    0.459    3.962
  275.090  115.693    0.192    0.472    3.864
  275.340  118.843    0.188    0.471    3.746
  275.590  120.091    0.182    0.461    3.632
  275.840  120.249    0.180    0.471    3.589
  276.090  120.612    0.186    0.478    3.579
  276.340  123.232    0.192    0.476    3.639
  276.590  126.346    0.201    0.463    3.730
  276.840  129.259    0.214    0.442    3.845
  277.090  131.432    0.234    0.420    3.925
  277.340  132.867    0.249    0.410    3.969
  277.590  132.765    0.252    0.414    3.954
  277.840  126.026    0.248    0.417    3.867
  278.090  114.428    0.253    0.420    3.685
  278.340  108.424    0.275    0.423    3.487
  278.590  100.954    0.293    0.424    3.194
  278.840   96.020    0.301    0.421    2.998
  279.090   93.747    0.302    0.422    2.880
  279.340   96.591    0.297    0.430    2.800
  279.590   99.687    0.284    0.436    2.783
  279.840   99.716    0.274    0.433    2.857
  280.090   98.419    0.261    0.424    2.964
  280.340  101.778    0.236    0.418    3.095
  280.590  107.276    0.221    0.423    3.185
  280.840  110.494    0.245    0.431    3.212
  281.090  109.473    0.257    0.434    3.179
  281.340  101.947    0.265    0.451    3.105
  281.590   95.019    0.287    0.472    2.959
  281.840   90.240    0.309    0.468    2.846
  282.090   86.554    0.302    0.440    2.668
  282.340   83.471    0.290    0.427    2.620
  282.590   82.844    0.296    0.436    2.655
  282.840   89.088    0.293    0.439    2.717
  283.090   94.599    0.257    0.418    2.817
  283.340   98.882    0.243    0.410    2.949
  283.590  104.372    0.244    0.411    3.142
  283.840  108.654    0.243    0.411    3.281
  284.090  111.344    0.238    0.410    3.406
  284.340  109.007    0.233    0.413    3.508
  284.590  108.624    0.232    0.426    3.537
  284.840  112.083    0.231    0.441    3.505
  285.090  115.959    0.258    0.454    3.403
  285.340  120.073    0.263    0.468    3.370
  285.590  122.827    0.280    0.461    3.401
  285.840  119.788    0.288    0.439    3.485
  286.090  115.431    0.264    0.398    3.687
  286.340  111.565    0.225    0.355    4.213
  286.590  110.208    0.190    0.330    4.866
  286.840  113.723    0.166    0.308    5.563
  287.090  114.211    0.145    0.288    6.231
