~VERSION INFORMATION
 VERS.                 2.0:   CWLS LOG ASCII STANDARD -VERSION 2.0
 WRAP.                  NO:   ONE LINE PER DEPTH STEP
~WELL INFORMATION BLOCK
#MNEM.UNIT           DATA                    DESCRIPTION OF MNEMONIC
#---------    -------------------            -------------------------------
# Generated from Intellog Unique Number	CW_82_90/WELL/1032
WELL.         13-33-083-23W4                 : Well_name    - WELL
LOC .         00/13-33-083-23W4/0            : Location     - LOCATION
UWI .         00/13-33-083-23W4/0            : Uwi          - UNIQUE WELL ID
ENTR.         JAYE                           : Entered      - ENTERED BY
SRVC.         SCHLUMBERGER                   : Scn          - SERVICE COMPANY
DATE.         21 FEB 86                      : Date         - LOG DATE
STRT.M        200                            : top_depth    - START DEPTH
STOP.M        425                            : bot_depth    - STOP DEPTH
STEP.M        0.25                           : increment    - STEP LENGTH
 NULL. -999.2500:NULL Value
~CURVE INFORMATION BLOCK
#MNEM UNIT       ERCB CURVE CODE    CURVE DESCRIPTION
#-----------   ------------------   ----------------------------------
DEPT.M        00 001 00 00         : DEPTH        - DEPTH
CALI.MM       00 280 01 00         : CAL          - CALIPER
GR  .API      00 310 00 00         : GR           - GAMMA RAY
NPHI.V/V      00 330 00 00         : PHIN         - NEUTRON POROSITY (SANDSTONE)
DPHI.V/V      00 890 00 00         : PHID         - DENSITY POROSITY (SANDSTONE)
ILD .OHMM     00 120 00 00         : RESD         - DEEP RESISTIVITY (DIL)
~PARAMETER INFORMATION
#MNEM.UNIT           DATA             DESCRIPTION OF MNEMONIC
#---------         -----------     ------------------------------
GL  .M        593.3                : gl           - GROUND LEVEL ELEVATION
EREF.M        596.9                : kb           - ELEVATION OF DEPTH REFERENCE
DATM.M        593.3                : datum        - DATUM ELEVATION
TDD .M        424                  : tdd          - TOTAL DEPTH DRILLER
RUN .         ONE                  : Run          - RUN NUMBER
ENG .         MURRAY               : Engineer     - RECORDING ENGINEER
WIT .         KOSS                 : Witness      - WITNESSED BY
BASE.         S.L.                 : Branch       - HOME BASE OF LOGGING UNIT
MUD .         GEL CHEM             : Mud_type     - MUD TYPE
MATR.         SANDSTONE            : Logunit      - NEUTRON MATRIX
TMAX.C        22                   : BHT          - MAXIMUM RECORDED TEMPERATURE
BHTD.M        424                  : BHTDEP       - MAXIMUM RECORDED TEMPERATURE
RMT .C        10                   : MDTP         - TEMPERATURE OF MUD
MUDD.KG/M     1120                 : MWT          - MUD DENSITY
NEUT.         1                    : NEUTRON      - NEUTRON TYPE
RESI.         0                    : RESIST       - RESISTIVITY TYPE
RM  .OHMM     4.3                  : RM           - RESISTIVITY OF MUD
RMC .OHMM     0                    : RMC          - RESISTIVITY OF MUD CAKE
RMF .OHMM     3.8                  : RMF          - RESISTIVITY OF MUD FILTRATE
SUFT.C        0                    : SUFT         - SURFACE TEMPERATURE
~A  DEPTH      CAL       GR     PHIN     PHID     RESD
# ...
  382.500  237.171   72.341    0.390    0.196   18.516
  382.750  241.410   71.492    0.395    0.181   19.977
  383.000  245.444   71.574    0.399    0.169   21.551
  383.250  247.629   72.395    0.389    0.150   23.118
  383.500  248.684   72.479    0.384    0.139   24.940
  383.750  248.916   71.631    0.379    0.136   26.554
  384.000  248.746   70.599    0.370    0.127   27.955
  384.250  248.985   69.321    0.333    0.110   28.503
  384.500  249.734   71.073    0.339    0.087   27.932
  384.750  250.486   73.561    0.361    0.115   26.165
  385.000  251.025   81.003    0.377    0.139   23.165
  385.250  251.570   84.369    0.388    0.186   20.701
  385.500  251.702   85.495    0.411    0.205   17.062
  385.750  250.606   84.586    0.412    0.213   16.379
  386.000  249.925   78.300    0.413    0.213   16.084
  386.250  248.927   75.840    0.432    0.199   15.910
  386.500  248.760   75.552    0.419    0.145   15.741
  386.750  248.888   85.713    0.390    0.137   15.514
  387.000  248.620   90.930    0.399    0.153   15.062
  387.250  248.748   85.319    0.412    0.192   13.978
  387.500  249.497   84.534    0.419    0.194   13.271
  387.750  249.734   85.114    0.411    0.190   13.175
  388.000  250.182   84.387    0.420    0.187   13.011
  388.250  250.216   80.199    0.434    0.170   13.190
  388.500  250.348   78.185    0.409    0.122   13.730
  388.750  250.582   77.956    0.376    0.086   14.211
  389.000  251.022   80.443    0.407    0.116   14.245
  389.250  251.361   84.917    0.435    0.173   14.719
  389.500  251.704   84.005    0.417    0.156   15.062
  389.750  252.041   84.274    0.408    0.144   15.473
  390.000  252.384   85.839    0.411    0.145   15.542
  390.250  252.408   91.177    0.404    0.164   15.462
  390.500  252.545   93.298    0.424    0.173   15.154
  390.750  252.372   88.187    0.436    0.168   14.195
  391.000  251.895   88.143    0.430    0.165   12.902
  391.250  251.412   89.521    0.428    0.170   12.018
  391.500  251.137   91.457    0.433    0.181   11.624
  391.750  250.652   94.692    0.428    0.180   11.608
  392.000  249.869   95.700    0.452    0.164   12.406
  392.250  248.873   80.072    0.435    0.102   13.234
  392.500  247.567   77.553    0.404    0.065   13.395
  392.750  245.759   81.654    0.376    0.064   13.127
  393.000  246.093   94.911    0.396    0.146   12.552
  393.250  247.881  100.250    0.420    0.179   10.782
  393.500  248.519  103.797    0.424    0.192    9.801
  393.750  249.265  104.247    0.427    0.188    9.373
  394.000  249.706  103.214    0.421    0.182    9.049
  394.250  250.566  103.865    0.427    0.183    8.753
  394.500  251.105  104.252    0.419    0.166    8.418
  394.750  250.520  106.055    0.406    0.167    8.142
  395.000  247.784  108.859    0.426    0.184    8.055
  395.250  245.355  109.309    0.448    0.203    7.939
  395.500  244.162  108.154    0.459    0.206    8.453
  395.750  243.881   97.782    0.456    0.185    9.380
  396.000  244.015   94.025    0.433    0.136   10.567
  396.250  246.098   95.163    0.386    0.091   11.380
  396.500  251.870   97.778    0.409    0.170   11.823
  396.750  259.698  100.519    0.440    0.284   12.030
  397.000  251.216   96.204    0.417    0.256   12.175
  397.250  234.739   86.946    0.390    0.195   12.602
  397.500  235.693   84.243    0.393    0.171   13.417
  397.750  240.138   81.231    0.402    0.182   14.805
  398.000  242.525   80.693    0.433    0.208   16.153
  398.250  243.075   93.949    0.419    0.201   16.722
  398.500  242.796  100.589    0.392    0.173   16.823
  398.750  243.033   94.605    0.401    0.176   16.089
  399.000  243.478   74.521    0.414    0.198   15.828
  399.250  243.710   69.282    0.395    0.234   16.601
  399.500  242.923   68.003    0.400    0.237   18.525
  399.750  241.926   66.784    0.420    0.226   22.419
  400.000  240.915   60.759    0.299    0.086   28.677
  400.250  241.541   61.384    0.346    0.116   29.032
  400.500  242.272   65.056    0.413    0.151   27.730
  400.750  242.070   68.291    0.441    0.223   26.235
  401.000  241.972   70.409    0.441    0.265   25.583
  401.250  241.666   72.650    0.443    0.271   25.506
  401.500  241.568   75.699    0.459    0.259   25.679
  401.750  241.987   76.075    0.475    0.258   26.244
  402.000  242.405   74.398    0.474    0.257   27.373
  402.250  245.101   78.941    0.462    0.252   28.555
  402.500  246.659   79.068    0.440    0.252   29.562
  402.750  246.767   77.204    0.418    0.262   29.817
  403.000  246.772   74.658    0.400    0.262   29.957
  403.250  246.570   74.660    0.397    0.252   29.764
  403.500  246.266   76.590    0.403    0.242   29.733
  403.750  246.271   76.592    0.434    0.242   29.711
  404.000  246.068   74.356    0.433    0.247   29.184
  404.250  245.764   72.990    0.414    0.254   28.088
  404.500  245.148   71.189    0.411    0.262   24.704
  404.750  244.222   69.140    0.383    0.263   19.933
  405.000  243.917   70.946    0.406    0.225   13.562
  405.250  243.714   76.669    0.423    0.208   10.441
  405.500  243.616   84.508    0.432    0.193    9.148
  405.750  243.725   85.567    0.431    0.180    8.804
  406.000  243.730   83.144    0.405    0.190    8.896
  406.250  243.942   75.560    0.387    0.200    9.142
  406.500  243.638   72.702    0.382    0.202    9.571
  406.750  243.333   76.498    0.437    0.193    9.929
  407.000  242.923   83.776    0.459    0.172   10.514
  407.250  242.514   77.685    0.396    0.074   11.865
  407.500  242.519   70.100    0.332    0.083   13.492
  407.750  243.042   61.645    0.315    0.146   15.513
  408.000  244.186   66.249    0.317    0.171   15.499
  408.250  244.501   72.719    0.337    0.163   14.476
  408.500  242.230   85.844    0.430    0.165   11.615
  408.750  241.924   92.439    0.438    0.175    9.710
  409.000  242.653   92.192    0.440    0.202    9.941
  409.250  243.693   90.080    0.481    0.231   10.178
  409.500  244.733   86.227    0.528    0.327   10.264
  409.750  245.256   74.911    0.532    0.364   10.390
  410.000  244.538   77.401    0.494    0.349   10.422
  410.250  244.129   80.015    0.503    0.279   10.257
  410.500  244.030   75.415    0.497    0.276    9.926
  410.750  244.140   76.164    0.479    0.274    9.918
  411.000  244.247   80.707    0.510    0.260   10.058
  411.250  244.253   74.988    0.506    0.239   10.049
  411.500  244.051   75.612    0.480    0.202    9.762
  411.750  244.471   80.714    0.455    0.151    8.881
  412.000  244.889   87.371    0.455    0.151    8.139
  412.250  244.894   92.722    0.450    0.167    8.132
  412.500  244.797   99.752    0.437    0.185    8.451
  412.750  244.697  100.749    0.438    0.195    9.066
  413.000  245.116   98.202    0.446    0.190    9.653
  413.250  245.639   94.535    0.449    0.180   10.241
  413.500  246.163   90.744    0.395    0.183   10.823
  413.750  246.163   91.493    0.371    0.185   11.313
  414.000  245.864   92.117    0.385    0.190   11.890
  414.250  245.764   91.933    0.407    0.197   12.567
  414.500  245.976   91.438    0.386    0.206   13.159
  414.750  246.294   90.259    0.363    0.213   13.852
  415.000  246.504   89.639    0.373    0.214   14.156
  415.250  246.716   90.327    0.386    0.215   14.464
  415.500  246.716   90.764    0.394    0.216   14.509
  415.750  248.589   92.819    0.453    0.222   14.334
  416.000  249.421   94.562    0.433    0.203   14.188
  416.250  249.944   95.809    0.389    0.175   14.281
  416.500  249.641   95.251    0.367    0.168   14.427
  416.750  249.229   83.811    0.372    0.164   14.310
  417.000  246.544   76.662    0.391    0.159   13.923
  417.250  245.514   84.376    0.414    0.161   13.681
  417.500  244.799   87.053    0.417    0.172   13.093
  417.750  244.904  100.239    0.439    0.166   12.157
  418.000  244.909  127.916    0.482    0.145   11.185
  418.250  245.122  131.960    0.503    0.134    9.875
  418.500  245.127  131.714    0.514    0.153    8.883
  418.750  244.821  130.100    0.522    0.178    7.946
