~VERSION INFORMATION
 VERS.                 2.0:   CWLS LOG ASCII STANDARD -VERSION 2.0
 WRAP.                  NO:   ONE LINE PER DEPTH STEP
~WELL INFORMATION BLOCK
#MNEM.UNIT           DATA                    DESCRIPTION OF MNEMONIC
#---------    -------------------            -------------------------------
# Generated from Intellog Unique Number	CW_73_75/WELL/903
WELL.         CDN SUP ET AL FRANCIS 10-01    : Well_name    - WELL
LOC .         00/10-01-074-21W4/0            : Location     - LOCATION
UWI .         00/10-01-074-21W4/0            : Uwi          - UNIQUE WELL ID
ENTR.         JAYE                           : Entered      - ENTERED BY
SRVC.         SCHLUMBERGER                   : Scn          - SERVICE COMPANY
DATE.         16 FEB 75                      : Date         - LOG DATE
STRT.M        396.24                         : top_depth    - START DEPTH
STOP.M        636.99                         : bot_depth    - STOP DEPTH
STEP.M        0.25                           : increment    - STEP LENGTH
 NULL. -999.2500:NULL Value
~CURVE INFORMATION BLOCK
#MNEM UNIT       ERCB CURVE CODE    CURVE DESCRIPTION
#-----------   ------------------   ----------------------------------
DEPT.M        00 001 00 00         : DEPTH        - DEPTH
DPHI.V/V      00 890 00 00         : PHID         - DENSITY POROSITY (SANDSTONE)
NPHI.V/V      00 330 00 00         : PHIN         - NEUTRON POROSITY (SANDSTONE)
GR  .API      00 310 00 00         : GR           - GAMMA RAY
CALI.MM       00 280 01 00         : CAL          - CALIPER
ILD .OHMM     00 120 00 00         : RESD         - DEEP RESISTIVITY (DIL)
~PARAMETER INFORMATION
#MNEM.UNIT           DATA             DESCRIPTION OF MNEMONIC
#---------         -----------     ------------------------------
GL  .M        708.05               : gl           - GROUND LEVEL ELEVATION
EREF.M        710.489              : kb           - ELEVATION OF DEPTH REFERENCE
DATM.M        708.05               : datum        - DATUM ELEVATION
TDD .M        694.944              : tdd          - TOTAL DEPTH DRILLER
RUN .         ONE                  : Run          - RUN NUMBER
ENG .         LLOYD                : Engineer     - RECORDING ENGINEER
WIT .         NESSIER              : Witness      - WITNESSED BY
BASE.         EDMONTON             : Branch       - HOME BASE OF LOGGING UNIT
MUD .         GEL                  : Mud_type     - MUD TYPE
MATR.         SANDSTONE            : Logunit      - NEUTRON MATRIX
TMAX.C        26.1111              : BHT          - MAXIMUM RECORDED TEMPERATURE
BHTD.M        695.249              : BHTDEP       - MAXIMUM RECORDED TEMPERATURE
RMT .C        4.44444              : MDTP         - TEMPERATURE OF MUD
MUDD.KG/M     1104                 : MWT          - MUD DENSITY
NEUT.         1                    : NEUTRON      - NEUTRON TYPE
RESI.         0                    : RESIST       - RESISTIVITY TYPE
RM  .OHMM     5.12                 : RM           - RESISTIVITY OF MUD
RMC .OHMM     0                    : RMC          - RESISTIVITY OF MUD CAKE
RMF .OHMM     3.6                  : RMF          - RESISTIVITY OF MUD FILTRATE
SUFT.C        -17.7778             : SUFT         - SURFACE TEMPERATURE
~A  DEPTH     PHID     PHIN       GR      CAL     RESD
# ...
  542.240    0.222    0.436   90.629  169.219    6.917
  542.490    0.224    0.436   90.941  169.438    6.881
  542.740    0.215    0.450   90.284  169.452    6.870
  542.990    0.209    0.452   89.806  169.466    6.796
  543.240    0.200    0.439   88.966  169.380    6.662
  543.490    0.196    0.429   89.277  169.494    6.482
  543.740    0.218    0.439   92.983  169.303    6.389
  543.990    0.205    0.448   93.658  169.112    6.309
  544.240    0.198    0.457   93.121  168.617    6.265
  544.490    0.195    0.464   91.856  168.629    6.312
  544.740    0.174    0.460   90.714  168.745    6.384
  544.990    0.178    0.445   91.934  168.965    6.409
  545.240    0.170    0.440   95.216  169.903    6.387
  545.490    0.168    0.465   98.315  171.969    6.319
  545.740    0.179    0.468   93.232  173.832    6.205
  545.990    0.177    0.460   92.150  174.769    6.161
  546.240    0.167    0.452   90.401  174.577    6.129
  546.490    0.160    0.444   88.712  172.335    6.199
  546.740    0.156    0.436   92.297  170.913    6.280
  546.990    0.171    0.426   96.306  172.055    6.434
  547.240    0.161    0.431   94.738  171.250    6.689
  547.490    0.142    0.451   93.473  169.723    6.993
  547.740    0.183    0.447   94.027  169.122    7.230
  547.990    0.202    0.439   93.066  167.290    7.393
  548.240    0.215    0.427   89.620  166.072    7.368
  548.490    0.229    0.418   87.446  164.547    7.316
  548.740    0.239    0.409   88.970  165.382    7.119
  548.990    0.211    0.409   91.403  169.193    6.800
  549.240    0.196    0.419   93.350  173.210    6.378
  549.490    0.191    0.431   95.663  176.817    6.252
  549.740    0.187    0.444   97.428  179.397    6.185
  549.990    0.191    0.446   99.436  181.361    6.290
  550.240    0.193    0.460   99.202  181.889    6.697
  550.490    0.178    0.465   95.393  176.361    7.131
  550.740    0.187    0.429   90.249  166.112    7.649
  550.990    0.172    0.371   82.803  162.739    8.041
  551.240    0.149    0.371   81.418  161.113    8.360
  551.490    0.155    0.394   83.729  160.615    8.612
  551.740    0.181    0.400   83.253  160.628    8.936
  551.990    0.196    0.396   79.746  160.847    9.325
  552.240    0.195    0.365   77.209  161.377    9.766
  552.490    0.182    0.348   75.036  161.697   10.247
  552.740    0.148    0.339   73.166  162.122   10.871
  552.990    0.133    0.342   70.507  162.341   11.533
  553.240    0.151    0.335   66.699  162.663   13.438
  553.490    0.177    0.384   63.736  162.882   15.687
  553.740    0.196    0.355   58.411  162.898   18.998
  553.990    0.203    0.319   59.753  163.426   19.860
  554.240    0.140    0.295   61.944  163.952   19.183
  554.490    0.041    0.244   67.649  164.788   15.080
  554.740    0.028    0.271   75.354  165.520   12.504
  554.990    0.068    0.307   83.121  166.663    8.867
  555.240    0.098    0.407   88.765  167.396    7.784
  555.490    0.142    0.430   91.683  167.719    7.194
  555.740    0.163    0.438   95.509  168.349    6.962
  555.990    0.188    0.427   93.578  168.979    7.002
  556.240    0.185    0.418   97.346  169.198    7.055
  556.490    0.174    0.407   96.202  169.315    7.057
  556.740    0.182    0.407   97.483  169.432    7.046
  556.990    0.191    0.426   97.854  169.139    7.087
  557.240    0.176    0.430   94.590  169.050    7.101
  557.490    0.172    0.428   91.872  169.065    7.064
  557.740    0.178    0.444   90.546  169.079    7.040
  557.990    0.177    0.451   92.798  169.094    7.068
  558.240    0.165    0.437   95.169  169.108    7.096
  558.490    0.147    0.422   91.057  169.122    7.058
  558.740    0.134    0.406   91.914  169.137    6.970
  558.990    0.162    0.420   93.013  169.149    6.946
  559.240    0.180    0.419   92.900  169.371    6.948
  559.490    0.186    0.425   92.606  169.078    6.962
  559.740    0.174    0.399   94.433  168.783    7.003
  559.990    0.165    0.381   94.623  168.694    7.017
  560.240    0.165    0.381   92.631  168.400    7.019
  560.490    0.178    0.404   91.488  168.416    6.931
  560.740    0.179    0.419   90.890  168.328    6.819
  560.990    0.175    0.403   91.081  168.546    6.734
  561.240    0.159    0.387   91.998  168.765    6.649
  561.490    0.163    0.387   94.432  168.780    6.602
  561.740    0.177    0.392   96.379  168.486    6.604
  561.990    0.179    0.405   98.206  168.501    6.691
  562.240    0.210    0.414   98.941  168.824    6.855
  562.490    0.197    0.418   95.434  169.042    6.781
  562.740    0.171    0.398   93.564  168.749    6.267
  562.990    0.150    0.371   95.693  168.661    5.718
  563.240    0.128    0.372   99.339  168.983    4.982
  563.490    0.146    0.408  102.256  169.408    4.093
  563.740    0.212    0.466  102.872  170.037    3.096
  563.990    0.232    0.507  102.819  170.463    2.600
  564.240    0.258    0.515  102.706  170.887    2.342
  564.490    0.251    0.510  103.744  170.902    2.254
  564.740    0.235    0.510  108.359  171.018    2.318
  564.990    0.223    0.525  114.246  171.340    2.491
  565.240    0.220    0.534  114.013  171.253    2.662
  565.490    0.232    0.514  112.264  170.958    2.919
  565.740    0.224    0.491  111.241  170.973    3.315
  565.990    0.211    0.472  115.129  170.885    3.621
  566.240    0.192    0.455  118.652  170.898    4.128
  566.490    0.173    0.442  128.357  170.810    4.493
  566.740    0.158    0.442  133.093  170.516    4.900
  566.990    0.168    0.438  135.041  170.635    5.237
  567.240    0.182    0.432  132.262  170.545    5.669
  567.490    0.163    0.452  129.785  170.559    6.103
  567.740    0.139    0.440  123.551  169.958    6.416
  567.990    0.121    0.375  109.014  169.459    6.477
  568.240    0.087    0.338  106.720  167.421    6.314
  568.490    0.055    0.334  116.122  165.588    6.065
  568.740    0.112    0.398  121.524  165.910    5.794
  568.990    0.157    0.425  118.684  167.157    5.114
  569.240    0.156    0.444  117.239  167.992    4.779
  569.490    0.168    0.449  115.852  168.213    4.815
  569.740    0.183    0.431  115.255  167.815    5.408
  569.990    0.132    0.422  114.294  166.290    5.844
  570.240    0.094    0.415  112.241  165.690    6.269
  570.490    0.100    0.412  117.160  165.703    6.236
  570.740    0.120    0.423  120.198  166.642    5.903
  570.990    0.180    0.435  120.025  167.270    5.639
  571.240    0.190    0.460  119.245  167.798    5.456
  571.490    0.192    0.431  115.738  168.222    5.408
  571.740    0.199    0.422  114.656  168.238    5.530
  571.990    0.181    0.407  117.029  168.353    5.665
  572.240    0.142    0.395  117.703  168.574    5.625
  572.490    0.126    0.401  120.621  168.793    5.413
  572.740    0.138    0.426  125.902  169.115    5.143
  572.990    0.182    0.444  130.092  169.129    4.968
  573.240    0.199    0.445  130.343  169.556    4.807
  573.490    0.189    0.449  131.382  169.568    4.643
  573.740    0.166    0.458  128.602  169.173    4.477
  573.990    0.144    0.458  129.884  169.186    4.356
  574.240    0.123    0.449  133.347  170.330    4.223
  574.490    0.139    0.455  131.779  171.063    4.216
  574.740    0.185    0.448  133.121  171.488    4.248
  574.990    0.185    0.450  140.038  171.809    4.336
  575.240    0.187    0.455  143.017  172.234    4.517
  575.490    0.188    0.450  138.601  172.659    4.704
  575.740    0.185    0.441  131.276  172.674    4.846
  575.990    0.177    0.433  131.890  172.995    4.956
  576.240    0.164    0.456  135.353  172.806    5.030
  576.490    0.181    0.481  139.725  172.306    5.097
  576.740    0.172    0.464  139.552  171.909    5.164
  576.990    0.141    0.443  142.167  171.411    5.252
  577.240    0.112    0.423  154.478  169.475    5.321
  577.490    0.106    0.428  227.032  168.772    5.451
  577.740    0.140    0.466  260.556  169.608    5.657
  577.990    0.202    0.465  216.019  169.825    5.924
  578.240    0.185    0.440  153.178  170.558    6.239
  578.490    0.169    0.413  139.066  168.828    6.754
