~VERSION INFORMATION
 VERS.                 2.0:   CWLS LOG ASCII STANDARD -VERSION 2.0
 WRAP.                  NO:   ONE LINE PER DEPTH STEP
~WELL INFORMATION BLOCK
#MNEM.UNIT           DATA                    DESCRIPTION OF MNEMONIC
#---------    -------------------            -------------------------------
# Generated from Intellog Unique Number	CN_94_101/WELL/3820
WELL.         10-02-096-18W4                 : Well_name    - WELL
LOC .         00/10-02-096-18W4/0            : Location     - LOCATION
UWI .         00/10-02-096-18W400            : Uwi          - UNIQUE WELL ID
ENTR.         T                              : Entered      - ENTERED BY
SRVC.         SCHLUMBERGER                   : Scn          - SERVICE COMPANY
DATE.         06/18/92                       : Date         - LOG DATE
STRT.M        225                            : top_depth    - START DEPTH
STOP.M        404.75                         : bot_depth    - STOP DEPTH
STEP.M        0.25                           : increment    - STEP LENGTH
 NULL. -999.2500:NULL Value
~CURVE INFORMATION BLOCK
#MNEM UNIT       ERCB CURVE CODE    CURVE DESCRIPTION
#-----------   ------------------   ----------------------------------
DEPT.M        00 001 00 00         : DEPTH        - DEPTH
GR  .API      00 310 00 00         : GR           - GAMMA RAY
CALI.MM       00 280 01 00         : CAL          - CALIPER
NPHI.V/V      00 330 00 00         : PHIN         - NEUTRON POROSITY (SANDSTONE)
DPHI.V/V      00 890 00 00         : PHID         - DENSITY POROSITY (SANDSTONE)
ILD .OHMM     00 120 00 00         : RESD         - DEEP RESISTIVITY (DIL)
~PARAMETER INFORMATION
#MNEM.UNIT           DATA             DESCRIPTION OF MNEMONIC
#---------         -----------     ------------------------------
GL  .M        673.9                : gl           - GROUND LEVEL ELEVATION
EREF.M        676.9                : kb           - ELEVATION OF DEPTH REFERENCE
DATM.M        676.9                : datum        - DATUM ELEVATION
TDD .M        411                  : tdd          - TOTAL DEPTH DRILLER
RUN .         0.000000             : Run          - RUN NUMBER
MUD .         GEL                  : Mud_type     - MUD TYPE
MATR.         SANDSTONE            : Logunit      - NEUTRON MATRIX
TMAX.C        0                    : BHT          - MAXIMUM RECORDED TEMPERATURE
BHTD.M        344                  : BHTDEP       - MAXIMUM RECORDED TEMPERATURE
RMT .C        14                   : MDTP         - TEMPERATURE OF MUD
MUDD.KG/M     1050                 : MWT          - MUD DENSITY
NEUT.         1                    : NEUTRON      - NEUTRON TYPE
RESI.         0                    : RESIST       - RESISTIVITY TYPE
RM  .OHMM     3.15                 : RM           - RESISTIVITY OF MUD
RMC .OHMM     3.15                 : RMC          - RESISTIVITY OF MUD CAKE
RMF .OHMM     0                    : RMF          - RESISTIVITY OF MUD FILTRATE
SUFT.C        4                    : SUFT         - SURFACE TEMPERATURE
BTZC.MM       0                    : BITZC        - BIT SIZE CONSTANT
MDW .KG/M     0                    : MDW          - MUD WEIGHT
~A  DEPTH       GR      CAL     PHIN     PHID     RESD
# ...
  334.500  103.279  167.857    0.439    0.211    6.861
  334.750  105.123  165.816    0.444    0.212    6.719
  335.000  106.967  170.918    0.443    0.212    6.179
  335.250  111.270  165.816    0.448    0.213    6.051
  335.500  116.803  166.837    0.476    0.208    5.683
  335.750  116.189  167.857    0.493    0.202    5.803
  336.000  103.279  166.837    0.467    0.168    6.443
  336.250   79.303  168.878    0.349    0.086    9.726
  336.500   81.762  162.755    0.323    0.090    9.525
  336.750   94.057  166.837    0.471    0.193    8.581
  337.000  116.803  162.755    0.466    0.197    8.581
  337.250  117.418  162.755    0.437    0.203    8.230
  337.500  113.115  164.796    0.408    0.207    9.328
  337.750  109.426  165.816    0.372    0.207   10.140
  338.000  113.115  167.857    0.343    0.205   11.493
  338.250  119.877  167.857    0.354    0.200   12.493
  338.500  122.951  167.857    0.388    0.201   13.026
  338.750  113.730  167.857    0.379    0.208   13.867
  339.000  111.270  167.857    0.373    0.213   14.160
  339.250  107.582  167.857    0.379    0.217   14.160
  339.500  126.025  168.878    0.378    0.216   14.458
  339.750  108.197  168.878    0.374    0.213   14.458
  340.000  106.967  168.878    0.377    0.203   14.458
  340.250  104.508  168.878    0.350    0.177   15.075
  340.500  100.820  168.878    0.315    0.137   17.446
  340.750  102.049  171.939    0.329    0.151   17.086
  341.000  106.967  169.898    0.372    0.186   16.387
  341.250  110.656  172.959    0.398    0.205   16.387
  341.500  113.730  170.918    0.409    0.206   13.026
  341.750  113.730  168.878    0.407    0.202   12.235
  342.000  114.959  166.837    0.394    0.202   11.255
  342.250  112.500  165.816    0.374    0.213   11.255
  342.500  104.508  167.857    0.351    0.238   12.399
  342.750   99.590  168.878    0.349    0.264   13.758
  343.000   98.361  168.878    0.354    0.264   14.952
  343.250   99.590  163.776    0.379    0.243   15.266
  343.500  102.049  173.980    0.379    0.208   15.915
  343.750   99.590  173.980    0.236    0.097   15.587
  344.000   86.680  172.959    0.237    0.021   17.660
  344.250   84.836  170.918    0.240    0.151   31.623
  344.500   92.213  168.878    0.316    0.235   28.498
  344.750   99.590  166.837    0.360    0.235   21.744
  345.000  101.434  167.857    0.369    0.235   19.193
  345.250  100.820  167.857    0.378    0.233   15.915
  345.500  102.664  166.837    0.379    0.233   14.644
  345.750  103.893  166.837    0.372    0.232   14.343
  346.000  106.352  169.898    0.353    0.222   14.047
  346.250  107.582  171.939    0.358    0.202   13.475
  346.500  106.352  175.000    0.372    0.195   12.659
  346.750  108.811  173.980    0.372    0.193   11.893
  347.000  116.189  176.020    0.378    0.197   11.893
  347.250  118.033  173.980    0.399    0.196   11.893
  347.500  113.730  175.000    0.412    0.203   11.174
  347.750  108.197  176.020    0.404    0.212   11.893
  348.000  105.738  171.939    0.368    0.210   11.648
  348.250  108.197  169.898    0.363    0.201   12.399
  348.500  109.426  169.898    0.375    0.198   12.659
  348.750  110.041  169.898    0.392    0.193   12.053
  349.000  113.115  168.878    0.408    0.183   11.325
  349.250  116.803  165.816    0.443    0.185   10.865
  349.500  119.262  171.939    0.442    0.157    9.795
  349.750  113.115  177.041    0.402    0.102    9.594
  350.000  100.820  165.816    0.346    0.115   12.053
  350.250  102.049  173.980    0.343    0.161   13.936
  350.500  108.811  167.857    0.365    0.206   13.650
  350.750  110.656  176.020    0.408    0.212   11.563
  351.000  108.811  172.959    0.414    0.216    9.795
  351.250  107.582  171.939    0.410    0.217    8.127
  351.500  103.893  169.898    0.394    0.216    7.480
  351.750  103.279  176.020    0.409    0.221    7.326
  352.000  107.582  172.959    0.448    0.237    6.604
  352.250  112.500  172.959    0.490    0.238    5.831
  352.500  115.574  172.959    0.510    0.227    5.367
  352.750  116.189  172.959    0.496    0.213    5.367
  353.000  111.885  173.980    0.483    0.195    6.206
  353.250  103.279  173.980    0.471    0.168    7.176
  353.500  102.049  171.939    0.331    0.075    8.648
  353.750   99.590  165.816    0.343    0.157    9.015
  354.000   97.131  171.939    0.356    0.166   10.000
  354.250   95.902  171.939    0.367    0.173   10.642
  354.500   94.057  170.918    0.356    0.092   12.053
  354.750   91.598  168.878    0.335    0.087   12.053
  355.000   95.902  172.959    0.351    0.162   11.648
  355.250  106.967  176.020    0.407    0.173   11.409
  355.500  120.492  178.061    0.415    0.197   10.944
  355.750  122.336  179.082    0.424    0.195   10.281
  356.000  121.107  179.082    0.417    0.196    9.862
  356.250  118.033  179.082    0.409    0.203    9.075
  356.500  113.730  176.020    0.379    0.200    9.460
  356.750  110.041  173.980    0.379    0.197   10.070
  357.000  108.197  175.000    0.380    0.190   10.497
  357.250  112.500  172.959    0.374    0.171   10.497
  357.500  113.115  170.918    0.300    0.137   12.143
  357.750  103.893  171.939    0.314    0.119   14.047
  358.000  101.434  171.939    0.339    0.152   16.591
  358.250  103.893  171.939    0.385    0.177   18.797
  358.500  106.967  171.939    0.390    0.191   15.915
  358.750  110.041  170.918    0.387    0.190   14.952
  359.000  109.426  171.939    0.382    0.168   14.644
  359.250  106.352  171.939    0.364    0.123   15.587
  359.500  102.664  169.898    0.291    0.090   19.596
  359.750  103.279  166.837    0.299    0.123   16.940
  360.000  106.352  166.837    0.319    0.187   17.296
  360.250  107.582  166.837    0.338    0.190   18.031
  360.500  107.582  166.837    0.341    0.183   14.952
  360.750  110.656  166.837    0.345    0.183   14.047
  361.000  111.885  166.837    0.345    0.181   13.197
  361.250  107.582  166.837    0.348    0.178   13.197
  361.500  104.508  167.857    0.354    0.171   13.475
  361.750  108.811  167.857    0.360    0.163   13.475
  362.000  113.115  170.918    0.359    0.162   13.758
  362.250  115.574  173.980    0.365    0.170   13.758
  362.500  113.730  173.980    0.369    0.168   13.758
  362.750  122.951  172.959    0.368    0.148   13.758
  363.000  112.500  171.939    0.375    0.133   14.047
  363.250  110.656  171.939    0.378    0.121   14.644
  363.500  107.582  171.939    0.339    0.089   16.591
  363.750  103.279  171.939    0.306    0.066   19.596
  364.000   97.746  171.939    0.289    0.099   25.154
  364.250  100.205  172.959    0.323    0.163   20.858
  364.500  100.820  173.980    0.353    0.178   19.193
  364.750  108.197  175.000    0.350    0.175   16.250
  365.000  113.730  176.020    0.350    0.167   14.343
  365.250  116.189  177.041    0.369    0.172   14.343
  365.500  111.885  175.000    0.377    0.176   14.047
  365.750  105.123  172.959    0.348    0.177   15.587
  366.000  100.820  169.898    0.328    0.161   18.410
  366.250   94.057  163.776    0.252    0.110   23.145
  366.500   81.148  167.857    0.192    0.042   23.632
  366.750   79.303  165.816    0.206    0.069   23.145
  367.000   87.910  169.898    0.257    0.145   21.744
  367.250   98.361  169.898    0.324    0.163   21.297
  367.500  101.434  165.816    0.356    0.147   20.429
  367.750  106.352  167.857    0.324    0.112   20.008
  368.000   94.057  170.918    0.227    0.025   23.145
  368.250   82.992  169.898    0.151   -0.009   37.350
  368.500   75.615  170.918    0.129   -0.022   32.966
  368.750   75.000  167.857    0.133   -0.002   40.591
  369.000   81.148  165.816    0.179    0.060   33.660
  369.250   89.139  165.816    0.256    0.110   24.128
  369.500   95.287  167.857    0.334    0.171   14.644
  369.750   97.746  166.837    0.370    0.181   14.343
  370.000   99.590  167.857    0.380    0.167   14.047
  370.250   99.590  168.878    0.345    0.128   13.758
  370.500   90.369  175.000    0.290    0.072   14.047
  370.750   79.303  172.959    0.212    0.031   13.197
