~VERSION INFORMATION
 VERS.                 2.0:   CWLS LOG ASCII STANDARD -VERSION 2.0
 WRAP.                  NO:   ONE LINE PER DEPTH STEP
~WELL INFORMATION BLOCK
#MNEM.UNIT           DATA                    DESCRIPTION OF MNEMONIC
#---------    -------------------            -------------------------------
# Generated from Intellog Unique Number	CW_70_72/WELL/3750
NULL.         -999.25                        : NULL_VALUE
WELL.         NORCEN ENERGY RESOURCES LTD.   : Well_name    - WELL              
LOC .         00/10-22-071-05W5/0            : Location     - LOCATION          
UWI .         00/10-22-071-05W5/0            : Uwi          - UNIQUE WELL ID    
ENTR.         JOETTE                         : Entered      - ENTERED BY        
SRVC.         COMPUTALOG                     : Scn          - SERVICE COMPANY   
DATE.         05/13/92                       : Date         - LOG DATE          
STRT.M        610                            : top_depth    - START DEPTH       
STOP.M        835                            : bot_depth    - STOP DEPTH        
STEP.M        0.25                           : increment    - STEP LENGTH       
~CURVE INFORMATION BLOCK
#MNEM UNIT       ERCB CURVE CODE    CURVE DESCRIPTION
#-----------   ------------------   ----------------------------------
DEPT.M        00 001 00 00         : DEPTH        - DEPTH                       
DPHI.V/V      00 890 00 00         : PHID         - DENSITY POROSITY (SANDSTONE)
GR  .API      00 310 00 00         : GR           - GAMMA RAY                   
CALI.MM       00 280 01 00         : CAL          - CALIPER                     
ILD .OHMM     00 120 00 00         : RESD         - DEEP RESISTIVITY (DIL)      
NPHI.V/V      00 330 00 00         : PHIN         - NEUTRON POROSITY (SANDSTONE)
~PARAMETER INFORMATION       
#MNEM.UNIT           DATA             DESCRIPTION OF MNEMONIC
#---------         -----------     ------------------------------
GL  .M        778.85               : gl           - GROUND LEVEL ELEVATION      
EREF.M        782.2                : kb           - ELEVATION OF DEPTH REFERENCE
DATM.M        782.2                : datum        - DATUM ELEVATION             
TDD .M        874.9                : tdd          - TOTAL DEPTH DRILLER         
RUN .         ONE                  : Run          - RUN NUMBER                  
ENG .         BILL                 : Engineer     - RECORDING ENGINEER          
WIT .         JIM                  : Witness      - WITNESSED BY                
MUD .         GEL                  : Mud_type     - MUD TYPE                    
MATR.         SANDSTONE            : Logunit      - NEUTRON MATRIX              
TMAX.C        39                   : BHT          - MAXIMUM RECORDED TEMPERATURE
BHTD.M        874.9                : BHTDEP       - MAXIMUM RECORDED TEMPERATURE
MATR.         1                    : LOGUNIT      - NEUTRON MATRIX              
RMT .C        24.4                 : MDTP         - TEMPERATURE OF MUD          
NEUT.         1                    : NEUTRON      - NEUTRON TYPE                
RESI.         0                    : RESIST       - RESISTIVITY TYPE            
RMC .OHMM     2.7                  : RMC          - RESISTIVITY OF MUD CAKE     
RMF .OHMM     4.4                  : RMF          - RESISTIVITY OF MUD FILTRATE 
SUFT.C        15                   : SUFT         - SURFACE TEMPERATURE         
~A  DEPTH     PHID       GR      CAL     RESD     PHIN
# ...
  683.000    0.294   48.617  190.208    2.711    0.375
  683.250    0.286   49.912  190.283    2.661    0.361
  683.500    0.285   49.956  190.395    2.663    0.345
  683.750    0.285   48.110  190.469    2.664    0.349
  684.000    0.285   43.740  190.525    2.717    0.351
  684.250    0.282   46.938  190.600    2.719    0.354
  684.500    0.281   49.494  189.624    2.721    0.362
  684.750    0.278   54.583  189.698    2.723    0.355
  685.000    0.269   55.258  189.773    2.724    0.346
  685.250    0.270   51.520  189.847    2.725    0.348
  685.500    0.282   45.889  189.959    2.727    0.334
  685.750    0.279   42.162  189.997    2.677    0.325
  686.000    0.281   44.740  190.127    2.628    0.331
  686.250    0.285   45.393  189.114    2.532    0.345
  686.500    0.282   46.080  188.137    2.438    0.365
  686.750    0.282   43.602  188.193    2.394    0.381
  687.000    0.289   41.114  189.356    2.350    0.378
  687.250    0.287   40.528  189.393    2.397    0.358
  687.500    0.273   43.106  190.519    2.491    0.337
  687.750    0.261   46.934  191.682    2.640    0.354
  688.000    0.251   53.915  191.738    2.851    0.378
  688.250    0.256   62.157  191.812    3.139    0.393
  688.500    0.266   77.347  191.887    3.456    0.388
  688.750    0.277   79.925  191.980    3.732    0.390
  689.000    0.285   68.608  192.073    4.189    0.402
  689.250    0.279   66.761  192.111    4.612    0.408
  689.500    0.260   68.698  192.185    4.982    0.400
  689.750    0.238   73.157  193.311    5.080    0.375
  690.000    0.226   78.888  193.404    5.181    0.363
  690.250    0.235   80.194  194.530    5.185    0.379
  690.500    0.252   77.716  192.521    5.090    0.391
  690.750    0.264   73.336  191.526    5.292    0.380
  691.000    0.247   66.444  190.531    5.608    0.363
  691.250    0.220   57.661  189.573    5.718    0.349
  691.500    0.209   52.042  188.578    6.060    0.342
  691.750    0.198   51.467  192.875    6.181    0.342
  692.000    0.193   52.751  192.950    6.304    0.348
  692.250    0.183   54.068  191.974    6.428    0.371
  692.500    0.160   52.221  189.946    6.945    0.308
  692.750    0.081   48.482  194.225    7.219    0.203
  693.000    0.045   45.374  200.624    8.260    0.169
  693.250   -0.004   47.300  203.851    8.750    0.146
  693.500   -0.056   48.605  204.977    9.633    0.132
  693.750   -0.086   48.020  205.051   11.021    0.124
  694.000   -0.103   46.173  204.056   11.902    0.127
  694.250   -0.097   44.326  202.029   12.611    0.130
  694.500   -0.092   42.490  197.918   13.623    0.130
  694.750   -0.088   42.535  195.891   14.436    0.124
  695.000   -0.086   40.688  195.966   15.295    0.115
  695.250   -0.094   39.471  194.989   16.841    0.113
  695.500   -0.110   38.886  194.013   18.193    0.112
  695.750   -0.114   41.453  194.106   18.910    0.111
  696.000   -0.108   42.758  193.093   18.922    0.106
  696.250   -0.091   42.173  192.135   17.878    0.100
  696.500    0.011   41.609  193.261   15.355    0.101
  696.750    0.072   41.632  195.437   13.439    0.110
  697.000    0.121   42.329  195.512   11.108    0.161
  697.250    0.162   43.613  191.382    9.539    0.296
  697.500    0.190   48.072  189.355    8.349    0.325
  697.750    0.226   52.530  189.448    7.308    0.351
  698.000    0.235   54.467  190.555    6.646    0.355
  698.250    0.228   52.620  192.732    6.280    0.365
  698.500    0.228   50.142  195.978    6.286    0.384
  698.750    0.234   52.709  198.136    6.410    0.380
  699.000    0.241   55.929  198.210    6.414    0.365
  699.250    0.242   56.616  197.253    6.540    0.358
  699.500    0.240   56.638  196.258    6.545    0.364
  699.750    0.235   55.444  195.300    6.549    0.366
  700.000    0.232   55.478  194.305    6.552    0.382
  700.250    0.229   55.534  194.398    6.683    0.391
  700.500    0.228   55.556  195.542    6.687    0.396
  700.750    0.230   54.970  195.598    6.564    0.393
  701.000    0.234   56.907  196.743    6.444    0.393
  701.250    0.236   62.638  196.799    6.207    0.393
  701.500    0.242   63.302  196.892    5.865    0.392
  701.750    0.250   62.739  196.966    5.648    0.384
  702.000    0.259   59.619  197.041    5.236    0.370
  702.250    0.273   55.870  197.116    4.762    0.370
  702.500    0.285   54.653  197.172    4.248    0.380
  702.750    0.299   57.220  196.195    3.791    0.391
  703.000    0.291   62.321  196.270    3.650    0.396
  703.250    0.264   67.410  196.344    3.869    0.395
  703.500    0.246   71.869  196.419    4.178    0.398
  703.750    0.219   69.391  195.443    4.180    0.383
  704.000    0.204   73.231  195.555    3.950    0.361
  704.250    0.213   77.678  195.629    3.592    0.367
  704.500    0.227   79.006  196.736    3.144    0.390
  704.750    0.260   77.790  196.829    3.086    0.410
  705.000    0.268   74.671  197.936    3.398    0.409
  705.250    0.243   71.551  201.201    3.741    0.394
  705.500    0.220   67.824  201.257    3.603    0.396
  705.750    0.227   76.066  202.364    3.154    0.407
  706.000    0.224   81.786  202.476    2.324    0.405
  706.250    0.202   81.200  202.513    1.958    0.407
  706.500    0.184   81.245  202.606    1.588    0.413
  706.750    0.181   85.715  202.681    1.501    0.416
  707.000    0.183   88.901  201.686    1.590    0.411
  707.250    0.185   89.577  201.779    1.818    0.402
  707.500    0.187   84.588  201.779    2.991    0.402
  707.750    0.186   81.469  199.864    3.231    0.403
  708.000    0.184   84.058  201.984    3.557    0.408
  708.250    0.181   86.006  201.045    3.697    0.413
  708.500    0.180   85.398  201.083    3.494    0.413
  708.750    0.181   84.181  201.176    3.301    0.399
  709.000    0.187   81.073  201.250    2.946    0.379
  709.250    0.198   77.335  200.274    2.783    0.391
  709.500    0.209   76.129  200.367    2.483    0.406
  709.750    0.226   76.805  198.359    2.346    0.420
  710.000    0.244   76.838  197.345    2.133    0.426
  710.250    0.278   75.622  194.267    2.095    0.416
  710.500    0.299   72.514  194.341    2.306    0.448
  710.750    0.337   64.361  195.504    2.637    0.467
  711.000    0.439   60.611  196.592    3.319    0.459
  711.250    0.373   63.820  196.686    3.725    0.408
  711.500    0.321   61.984  195.709    3.948    0.404
  711.750    0.306   62.648  194.714    3.875    0.412
  712.000    0.307   64.585  193.757    3.804    0.405
  712.250    0.314   63.369  192.780    3.734    0.394
  712.500    0.313   59.630  192.874    3.883    0.384
  712.750    0.309   55.903  192.911    3.884    0.374
  713.000    0.304   54.044  193.004    4.038    0.384
  713.250    0.293   54.089  193.079    4.279    0.395
  713.500    0.283   57.951  193.135    4.535    0.387
  713.750    0.279   57.973  193.265    4.804    0.381
  714.000    0.279   58.007  193.321    5.091    0.377
  714.250    0.279   58.063  193.377    5.396    0.388
  714.500    0.276   58.096  190.299    5.503    0.396
  714.750    0.269   58.783  189.323    5.613    0.400
  715.000    0.261   58.816  189.434    5.616    0.398
  715.250    0.253   53.828  189.490    5.619    0.390
  715.500    0.241   51.981  189.546    5.412    0.381
  715.750    0.240   50.765  189.658    5.017    0.376
  716.000    0.248   50.168  189.714    4.564    0.371
  716.250    0.266   49.582  189.807    4.311    0.379
  716.500    0.279   52.149  190.896    4.152    0.390
  716.750    0.286   58.522  190.970    3.923    0.387
  717.000    0.283   63.600  190.050    3.778    0.377
  717.250    0.280   62.383  190.069    3.638    0.371
  717.500    0.282   59.906  189.092    3.504    0.366
  717.750    0.285   60.592  189.167    3.440    0.368
  718.000    0.287   62.518  189.241    3.377    0.378
  718.250    0.291   63.835  189.353    3.379    0.390
  718.500    0.297   63.868  189.409    3.381    0.384
  718.750    0.289   60.760  189.484    3.383    0.367
  719.000    0.282   58.283  189.559    3.385    0.355
  719.250    0.277   57.078  189.652    3.453    0.344
