~VERSION INFORMATION
 VERS.                 2.0:   CWLS LOG ASCII STANDARD -VERSION 2.0
 WRAP.                  NO:   ONE LINE PER DEPTH STEP
~WELL INFORMATION BLOCK
#MNEM.UNIT           DATA                    DESCRIPTION OF MNEMONIC
#---------    -------------------            -------------------------------
# Generated from Intellog Unique Number	CS_67_68/WELL/2198
WELL.         10-29-067-08W4                 : Well_name    - WELL
LOC .         00/10-29-067-08W4/0            : Location     - LOCATION
UWI .         00/10-29-067-08W4/0            : Uwi          - UNIQUE WELL ID
ENTR.         SP                             : Entered      - ENTERED BY
SRVC.         SCHLUMBERGER                   : Scn          - SERVICE COMPANY
STRT.M        330                            : top_depth    - START DEPTH
STOP.M        555                            : bot_depth    - STOP DEPTH
STEP.M        0.25                           : increment    - STEP LENGTH
 NULL. -999.2500:NULL Value
~CURVE INFORMATION BLOCK
#MNEM UNIT       ERCB CURVE CODE    CURVE DESCRIPTION
#-----------   ------------------   ----------------------------------
DEPT.M        00 001 00 00         : DEPTH        - DEPTH
ILD .OHMM     00 120 00 00         : RESD         - DEEP RESISTIVITY (DIL)
DPHI.V/V      00 890 00 00         : PHID         - DENSITY POROSITY (LIMESTONE)
NPHI.V/V      00 330 00 00         : PHIN         - NEUTRON POROSITY (LIMESTONE)
GR  .API      00 310 00 00         : GR           - GAMMA RAY
CALI.MM       00 280 01 00         : CAL          - CALIPER
~PARAMETER INFORMATION
#MNEM.UNIT           DATA             DESCRIPTION OF MNEMONIC
#---------         -----------     ------------------------------
GL  .M        639.4                : gl           - GROUND LEVEL ELEVATION
EREF.M        643.6                : kb           - ELEVATION OF DEPTH REFERENCE
DATM.M        643.6                : datum        - DATUM ELEVATION
TDD .M        560                  : tdd          - TOTAL DEPTH DRILLER
RUN .         ONE                  : Run          - RUN NUMBER
ENG .         BILL                 : Engineer     - RECORDING ENGINEER
WIT .         JIM                  : Witness      - WITNESSED BY
MUD .         GEL                  : Mud_type     - MUD TYPE
MATR.         LIMESTONE            : Logunit      - NEUTRON MATRIX
TMAX.C        23                   : BHT          - MAXIMUM RECORDED TEMPERATURE
BHTD.M        560.2                : BHTDEP       - MAXIMUM RECORDED TEMPERATURE
MATR.         1                    : LOGUNIT      - NEUTRON MATRIX
RMT .C        25                   : MDTP         - TEMPERATURE OF MUD
NEUT.         1                    : NEUTRON      - NEUTRON TYPE
RESI.         0                    : RESIST       - RESISTIVITY TYPE
RMC .OHMM     0.25                 : RMC          - RESISTIVITY OF MUD CAKE
RMF .OHMM     0.25                 : RMF          - RESISTIVITY OF MUD FILTRATE
SUFT.C        15                   : SUFT         - SURFACE TEMPERATURE
~A  DEPTH     RESD     PHID     PHIN       GR      CAL
# ...
  439.500    6.038    0.022    0.112   62.260  169.126
  439.750    5.524    0.051    0.319   68.068  169.093
  440.000    5.160    0.222    0.352   74.249  168.651
  440.250    4.783    0.267    0.379   78.712  167.696
  440.500    4.326    0.295    0.401   81.886  167.558
  440.750    3.861    0.303    0.317   83.155  167.733
  441.000    3.420    0.290    0.292   85.344  168.725
  441.250    3.165    0.273    0.296   86.921  170.124
  441.500    3.111    0.261    0.313   88.497  171.112
  441.750    3.070    0.266    0.295   85.779  171.084
  442.000    2.962    0.276    0.273   82.382  169.207
  442.250    2.455    0.258    0.299   84.323  167.638
  442.500    1.834    0.238    0.319   87.191  167.505
  442.750    1.417    0.224    0.322   91.531  167.567
  443.000    1.116    0.218    0.311   96.913  167.948
  443.250    1.091    0.216    0.331   98.061  168.433
  443.500    1.256    0.214    0.352   99.636  168.912
  443.750    1.550    0.214    0.342  101.332  169.394
  444.000    1.793    0.218    0.370  102.973  169.767
  444.250    2.159    0.229    0.387  104.672  169.939
  444.500    2.465    0.237    0.398  105.390  169.903
  444.750    2.716    0.240    0.402  104.326  169.878
  445.000    2.935    0.234    0.406  102.219  169.842
  445.250    3.078    0.237    0.411  100.174  170.114
  445.500    3.197    0.239    0.418   98.132  170.290
  445.750    3.295    0.237    0.361   97.007  170.153
  446.000    3.371    0.234    0.315   96.988  170.122
  446.250    3.442    0.232    0.322   96.660  170.093
  446.500    3.542    0.235    0.338   93.755  169.958
  446.750    3.630    0.237    0.375   92.816  168.903
  447.000    3.721    0.237    0.396   93.594  168.461
  447.250    3.721    0.231    0.345   94.066  168.223
  447.500    3.707    0.226    0.322   93.494  168.090
  447.750    3.693    0.226    0.366   93.168  168.669
  448.000    3.686    0.230    0.393   95.173  169.250
  448.250    3.757    0.226    0.358   97.181  170.336
  448.500    3.736    0.223    0.334   95.382  170.926
  448.750    3.638    0.221    0.319   94.502  171.607
  449.000    3.470    0.223    0.333   96.078  172.291
  449.250    3.192    0.230    0.347   98.267  174.407
  449.500    2.893    0.245    0.354   99.783  176.935
  449.750    2.510    0.254    0.363  100.624  179.556
  450.000    2.248    0.258    0.352  100.175  181.268
  450.250    2.092    0.253    0.349   99.049  182.563
  450.500    1.992    0.247    0.345  100.197  183.760
  450.750    1.885    0.258    0.338  106.255  185.258
  451.000    1.805    0.271    0.333  112.371  185.946
  451.250    1.764    0.282    0.340  114.072  186.321
  451.500    1.738    0.273    0.354  111.347  186.290
  451.750    1.741    0.264    0.364  109.490  184.821
  452.000    1.785    0.261    0.362  107.262  184.077
  452.250    1.907    0.262    0.359  104.666  183.329
  452.500    2.011    0.259    0.359  102.682  182.568
  452.750    2.061    0.262    0.371  104.319  182.236
  453.000    2.109    0.267    0.365  106.142  181.494
  453.250    2.207    0.270    0.388  106.429  180.234
  453.500    2.454    0.270    0.419  102.112  177.233
  453.750    2.803    0.261    0.391  100.925  173.927
  454.000    3.225    0.255    0.369  104.404  171.953
  454.250    3.689    0.250    0.368  106.718  169.765
  454.500    4.261    0.257    0.359  106.269  169.324
  454.750    4.829    0.098    0.319  100.665  169.709
  455.000    5.249    0.040    0.279   83.641  169.669
  455.250    5.473    0.019    0.254   78.346  169.846
  455.500    5.567    0.019    0.230   73.293  169.500
  455.750    5.411    0.100    0.285   71.922  169.268
  456.000    5.074    0.134    0.339   78.225  168.926
  456.250    4.494    0.156    0.349   86.551  169.204
  456.500    4.410    0.175    0.353   92.427  169.477
  456.750    4.461    0.184    0.341   93.390  169.858
  457.000    4.512    0.169    0.330   92.879  170.430
  457.250    4.529    0.187    0.319   93.842  170.816
  457.500    4.529    0.202    0.320   95.535  170.988
  457.750    4.487    0.197    0.322   96.316  171.775
  458.000    4.487    0.185    0.331   96.728  172.661
  458.250    4.478    0.191    0.340   96.710  173.138
  458.500    4.462    0.195    0.344   96.077  172.290
  458.750    4.453    0.190    0.350   95.320  171.543
  459.000    4.453    0.175    0.339   93.581  171.715
  459.250    4.437    0.159    0.331   92.516  173.218
  459.500    4.354    0.182    0.338   92.560  176.147
  459.750    4.216    0.200    0.348   94.137  177.858
  460.000    4.074    0.209    0.339   95.960  178.541
  460.250    3.983    0.208    0.335   97.230  177.791
  460.500    3.931    0.209    0.339   93.834  178.170
  460.750    3.879    0.211    0.338   90.929  176.193
  461.000    3.901    0.213    0.333   89.500  173.605
  461.250    3.976    0.216    0.335   88.249  171.826
  461.500    3.991    0.227    0.338   88.540  171.289
  461.750    4.052    0.234    0.340   90.853  173.098
  462.000    4.169    0.227    0.334   92.921  176.850
  462.250    4.506    0.220    0.326   93.083  179.068
  462.500    4.843    0.226    0.316   91.529  175.967
  462.750    5.345    0.237    0.307   89.118  171.124
  463.000    5.832    0.163    0.292   86.336  169.149
  463.250    6.339    0.125    0.214   82.817  168.912
  463.500    6.522    0.111    0.236   73.837  168.979
  463.750    6.352    0.149    0.263   69.029  169.049
  464.000    6.092    0.180    0.299   72.448  169.122
  464.250    5.510    0.216    0.318   74.945  169.292
  464.500    5.216    0.235    0.331   76.029  169.157
  464.750    4.965    0.232    0.311   77.605  168.610
  465.000    4.882    0.234    0.320   79.122  168.070
  465.250    4.863    0.240    0.321   80.821  167.731
  465.500    4.882    0.245    0.335   81.907  167.497
  465.750    5.013    0.253    0.333   80.783  167.565
  466.000    5.148    0.268    0.314   77.080  167.939
  466.250    5.419    0.287    0.295   71.291  168.007
  466.500    5.693    0.312    0.275   70.228  167.975
  466.750    5.868    0.312    0.262   74.075  168.052
  467.000    5.358    0.288    0.350   78.660  167.916
  467.250    4.710    0.287    0.369   77.719  168.085
  467.500    4.375    0.292    0.348   75.123  168.055
  467.750    4.326    0.100    0.325   71.726  168.228
  468.000    4.450    0.064    0.291   69.620  168.401
  468.250    4.702    0.040    0.269   70.275  168.467
  468.500    4.949    0.044    0.270   72.834  169.047
  468.750    5.121    0.226    0.310   76.804  170.042
  469.000    5.219    0.249    0.348   81.267  171.749
  469.250    4.793    0.258    0.348   89.104  173.252
  469.500    4.343    0.244    0.329   97.862  171.886
  469.750    3.891    0.240    0.355   91.090  171.448
  470.000    2.890    0.236    0.366   91.071  171.620
  470.250    2.302    0.231    0.341   95.347  176.292
  470.500    1.941    0.224    0.345   97.599  181.172
  470.750    1.640    0.247    0.385   94.205  185.946
  471.000    1.532    0.280    0.388   87.371  184.074
  471.250    1.478    0.294    0.363   86.432  179.641
  471.500    1.461    0.292    0.346   86.044  176.337
  471.750    1.458    0.293    0.350   85.778  174.050
  472.000    1.475    0.295    0.352   83.612  175.146
  472.250    1.518    0.302    0.345   84.326  179.199
  472.500    1.576    0.295    0.363   84.984  181.629
  472.750    1.631    0.291    0.373   84.960  183.950
  473.000    1.688    0.291    0.360   84.639  183.917
  473.250    1.756    0.288    0.352   83.576  179.585
  473.500    1.835    0.285    0.358   83.860  176.486
  473.750    1.906    0.260    0.368   85.434  173.486
  474.000    1.983    0.273    0.358   86.707  170.890
  474.250    2.056    0.278    0.363   87.794  169.428
  474.500    2.123    0.222    0.369   87.959  168.786
  474.750    2.168    0.124    0.350   81.188  168.854
  475.000    2.214    0.110    0.339   73.926  169.642
  475.250    2.160    0.240    0.328   82.745  171.755
  475.500    2.044    0.258    0.321   89.784  174.587
  475.750    1.867    0.253    0.320   97.682  177.013
