~VERSION INFORMATION
 VERS.                 2.0:   CWLS LOG ASCII STANDARD -VERSION 2.0
 WRAP.                  NO:   ONE LINE PER DEPTH STEP
~WELL INFORMATION BLOCK
#MNEM.UNIT           DATA                    DESCRIPTION OF MNEMONIC
#---------    -------------------            -------------------------------
# Generated from Intellog Unique Number	CS_67_68/WELL/2206
WELL.         DOME CAVALIER GRASSLAND        : Well_name    - WELL
LOC .         00/11-10-067-18W4/0            : Location     - LOCATION
UWI .         00/11-10-067-18W4/0            : Uwi          - UNIQUE WELL ID
ENTR.         SUSAN                          : Entered      - ENTERED BY
SRVC.         SCHLUMBERGER                   : Scn          - SERVICE COMPANY
STRT.M        375                            : top_depth    - START DEPTH
STOP.M        571                            : bot_depth    - STOP DEPTH
STEP.M        0.25                           : increment    - STEP LENGTH
 NULL. -999.2500:NULL Value
~CURVE INFORMATION BLOCK
#MNEM UNIT       ERCB CURVE CODE    CURVE DESCRIPTION
#-----------   ------------------   ----------------------------------
DEPT.M        00 001 00 00         : DEPTH        - DEPTH
ILD .OHMM     00 120 00 00         : RESD         - DEEP RESISTIVITY (DIL)
DPHI.V/V      00 890 00 00         : PHID         - DENSITY POROSITY (LIMESTONE)
NPHI.V/V      00 330 00 00         : PHIN         - NEUTRON POROSITY (LIMESTONE)
GR  .API      00 310 00 00         : GR           - GAMMA RAY
CALI.MM       00 280 01 00         : CAL          - CALIPER
~PARAMETER INFORMATION
#MNEM.UNIT           DATA             DESCRIPTION OF MNEMONIC
#---------         -----------     ------------------------------
GL  .M        598.39               : gl           - GROUND LEVEL ELEVATION
EREF.M        602                  : kb           - ELEVATION OF DEPTH REFERENCE
DATM.M        602                  : datum        - DATUM ELEVATION
TDD .M        574                  : tdd          - TOTAL DEPTH DRILLER
RUN .         ONE                  : Run          - RUN NUMBER
ENG .         BILL                 : Engineer     - RECORDING ENGINEER
WIT .         JIM                  : Witness      - WITNESSED BY
MUD .         GEL                  : Mud_type     - MUD TYPE
MATR.         LIMESTONE            : Logunit      - NEUTRON MATRIX
TMAX.C        24                   : BHT          - MAXIMUM RECORDED TEMPERATURE
BHTD.M        573                  : BHTDEP       - MAXIMUM RECORDED TEMPERATURE
MATR.         1                    : LOGUNIT      - NEUTRON MATRIX
RMT .C        25                   : MDTP         - TEMPERATURE OF MUD
NEUT.         1                    : NEUTRON      - NEUTRON TYPE
RESI.         0                    : RESIST       - RESISTIVITY TYPE
RMC .OHMM     0.25                 : RMC          - RESISTIVITY OF MUD CAKE
RMF .OHMM     0.25                 : RMF          - RESISTIVITY OF MUD FILTRATE
SUFT.C        15                   : SUFT         - SURFACE TEMPERATURE
~A  DEPTH     RESD     PHID     PHIN       GR      CAL
# ...
  484.500    5.705    0.225    0.259   65.298  177.189
  484.750    4.506    0.204    0.280   69.305  177.699
  485.000    3.545    0.160    0.260   72.016  180.265
  485.250    3.033    0.138    0.248   74.850  182.934
  485.500    2.971    0.138    0.255   76.267  185.705
  485.750    3.293    0.138    0.262   76.943  187.140
  486.000    3.931    0.125    0.248   78.483  187.856
  486.250    4.747    0.115    0.235   77.308  187.440
  486.500    5.415    0.106    0.223   74.962  186.511
  486.750    6.152    0.130    0.264   77.427  185.582
  487.000    6.283    0.179    0.293   81.310  184.962
  487.250    5.521    0.196    0.314   86.242  184.546
  487.500    4.538    0.195    0.328   90.187  183.925
  487.750    3.824    0.192    0.338   93.022  184.744
  488.000    3.204    0.199    0.347   91.107  186.075
  488.250    2.952    0.206    0.338   92.153  186.997
  488.500    2.859    0.210    0.333   95.790  188.020
  488.750    2.909    0.212    0.328   99.179  188.531
  489.000    3.010    0.211    0.325  100.040  188.630
  489.250    3.092    0.206    0.323   97.633  187.906
  489.500    3.164    0.204    0.322   96.952  188.622
  489.750    3.256    0.205    0.330  103.425  190.056
  490.000    3.396    0.198    0.342  107.432  190.874
  490.250    3.610    0.191    0.355  110.884  191.488
  490.500    3.757    0.184    0.364  111.375  191.277
  490.750    3.926    0.179    0.351  109.213  191.171
  491.000    4.025    0.186    0.337  106.744  190.756
  491.250    4.126    0.189    0.328  103.781  190.752
  491.500    4.182    0.185    0.324  102.236  190.748
  491.750    4.247    0.179    0.330  100.569  190.024
  492.000    4.304    0.173    0.335   99.086  188.992
  492.250    4.289    0.170    0.337   98.035  188.679
  492.500    4.192    0.178    0.341   97.786  188.470
  492.750    4.075    0.188    0.349   98.339  188.157
  493.000    3.946    0.194    0.355   98.583  188.256
  493.250    3.820    0.189    0.347  100.431  188.869
  493.500    3.763    0.180    0.343  103.944  189.379
  493.750    3.735    0.174    0.342  106.039  189.581
  494.000    3.764    0.169    0.339  103.322  190.090
  494.250    3.786    0.169    0.334  101.100  190.395
  494.500    3.845    0.174    0.344  102.207  190.493
  494.750    3.875    0.172    0.354  103.439  190.386
  495.000    3.897    0.168    0.364  104.423  190.690
  495.250    3.935    0.164    0.361  103.804  191.098
  495.500    3.973    0.160    0.360  103.431  191.402
  495.750    4.012    0.157    0.364  104.539  192.734
  496.000    4.028    0.154    0.364  105.585  193.758
  496.250    3.937    0.161    0.350  105.521  194.680
  496.500    3.819    0.182    0.343  105.950  195.497
  496.750    3.506    0.205    0.350  109.217  195.596
  497.000    3.250    0.216    0.361  111.188  195.695
  497.250    2.989    0.220    0.366  111.864  195.793
  497.500    2.754    0.209    0.368  112.232  195.790
  497.750    2.582    0.202    0.384  109.947  195.785
  498.000    2.416    0.203    0.386  110.561  195.576
  498.250    2.344    0.205    0.372  114.075  195.161
  498.500    2.335    0.205    0.374  117.156  194.335
  498.750    2.335    0.208    0.389  119.559  193.714
  499.000    2.367    0.212    0.397  116.719  192.784
  499.250    2.473    0.218    0.382  111.536  191.958
  499.500    2.594    0.201    0.360  108.326  191.543
  499.750    2.779    0.172    0.354  106.720  191.333
  500.000    2.999    0.150    0.352  102.894  190.815
  500.250    3.249    0.152    0.353   99.931  190.297
  500.500    3.447    0.162    0.349   99.805  190.293
  500.750    3.534    0.165    0.344   98.323  190.392
  501.000    3.534    0.170    0.352   97.210  190.593
  501.250    3.435    0.174    0.354  100.908  190.999
  501.500    3.282    0.177    0.344  104.791  191.202
  501.750    3.178    0.178    0.338  108.983  191.609
  502.000    3.196    0.177    0.334  112.064  192.119
  502.250    3.277    0.175    0.334  111.383  192.835
  502.500    3.353    0.171    0.342  109.654  192.831
  502.750    3.457    0.166    0.362  110.083  191.285
  503.000    3.538    0.160    0.360  110.575  189.121
  503.250    3.753    0.153    0.341  110.078  187.781
  503.500    3.914    0.147    0.343  109.583  186.338
  503.750    4.121    0.149    0.332  109.149  185.820
  504.000    4.348    0.165    0.318  101.806  185.199
  504.250    4.613    0.179    0.307   95.698  184.784
  504.500    4.959    0.197    0.300   94.215  184.882
  504.750    5.162    0.203    0.298   95.508  184.775
  505.000    5.302    0.200    0.305   92.607  185.389
  505.250    5.283    0.196    0.314   93.961  186.001
  505.500    5.077    0.194    0.323   99.016  186.409
  505.750    4.678    0.190    0.330  103.146  186.199
  506.000    4.238    0.185    0.331  105.488  186.092
  506.250    3.861    0.180    0.337  102.895  185.677
  506.500    3.788    0.172    0.344  100.734  185.364
  506.750    4.042    0.159    0.308  100.608  185.155
  507.000    4.346    0.142    0.269  100.297  184.945
  507.250    4.708    0.136    0.258   94.189  185.146
  507.500    5.209    0.170    0.269   85.859  185.451
  507.750    5.474    0.179    0.281   90.730  185.652
  508.000    5.623    0.177    0.298  100.102  185.751
  508.250    5.211    0.168    0.310  101.395  185.952
  508.500    4.876    0.157    0.320   96.273  186.051
  508.750    4.527    0.175    0.329   93.619  186.047
  509.000    4.228    0.185    0.323   98.427  186.043
  509.250    4.055    0.192    0.318  101.817  185.730
  509.500    4.002    0.196    0.315  103.357  185.932
  509.750    3.965    0.192    0.322  103.169  185.928
  510.000    3.824    0.189    0.327  104.276  186.026
  510.250    3.640    0.192    0.329  105.199  186.022
  510.500    3.585    0.189    0.328  106.677  185.916
  510.750    3.593    0.180    0.325  105.811  185.500
  511.000    3.627    0.170    0.321  100.504  185.600
  511.250    3.762    0.163    0.319   96.555  184.362
  511.500    3.901    0.159    0.333   95.442  182.508
  511.750    4.037    0.151    0.344   95.871  180.960
  512.000    4.259    0.137    0.312   96.301  180.032
  512.250    4.425    0.119    0.290   93.831  179.823
  512.500    4.606    0.122    0.293   86.181  179.407
  512.750    4.651    0.134    0.302   85.500  179.814
  513.000    4.651    0.161    0.314   93.207  180.016
  513.250    4.419    0.192    0.311   99.619  180.115
  513.500    4.103    0.203    0.308  104.428  180.727
  513.750    3.876    0.200    0.310  106.831  181.237
  514.000    3.869    0.191    0.304  109.357  181.747
  514.250    3.989    0.182    0.308  110.588  182.051
  514.500    4.168    0.171    0.322  111.326  182.664
  514.750    4.339    0.159    0.319  113.174  183.071
  515.000    4.508    0.147    0.310  114.837  183.375
  515.250    4.648    0.138    0.311  115.451  183.474
  515.500    4.711    0.131    0.319  113.228  184.189
  515.750    4.684    0.166    0.343  107.736  184.494
  516.000    4.038    0.194    0.362  103.231  184.593
  516.250    3.220    0.220    0.377   98.110  184.897
  516.500    2.776    0.229    0.387  102.671  184.996
  516.750    2.421    0.233    0.398  108.466  184.581
  517.000    2.139    0.232    0.403  111.487  184.063
  517.250    1.956    0.233    0.389  114.568  183.647
  517.500    1.942    0.236    0.410  117.156  184.569
  517.750    2.056    0.237    0.421  115.303  185.284
  518.000    2.431    0.225    0.385  111.230  185.589
  518.250    3.016    0.205    0.362  107.280  186.098
  518.500    3.532    0.174    0.347  103.700  186.403
  518.750    4.114    0.139    0.334   99.318  186.502
  519.000    4.440    0.122    0.337   95.986  186.806
  519.250    4.774    0.115    0.336   92.776  187.213
  519.500    5.074    0.139    0.331   89.875  187.106
  519.750    5.292    0.151    0.323   87.837  187.411
  520.000    5.498    0.160    0.313   93.817  187.612
  520.250    5.637    0.139    0.300   99.366  187.814
  520.500    5.542    0.117    0.288   89.927  187.912
  520.750    5.225    0.103    0.281   85.052  187.805
