~VERSION INFORMATION
 VERS.                 2.0:   CWLS LOG ASCII STANDARD -VERSION 2.0
 WRAP.                  NO:   ONE LINE PER DEPTH STEP
~WELL INFORMATION BLOCK
#MNEM.UNIT           DATA                    DESCRIPTION OF MNEMONIC
#---------    -------------------            -------------------------------
# Generated from Intellog Unique Number	CW_76_78/WELL/1032
WELL.         CHIEFCO MCMULLEN               : Well_name    - WELL
LOC .         00/11-34-077-25W4/0            : Location     - LOCATION
UWI .         00/11-34-077-25W4/0            : Uwi          - UNIQUE WELL ID
ENTR.         JAYE                           : Entered      - ENTERED BY
SRVC.         WESTERN ATLAS                  : Scn          - SERVICE COMPANY
DATE.         27 FEB 75                      : Date         - LOG DATE
STRT.M        423.672                        : top_depth    - START DEPTH
STOP.M        603.422                        : bot_depth    - STOP DEPTH
STEP.M        0.25                           : increment    - STEP LENGTH
 NULL. -999.2500:NULL Value
~CURVE INFORMATION BLOCK
#MNEM UNIT       ERCB CURVE CODE    CURVE DESCRIPTION
#-----------   ------------------   ----------------------------------
DEPT.M        00 001 00 00         : DEPTH        - DEPTH
DPHI.V/V      00 890 00 00         : PHID         - DENSITY POROSITY (SANDSTONE)
NPHI.V/V      00 330 00 00         : PHIN         - NEUTRON POROSITY (SANDSTONE)
GR  .API      00 310 00 00         : GR           - GAMMA RAY
CALI.MM       00 280 01 00         : CAL          - CALIPER
ILD .OHMM     00 120 00 00         : RESD         - DEEP RESISTIVITY (DIL)
~PARAMETER INFORMATION
#MNEM.UNIT           DATA             DESCRIPTION OF MNEMONIC
#---------         -----------     ------------------------------
GL  .M        638.251              : gl           - GROUND LEVEL ELEVATION
EREF.M        641.604              : kb           - ELEVATION OF DEPTH REFERENCE
DATM.M        638.251              : datum        - DATUM ELEVATION
TDD .M        608.076              : tdd          - TOTAL DEPTH DRILLER
RUN .         ONE                  : Run          - RUN NUMBER
ENG .         CLARK                : Engineer     - RECORDING ENGINEER
WIT .         GARDENER             : Witness      - WITNESSED BY
BASE.         V.V.                 : Branch       - HOME BASE OF LOGGING UNIT
MUD .         GEL CHEM             : Mud_type     - MUD TYPE
MATR.         SANDSTONE            : Logunit      - NEUTRON MATRIX
TMAX.C        26.1111              : BHT          - MAXIMUM RECORDED TEMPERATURE
BHTD.M        608.076              : BHTDEP       - MAXIMUM RECORDED TEMPERATURE
RMT .C        18.3333              : MDTP         - TEMPERATURE OF MUD
MUDD.KG/M     1140                 : MWT          - MUD DENSITY
NEUT.         1                    : NEUTRON      - NEUTRON TYPE
RESI.         0                    : RESIST       - RESISTIVITY TYPE
RM  .OHMM     4.6                  : RM           - RESISTIVITY OF MUD
RMC .OHMM     0                    : RMC          - RESISTIVITY OF MUD CAKE
RMF .OHMM     3.3                  : RMF          - RESISTIVITY OF MUD FILTRATE
SUFT.C        4.5                  : SUFT         - SURFACE TEMPERATURE
~A  DEPTH     PHID     PHIN       GR      CAL     RESD
# ...
  569.672    0.201    0.328   71.515  185.113   19.396
  569.922    0.196    0.347   75.454  185.091   18.531
  570.172    0.134    0.367   81.216  185.071   15.945
  570.422    0.155    0.404   87.099  184.843   11.957
  570.672    0.240    0.438   90.854  184.820   10.213
  570.922    0.283    0.463   92.665  184.695    8.902
  571.172    0.265    0.456   89.854  184.670    7.874
  571.422    0.242    0.429   83.156  184.447    7.427
  571.672    0.219    0.413   77.127  183.908    7.241
  571.922    0.237    0.440   74.316  184.297    7.085
  572.172    0.241    0.443   75.095  184.278    6.996
  572.422    0.261    0.446   81.037  184.254    6.771
  572.672    0.276    0.465   86.313  183.925    6.589
  572.922    0.279    0.471   92.136  183.800    6.227
  573.172    0.284    0.473   95.586  183.778    5.916
  573.422    0.325    0.533   89.496  183.755    5.652
  573.672    0.414    0.583   59.397  184.141    5.430
  573.922    0.437    0.602   53.305  184.220    5.207
  574.172    0.440    0.605   57.666  184.306    5.067
  574.422    0.442    0.602   61.911  184.693    4.931
  574.672    0.431    0.594   66.153  184.979    4.860
  574.922    0.417    0.585   68.267  185.167    4.835
  575.172    0.403    0.573   71.411  185.248    4.890
  575.422    0.393    0.562   73.894  185.434    4.964
  575.672    0.378    0.550   77.162  185.720    5.304
  575.922    0.281    0.530   70.099  186.007    5.575
  576.172    0.333    0.487   62.002  186.190    5.659
  576.422    0.341    0.517   60.349  186.267    5.640
  576.672    0.337    0.506   60.943  186.351    5.580
  576.922    0.312    0.492   63.055  186.229    5.450
  577.172    0.289    0.475   64.747  186.203    5.412
  577.422    0.291    0.473   67.044  186.286    5.413
  577.672    0.283    0.471   70.857  186.367    5.455
  577.922    0.274    0.462   76.133  186.752    5.527
  578.172    0.268    0.449   80.376  187.045    5.631
  578.422    0.260    0.464   82.976  187.226    5.790
  578.672    0.343    0.585   85.577  187.307    5.986
  578.922    0.384    0.610   88.176  187.285    6.280
  579.172    0.362    0.632   90.170  187.266    6.650
  579.422    0.237    0.439   93.379  187.244    6.964
  579.672    0.214    0.399   93.061  187.426    7.294
  579.922    0.224    0.415   92.077  187.507    7.472
  580.172    0.224    0.407   91.087  187.175    7.598
  580.422    0.210    0.379   90.712  187.260    7.713
  580.672    0.184    0.373   90.639  187.135    7.787
  580.922    0.173    0.366   90.869  187.211    7.774
  581.172    0.176    0.373   90.187  187.500    7.748
  581.422    0.174    0.377   88.838  187.273    7.793
  581.672    0.170    0.365   88.338  187.150    7.767
  581.922    0.162    0.355   88.022  187.021    7.755
  582.172    0.156    0.362   87.766  186.692    7.743
  582.422    0.168    0.369   87.690  186.364    7.730
  582.672    0.171    0.376   87.497  185.930    7.690
  582.922    0.175    0.380   87.786  185.496    7.594
  583.172    0.186    0.389   88.384  185.064    7.390
  583.422    0.191    0.392   89.160  185.040    7.125
  583.672    0.194    0.390   88.783  185.430    6.783
  583.922    0.194    0.381   85.731  185.509    6.398
  584.172    0.191    0.358   83.651  185.593    6.034
  584.422    0.186    0.248   83.394  186.183    5.640
  584.672    0.121    0.217   83.565  186.476    5.242
  584.922    0.027    0.194   85.193  186.862    4.935
  585.172    0.006    0.193   86.335  187.049    4.724
  585.422    0.033    0.278   86.380  187.231    4.588
  585.672    0.144    0.365   86.370  187.416    4.465
  585.922    0.172    0.382   86.540  187.701    4.313
  586.172    0.195    0.390   86.890  187.888    4.068
  586.422    0.193    0.387   87.911  188.068    3.612
  586.672    0.183    0.340   87.838  187.946    3.451
  586.922    0.173    0.212   88.372  188.026    3.377
  587.172    0.147    0.197   89.330  187.799    3.377
  587.422    0.088    0.260   90.044  187.572    3.435
  587.672    0.115    0.328   90.519  187.241    3.591
  587.922    0.132    0.346   91.055  186.910    3.795
  588.172    0.147    0.364   90.251  186.684    3.981
  588.422    0.161    0.356   89.814  186.763    4.270
  588.672    0.149    0.341   90.224  186.639    4.563
  588.922    0.144    0.311   90.456  186.409    4.573
  589.172    0.138    0.337   86.371  186.391    4.499
  589.422    0.120    0.349   81.131  186.264    4.452
  589.672    0.096    0.328   78.076  185.933    4.453
  589.922    0.082    0.297   79.525  185.294    4.454
  590.172    0.103    0.269   82.122  184.965    4.554
  590.422    0.116    0.377   84.970  184.839    4.649
  590.672    0.140    0.404   64.533  185.023    4.824
  590.922    0.141    0.349   70.659  185.414    5.015
  591.172    0.121    0.144   77.576  185.595    5.320
  591.422    0.100    0.190   90.570  185.778    5.551
  591.672    0.060    0.314   97.059  185.861    5.697
  591.922    0.038    0.307   99.296  185.943    5.804
  592.172    0.022    0.222   94.117  185.920    5.763
  592.422    0.013    0.183   96.107  185.793    5.517
  592.672    0.007    0.158  101.566  185.670    4.853
  592.922    0.002    0.134  110.064  185.442    4.153
  593.172   -0.002    0.104   98.624  185.420    3.700
  593.422    0.006    0.101   38.193  185.296    3.542
  593.672    0.100    0.154   30.099  183.833    3.466
  593.922    0.111    0.319   17.990  183.606    3.697
  594.172    0.114    0.300   17.185  184.508    4.259
  594.422    0.109    0.273   16.870  185.103    4.880
  594.672    0.072    0.238   16.795  185.491    5.380
  594.922    0.050    0.230   16.722  185.783    5.986
  595.172    0.034    0.235   16.770  185.554    6.588
  595.422    0.023    0.232   16.818  185.324    7.250
  595.672    0.014    0.228   16.864  184.584    7.620
  595.922    0.009    0.224   17.034  184.665    7.821
  596.172    0.011    0.222   17.267  184.640    7.939
  596.422    0.028    0.226   17.558  184.621    7.912
  596.672    0.065    0.276   18.212  184.599    7.857
  596.922    0.075    0.277   18.868  184.989    7.645
  597.172    0.061    0.269   19.160  185.069    7.002
  597.422    0.083    0.295   16.958  185.256    5.589
  597.672    0.104    0.312   16.702  185.644    4.989
  597.922    0.117    0.322   17.480  185.622    4.570
  598.172    0.126    0.367   18.803  185.601    4.216
  598.422    0.137    0.448   20.431  185.476    3.897
  598.672    0.166    0.431   21.817  185.452    3.642
  598.922    0.191    0.373   22.533  185.227    3.361
  599.172    0.182    0.373   23.067  185.202    3.193
  599.422    0.200    0.406   23.724  184.771    3.045
  599.672    0.210    0.403   24.196  184.644    2.925
  599.922    0.196    0.394   24.244  184.827    2.852
  600.172    0.194    0.385   24.110  185.118    2.791
  600.422    0.226    0.409   23.854  185.196    2.736
  600.672    0.267    0.453   23.658  185.277    2.726
  600.922    0.306    0.492   23.220  185.146    2.742
  601.172    0.305    0.481   23.024  185.330    2.794
  601.422    0.297    0.481   23.316  185.107    2.867
  601.672    0.287    0.466   23.363  185.189    3.064
  601.922    0.262    0.349   23.592  185.061    3.570
  602.172    0.207    0.310   23.762  184.940    4.402
  602.422    0.133    0.288   23.810  184.919    5.203
  602.672    0.107    0.286   23.857  184.795    5.500
  602.922    0.085    0.299   23.724  184.669    5.352
  603.172    0.097    0.343   23.104  184.648    5.039
  603.422    0.107    0.487   22.908  184.621    4.457
