~VERSION INFORMATION
 VERS.                 2.0:   CWLS LOG ASCII STANDARD -VERSION 2.0
 WRAP.                  NO:   ONE LINE PER DEPTH STEP
~WELL INFORMATION BLOCK
#MNEM.UNIT           DATA                    DESCRIPTION OF MNEMONIC
#---------    -------------------            -------------------------------
# Generated from Intellog Unique Number	CW_79_81/WELL/2903
WELL.         SCURRY ATKINSON PASTECHO 11-27 : Well_name    - WELL
LOC .         00/11-27-079-04W5/0            : Location     - LOCATION
UWI .         00/11-27-079-04W5/0            : Uwi          - UNIQUE WELL ID
ENTR.         JJ                             : Entered      - ENTERED BY
SRVC.         WESTERN ATLAS                  : Scn          - SERVICE COMPANY
DATE.         18 FEB 73                      : Date         - LOG DATE
STRT.M        427.33                         : top_depth    - START DEPTH
STOP.M        555.33                         : bot_depth    - STOP DEPTH
STEP.M        0.25                           : increment    - STEP LENGTH
 NULL. -999.2500:NULL Value
~CURVE INFORMATION BLOCK
#MNEM UNIT       ERCB CURVE CODE    CURVE DESCRIPTION
#-----------   ------------------   ----------------------------------
DEPT.M        00 001 00 00         : DEPTH        - DEPTH
ILD .OHMM     00 120 00 00         : RESD         - DEEP RESISTIVITY (DIL)
GR  .API      00 310 00 00         : GR           - GAMMA RAY
DELT.US/F     00 520 00 00         : DELT         - SONIC TRAVEL TIME
~PARAMETER INFORMATION
#MNEM.UNIT           DATA             DESCRIPTION OF MNEMONIC
#---------         -----------     ------------------------------
GL  .M        619.536              : gl           - GROUND LEVEL ELEVATION
EREF.M        623.194              : kb           - ELEVATION OF DEPTH REFERENCE
DATM.M        619.536              : datum        - DATUM ELEVATION
TDD .M        556.87               : tdd          - TOTAL DEPTH DRILLER
RUN .         ONE                  : Run          - RUN NUMBER
ENG .         RUTHERFORD           : Engineer     - RECORDING ENGINEER
WIT .         KIRKPATRICK          : Witness      - WITNESSED BY
BASE.         MED HAT              : Branch       - HOME BASE OF LOGGING UNIT
MUD .         MUD/GEL              : Mud_type     - MUD TYPE
MATR.         SANDSTONE            : Logunit      - NEUTRON MATRIX
TMAX.C        28.3333              : BHT          - MAXIMUM RECORDED TEMPERATURE
BHTD.M        556.87               : BHTDEP       - MAXIMUM RECORDED TEMPERATURE
RMT .C        25.5556              : MDTP         - TEMPERATURE OF MUD
MUDD.KG/M     1068                 : MWT          - MUD DENSITY
NEUT.         1                    : NEUTRON      - NEUTRON TYPE
RESI.         0                    : RESIST       - RESISTIVITY TYPE
RM  .OHMM     3                    : RM           - RESISTIVITY OF MUD
RMC .OHMM     3.4                  : RMC          - RESISTIVITY OF MUD CAKE
RMF .OHMM     2.85                 : RMF          - RESISTIVITY OF MUD FILTRATE
SUFT.C        5                    : SUFT         - SURFACE TEMPERATURE
~A  DEPTH     RESD       GR     DELT
  427.330    6.568   87.172  384.038
  427.580    6.833   88.222  380.201
  427.830    6.762   88.094  384.976
  428.080    6.653   81.898  384.418
  428.330    6.485   80.258  376.058
  428.580    6.277   79.474  370.977
  428.830    6.007   75.004  377.623
  429.080    5.759   73.767  390.313
  429.330    5.688   73.440  380.823
  429.580    5.758   75.055  385.593
  429.830    5.966   81.285  387.329
  430.080    6.072   80.728  367.270
  430.330    6.337   74.587  373.770
  430.580    6.643   78.480  380.109
  430.830    6.929   83.409  365.438
  431.080    7.136   77.496  366.325
  431.330    7.244   69.913  359.361
  431.580    7.311   65.216  353.001
  431.830    7.419   65.085  357.159
  432.080    7.588   71.542  360.548
  432.330    7.754   78.051  375.823
  432.580    7.822   82.044  383.675
  432.830    7.774   84.656  379.141
  433.080    7.624   86.021  346.187
  433.330    7.414   75.783  333.957
  433.580    7.048   70.298  364.988
  433.830    6.821   80.345  384.850
  434.080    6.771   82.472  384.676
  434.330    6.816   84.502  387.290
  434.580    6.865   87.939  393.141
  434.830    7.073   91.685  389.419
  435.080    7.319   88.519  386.024
  435.330    7.487   83.158  383.976
  435.580    7.513   82.193  380.180
  435.830    7.384   81.463  376.060
  436.080    7.136   85.269  375.383
  436.330    6.968   82.934  382.142
  436.580    6.918   80.523  387.497
  436.830    6.966   83.450  384.574
  437.080    7.035   82.552  379.627
  437.330    7.082   86.110  382.807
  437.580    7.132   85.628  380.636
  437.830    7.239   83.952  373.214
  438.080    7.228   85.027  373.839
  438.330    7.197   88.919  378.192
  438.580    7.206   87.355  380.212
  438.830    7.098   83.702  378.166
  439.080    7.007   86.441  373.589
  439.330    6.956   89.243  373.521
  439.580    6.905   85.436  385.880
  439.830    6.895   86.147  383.258
  440.080    6.904   88.391  378.712
  440.330    6.913   85.410  384.038
  440.580    6.783   83.692  381.011
  440.830    6.635   86.458  371.745
  441.080    6.524   90.404  365.915
  441.330    6.396   83.122  370.795
  441.580    6.326   73.113  368.812
  441.830    6.274   66.686  363.675
  442.080    6.265   68.039  362.982
  442.330    6.252   67.539  364.534
  442.580    6.280   65.955  370.365
  442.830    6.370   68.883  378.995
  443.080    6.476   74.328  374.144
  443.330    6.743   79.052  370.908
  443.580    6.970   76.042  368.051
  443.830    7.116   70.368  366.778
  444.080    7.285   65.576  359.760
  444.330    7.333   62.393  345.874
  444.580    7.303   66.148  324.419
  444.830    7.251   67.444  339.229
  445.080    7.003   67.564  354.420
  445.330    6.875   70.270  354.300
  445.580    6.885   74.256  361.071
  445.830    6.970   77.606  363.384
  446.080    7.119   78.649  359.585
  446.330    7.267   80.340  364.481
  446.580    7.393   83.063  368.026
  446.830    7.561   86.492  360.324
  447.080    7.748   81.151  363.265
  447.330    7.894   83.756  364.335
  447.580    8.022   83.331  366.880
  447.830    8.328   79.742  364.124
  448.080    8.792   75.478  360.981
  448.330    9.255   77.996  361.088
  448.580    9.245   80.279  360.442
  448.830    8.661   80.098  358.349
  449.080    7.939   78.642  350.350
  449.330    7.431   72.600  333.557
  449.580    6.690   65.578  360.783
  449.830    6.401   69.517  379.030
  450.080    6.687   71.127  380.439
  450.330    7.665   72.611  373.750
  450.580    8.585   75.439  344.264
  450.830    9.008   72.401  258.716
  451.080    8.265   69.360  272.056
  451.330    7.147   70.164  323.397
  451.580    6.286   73.121  380.897
  451.830    5.426   76.882  376.865
  452.080    5.077   73.517  378.852
  452.330    5.146   75.887  380.793
  452.580    5.590   80.272  382.613
  452.830    6.291   83.298  378.553
  453.080    7.150   82.409  370.996
  453.330    8.702   78.224  312.148
  453.580    9.224   75.657  243.652
  453.830    9.017   66.307  239.000
  454.080    8.115   59.830  300.705
  454.330    7.155   64.243  336.254
  454.580    6.334   75.398  361.726
  454.830    5.888   79.555  375.233
  455.080    5.681   80.505  380.997
  455.330    5.748   81.760  381.539
  455.580    5.836   81.509  374.945
  455.830    5.885   82.332  372.880
  456.080    5.893   87.314  374.624
  456.330    5.862   85.756  379.127
  456.580    5.951   82.454  381.488
  456.830    6.078   83.912  383.445
  457.080    5.948   83.415  384.016
  457.330    5.779   83.244  378.363
  457.580    5.649   79.360  379.721
  457.830    5.204   83.802  387.330
  458.080    4.817   84.098  388.969
  458.330    4.867   80.888  385.865
  458.580    4.974   79.795  384.261
  458.830    5.200   79.228  380.570
  459.080    5.683   81.308  383.890
  459.330    5.832   83.029  393.288
  459.580    5.404   79.821  394.352
  459.830    5.414   83.749  391.759
  460.080    5.581   85.691  391.810
  460.330    5.848   88.151  388.764
  460.580    6.094   84.801  389.033
  460.830    6.659   82.510  387.861
  461.080    7.140   84.030  382.766
  461.330    8.218   86.382  370.491
  461.580   10.183   83.282  350.838
  461.830   14.662   81.872  329.163
  462.080   16.985   86.244  236.191
  462.330   18.120   78.976  212.543
  462.580   17.299   68.626  200.702
  462.830   14.875   58.294  217.727
  463.080   12.254   54.281  248.761
  463.330   10.247   56.540  281.371
  463.580    8.871   66.008  313.359
  463.830    7.931   74.327  331.453
  464.080    7.703   79.534  341.689
  464.330    7.753   82.327  346.588
  464.580    7.800   80.533  346.863
  464.830    7.906   83.238  344.361
  465.080    7.897   82.111  340.858
  465.330    7.885   81.478  343.417
  465.580    7.953   81.826  345.027
  465.830    7.903   79.240  342.573
  466.080    7.813   79.006  342.686
  466.330    7.328   77.156  340.112
  466.580    6.941   87.058  340.546
  466.830    6.712   83.678  348.368
  467.080    6.366   81.661  360.463
  467.330    6.176   86.366  370.289
  467.580    6.324   87.643  378.089
  467.830    6.629   91.748  379.017
  468.080    6.620   91.349  376.812
  468.330    6.432   88.565  375.188
  468.580    6.301   87.276  376.542
  468.830    6.151   84.971  381.028
  469.080    6.120   89.299  384.119
  469.330    6.089   92.949  383.665
  469.580    6.120   93.058  381.356
  469.830    6.190   92.342  378.543
  470.080    6.237   90.496  375.946
  470.330    6.303   86.468  370.894
  470.580    6.371   81.488  367.349
  470.830    6.442   79.071  373.883
  471.080    6.548   80.275  380.146
  471.330    6.617   83.535  376.163
  471.580    6.625   83.020  374.737
  471.830    6.634   79.768  377.648
  472.080    6.584   85.068  375.137
  472.330    6.555   88.212  378.214
  472.580    6.523   88.283  386.191
  472.830    6.550   91.133  385.344
  473.080    6.561   93.814  380.431
  473.330    6.570   93.998  383.466
  473.580    6.580   90.163  388.707
  473.830    6.627   93.333  392.280
  474.080    6.696   93.464  389.328
  474.330    6.606   92.060  388.975
  474.580    6.437   95.110  386.341
  474.830    6.386   93.334  388.039
  475.080    6.394   92.883  389.285
  475.330    6.343   94.182  381.226
  475.580    6.295   95.935  380.683
  475.830    6.323   92.649  388.561
  476.080    6.489   90.401  395.737
  476.330    6.756   91.793  391.794
  476.580    7.299   91.885  382.206
  476.830    7.999   93.551  367.168
  477.080    8.146   90.980  351.800
  477.330    7.543   87.103  346.273
  477.580    6.881   89.572  356.393
  477.830    6.551   98.313  364.575
  478.080    6.284  106.273  371.189
  478.330    6.116   96.667  375.080
  478.580    6.085   81.798  372.396
  478.830    6.093   82.113  368.526
  479.080    6.143   85.670  366.203
  479.330    6.249   85.540  367.079
  479.580    6.218   84.310  370.152
  479.830    6.168   81.284  367.941
  480.080    6.080   78.583  372.254
  480.330    5.910   81.855  377.474
  480.580    5.740   86.435  372.658
  480.830    5.650   90.183  380.413
  481.080    5.600   88.620  379.267
  481.330    5.589   87.229  378.224
