~Version Information Block
VERS .                 2.00:  CWLS LOG ASCII STANDARD - VERSION 2.00
WRAP.                  NO:
~Well Information Block
#MNEM.UNIT        Data Type   Information
#---------- ----------------  -----------
STRT.M           130.2000:
STOP.M           354.0000:
STEP.M             0.3000:
NULL.           -999.2500:
COMP.  :COMPANY
WELL.  :WELL
FLD.   :FIELD
LOC.   :LOCATION
CTRY.  :COUNTRY
PROV.  :PROVINCE
SRVC.  :SERVICE COMPANY
DATE.  :LOG DATE
UWI.   00/10-08-083-05W4/0:UNIQUE WELL ID
~Parameter Information Block
#MNEM.UNIT            Value   Description
#---------- ----------------  -----------
PROJECT.             SURMOUNT:  
SET  .                  RAW:  
~Curve Information Block
#MNEM.UNIT          API CODE    Curve Description
#-----------    ------------    -------------------------------------
DEPT.M                      :   DEPTH
DPHI .V/V                   :   DPHI
DT   .us/m                  :   DT
GR   .API                   :   GR
ILD  .Ohmm                  :   ILD
NPHI .V/V                   :   NPHI
PHID .                      :   Created by graphical digitiser entry.
RHOB .gm/c3                 :   RHOB
~A  Depth           DPHI          DT          GR         ILD        NPHI        PHID        RHOB
# ...
229.8000       -999.2500   -999.2500     89.7557      5.2943      0.4239      0.2636   2215.0342
230.1000       -999.2500   -999.2500     86.4791      4.0521      0.4638      0.2737   2198.3499
230.4000       -999.2500   -999.2500     81.9322      3.0448      0.5091      0.2910   2169.7693
230.7000       -999.2500   -999.2500     78.9003      2.4239      0.5327      0.3154   2129.5625
231.0000       -999.2500   -999.2500     79.8544      2.1344      0.5501      0.3289   2107.3730
231.3000       -999.2500   -999.2500     78.7950      2.2686      0.5488      0.3215   2119.5759
231.6000       -999.2500   -999.2500     79.2734      2.6453      0.5444      0.3085   2140.8989
231.9000       -999.2500   -999.2500     78.6164      3.1205      0.4845      0.2964   2160.9714
232.2000       -999.2500   -999.2500     78.1345      3.6267      0.4494      0.2818   2184.9775
232.5000       -999.2500   -999.2500     80.5860      4.1335      0.4501      0.2656   2211.7756
232.8000       -999.2500   -999.2500     82.3946      4.6246      0.4425      0.2552   2228.8682
233.1000       -999.2500   -999.2500     83.8177      5.1080      0.4403      0.2563   2227.0696
233.4000       -999.2500   -999.2500     85.0502      5.5111      0.4336      0.2525   2233.3193
233.7000       -999.2500   -999.2500     82.6218      5.8251      0.4203      0.2554   2228.5339
234.0000       -999.2500   -999.2500     80.3216      5.9050      0.4220      0.2594   2222.0217
234.3000       -999.2500   -999.2500     83.6056      5.6909      0.4203      0.2577   2224.8059
234.6000       -999.2500   -999.2500     89.0658      5.2208      0.4366      0.2545   2230.0291
234.9000       -999.2500   -999.2500     94.0045      4.6622      0.4372      0.2454   2245.0405
235.2000       -999.2500   -999.2500     92.8626      4.0695      0.4682      0.2528   2232.9080
235.5000       -999.2500   -999.2500     92.9621      3.5698      0.4952      0.2704   2203.8047
235.8000       -999.2500   -999.2500     91.9518      3.2603      0.4852      0.2711   2202.6838
236.1000       -999.2500   -999.2500     88.7531      3.0321      0.4792      0.2707   2203.3411
236.4000       -999.2500   -999.2500     89.3549      2.9673      0.4707      0.2829   2183.1531
236.7000       -999.2500   -999.2500     89.9899      2.9811      0.4665      0.2828   2183.3428
237.0000       -999.2500   -999.2500     89.0670      3.0742      0.4787      0.2759   2194.7295
237.3000       -999.2500   -999.2500     89.2733      3.2764      0.4848      0.2775   2192.0886
237.6000       -999.2500   -999.2500     90.9208      3.5959      0.4764      0.2756   2195.2090
237.9000       -999.2500   -999.2500     92.9649      3.6834      0.4589      0.2739   2198.0142
238.2000       -999.2500   -999.2500     94.8093      3.4885      0.4635      0.2833   2182.5679
238.5000       -999.2500   -999.2500     95.9194      3.3777      0.5147      0.2888   2173.4341
238.8000       -999.2500   -999.2500     96.7159      3.4410      0.5101      0.2843   2180.8406
239.1000       -999.2500   -999.2500     95.1047      3.5520      0.4876      0.2767   2193.5171
239.4000       -999.2500   -999.2500     91.5054      3.8426      0.4991      0.2796   2188.5979
239.7000       -999.2500   -999.2500     86.2390      4.2293      0.4773      0.2875   2175.5549
240.0000       -999.2500   -999.2500     86.3435      4.5954      0.4509      0.2780   2191.3796
240.3000       -999.2500   -999.2500     84.7828      4.9163      0.4563      0.2620   2217.7434
240.6000       -999.2500   -999.2500     80.5681      5.0732      0.4474      0.2825   2183.8176
240.9000       -999.2500   -999.2500     81.4893      5.1491      0.4434      0.2778   2191.7051
241.2000       -999.2500   -999.2500     83.2507      5.2959      0.4627      0.2507   2236.3752
241.5000       -999.2500   -999.2500     84.8806      5.4960      0.4660      0.2519   2234.3525
241.8000       -999.2500   -999.2500     87.0239      5.7042      0.4196      0.2639   2214.6125
242.1000       -999.2500   -999.2500     84.0591      5.9851      0.3881      0.2538   2231.1855
242.4000       -999.2500   -999.2500     76.6225      6.3119      0.3825      0.2577   2224.7297
242.7000       -999.2500   -999.2500     67.6253      6.1834      0.3883      0.2724   2200.5034
243.0000       -999.2500   -999.2500     67.4197      5.5124      0.4105      0.2880   2174.7468
243.3000       -999.2500   -999.2500     73.5198      4.7234      0.4419      0.2843   2180.8730
243.6000       -999.2500   -999.2500     76.7038      4.1902      0.4563      0.2868   2176.7419
243.9000       -999.2500   -999.2500     68.3511      3.9640      0.4474      0.2973   2159.3760
244.2000       -999.2500   -999.2500     64.0826      4.2686      0.4838      0.3068   2143.7063
244.5000       -999.2500   -999.2500     64.6122      5.0633      0.5095      0.2936   2165.5183
244.8000       -999.2500   -999.2500     55.3220     10.6748      0.4503      0.2835   2182.2209
245.1000       -999.2500   -999.2500     43.5738     18.0155      0.3933      0.3109   2136.9426
245.4000       -999.2500   -999.2500     38.8830     25.1955      0.4101      0.3340   2098.9636
245.7000       -999.2500   -999.2500     39.6391     27.8896      0.4245      0.3550   2064.1965
246.0000       -999.2500   -999.2500     41.7245     24.9462      0.4163      0.3422   2085.3630
246.3000       -999.2500   -999.2500     44.4812     22.0531      0.3951      0.3183   2124.7441
246.6000       -999.2500   -999.2500     48.6208     20.5419      0.3918      0.3123   2134.7080
246.9000       -999.2500   -999.2500     51.2531     20.4540      0.4135      0.3265   2111.3228
247.2000       -999.2500   -999.2500     50.6001     20.9944      0.4236      0.3251   2113.6345
247.5000       -999.2500   -999.2500     47.3481     21.8404      0.4214      0.3093   2139.6311
247.8000       -999.2500   -999.2500     45.8611     22.8276      0.3512      0.2611   2219.1907
248.1000       -999.2500   -999.2500     49.8775     21.8527      0.3655      0.1901   2336.3831
248.4000       -999.2500   -999.2500     54.0870     19.8554      0.3931      0.2595   2221.8435
248.7000       -999.2500   -999.2500     56.5867     17.8729      0.4244      0.3374   2093.2634
249.0000       -999.2500   -999.2500     60.2208     15.9185      0.4181      0.3448   2081.0332
249.3000       -999.2500   -999.2500     63.5239     13.9270      0.4194      0.3405   2088.1516
249.6000       -999.2500   -999.2500     66.4329     11.8191      0.4238      0.3337   2099.3489
249.9000       -999.2500   -999.2500     70.2064      9.4915      0.4233      0.3269   2110.5969
250.2000       -999.2500   -999.2500     75.3455      6.8996      0.4354      0.3145   2131.0828
250.5000       -999.2500   -999.2500     80.3720      5.3645      0.4416      0.2983   2157.8281
250.8000       -999.2500   -999.2500     82.7661      5.1369      0.4563      0.2989   2156.8833
251.1000       -999.2500   -999.2500     82.1532      5.3264      0.4717      0.3097   2138.9600
251.4000       -999.2500   -999.2500     73.8589      5.5916      0.4412      0.3081   2141.6506
251.7000       -999.2500   -999.2500     66.1358      5.8823      0.3956      0.3097   2139.0522
252.0000       -999.2500   -999.2500     63.6690      6.1647      0.3751      0.3139   2132.1343
252.3000       -999.2500   -999.2500     70.0455      6.4376      0.3719      0.3105   2137.6191
252.6000       -999.2500   -999.2500     77.5956      6.7078      0.3696      0.2969   2160.1797
252.9000       -999.2500   -999.2500     82.1992      6.9779      0.3653      0.2818   2184.9851
253.2000       -999.2500   -999.2500     86.8153      7.1323      0.3700      0.2655   2211.9124
253.5000       -999.2500   -999.2500     91.2651      7.2147      0.3733      0.2464   2243.3728
253.8000       -999.2500   -999.2500     89.9425      7.2901      0.3793      0.2361   2260.4788
254.1000       -999.2500   -999.2500     90.4003      7.3654      0.3955      0.2368   2259.2317
254.4000       -999.2500   -999.2500     93.5080      7.4061      0.4079      0.2230   2281.9829
