~VERSION INFORMATION
 VERS.                 2.0:   CWLS LOG ASCII STANDARD -VERSION 2.0
 WRAP.                  NO:   ONE LINE PER DEPTH STEP
~WELL INFORMATION BLOCK
#MNEM.UNIT           DATA                    DESCRIPTION OF MNEMONIC
#---------    -------------------            -------------------------------
# Generated from Intellog Unique Number	CW_82_90/WELL/3453
WELL.         SIEBENS WOODEN                 : Well_name    - WELL
LOC .         00/11-24-088-22W4/0            : Location     - LOCATION
UWI .         00/11-24-088-22W4/0            : Uwi          - UNIQUE WELL ID
ENTR.         MAX                            : Entered      - ENTERED BY
SRVC.         SCHLUMBERGER                   : Scn          - SERVICE COMPANY
STRT.M        76.2                           : top_depth    - START DEPTH
STOP.M        271.2                          : bot_depth    - STOP DEPTH
STEP.M        0.25                           : increment    - STEP LENGTH
 NULL. -999.2500:NULL Value
~CURVE INFORMATION BLOCK
#MNEM UNIT       ERCB CURVE CODE    CURVE DESCRIPTION
#-----------   ------------------   ----------------------------------
DEPT.M        00 001 00 00         : DEPTH        - DEPTH
ILD .OHMM     00 120 00 00         : RESD         - DEEP RESISTIVITY (DIL)
NPHI.V/V      00 330 00 00         : PHIN         - NEUTRON POROSITY (SANDSTONE)
DPHI.V/V      00 890 00 00         : PHID         - DENSITY POROSITY (SANDSTONE)
CALI.MM       00 280 01 00         : CAL          - CALIPER
GR  .API      00 310 00 00         : GR           - GAMMA RAY
~PARAMETER INFORMATION
#MNEM.UNIT           DATA             DESCRIPTION OF MNEMONIC
#---------         -----------     ------------------------------
GL  .M        523.646              : gl           - GROUND LEVEL ELEVATION
EREF.M        525.78               : kb           - ELEVATION OF DEPTH REFERENCE
DATM.M        523.646              : datum        - DATUM ELEVATION
TDD .M        272.491              : tdd          - TOTAL DEPTH DRILLER
RUN .         ONE                  : Run          - RUN NUMBER
ENG .         BILL                 : Engineer     - RECORDING ENGINEER
WIT .         JIM                  : Witness      - WITNESSED BY
MUD .         GEL                  : Mud_type     - MUD TYPE
MATR.         SANDSTONE            : Logunit      - NEUTRON MATRIX
TMAX.C        16.1111              : BHT          - MAXIMUM RECORDED TEMPERATURE
BHTD.M        272.491              : BHTDEP       - MAXIMUM RECORDED TEMPERATURE
MATR.         1                    : LOGUNIT      - NEUTRON MATRIX
RMT .C        12.2222              : MDTP         - TEMPERATURE OF MUD
NEUT.         1                    : NEUTRON      - NEUTRON TYPE
RESI.         0                    : RESIST       - RESISTIVITY TYPE
RMC .OHMM     6.47                 : RMC          - RESISTIVITY OF MUD CAKE
RMF .OHMM     6.61                 : RMF          - RESISTIVITY OF MUD FILTRATE
SUFT.C        -12.2222             : SUFT         - SURFACE TEMPERATURE
~A  DEPTH     RESD     PHIN     PHID      CAL       GR
   76.200   16.661    0.362    0.184  250.258   65.823
   76.450   17.747    0.351    0.181  250.265   64.364
   76.700   18.399    0.341    0.167  248.797   62.906
   76.950   19.422    0.345    0.188  249.301   62.618
   77.200   19.955    0.348    0.212  251.282   64.376
   77.450   20.318    0.366    0.245  252.275   65.843
   77.700   20.503    0.368    0.233  254.257   64.091
   77.950   20.689    0.353    0.207  259.198   60.585
   78.200   20.690    0.342    0.187  263.644   60.004
   78.450   20.690    0.347    0.179  268.091   60.008
   78.700   20.691    0.338    0.162  270.073   61.181
   78.950   20.321    0.335    0.172  270.576   63.527
   79.200   20.140    0.354    0.176  272.062   64.408
   79.450   19.427    0.369    0.186  270.100   64.119
   79.700   18.404    0.369    0.254  265.179   61.490
   79.950   16.970    0.389    0.326  259.765   53.888
   80.200   16.369    0.416    0.487  260.267   46.578
   80.450   20.508    0.487    0.568  266.687   38.391
   80.700   25.463    0.592    0.592  296.770   30.496
   80.950   35.547    0.546    0.444  312.556   26.112
   81.200   45.757    0.478    0.356  295.802   26.994
   81.450   48.302    0.395    0.315  282.502   24.364
   81.700   48.741    0.355    0.310  275.116   22.905
   81.950   48.742    0.346    0.299  274.138   23.202
   82.200   47.872    0.347    0.308  279.077   23.206
   82.450   46.177    0.351    0.318  289.442   22.625
   82.700   44.543    0.359    0.337  295.367   21.459
   82.950   43.748    0.379    0.353  303.264   20.878
   83.200   42.967    0.404    0.356  322.009   21.174
   83.450   42.582    0.409    0.343  337.795   20.300
   83.700   41.822    0.421    0.349  350.622   20.304
   83.950   41.076    0.416    0.355  363.945   21.771
   84.200   39.981    0.417    0.363  355.572   23.237
   84.450   39.267    0.417    0.340  332.902   25.582
   84.700   38.916    0.415    0.341  346.223   28.511
   84.950   38.567    0.421    0.366  345.247   32.611
   85.200   39.270    0.416    0.360  326.029   36.417
   85.450   39.627    0.412    0.350  313.712   35.544
   85.700   39.986    0.410    0.346  314.216   31.160
   85.950   40.350    0.406    0.343  322.113   23.850
   86.200   39.630    0.399    0.350  350.719   23.562
   86.450   38.573    0.395    0.342  355.657   24.735
   86.700   37.885    0.395    0.331  364.048   29.713
   86.950   37.208    0.388    0.311  372.932   34.690
   87.200   36.544    0.373    0.280  319.202   42.300
   87.450   32.503    0.370    0.281  301.463   48.740
   87.700   29.435    0.352    0.252  295.063   50.792
   87.950   25.712    0.334    0.244  289.155   51.966
   88.200   25.482    0.352    0.270  284.730   49.044
   88.450   26.658    0.366    0.289  283.753   43.783
   88.700   29.174    0.390    0.318  286.228   40.276
   88.950   30.796    0.392    0.329  286.728   39.110
   89.200   31.076    0.386    0.322  282.302   41.161
   89.450   30.798    0.396    0.301  276.887   44.968
   89.700   30.522    0.400    0.272  275.417   48.775
   89.950   29.977    0.397    0.251  271.977   49.949
   90.200   29.442    0.405    0.275  276.423   45.858
   90.450   28.917    0.414    0.295  282.841   43.230
   90.700   28.658    0.412    0.304  302.571   42.355
   90.950   27.894    0.410    0.310  322.795   41.481
   91.200   27.396    0.428    0.338  326.256   44.120
   91.450   26.666    0.442    0.341  320.842   45.877
   91.700   26.190    0.429    0.323  313.457   49.100
   91.950   25.722    0.437    0.317  301.633   51.151
   92.200   25.723    0.445    0.314  282.908   52.618
   92.450   25.956    0.406    0.253  265.662   52.622
   92.700   26.192    0.359    0.236  263.208   52.625
   92.950   25.958    0.326    0.196  261.737   51.167
   93.200   25.266    0.311    0.195  261.255   50.586
   93.450   25.040    0.308    0.188  261.262   49.712
   93.700   24.593    0.324    0.188  259.300   47.668
   93.950   24.816    0.333    0.215  259.309   44.454
   94.200   25.728    0.340    0.272  258.334   38.022
   94.450   27.405    0.349    0.303  260.808   32.467
   94.700   28.929    0.360    0.324  275.113   28.084
   94.950   30.264    0.374    0.320  287.449   26.918
   95.200   30.264    0.372    0.334  295.840   28.092
   95.450   30.265    0.392    0.328  303.737   30.435
   95.700   29.458    0.413    0.301  306.704   34.827
   95.950   28.673    0.397    0.268  280.585   38.634
   96.200   29.195    0.362    0.265  261.859   40.686
   96.450   31.098    0.353    0.287  259.404   36.594
   96.700   31.951    0.352    0.308  261.384   30.747
   96.950   33.125    0.347    0.294  264.352   27.827
   97.200   34.343    0.349    0.282  266.827   30.463
   97.450   35.927    0.353    0.282  268.317   32.515
   97.700   36.253    0.349    0.274  269.311   33.396
   97.950   35.929    0.347    0.273  272.773   32.815
   98.200   35.288    0.352    0.300  275.739   32.527
   98.450   34.347    0.365    0.307  280.187   35.164
   98.700   32.539    0.372    0.290  283.154   38.092
   98.950   30.549    0.358    0.249  286.615   43.362
   99.200   28.169    0.339    0.215  289.583   46.877
   99.450   27.666    0.316    0.182  291.563   46.589
   99.700   27.173    0.313    0.176  294.531   46.299
   99.950   27.419    0.309    0.182  296.512   45.426
  100.200   27.668    0.320    0.229  298.002   45.430
  100.450   28.428    0.361    0.285  300.968   40.168
  100.700   28.946    0.401    0.309  309.360   34.614
  100.950   29.473    0.432    0.343  309.370   32.278
  101.200   30.010    0.455    0.353  313.815   31.989
  101.450   30.283    0.475    0.381  337.982   31.992
  101.700   30.283    0.513    0.415  377.927   34.337
  101.950   30.012    0.552    0.400  379.415   36.974
  102.200   30.013    0.530    0.445  379.918   39.026
  102.450   29.477    0.563    0.483  357.742   41.663
  102.700   29.214    0.531    0.437  293.166   44.299
  102.950   29.214    0.482    0.433  264.087   44.596
  103.200   29.215    0.495    0.440  256.209   44.599
  103.450   29.215    0.500    0.420  238.468   44.311
  103.700   29.481    0.481    0.399  226.152   44.316
  103.950   29.482    0.466    0.381  229.120   44.611
  104.200   29.482    0.449    0.346  273.008   44.030
  104.450   29.483    0.459    0.358  295.696   43.741
  104.700   29.484    0.445    0.367  327.261   44.331
  104.950   29.220    0.425    0.340  312.971   44.919
  105.200   28.441    0.415    0.302  265.157   45.801
  105.450   28.186    0.388    0.198  236.573   46.975
  105.700   28.442    0.350    0.198  242.006   46.980
  105.950   28.960    0.312    0.219  243.987   45.228
  106.200   29.755    0.311    0.240  244.982   40.551
  106.450   30.297    0.316    0.252  246.471   36.752
  106.700   31.411    0.317    0.248  245.494   35.879
  106.950   31.983    0.316    0.252  245.010   36.760
  107.200   31.697    0.321    0.255  242.557   39.690
  107.450   30.852    0.338    0.243  241.085   43.789
  107.700   29.492    0.354    0.235  239.616   46.718
  107.950   28.193    0.356    0.252  237.653   48.770
  108.200   27.441    0.338    0.257  232.733   51.114
  108.450   26.951    0.332    0.244  228.798   50.533
  108.700   26.233    0.335    0.237  225.850   49.367
  108.950   26.234    0.344    0.231  223.888   47.615
  109.200   25.765    0.351    0.232  224.388   44.987
  109.450   25.535    0.357    0.256  222.918   43.235
  109.700   25.079    0.364    0.266  221.941   45.287
  109.950   23.974    0.381    0.262  221.953   47.338
  110.200   22.918    0.379    0.256  222.949   50.268
  110.450   20.943    0.355    0.242  223.449   53.490
  110.700   18.627    0.357    0.232  224.447   57.297
  110.950   17.331    0.361    0.218  225.935   58.764
  111.200   16.271    0.367    0.209  225.450   60.523
  111.450   15.004    0.352    0.198  232.361   62.575
  111.700   14.214    0.358    0.200  225.962   62.579
  111.950   13.466    0.364    0.209  221.042   61.412
  112.200   12.642    0.369    0.203  220.064   61.709
  112.450   12.085    0.368    0.200  221.061   62.298
