~VERSION INFORMATION
 VERS.                 2.0:   CWLS LOG ASCII STANDARD -VERSION 2.0
 WRAP.                  NO:   ONE LINE PER DEPTH STEP
~WELL INFORMATION BLOCK
#MNEM.UNIT           DATA                    DESCRIPTION OF MNEMONIC
#---------    -------------------            -------------------------------
# Generated from Intellog Unique Number	CW_73_75/WELL/1033
WELL.         SULPETRO ET AT FAWCETT 11-02   : Well_name    - WELL
LOC .         00/11-02-075-21W4/0            : Location     - LOCATION
UWI .         00/11-02-075-21W4/0            : Uwi          - UNIQUE WELL ID
ENTR.         JAYE                           : Entered      - ENTERED BY
SRVC.         SCHLUMBERGER                   : Scn          - SERVICE COMPANY
DATE.         5 MAR 82                       : Date         - LOG DATE
STRT.M        370                            : top_depth    - START DEPTH
STOP.M        575                            : bot_depth    - STOP DEPTH
STEP.M        0.25                           : increment    - STEP LENGTH
 NULL. -999.2500:NULL Value
~CURVE INFORMATION BLOCK
#MNEM UNIT       ERCB CURVE CODE    CURVE DESCRIPTION
#-----------   ------------------   ----------------------------------
DEPT.M        00 001 00 00         : DEPTH        - DEPTH
ILD .OHMM     00 120 00 00         : RESD         - DEEP RESISTIVITY (DIL)
NPHI.V/V      00 330 00 00         : PHIN         - NEUTRON POROSITY (SANDSTONE)
DPHI.V/V      00 890 00 00         : PHID         - DENSITY POROSITY (SANDSTONE)
CALI.MM       00 280 01 00         : CAL          - CALIPER
GR  .API      00 310 00 00         : GR           - GAMMA RAY
~PARAMETER INFORMATION
#MNEM.UNIT           DATA             DESCRIPTION OF MNEMONIC
#---------         -----------     ------------------------------
GL  .M        676.38               : gl           - GROUND LEVEL ELEVATION
EREF.M        679.28               : kb           - ELEVATION OF DEPTH REFERENCE
DATM.M        676.38               : datum        - DATUM ELEVATION
TDD .M        598.5                : tdd          - TOTAL DEPTH DRILLER
RUN .         ONE                  : Run          - RUN NUMBER
ENG .         SMYTHE               : Engineer     - RECORDING ENGINEER
WIT .         ROWE                 : Witness      - WITNESSED BY
BASE.         EDM                  : Branch       - HOME BASE OF LOGGING UNIT
MUD .         DAPP MUD             : Mud_type     - MUD TYPE
MATR.         SANDSTONE            : Logunit      - NEUTRON MATRIX
TMAX.C        23.3                 : BHT          - MAXIMUM RECORDED TEMPERATURE
BHTD.M        598.5                : BHTDEP       - MAXIMUM RECORDED TEMPERATURE
RMT .C        16.6                 : MDTP         - TEMPERATURE OF MUD
MUDD.KG/M     1190                 : MWT          - MUD DENSITY
NEUT.         1                    : NEUTRON      - NEUTRON TYPE
RESI.         0                    : RESIST       - RESISTIVITY TYPE
RM  .OHMM     1.874                : RM           - RESISTIVITY OF MUD
RMC .OHMM     0                    : RMC          - RESISTIVITY OF MUD CAKE
RMF .OHMM     1.85                 : RMF          - RESISTIVITY OF MUD FILTRATE
SUFT.C        0                    : SUFT         - SURFACE TEMPERATURE
~A  DEPTH     RESD     PHIN     PHID      CAL       GR
  370.000    3.184    0.532    0.212  169.735  112.917
  370.250    3.152    0.532    0.231  170.180  110.750
  370.500    3.166    0.535    0.231  170.003  111.766
  370.750    3.145    0.534    0.228  170.140  114.841
  371.000    3.119    0.523    0.230  170.578  113.860
  371.250    3.034    0.511    0.195  171.338  111.693
  371.500    2.963    0.500    0.209  171.163  108.403
  371.750    2.943    0.536    0.225  170.879  108.669
  372.000    2.924    0.575    0.242  170.591  109.310
  372.250    2.877    0.559    0.214  170.620  105.957
  372.500    2.842    0.520    0.220  170.130  109.470
  372.750    2.818    0.526    0.232  169.324  109.739
  373.000    2.820    0.517    0.224  169.043  109.380
  373.250    2.855    0.494    0.197  168.349  112.081
  373.500    2.901    0.497    0.200  167.956  109.416
  373.750    2.964    0.512    0.201  167.568  103.503
  374.000    3.139    0.485    0.148  166.869   96.780
  374.250    3.472    0.426    0.110  165.337   90.617
  374.500    4.275    0.420    0.169  163.182   81.835
  374.750    5.404    0.435    0.218  160.506   74.049
  375.000    5.899    0.427    0.259  157.726   64.140
  375.250    5.948    0.409    0.327  156.196   59.976
  375.500    5.908    0.421    0.322  155.808   61.180
  375.750    5.836    0.444    0.320  156.047   63.632
  376.000    5.721    0.445    0.324  156.594   66.582
  376.250    5.619    0.439    0.324  156.936   71.530
  376.500    5.551    0.447    0.319  157.587   72.234
  376.750    5.504    0.449    0.308  157.824   70.191
  377.000    5.467    0.425    0.267  158.374   74.766
  377.250    5.462    0.438    0.255  158.300   82.274
  377.500    5.414    0.447    0.250  157.811   87.225
  377.750    5.358    0.440    0.254  157.732   91.047
  378.000    5.332    0.416    0.253  158.076   94.871
  378.250    5.307    0.435    0.235  158.727   97.698
  378.500    5.293    0.440    0.224  159.276   96.717
  378.750    5.238    0.441    0.248  159.937   90.804
  379.000    5.125    0.418    0.256  160.169   86.143
  379.250    4.940    0.401    0.252  160.405   83.787
  379.500    4.796    0.424    0.250  160.744   89.233
  379.750    4.791    0.482    0.237  160.984   98.677
  380.000    4.814    0.482    0.209  161.219  105.309
  380.250    4.901    0.449    0.218  161.247  114.191
  380.500    5.112    0.424    0.235  160.865  118.140
  380.750    5.436    0.425    0.231  160.368  109.794
  381.000    5.988    0.412    0.190  159.876  103.444
  381.250    6.661    0.372    0.098  159.182   89.417
  381.500    6.934    0.375    0.118  158.690   76.951
  381.750    6.941    0.387    0.167  158.093   80.526
  382.000    6.792    0.394    0.260  157.495   89.157
  382.250    6.424    0.405    0.230  157.319   93.918
  382.500    6.157    0.423    0.221  157.555   98.620
  382.750    5.868    0.440    0.215  159.351  101.631
  383.000    5.406    0.448    0.202  166.664  105.082
  383.250    5.056    0.475    0.188  169.189  109.343
  383.500    4.928    0.489    0.195  170.259  113.605
  383.750    4.905    0.496    0.205  169.141  114.996
  384.000    5.204    0.460    0.220  167.201  103.218
  384.250    5.480    0.428    0.230  166.079   97.303
  384.500    5.848    0.405    0.232  164.028   91.079
  384.750    6.493    0.387    0.236  160.833   85.167
  385.000    6.837    0.383    0.253  157.118   81.188
  385.250    6.602    0.373    0.265  154.646   79.646
  385.500    6.048    0.385    0.267  153.847   87.403
  385.750    5.667    0.401    0.236  154.393   97.533
  386.000    5.281    0.417    0.232  155.984  102.605
  386.250    4.874    0.445    0.239  157.887  107.367
  386.500    4.980    0.460    0.239  159.266  103.203
  386.750    5.395    0.458    0.227  160.232   96.666
  387.000    5.618    0.428    0.224  160.781   91.066
  387.250    5.783    0.422    0.229  160.604   85.777
  387.500    5.953    0.439    0.228  160.630   89.602
  387.750    6.211    0.451    0.218  160.347   94.988
  388.000    6.665    0.428    0.222  160.171   95.193
  388.250    7.006    0.401    0.225  159.988   99.266
  388.500    7.053    0.378    0.222  159.917  105.525
  388.750    7.152    0.365    0.210  159.943  112.409
  389.000    7.308    0.364    0.207  159.773  109.119
  389.250    7.539    0.352    0.211  159.695  103.330
  389.500    7.908    0.382    0.224  159.408  100.478
  389.750    8.423    0.401    0.234  158.917   95.313
  390.000    9.022    0.410    0.242  158.007   88.027
  390.250    9.810    0.411    0.264  157.410   68.195
  390.500   10.312    0.413    0.327  156.503   47.115
  390.750   10.243    0.407    0.339  155.283   43.388
  391.000    9.853    0.386    0.325  154.798   44.655
  391.250    9.391    0.390    0.302  154.931   47.916
  391.500    8.783    0.413    0.293  155.375   52.865
  391.750    8.214    0.425    0.301  156.239   53.319
  392.000    7.785    0.397    0.304  156.993   53.087
  392.250    7.294    0.388    0.280  157.747   58.972
  392.500    6.860    0.411    0.278  158.296   66.666
  392.750    6.526    0.426    0.294  158.639   56.448
  393.000    6.138    0.424    0.304  158.667   47.164
  393.250    5.894    0.402    0.315  158.384   38.318
  393.500    5.745    0.351    0.274  157.787   46.326
  393.750    5.654    0.392    0.244  158.131   72.121
  394.000    5.520    0.427    0.214  158.469   94.485
  394.250    5.454    0.467    0.211  158.812  103.615
  394.500    5.520    0.463    0.220  159.571   98.327
  394.750    5.599    0.438    0.229  160.115   89.794
  395.000    5.667    0.405    0.232  160.774   90.373
  395.250    5.715    0.407    0.229  161.110   99.754
  395.500    5.688    0.415    0.219  161.144  105.014
  395.750    5.370    0.426    0.204  160.966  108.964
  396.000    5.032    0.425    0.193  160.683  110.977
  396.250    4.507    0.409    0.204  160.922  107.813
  396.500    3.743    0.469    0.225  161.360  108.765
  396.750    3.296    0.527    0.209  162.635  120.517
  397.000    3.077    0.588    0.196  164.641  126.652
  397.250    2.982    0.583    0.182  167.792  123.987
  397.500    2.907    0.519    0.167  170.736  121.817
  397.750    2.829    0.500    0.187  170.871  120.400
  398.000    2.847    0.528    0.211  170.794  122.041
  398.250    2.914    0.543    0.219  171.654  127.239
  398.500    2.967    0.557    0.208  173.765  132.124
  398.750    3.072    0.569    0.209  177.744  138.073
  399.000    3.385    0.550    0.220  181.624  139.276
  399.250    3.793    0.478    0.228  182.171  131.115
  399.500    4.340    0.441    0.238  177.416  124.578
  399.750    5.050    0.430    0.229  172.034  123.098
  400.000    5.045    0.403    0.217  168.841  123.052
  400.250    5.087    0.415    0.219  169.187  123.507
  400.500    5.179    0.423    0.203  169.937  122.276
  400.750    5.262    0.424    0.197  171.114  120.233
  401.000    5.336    0.432    0.186  171.036  116.506
  401.250    5.411    0.454    0.217  169.816  111.280
  401.500    5.551    0.475    0.237  167.349  105.493
  401.750    5.791    0.449    0.236  165.298  102.514
  402.000    6.053    0.445    0.212  163.350  100.909
  402.250    6.302    0.449    0.231  161.506   98.866
  402.500    7.036    0.462    0.256  159.561   94.015
  402.750    7.665    0.455    0.297  158.026   82.796
  403.000    7.876    0.457    0.318  157.221   74.325
  403.250    7.779    0.471    0.336  155.794   72.407
  403.500    7.513    0.456    0.343  155.822   72.237
  403.750    6.856    0.426    0.331  156.792   74.689
  404.000    6.293    0.427    0.294  159.002   79.638
  404.250    6.032    0.435    0.273  161.839   85.085
  404.500    5.846    0.429    0.264  163.432   90.721
  404.750    5.720    0.461    0.251  163.772  101.286
  405.000    5.693    0.497    0.269  162.765  107.170
  405.250    5.634    0.515    0.309  161.332   95.578
  405.500    5.555    0.495    0.311  160.424   75.496
  405.750    5.487    0.448    0.299  160.141   79.198
  406.000    5.419    0.463    0.286  159.860   85.393
  406.250    5.354    0.486    0.304  159.787   83.352
