~VERSION INFORMATION
 VERS.                 2.0:   CWLS LOG ASCII STANDARD -VERSION 2.0
 WRAP.                  NO:   ONE LINE PER DEPTH STEP
~WELL INFORMATION BLOCK
#MNEM.UNIT           DATA                    DESCRIPTION OF MNEMONIC
#---------    -------------------            -------------------------------
# Generated from Intellog Unique Number	CS_73_76/WELL/3230
WELL.         HOME OIL COMPANY LIMITED       : Well_name    - WELL
LOC .         00/10-06-076-07W4/0            : Location     - LOCATION
UWI .         00/10-06-076-07W4/0            : Uwi          - UNIQUE WELL ID
ENTR.         SP                             : Entered      - ENTERED BY
SRVC.         SCHLUMBERGER                   : Scn          - SERVICE COMPANY
STRT.M        237.744                        : top_depth    - START DEPTH
STOP.M        459.994                        : bot_depth    - STOP DEPTH
STEP.M        0.25                           : increment    - STEP LENGTH
 NULL. -999.2500:NULL Value
~CURVE INFORMATION BLOCK
#MNEM UNIT       ERCB CURVE CODE    CURVE DESCRIPTION
#-----------   ------------------   ----------------------------------
DEPT.M        00 001 00 00         : DEPTH        - DEPTH
GR  .API      00 310 00 00         : GR           - GAMMA RAY
DPHI.V/V      00 890 00 00         : PHID         - DENSITY POROSITY (SANDSTONE)
NPHI.V/V      00 330 00 00         : PHIN         - NEUTRON POROSITY (SANDSTONE)
ILD .OHMM     00 120 00 00         : RESD         - DEEP RESISTIVITY (DIL)
~PARAMETER INFORMATION
#MNEM.UNIT           DATA             DESCRIPTION OF MNEMONIC
#---------         -----------     ------------------------------
GL  .M        647.669              : gl           - GROUND LEVEL ELEVATION
EREF.M        651.51               : kb           - ELEVATION OF DEPTH REFERENCE
DATM.M        647.669              : datum        - DATUM ELEVATION
TDD .M        488.899              : tdd          - TOTAL DEPTH DRILLER
RUN .         ONE                  : Run          - RUN NUMBER
ENG .         BILL                 : Engineer     - RECORDING ENGINEER
WIT .         JIM                  : Witness      - WITNESSED BY
MUD .         GEL                  : Mud_type     - MUD TYPE
MATR.         SANDSTONE            : Logunit      - NEUTRON MATRIX
TMAX.C        15                   : BHT          - MAXIMUM RECORDED TEMPERATURE
BHTD.M        488.899              : BHTDEP       - MAXIMUM RECORDED TEMPERATURE
MATR.         1                    : LOGUNIT      - NEUTRON MATRIX
RMT .C        25                   : MDTP         - TEMPERATURE OF MUD
NEUT.         1                    : NEUTRON      - NEUTRON TYPE
RESI.         0                    : RESIST       - RESISTIVITY TYPE
RMC .OHMM     0.25                 : RMC          - RESISTIVITY OF MUD CAKE
RMF .OHMM     0.25                 : RMF          - RESISTIVITY OF MUD FILTRATE
SUFT.C        15                   : SUFT         - SURFACE TEMPERATURE
~A  DEPTH       GR     PHID     PHIN     RESD
# ...
  411.744   93.878    0.135    0.508    3.017
  411.994   92.431    0.125    0.493    3.155
  412.244   89.339    0.126    0.505    3.516
  412.494   84.760    0.148    0.511    4.028
  412.744   80.198    0.172    0.498    4.590
  412.994   77.287    0.196    0.483    5.087
  413.244   75.615    0.238    0.465    6.018
  413.494   73.992    0.234    0.452    6.457
  413.744   73.564    0.192    0.435    6.552
  413.994   73.843    0.195    0.423    6.565
  414.244   76.564    0.206    0.419    6.275
  414.494   77.942    0.263    0.446    5.617
  414.744   80.323    0.303    0.489    5.388
  414.994   82.458    0.313    0.508    5.430
  415.244   74.073    0.259    0.502    6.169
  415.494   64.540    0.231    0.490    7.587
  415.744   59.541    0.201    0.452    9.627
  415.994   56.036    0.196    0.407   13.114
  416.244   55.587    0.215    0.381   19.072
  416.494   59.367    0.226    0.367   20.305
  416.744   64.508    0.218    0.361   19.129
  416.994   69.594    0.199    0.367   17.539
  417.244   74.645    0.182    0.364   16.003
  417.494   78.346    0.165    0.354   13.766
  417.744   81.228    0.152    0.346   12.593
  417.994   79.666    0.143    0.348   11.208
  418.244   78.625    0.138    0.349   10.809
  418.494   79.928    0.132    0.340   10.467
  418.744   82.284    0.129    0.328   10.336
  418.994   84.351    0.124    0.320   10.227
  419.244   85.381    0.119    0.332   10.083
  419.494   82.841    0.140    0.338    9.870
  419.744   79.656    0.144    0.345    9.893
  419.994   80.248    0.153    0.350    9.728
  420.244   82.336    0.140    0.364    9.725
  420.494   83.686    0.131    0.392    9.513
  420.744   87.864    0.125    0.383    9.395
  420.994   90.008    0.117    0.375    9.098
  421.244   92.023    0.113    0.372    8.818
  421.494   91.781    0.120    0.371    8.385
  421.744   91.638    0.132    0.364    8.169
  421.994   93.769    0.138    0.362    8.189
  422.244   91.444    0.139    0.370    8.019
  422.494   89.411    0.143    0.375    8.030
  422.744   90.002    0.159    0.381    8.028
  422.994   92.251    0.141    0.391    7.952
  423.244   94.482    0.135    0.386    7.882
  423.494   94.470    0.123    0.381    7.878
  423.744   94.806    0.115    0.384    7.877
  423.994   96.162    0.124    0.391    7.875
  424.244   99.671    0.125    0.368    7.989
  424.494  101.648    0.136    0.369    8.021
  424.744  105.198    0.130    0.382    8.025
  424.994  101.724    0.128    0.397    8.029
  425.244   97.596    0.132    0.389    8.061
  425.494   96.119    0.120    0.378    8.178
  425.744   95.323    0.115    0.376    8.176
  425.994   92.252    0.136    0.378    8.174
  426.244   94.528    0.143    0.374    8.173
  426.494   95.815    0.147    0.369    8.172
  426.744   95.378    0.163    0.386    8.172
  426.994   94.736    0.153    0.379    8.171
  427.244   95.891    0.152    0.373    8.170
  427.494   97.243    0.129    0.378    8.170
  427.744   99.262    0.114    0.382    8.169
  427.994  101.342    0.123    0.382    8.171
  428.244  104.971    0.135    0.383    8.164
  428.494  108.084    0.138    0.387    8.321
  428.744  106.167    0.149    0.395    8.516
  428.994   99.944    0.151    0.399    8.928
  429.244   93.820    0.161    0.398    9.503
  429.494   81.547    0.177    0.401   10.123
  429.744   74.625    0.180    0.413   11.130
  429.994   72.999    0.206    0.395   11.800
  430.244   77.915    0.194    0.387   11.891
  430.494   80.774    0.174    0.390   11.905
  430.744   83.767    0.165    0.391   11.511
  430.994   87.383    0.177    0.390   11.027
  431.244   93.066    0.179    0.388   10.572
  431.494   97.225    0.171    0.386    9.917
  431.744   99.952    0.155    0.388    9.500
  431.994  104.683    0.147    0.397    8.936
  432.244  108.122    0.140    0.399    8.404
  432.494  111.007    0.127    0.397    7.893
  432.744  112.541    0.128    0.392    7.670
  432.994  113.330    0.123    0.397    7.125
  433.244  111.601    0.118    0.402    7.143
  433.494  111.279    0.109    0.402    7.355
  433.744  107.824    0.125    0.412    7.424
  433.994  107.660    0.143    0.415    7.574
  434.244  108.557    0.161    0.413    7.604
  434.494  107.910    0.154    0.399    7.705
  434.744  104.390    0.151    0.386    7.799
  434.994  102.648    0.158    0.380    7.872
  435.244   99.216    0.139    0.385    8.123
  435.494   88.794    0.125    0.397    8.564
  435.744   78.473    0.147    0.407    8.831
  435.994   72.592    0.154    0.410    9.407
  436.244   69.512    0.154    0.389   10.068
  436.494   68.947    0.156    0.372   11.048
  436.744   71.394    0.161    0.381   11.923
  436.994   71.403    0.174    0.389   12.800
  437.244   59.676    0.201    0.397   14.066
  437.494   52.006    0.213    0.404   15.262
  437.744   51.159    0.220    0.383   15.627
  437.994   52.385    0.219    0.357   14.623
  438.244   56.012    0.214    0.347   13.664
  438.494   61.331    0.206    0.356   11.855
  438.744   68.317    0.152    0.365   10.681
  438.994   74.875    0.121    0.366    9.870
  439.244   80.480    0.122    0.352    9.821
  439.494   71.986    0.127    0.357    9.942
  439.744   61.226    0.159    0.368   10.497
  439.994   59.676    0.186    0.352   10.808
  440.244   60.112    0.161    0.357   11.508
  440.494   61.431    0.166    0.373   12.297
  440.744   63.897    0.173    0.393   13.502
  440.994   64.197    0.192    0.414   15.240
  441.244   57.211    0.225    0.429   18.278
  441.494   53.639    0.254    0.434   21.108
  441.744   52.940    0.250    0.434   24.643
  441.994   52.123    0.255    0.439   28.201
  442.244   47.506    0.257    0.464   32.406
  442.494   42.468    0.290    0.466   36.262
  442.744   42.164    0.268    0.406   39.650
  442.994   44.662    0.242    0.382   40.413
  443.244   45.816    0.226    0.397   36.899
  443.494   46.257    0.252    0.410   33.264
  443.744   50.672    0.259    0.412   27.845
  443.994   54.913    0.220    0.401   24.412
  444.244   60.008    0.194    0.388   22.057
  444.494   62.448    0.195    0.379   21.810
  444.744   55.818    0.198    0.383   22.605
  444.994   46.868    0.210    0.392   26.535
  445.244   39.991    0.227    0.404   34.619
  445.494   39.478    0.249    0.402   33.640
  445.744   39.546    0.237    0.393   31.814
  445.994   46.410    0.234    0.388   29.279
  446.244   51.844    0.213    0.382   30.380
  446.494   55.862    0.198    0.376   31.051
  446.744   59.999    0.209    0.384   27.369
  446.994   49.173    0.221    0.405   23.308
  447.244   49.090    0.247    0.406   19.570
  447.494   61.156    0.248    0.393   15.890
  447.744   78.111    0.224    0.382   13.879
  447.994   90.040    0.127    0.365   11.477
  448.244   87.940    0.083    0.358   10.549
  448.494   80.811    0.094    0.355   10.656
  448.744   64.554    0.146    0.351   12.123
  448.994   57.771    0.202    0.376   14.160
  449.244   54.117    0.208    0.405   18.099
  449.494   49.023    0.213    0.406   21.755
  449.744   44.689    0.224    0.404   25.636
  449.994   45.634    0.237    0.387   27.597
  450.244   49.845    0.247    0.378   25.573
  450.494   51.433    0.249    0.371   22.895
  450.744   50.995    0.230    0.367   20.549
  450.994   52.805    0.235    0.362   20.106
  451.244   56.463    0.192    0.360   23.144
  451.494   57.084    0.203    0.398   24.710
  451.744   52.140    0.219    0.382   18.218
  451.994   48.941    0.236    0.360   14.733
  452.244   50.459    0.203    0.340   13.823
  452.494   58.956    0.206    0.339   11.497
  452.744   64.690    0.160    0.345    9.599
  452.994   74.702    0.153    0.353    8.273
  453.244   81.050    0.132    0.347    7.800
  453.494   85.203    0.089    0.337    8.354
  453.744   84.227    0.102    0.332    9.031
  453.994   75.178    0.117    0.343    9.728
  454.244   72.960    0.144    0.347   10.655
  454.494   68.536    0.160    0.360   11.445
  454.744   65.156    0.184    0.365   11.597
  454.994   60.553    0.240    0.380   10.193
