~VERSION INFORMATION
 VERS.                 2.0:   CWLS LOG ASCII STANDARD -VERSION 2.0
 WRAP.                  NO:   ONE LINE PER DEPTH STEP
~WELL INFORMATION BLOCK
#MNEM.UNIT           DATA                    DESCRIPTION OF MNEMONIC
#---------    -------------------            -------------------------------
# Generated from Intellog Unique Number	CC_80_83/WELL/2439
NULL.         -999.25                        : NULL_VALUE
WELL.         CWWE CORNER                    : Well_name    - WELL
LOC .         15-10-080-10W4                 : Location     - LOCATION          
UWI .         00/15-10-080-10W400            : Uwi          - UNIQUE WELL ID    
ENTR.         DW                             : Entered      - ENTERED BY        
SRVC.         SCHLUMBERGER                   : Scn          - SERVICE COMPANY   
DATE.         15 JAN 85                      : Date         - LOG DATE
STRT.M        260                            : top_depth    - START DEPTH       
STOP.M        494.89                         : bot_depth    - STOP DEPTH        
STEP.M        0.3                            : increment    - STEP LENGTH       
~CURVE INFORMATION BLOCK
#MNEM UNIT       ERCB CURVE CODE    CURVE DESCRIPTION
#-----------   ------------------   ----------------------------------
DEPT.M        00 001 00 00         : DEPTH        - DEPTH                       
DPHI.V/V      00 890 00 00         : PHID         - DENSITY POROSITY (LIMESTONE)
NPHI.V/V      00 330 00 00         : PHIN         - NEUTRON POROSITY (LIMESTONE)
GR  .API      00 310 00 00         : GR           - GAMMA RAY                   
ILD .OHMM     00 120 00 00         : RESD         - DEEP RESISTIVITY (DIL)      
~PARAMETER INFORMATION       
#MNEM.UNIT           DATA             DESCRIPTION OF MNEMONIC
#---------         -----------     ------------------------------
GL  .M        696                  : gl           - GROUND LEVEL ELEVATION      
EREF.M        699.2                : kb           - ELEVATION OF DEPTH REFERENCE
DATM.M        699.2                : datum        - DATUM ELEVATION             
TDD .M        504                  : tdd          - TOTAL DEPTH DRILLER         
RUN .         ONE                  : Run          - RUN NUMBER                  
ENG .         BILL                 : Engineer     - RECORDING ENGINEER          
WIT .         JIM                  : Witness      - WITNESSED BY                
MUD .         GEL                  : Mud_type     - MUD TYPE                    
MATR.         LIMESTONE            : Logunit      - NEUTRON MATRIX              
TMAX.C        22                   : BHT          - MAXIMUM RECORDED TEMPERATURE
BHTD.M        502                  : BHTDEP       - MAXIMUM RECORDED TEMPERATURE
MATR.         1                    : LOGUNIT      - NEUTRON MATRIX              
RMT .C        25                   : MDTP         - TEMPERATURE OF MUD          
NEUT.         1                    : NEUTRON      - NEUTRON TYPE                
RESI.         0                    : RESIST       - RESISTIVITY TYPE            
RMC .OHMM     0.25                 : RMC          - RESISTIVITY OF MUD CAKE     
RMF .OHMM     0.25                 : RMF          - RESISTIVITY OF MUD FILTRATE 
SUFT.C        15                   : SUFT         - SURFACE TEMPERATURE         
~A  DEPTH     PHID     PHIN       GR     RESD
# ...
  416.594    0.271    0.468   77.892    7.036
  416.894    0.358    0.436   80.360    7.035
  417.194    0.344    0.424   84.063    7.033
  417.494    0.282    0.438   82.210    6.761
  417.794    0.263    0.455   87.764    6.759
  418.094    0.226    0.470   92.084    6.889
  418.394    0.231    0.494   85.293    7.300
  418.694    0.246    0.493   88.378    7.587
  418.994    0.273    0.458   92.080    7.585
  419.294    0.265    0.422   93.314    7.436
  419.594    0.271    0.408   95.782    7.290
  419.893    0.288    0.408   94.546    6.875
  420.193    0.313    0.445   85.905    5.998
  420.493    0.455    0.456   80.966    5.132
  420.793    0.344    0.470   81.582    4.307
  421.093    0.282    0.495   82.199    3.545
  421.393    0.288    0.532   79.729    2.596
  421.693    0.359    0.586   77.876    2.015
  421.993    0.348    0.576   74.789    1.828
  422.293    0.349    0.580   74.171    1.758
  422.593    0.390    0.591   76.022    1.791
  422.893    0.374    0.598   77.255    2.013
  423.193    0.344    0.592   72.934    2.444
  423.493    0.362    0.515   73.550    3.270
  423.793    0.364    0.510   79.104    3.970
  424.093    0.318    0.514   76.634    5.011
  424.393    0.267    0.509   80.954    5.741
  424.693    0.257    0.488   83.422    7.533
  424.993    0.230    0.435   72.928    8.798
  425.293    0.134    0.352   71.076    9.144
  425.593    0.216    0.366   78.481    7.824
  425.893    0.235    0.405   82.801    6.194
  426.193    0.252    0.433   85.886    4.808
  426.493    0.267    0.466   88.354    4.278
  426.793    0.296    0.495   91.439    3.589
  427.093    0.286    0.508   92.672    3.385
  427.393    0.285    0.498   93.288    3.384
  427.693    0.287    0.480   89.584    3.875
  427.993    0.292    0.479   85.880    4.107
  428.293    0.300    0.504   82.793    3.949
  428.593    0.308    0.503   82.175    3.652
  428.893    0.290    0.489   87.729    3.444
  429.193    0.292    0.496   96.369    3.377
  429.493    0.272    0.490  101.306    3.246
  429.793    0.252    0.480   94.515    3.309
  430.093    0.272    0.485   90.811    3.507
  430.393    0.281    0.500   87.107    3.789
  430.693    0.267    0.484   90.192    4.094
  430.993    0.264    0.458   95.746    4.510
  431.293    0.254    0.438   82.784    5.166
  431.593    0.204    0.422   77.228    5.582
  431.893    0.167    0.396   79.079    5.801
  432.193    0.220    0.393   84.015    5.577
  432.493    0.244    0.465   86.483    5.575
  432.793    0.201    0.424   85.865    5.682
  433.093    0.216    0.403   90.802    5.906
  433.393    0.206    0.437   93.270    6.381
  433.693    0.180    0.444   83.394    6.762
  433.993    0.221    0.402   72.900    7.897
  434.293    0.259    0.409   69.813   10.568
  434.593    0.332    0.421   68.578   29.604
  434.893    0.340    0.423   64.256   36.647
  435.193    0.342    0.416   61.169   34.560
  435.493    0.330    0.403   60.551   29.001
  435.793    0.309    0.399   73.511   24.817
  436.093    0.289    0.397   79.683   19.266
  436.393    0.275    0.392   72.892   16.485
  436.693    0.257    0.367   71.657   14.383
  436.993    0.238    0.373   80.914   12.547
  437.293    0.209    0.386   87.085   12.065
  437.593    0.226    0.378   88.936   10.943
  437.893    0.234    0.392   94.490   10.727
  438.193    0.246    0.375  101.278   10.519
  438.493    0.216    0.383  117.942    9.541
  438.793    0.210    0.404  121.644    7.852
  439.093    0.219    0.413  109.299    7.404
  439.393    0.235    0.391  109.298    7.402
  439.693    0.248    0.381  113.618    8.155
  439.993    0.200    0.406  108.062    8.811
  440.293    0.246    0.459  101.889   10.492
  440.593    0.239    0.445   51.277   12.017
  440.893    0.272    0.372   47.573   17.048
  441.193    0.256    0.319   69.174   23.259
  441.493    0.127    0.346   83.986   19.519
  441.793    0.131    0.391   83.985   16.701
  442.093    0.133    0.361   82.132   14.015
  442.393    0.172    0.338   79.046   13.217
  442.693    0.243    0.350   72.255   14.559
  442.993    0.263    0.351   61.145   15.133
  443.293    0.331    0.348   64.230   14.550
  443.593    0.302    0.463   95.707   13.197
  443.893    0.177    0.478  105.581   11.291
  444.193    0.189    0.457   93.853   10.243
  444.492    0.215    0.438   77.187   10.238
  444.792    0.244    0.341   57.436   11.502
  445.092    0.265    0.367   62.373   14.803
  445.392    0.274    0.385   79.036   16.309
  445.692    0.254    0.439   95.700   15.083
  445.992    0.235    0.438  100.019   11.485
  446.292    0.275    0.403   87.057   10.217
  446.592    0.299    0.368   72.860   10.413
  446.892    0.309    0.344   64.219   11.926
  447.192    0.319    0.330   64.218   12.639
  447.492    0.341    0.319   59.279   12.882
  447.792    0.344    0.306   46.934   12.879
  448.092    0.332    0.301   42.612   12.381
  448.392    0.327    0.307   41.994   12.138
  448.692    0.329    0.324   44.462   12.374
  448.992    0.357    0.315   52.485   13.370
  449.292    0.363    0.299   64.828   14.167
  449.592    0.359    0.302   71.617   15.012
  449.892    0.332    0.315   78.378   12.860
  450.192    0.316    0.311   78.369   12.360
  450.492    0.334    0.311   64.055   12.593
  450.792    0.320    0.316   55.338   13.342
  451.092    0.317    0.315   47.245   14.695
  451.392    0.352    0.280   39.150   16.188
  451.692    0.363    0.269   45.984   17.836
  451.992    0.368    0.275   45.355   20.032
  452.292    0.365    0.281   33.529   21.641
  452.592    0.360    0.278   36.007   22.488
  452.892    0.360    0.276   39.732   23.364
  453.192    0.362    0.270   41.591   24.277
  453.492    0.372    0.280   40.963   25.715
  453.792    0.377    0.286   32.868   26.719
  454.092    0.366    0.264   23.530   26.701
  454.392    0.361    0.254   27.877   26.682
  454.692    0.368    0.249   57.105   26.148
  454.992    0.373    0.269   59.586   26.128
  455.292    0.375    0.285   47.138   26.622
  455.592    0.361    0.263   34.066   27.120
  455.892    0.354    0.251   39.654   27.637
  456.192    0.351    0.281   41.514   28.166
  456.492    0.365    0.283   39.017   31.018
  456.792    0.376    0.264   37.768   32.237
  457.092    0.380    0.254   35.271   36.205
  457.392    0.376    0.261   34.640   40.661
  457.692    0.378    0.266   36.500   43.932
  457.992    0.381    0.270   40.848   45.650
  458.292    0.372    0.283   44.572   45.616
  458.592    0.366    0.302   42.076   45.578
  458.892    0.383    0.289   37.092   47.359
  459.192    0.386    0.288   32.108   53.196
  459.492    0.356    0.316   31.479   62.137
  459.792    0.331    0.350   43.290   81.573
  460.092    0.330    0.371   46.392   97.139
  460.392    0.339    0.375   39.541  109.143
  460.692    0.346    0.385   33.936  125.011
  460.992    0.351    0.382   32.684  143.174
  461.292    0.344    0.377   38.896  160.815
  461.592    0.336    0.378   48.221  180.641
  461.892    0.334    0.376   46.969  202.904
  462.192    0.349    0.365   41.984  223.522
  462.492    0.356    0.355   41.354  236.802
  462.792    0.345    0.357   42.591  241.326
  463.092    0.342    0.363   41.959  250.688
  463.392    0.349    0.371   40.708  260.495
  463.692    0.360    0.415   36.347  281.423
  463.992    0.361    0.393   32.607  316.079
  464.292    0.354    0.381   35.088  348.228
  464.592    0.350    0.381   34.458  383.612
  464.892    0.355    0.383   31.340  398.557
  465.192    0.363    0.385   33.822  398.259
  465.492    0.365    0.387   39.411  327.479
  465.792    0.356    0.383   40.648  285.454
  466.092    0.345    0.388   36.908  279.781
  466.392    0.355    0.403   32.547  302.226
  466.692    0.366    0.381   40.624  339.517
  466.992    0.349    0.377   44.350  374.010
  467.292    0.339    0.380   36.877  373.702
  467.592    0.340    0.405   32.516  380.775
  467.892    0.345    0.412   33.130  395.640
  468.192    0.350    0.390   33.120  419.160
  468.492    0.357    0.387   36.847  444.098
