~VERSION INFORMATION
 VERS.                 2.0:   CWLS LOG ASCII STANDARD -VERSION 2.0
 WRAP.                  NO:   ONE LINE PER DEPTH STEP
~WELL INFORMATION BLOCK
#MNEM.UNIT           DATA                    DESCRIPTION OF MNEMONIC
#---------    -------------------            -------------------------------
# Generated from Intellog Unique Number	CS_67_68/WELL/810
WELL.         INTER-CITY MANFACTURING        : Well_name    - WELL
LOC .         00/10-27-068-13W4/0            : Location     - LOCATION
UWI .         00/10-27-068-13W4/0            : Uwi          - UNIQUE WELL ID
ENTR.         SP                             : Entered      - ENTERED BY
SRVC.         SCHLUMBERGER                   : Scn          - SERVICE COMPANY
STRT.M        289.56                         : top_depth    - START DEPTH
STOP.M        469.060                        : bot_depth    - STOP DEPTH
STEP.M        0.25                           : increment    - STEP LENGTH
 NULL. -999.2500:NULL Value
~CURVE INFORMATION BLOCK
#MNEM UNIT       ERCB CURVE CODE    CURVE DESCRIPTION
#-----------   ------------------   ----------------------------------
DEPT.M        00 001 00 00         : DEPTH        - DEPTH
GR  .API      00 310 00 00         : GR           - GAMMA RAY
DPHI.V/V      00 890 00 00         : PHID         - DENSITY POROSITY (SANDSTONE)
NPHI.V/V      00 330 00 00         : PHIN         - NEUTRON POROSITY (SANDSTONE)
ILD .OHMM     00 120 00 00         : RESD         - DEEP RESISTIVITY (DIL)
~PARAMETER INFORMATION
#MNEM.UNIT           DATA             DESCRIPTION OF MNEMONIC
#---------         -----------     ------------------------------
GL  .M        585.911              : gl           - GROUND LEVEL ELEVATION
EREF.M        589.188              : kb           - ELEVATION OF DEPTH REFERENCE
DATM.M        585.835              : datum        - DATUM ELEVATION
TDD .M        474.269              : tdd          - TOTAL DEPTH DRILLER
RUN .         ONE                  : Run          - RUN NUMBER
ENG .         BILL                 : Engineer     - RECORDING ENGINEER
WIT .         JIM                  : Witness      - WITNESSED BY
MUD .         GEL                  : Mud_type     - MUD TYPE
MATR.         SANDSTONE            : Logunit      - NEUTRON MATRIX
TMAX.C        18.8889              : BHT          - MAXIMUM RECORDED TEMPERATURE
BHTD.M        474.269              : BHTDEP       - MAXIMUM RECORDED TEMPERATURE
MATR.         1                    : LOGUNIT      - NEUTRON MATRIX
RMT .C        25                   : MDTP         - TEMPERATURE OF MUD
NEUT.         1                    : NEUTRON      - NEUTRON TYPE
RESI.         0                    : RESIST       - RESISTIVITY TYPE
RMC .OHMM     0.25                 : RMC          - RESISTIVITY OF MUD CAKE
RMF .OHMM     0.25                 : RMF          - RESISTIVITY OF MUD FILTRATE
SUFT.C        15                   : SUFT         - SURFACE TEMPERATURE
~A  DEPTH       GR     PHID     PHIN     RESD
  289.560  111.764    0.238    0.536    2.479
  289.810  112.257    0.233    0.539    2.599
  290.060  110.630    0.226    0.530    2.781
  290.310  108.752    0.215    0.528    2.885
  290.560  110.812    0.209    0.520    2.971
  290.810  112.796    0.206    0.504    3.066
  291.060  111.985    0.207    0.492    3.151
  291.310  109.923    0.205    0.487    3.204
  291.560  108.576    0.201    0.478    3.222
  291.810  108.471    0.216    0.481    3.201
  292.060  109.174    0.207    0.492    3.180
  292.310  111.192    0.195    0.503    3.101
  292.560  113.716    0.190    0.509    3.061
  292.810  116.240    0.221    0.518    2.719
  293.060  115.956    0.220    0.534    2.624
  293.310  111.263    0.211    0.547    2.613
  293.560  107.992    0.208    0.556    2.634
  293.810  105.233    0.226    0.534    2.716
  294.060  103.329    0.220    0.520    2.801
  294.310  101.590    0.211    0.511    2.831
  294.560  100.263    0.204    0.516    2.780
  294.810   93.468    0.216    0.531    2.702
  295.060   84.325    0.247    0.506    2.580
  295.310   81.664    0.231    0.482    2.435
  295.560   88.458    0.219    0.500    2.335
  295.810   88.504    0.215    0.517    2.429
  296.060   87.406    0.226    0.513    2.699
  296.310   89.843    0.214    0.520    3.172
  296.560   93.054    0.211    0.530    3.596
  296.810   95.583    0.176    0.466    3.914
  297.060   98.977    0.165    0.434    4.234
  297.310  101.848    0.223    0.412    4.427
  297.560  103.889    0.221    0.434    4.493
  297.810  105.623    0.201    0.442    4.474
  298.060  106.924    0.194    0.438    4.423
  298.310  108.054    0.183    0.443    4.416
  298.560  109.649    0.212    0.451    4.432
  298.810  102.855    0.186    0.453    4.642
  299.060   95.050    0.212    0.442    4.941
  299.310   90.400    0.247    0.371    5.597
  299.560   85.561    0.281    0.335    6.292
  299.810   79.570    0.328    0.246    7.285
  300.060   73.621    0.388    0.221    8.148
  300.310   71.121    0.366    0.250    8.813
  300.560   70.604    0.340    0.264    8.790
  300.810   69.569    0.321    0.277    8.460
  301.060   66.577    0.308    0.283    8.220
  301.310   63.715    0.300    0.256    8.637
  301.560   61.453    0.330    0.216    9.560
  301.810   60.530    0.368    0.201   10.074
  302.060   62.617    0.381    0.197   10.630
  302.310   65.748    0.388    0.199    9.469
  302.560   70.723    0.388    0.241    7.809
  302.810   74.763    0.384    0.276    6.230
  303.060   77.465    0.372    0.309    4.829
  303.310   80.659    0.345    0.361    3.898
  303.560   89.974    0.322    0.397    3.333
  303.810  101.420    0.254    0.410    2.987
  304.060  107.205    0.219    0.413    2.793
  304.310  109.025    0.235    0.418    2.723
  304.560  108.980    0.253    0.423    2.848
  304.810  102.914    0.264    0.427    3.089
  305.060  107.145    0.251    0.418    3.217
  305.310  113.635    0.238    0.409    3.381
  305.560  116.446    0.225    0.403    3.591
  305.810  117.808    0.207    0.404    3.759
  306.060  119.362    0.195    0.418    3.920
  306.310  122.902    0.186    0.423    4.036
  306.560  119.754    0.161    0.437    3.975
  306.810  111.367    0.144    0.463    3.687
  307.060  110.308    0.161    0.479    3.293
  307.310  116.498    0.206    0.500    2.862
  307.560  119.239    0.238    0.521    2.518
  307.810  114.572    0.253    0.548    2.329
  308.060  108.116    0.267    0.570    2.267
  308.310  102.529    0.284    0.593    2.469
  308.560   97.797    0.301    0.385    2.745
  308.810   91.406    0.309    0.382    2.962
  309.060   89.746    0.284    0.397    3.199
  309.310   94.025    0.265    0.411    3.356
  309.560   97.594    0.249    0.421    3.429
  309.810   99.036    0.247    0.428    3.452
  310.060  100.554    0.256    0.437    3.389
  310.310  102.847    0.270    0.442    3.242
  310.560  100.578    0.277    0.449    3.175
  310.810   96.168    0.262    0.455    3.151
  311.060   92.994    0.245    0.465    3.244
  311.310   91.609    0.252    0.473    3.315
  311.560   97.473    0.259    0.477    3.422
  311.810  103.535    0.245    0.478    3.509
  312.060  111.251    0.246    0.474    3.609
  312.310  117.096    0.236    0.467    3.725
  312.560  122.550    0.207    0.474    3.798
  312.810  125.039    0.192    0.487    3.879
  313.060  125.592    0.183    0.491    3.896
  313.310  122.198    0.176    0.491    3.874
  313.560  116.955    0.168    0.491    3.804
  313.810  114.186    0.193    0.495    3.679
  314.060  113.381    0.223    0.506    3.485
  314.310  111.415    0.213    0.509    3.339
  314.560  108.737    0.225    0.501    3.357
  314.810  116.675    0.216    0.491    3.566
  315.060  125.653    0.202    0.482    3.695
  315.310  118.346    0.252    0.478    3.697
  315.560  109.985    0.266    0.465    3.451
  315.810   99.804    0.254    0.452    3.096
  316.060   93.444    0.274    0.439    2.758
  316.310   87.898    0.289    0.441    2.566
  316.560   88.809    0.298    0.441    2.420
  316.810   92.538    0.314    0.438    2.329
  317.060   97.642    0.321    0.437    2.388
  317.310  103.585    0.319    0.438    2.563
  317.560  106.696    0.297    0.441    2.735
  317.810  104.533    0.284    0.444    2.983
  318.060  102.111    0.276    0.451    3.161
  318.310  104.213    0.265    0.457    3.245
  318.560  106.527    0.257    0.458    3.303
  318.810  108.220    0.246    0.457    3.348
  319.060  109.784    0.234    0.462    3.348
  319.310  110.845    0.240    0.463    3.306
  319.560  107.757    0.255    0.454    3.267
  319.810  118.647    0.258    0.444    3.219
  320.060  127.231    0.276    0.438    3.203
  320.310  135.172    0.268    0.449    3.214
  320.560  142.003    0.261    0.461    3.227
  320.810  146.693    0.256    0.469    3.247
  321.060  148.997    0.251    0.476    3.259
  321.310  146.628    0.262    0.475    3.257
  321.560  136.681    0.277    0.467    3.235
  321.810  117.951    0.267    0.460    3.177
  322.060   98.574    0.260    0.454    3.114
  322.310   89.509    0.277    0.454    3.026
  322.560   91.392    0.289    0.453    2.929
  322.810   96.708    0.285    0.456    2.862
  323.060  100.800    0.295    0.467    2.799
  323.310  103.380    0.317    0.474    2.744
  323.560  106.112    0.326    0.467    2.696
  323.810  107.863    0.315    0.462    2.686
  324.060  108.563    0.309    0.464    2.707
  324.310  109.104    0.292    0.465    2.749
  324.560  109.012    0.312    0.457    2.795
  324.810  107.161    0.312    0.451    2.834
  325.060  107.711    0.302    0.451    2.939
  325.310  109.791    0.299    0.456    3.056
  325.560  111.907    0.293    0.460    3.186
  325.810  113.930    0.307    0.461    3.324
  326.060  114.072    0.280    0.461    3.428
  326.310  112.459    0.294    0.462    3.510
  326.560  112.760    0.302    0.464    3.504
  326.810  116.147    0.306    0.469    3.410
  327.060  119.228    0.302    0.469    3.229
  327.310  122.949    0.285    0.467    3.068
  327.560  125.410    0.276    0.463    2.973
  327.810  123.444    0.273    0.457    2.879
  328.060  121.066    0.293    0.452    2.779
  328.310  117.068    0.313    0.455    2.698
  328.560  111.195    0.298    0.461    2.625
  328.810  105.436    0.286    0.465    2.564
  329.060  104.440    0.276    0.481    2.483
  329.310  102.923    0.264    0.496    2.443
  329.560  101.253    0.273    0.516    2.439
  329.810  100.046    0.257    0.510    2.489
  330.060   99.474    0.252    0.499    2.628
  330.310  100.013    0.271    0.490    2.790
  330.560  100.513    0.285    0.470    2.948
  330.810   99.902    0.272    0.457    3.050
  331.060  101.056    0.268    0.444    3.114
  331.310  103.481    0.271    0.440    3.159
  331.560  101.912    0.260    0.441    3.093
  331.810   95.040    0.253    0.459    2.967
  332.060   89.964    0.249    0.490    2.776
  332.310   87.102    0.263    0.506    2.676
  332.560   82.835    0.297    0.493    2.663
  332.810   84.224    0.309    0.481    2.714
