~VERSION INFORMATION
 VERS.                 2.0:   CWLS LOG ASCII STANDARD -VERSION 2.0
 WRAP.                  NO:   ONE LINE PER DEPTH STEP
~WELL INFORMATION BLOCK
#MNEM.UNIT           DATA                    DESCRIPTION OF MNEMONIC
#---------    -------------------            -------------------------------
# Generated from Intellog Unique Number	CW_79_81/WELL/903
WELL.         11-12-079-25W4                 : Well_name    - WELL
LOC .         00/11-12-079-25W4/0            : Location     - LOCATION
UWI .         00/11-12-079-25W4/0            : Uwi          - UNIQUE WELL ID
ENTR.         MAX                            : Entered      - ENTERED BY
SRVC.         SCHLUMBERGER                   : Scn          - SERVICE COMPANY
STRT.M        240                            : top_depth    - START DEPTH
STOP.M        455                            : bot_depth    - STOP DEPTH
STEP.M        0.25                           : increment    - STEP LENGTH
 NULL. -999.2500:NULL Value
~CURVE INFORMATION BLOCK
#MNEM UNIT       ERCB CURVE CODE    CURVE DESCRIPTION
#-----------   ------------------   ----------------------------------
DEPT.M        00 001 00 00         : DEPTH        - DEPTH
ILD .OHMM     00 120 00 00         : RESD         - DEEP RESISTIVITY (DIL)
NPHI.V/V      00 330 00 00         : PHIN         - NEUTRON POROSITY (SANDSTONE)
DPHI.V/V      00 890 00 00         : PHID         - DENSITY POROSITY (SANDSTONE)
CALI.MM       00 280 01 00         : CAL          - CALIPER
GR  .API      00 310 00 00         : GR           - GAMMA RAY
~PARAMETER INFORMATION
#MNEM.UNIT           DATA             DESCRIPTION OF MNEMONIC
#---------         -----------     ------------------------------
GL  .M        559.5                : gl           - GROUND LEVEL ELEVATION
EREF.M        563                  : kb           - ELEVATION OF DEPTH REFERENCE
DATM.M        559.5                : datum        - DATUM ELEVATION
TDD .M        455                  : tdd          - TOTAL DEPTH DRILLER
RUN .         ONE                  : Run          - RUN NUMBER
ENG .         BILL                 : Engineer     - RECORDING ENGINEER
WIT .         JIM                  : Witness      - WITNESSED BY
MUD .         GEL                  : Mud_type     - MUD TYPE
MATR.         SANDSTONE            : Logunit      - NEUTRON MATRIX
TMAX.C        27.2                 : BHT          - MAXIMUM RECORDED TEMPERATURE
BHTD.M        455                  : BHTDEP       - MAXIMUM RECORDED TEMPERATURE
RMT .C        12.2                 : MDTP         - TEMPERATURE OF MUD
MUDD.KG/M     1080                 : MWT          - MUD DENSITY
NEUT.         1                    : NEUTRON      - NEUTRON TYPE
RESI.         0                    : RESIST       - RESISTIVITY TYPE
RM  .OHMM     5.14                 : RM           - RESISTIVITY OF MUD
RMC .OHMM     0                    : RMC          - RESISTIVITY OF MUD CAKE
RMF .OHMM     5.24                 : RMF          - RESISTIVITY OF MUD FILTRATE
SUFT.C        -20                  : SUFT         - SURFACE TEMPERATURE
~A  DEPTH     RESD     PHIN     PHID      CAL       GR
# ...
  313.000    9.025    0.461    0.340  229.901   72.866
  313.250    8.464    0.453    0.345  229.949   79.512
  313.500    8.085    0.436    0.342  229.486   81.643
  313.750    7.724    0.450    0.331  229.534   81.368
  314.000    7.587    0.446    0.330  229.577   82.299
  314.250    7.590    0.442    0.329  229.615   82.328
  314.500    7.594    0.448    0.313  229.156   79.951
  314.750    7.527    0.445    0.306  229.200   78.767
  315.000    7.531    0.441    0.292  229.248   77.289
  315.250    7.817    0.463    0.290  229.291   76.410
  315.500    7.677    0.459    0.304  229.334   77.344
  315.750    7.610    0.459    0.306  229.382   77.664
  316.000    7.406    0.470    0.313  229.420   76.788
  316.250    7.274    0.457    0.319  230.476   77.418
  316.500    7.079    0.435    0.316  231.511   79.249
  316.750    7.079    0.433    0.302  233.565   78.673
  317.000    6.956    0.443    0.286  235.106   80.500
  317.250    6.707    0.448    0.269  235.656   84.142
  317.500    6.527    0.441    0.259  235.699   85.668
  317.750    6.293    0.440    0.264  235.742   87.799
  318.000    5.957    0.451    0.271  235.779   89.930
  318.250    5.850    0.437    0.271  235.822   92.061
  318.500    5.854    0.430    0.268  235.865   92.388
  318.750    5.856    0.434    0.265  236.420   92.116
  319.000    5.856    0.451    0.258  236.965   89.733
  319.250    5.862    0.444    0.250  237.504   89.160
  319.500    5.756    0.455    0.255  237.547   90.687
  319.750    5.756    0.469    0.248  237.094   89.810
  320.000    5.762    0.474    0.235  237.137   92.549
  320.250    5.659    0.472    0.239  237.180   93.474
  320.500    5.662    0.453    0.242  237.729   90.793
  320.750    5.664    0.445    0.233  238.764   92.627
  321.000    5.664    0.448    0.223  236.807   92.653
  321.250    5.777    0.477    0.223  232.846   91.171
  321.500    5.996    0.471    0.254  231.385   85.783
  321.750    6.457    0.465    0.269  231.423   79.192
  322.000    7.216    0.476    0.294  229.466   72.301
  322.250    8.763    0.457    0.319  228.000   70.820
  322.500   10.256    0.449    0.319  226.544   75.661
  322.750   11.149    0.445    0.300  227.089   75.088
  323.000   11.681    0.445    0.287  227.627   72.705
  323.250   12.015    0.446    0.303  227.164   71.227
  323.500   12.357    0.466    0.319  226.706   71.252
  323.750   13.312    0.475    0.332  225.746   71.880
  324.000   14.205    0.468    0.341  224.792   73.413
  324.250   15.442    0.448    0.327  224.334   76.145
  324.500   17.099    0.466    0.316  223.875   77.678
  324.750   17.425    0.463    0.300  224.414   81.006
  325.000   16.801    0.445    0.295  225.471   82.539
  325.250   14.773    0.436    0.289  225.508   78.050
  325.500   12.402    0.421    0.271  226.052   73.865
  325.750   11.005    0.446    0.274  227.103   75.097
  326.000    8.824    0.463    0.270  228.144   77.225
  326.250    8.586    0.464    0.254  229.690   79.059
  326.500    8.128    0.440    0.239  229.238   80.895
  326.750    7.837    0.407    0.219  227.782   82.723
  327.000    7.837    0.408    0.198  226.316   84.252
  327.250    7.772    0.435    0.248  224.850   83.677
  327.500    7.634    0.437    0.268  226.397   81.293
  327.750    7.779    0.432    0.260  229.965   79.521
  328.000    8.002    0.440    0.261  229.496   79.239
  328.250    8.005    0.464    0.262  229.032   79.569
  328.500    7.935    0.464    0.255  228.078   81.700
  328.750    7.794    0.445    0.246  228.132   82.625
  329.000    7.725    0.428    0.242  228.670   84.155
  329.250    7.725    0.456    0.241  229.220   84.180
  329.500    7.592    0.465    0.242  230.255   85.115
  329.750    7.455    0.457    0.237  230.805   84.242
  330.000    7.390    0.445    0.232  231.845   84.568
  330.250    7.326    0.445    0.229  232.890   86.392
  330.500    7.129    0.443    0.224  232.939   89.125
  330.750    6.874    0.442    0.218  232.976   93.662
  331.000    6.689    0.426    0.214  232.518   99.102
  331.250    6.570    0.454    0.217  231.057  100.334
  331.500    6.573    0.454    0.235  229.597   96.447
  331.750    6.637    0.454    0.238  227.634   90.758
  332.000    6.890    0.467    0.239  226.686   89.885
  332.250    7.421    0.455    0.236  227.230   90.512
  332.500    7.632    0.435    0.233  228.270   89.037
  332.750    7.636    0.429    0.242  230.825   87.857
  333.000    7.570    0.430    0.248  234.878   87.582
  333.250    7.573    0.435    0.237  236.932   87.303
  333.500    7.861    0.436    0.228  237.465   86.430
  333.750    8.390    0.440    0.232  237.007   84.655
  334.000    8.871    0.419    0.258  236.047   81.967
  334.250    9.124    0.407    0.264  236.090   77.786
  334.500    8.961    0.407    0.257  237.642   77.514
  334.750    8.640    0.421    0.243  240.192   79.943
  335.000    7.882    0.423    0.221  241.248   86.284
  335.250    7.325    0.420    0.226  240.774   90.223
  335.500    7.062    0.423    0.227  240.817   92.354
  335.750    7.066    0.443    0.219  240.876   91.174
  336.000    7.268    0.454    0.221  240.908   88.493
  336.250    7.544    0.450    0.221  240.951   87.623
  336.500    7.688    0.432    0.215  241.997   89.754
  336.750    7.413    0.407    0.211  242.541   92.484
  337.000    7.148    0.439    0.215  242.584   94.915
  337.250    7.085    0.439    0.230  241.630   92.238
  337.500    7.424    0.420    0.260  240.169   88.049
  337.750    8.933    0.408    0.285  239.210   80.553
  338.000    8.933    0.405    0.280  239.759   76.970
  338.250    9.106    0.440    0.269  240.293   74.589
  338.500   10.463    0.456    0.275  240.346   73.111
  338.750   11.801    0.453    0.289  240.379   72.542
  339.000   13.068    0.429    0.297  240.427   73.163
  339.250   13.818    0.420    0.295  240.476   75.297
  339.500   13.448    0.418    0.293  240.508   78.337
  339.750   12.967    0.443    0.292  240.551   80.763
  340.000   12.971    0.451    0.286  240.594   81.093
  340.250   13.844    0.448    0.270  240.136   79.314
  340.500   15.049    0.451    0.238  239.688   79.336
  340.750   16.664    0.440    0.270  239.224   76.361
  341.000   16.983    0.443    0.304  238.766   76.985
  341.250   15.928    0.458    0.294  238.815   79.123
  341.500   14.665    0.454    0.285  239.860   79.439
  341.750   12.541    0.431    0.269  240.404   80.672
  342.000   10.242    0.418    0.252  240.447   83.103
  342.250    9.967    0.400    0.226  240.490   87.340
  342.500    9.611    0.394    0.204  240.533   93.080
  342.750    9.352    0.395    0.208  239.073  104.538
  343.000    9.356    0.406    0.233  236.609  102.155
  343.250   11.681    0.457    0.278  234.151   80.826
  343.500   14.855    0.443    0.258  234.184   69.420
  343.750   19.421    0.380    0.264  235.730   63.735
  344.000   22.109    0.343    0.267  237.288   62.855
  344.250   20.928    0.234    0.093  237.336   65.588
  344.500   18.744    0.207    0.048  237.865   75.843
  344.750   15.027    0.266    0.119  240.425   85.496
  345.000   12.047    0.402    0.187  240.462   83.413
  345.250   10.399    0.452    0.215  240.505   82.239
  345.500    9.664    0.454    0.224  240.047   81.961
  345.750    9.318    0.447    0.230  241.098   82.288
  346.000    8.985    0.431    0.240  241.648   85.321
  346.250    8.824    0.422    0.255  241.691   90.463
  346.500    8.827    0.424    0.258  241.734   88.688
  346.750    8.914    0.442    0.245  241.766   86.304
  347.000    8.918    0.449    0.230  241.814   84.829
  347.250    8.922    0.449    0.222  241.857   86.963
  347.500    8.926    0.449    0.229  241.895   89.990
  347.750    8.929    0.454    0.247  241.949   94.829
  348.000    8.934    0.457    0.225  241.490   96.361
  348.250    8.937    0.444    0.197  240.526   90.369
  348.500    9.192    0.418    0.173  239.566   78.063
  348.750    9.455    0.344    0.156  239.113   77.494
  349.000    9.459    0.309    0.159  240.153   81.423
  349.250    8.872    0.331    0.186  241.706   88.971
