~VERSION INFORMATION
 VERS.                 2.0:   CWLS LOG ASCII STANDARD -VERSION 2.0
 WRAP.                  NO:   ONE LINE PER DEPTH STEP
~WELL INFORMATION BLOCK
#MNEM.UNIT           DATA                    DESCRIPTION OF MNEMONIC
#---------    -------------------            -------------------------------
# Generated from Intellog Unique Number	CW_76_78/WELL/2584
WELL.         PETROMARK ET AL MARTIN CREEK   : Well_name    - WELL
LOC .         00/11-31-078-05W5/0            : Location     - LOCATION
UWI .         00/11-31-078-05W5/0            : Uwi          - UNIQUE WELL ID
ENTR.         MAX                            : Entered      - ENTERED BY
SRVC.         SCHLUMBERGER                   : Scn          - SERVICE COMPANY
STRT.M        325                            : top_depth    - START DEPTH
STOP.M        570                            : bot_depth    - STOP DEPTH
STEP.M        0.25                           : increment    - STEP LENGTH
 NULL. -999.2500:NULL Value
~CURVE INFORMATION BLOCK
#MNEM UNIT       ERCB CURVE CODE    CURVE DESCRIPTION
#-----------   ------------------   ----------------------------------
DEPT.M        00 001 00 00         : DEPTH        - DEPTH
ILD .OHMM     00 120 00 00         : RESD         - DEEP RESISTIVITY (DIL)
NPHI.V/V      00 330 00 00         : PHIN         - NEUTRON POROSITY (SANDSTONE)
DPHI.V/V      00 890 00 00         : PHID         - DENSITY POROSITY (SANDSTONE)
CALI.MM       00 280 01 00         : CAL          - CALIPER
GR  .API      00 310 00 00         : GR           - GAMMA RAY
~PARAMETER INFORMATION
#MNEM.UNIT           DATA             DESCRIPTION OF MNEMONIC
#---------         -----------     ------------------------------
GL  .M        658.4                : gl           - GROUND LEVEL ELEVATION
EREF.M        662.4                : kb           - ELEVATION OF DEPTH REFERENCE
DATM.M        658.4                : datum        - DATUM ELEVATION
TDD .M        1828                 : tdd          - TOTAL DEPTH DRILLER
RUN .         ONE                  : Run          - RUN NUMBER
ENG .         BILL                 : Engineer     - RECORDING ENGINEER
WIT .         JIM                  : Witness      - WITNESSED BY
MUD .         GEL                  : Mud_type     - MUD TYPE
MATR.         SANDSTONE            : Logunit      - NEUTRON MATRIX
TMAX.C        32                   : BHT          - MAXIMUM RECORDED TEMPERATURE
BHTD.M        1828                 : BHTDEP       - MAXIMUM RECORDED TEMPERATURE
RMT .C        28                   : MDTP         - TEMPERATURE OF MUD
MUDD.KG/M     1170                 : MWT          - MUD DENSITY
NEUT.         1                    : NEUTRON      - NEUTRON TYPE
RESI.         0                    : RESIST       - RESISTIVITY TYPE
RM  .OHMM     0.0926               : RM           - RESISTIVITY OF MUD
RMC .OHMM     0                    : RMC          - RESISTIVITY OF MUD CAKE
RMF .OHMM     0.0867               : RMF          - RESISTIVITY OF MUD FILTRATE
SUFT.C        -20                  : SUFT         - SURFACE TEMPERATURE
~A  DEPTH     RESD     PHIN     PHID      CAL       GR
# ...
  471.000    4.842    0.389    0.187  218.412   74.969
  471.250    4.842    0.420    0.184  212.984   75.014
  471.500    4.803    0.450    0.247  209.078   77.173
  471.750    4.939    0.464    0.244  209.164   79.619
  472.000    5.222    0.437    0.239  209.260   83.285
  472.250    5.177    0.440    0.230  208.345   84.230
  472.500    5.132    0.435    0.242  207.420   83.981
  472.750    5.230    0.434    0.255  208.016   81.331
  473.000    5.232    0.449    0.241  214.094   78.694
  473.250    5.140    0.451    0.227  217.202   79.933
  473.500    5.003    0.450    0.228  216.277   82.086
  473.750    4.915    0.449    0.229  213.872   82.437
  474.000    4.918    0.428    0.240  210.434   80.400
  474.250    5.011    0.408    0.227  208.029   80.745
  474.500    5.107    0.427    0.221  213.618   81.710
  474.750    5.252    0.430    0.206  215.215   79.654
  475.000    5.352    0.425    0.215  215.311   76.097
  475.250    5.504    0.430    0.249  214.885   74.654
  475.500    5.558    0.432    0.251  214.471   75.900
  475.750    5.612    0.423    0.249  214.556   75.063
  476.000    5.565    0.437    0.237  214.653   75.102
  476.250    5.466    0.438    0.250  215.238   76.654
  476.500    5.321    0.427    0.251  215.824   77.912
  476.750    5.226    0.431    0.249  216.410   77.670
  477.000    5.181    0.435    0.252  215.506   77.115
  477.250    5.184    0.443    0.251  212.590   75.678
  477.500    5.184    0.438    0.239  210.653   75.123
  477.750    5.189    0.439    0.247  210.260   74.867
  478.000    5.191    0.435    0.235  210.260   75.826
  478.250    5.242    0.436    0.238  210.942   76.784
  478.500    5.056    0.444    0.246  212.518   77.436
  478.750    4.788    0.439    0.258  212.592   77.480
  479.000    4.790    0.444    0.265  212.678   78.739
  479.250    4.926    0.442    0.260  211.763   80.885
  479.500    5.067    0.444    0.249  210.848   84.844
  479.750    5.211    0.450    0.252  209.944   83.095
  480.000    5.409    0.473    0.267  208.029   74.736
  480.250    5.462    0.495    0.289  205.624   70.285
  480.500    5.514    0.474    0.301  204.698   66.134
  480.750    5.518    0.469    0.293  203.805   63.484
  481.000    5.420    0.454    0.292  203.805   63.235
  481.250    5.276    0.445    0.291  203.986   65.088
  481.500    5.088    0.441    0.284  204.551   67.847
  481.750    5.088    0.438    0.278  205.147   69.412
  482.000    4.957    0.441    0.283  205.147   70.651
  482.250    4.824    0.456    0.286  205.319   69.508
  482.500    5.006    0.463    0.276  205.415   69.859
  482.750    5.391    0.449    0.269  204.989   73.212
  483.000    5.344    0.445    0.258  205.086   75.971
  483.250    4.878    0.441    0.256  204.660   74.528
  483.500    4.880    0.437    0.248  204.746   68.864
  483.750    5.019    0.430    0.256  204.831   68.021
  484.000    5.022    0.431    0.296  204.428   68.967
  484.250    4.933    0.435    0.307  204.024   70.819
  484.500    4.671    0.451    0.306  204.088   71.183
  484.750    3.998    0.459    0.292  204.173   70.628
  485.000    3.786    0.467    0.285  204.270   69.485
  485.250    4.003    0.472    0.283  204.355   70.443
  485.500    4.596    0.479    0.282  204.451   70.182
  485.750    4.515    0.457    0.294  204.537   68.732
  486.000    4.643    0.440    0.314  205.123   70.585
  486.250    5.380    0.441    0.316  205.709   70.649
  486.500    6.178    0.439    0.300  206.294   67.092
  486.750    6.531    0.434    0.290  206.870   65.642
  487.000    6.476    0.424    0.290  207.466   66.601
  487.250    6.476    0.436    0.289  208.073   68.153
  487.500    6.307    0.443    0.274  208.648   68.211
  487.750    6.138    0.447    0.283  209.224   67.649
  488.000    6.085    0.431    0.299  209.309   65.312
  488.250    7.182    0.433    0.285  209.916   63.856
  488.500   10.861    0.429    0.273  210.981   63.901
  488.750    6.930    0.394    0.261  212.078   62.452
  489.000    4.715    0.347    0.164  213.164   58.601
  489.250    4.718    0.307    0.171  215.250   62.561
  489.500    5.174    0.379    0.267  220.349   68.615
  489.750    5.572    0.435    0.255  225.948   73.181
  490.000    5.133    0.446    0.244  227.524   72.332
  490.250    5.183    0.464    0.272  224.618   69.989
  490.500    5.429    0.464    0.289  219.201   68.833
  490.750    5.482    0.447    0.295  217.297   69.785
  491.000    5.434    0.442    0.284  219.372   71.937
  491.250    5.338    0.459    0.259  225.482   74.990
  491.500    5.102    0.456    0.236  228.058   75.948
  491.750    4.786    0.450    0.243  227.165   75.700
  492.000    4.745    0.441    0.250  224.717   74.857
  492.250    4.662    0.419    0.268  217.310   73.094
  492.500    4.455    0.409    0.260  217.395   71.645
  492.750    4.376    0.418    0.247  218.971   71.403
  493.000    4.419    0.423    0.249  222.069   72.648
  493.250    4.421    0.448    0.274  222.665   73.613
  493.500    4.421    0.446    0.272  223.251   73.057
  493.750    4.426    0.437    0.264  224.837   72.809
  494.000    4.469    0.440    0.265  225.913   72.860
  494.250    4.472    0.457    0.268  226.498   74.118
  494.500    4.473    0.447    0.270  231.108   74.170
  494.750    4.686    0.459    0.254  234.716   73.921
  495.000    4.646    0.470    0.260  234.770   75.779
  495.250    4.481    0.479    0.261  233.365   74.324
  495.500    4.243    0.456    0.266  231.972   70.773
  495.750    4.206    0.466    0.270  231.525   71.138
  496.000    4.286    0.465    0.270  232.632   72.377
  496.250    4.289    0.472    0.260  232.228   73.041
  496.500    4.411    0.471    0.257  231.814   72.779
  496.750    4.536    0.472    0.249  232.378   71.030
  497.000    4.580    0.449    0.254  233.464   69.293
  497.250    4.625    0.436    0.260  236.562   71.139
  497.500    4.714    0.428    0.267  240.660   75.993
  497.750    4.803    0.422    0.256  241.757   78.745
  498.000    4.850    0.417    0.253  242.821   78.203
  498.250    4.721    0.437    0.239  244.908   77.060
  498.500    4.681    0.417    0.256  244.504   71.402
  498.750    4.726    0.419    0.260  246.601   74.161
  499.000    4.772    0.436    0.255  247.187   75.720
  499.250    4.863    0.461    0.240  247.762   76.065
  499.500    5.094    0.466    0.249  250.860   76.423
  499.750    5.485    0.465    0.255  252.436   76.768
  500.000    5.852    0.472    0.253  254.043   78.920
  500.250    6.301    0.481    0.256  254.129   81.673
  500.500    7.104    0.487    0.256  252.203   83.231
  500.750    7.719    0.503    0.260  246.796   82.376
  501.000    8.623    0.489    0.246  237.356   80.026
  501.250    9.632    0.466    0.241  221.934   75.575
  501.500   11.579    0.475    0.250  217.517   71.424
  501.750   13.054    0.463    0.255  214.101   67.874
  502.000   14.582    0.441    0.260  213.697   64.024
  502.250   15.276    0.413    0.244  213.783   59.273
  502.500   14.869    0.389    0.206  213.858   54.215
  502.750   14.869    0.366    0.190  213.943   51.572
  503.000   14.481    0.356    0.188  214.040   50.416
  503.250   13.710    0.352    0.180  213.625   49.867
  503.500   12.630    0.360    0.194  213.210   50.231
  503.750   12.180    0.378    0.206  212.796   51.783
  504.000   12.414    0.376    0.216  212.381   54.843
  504.250   11.755    0.392    0.233  212.466   56.995
  504.500   11.029    0.395    0.252  212.552   57.346
  504.750   10.067    0.384    0.235  211.637   56.210
  505.000    9.532    0.383    0.238  211.233   54.448
  505.250    9.365    0.397    0.246  210.818   54.799
  505.500    9.368    0.420    0.271  210.404   57.258
  505.750    9.547    0.415    0.278  210.489   58.197
  506.000    9.818    0.393    0.244  210.586   58.568
  506.250    9.557    0.388    0.222  210.735   61.007
  506.500    9.050    0.388    0.209  210.757   62.559
  506.750    8.809    0.401    0.213  210.364   60.816
  507.000    8.894    0.392    0.218  210.449   60.561
  507.250    9.318    0.385    0.222  211.014   61.219
