~VERSION INFORMATION
 VERS.                 2.0:   CWLS LOG ASCII STANDARD -VERSION 2.0
 WRAP.                  NO:   ONE LINE PER DEPTH STEP
~WELL INFORMATION BLOCK
#MNEM.UNIT           DATA                    DESCRIPTION OF MNEMONIC
#---------    -------------------            -------------------------------
# Generated from Intellog Unique Number	CS_71_72/WELL/2055
WELL.         ACL BVX UNIGAS CALL            : Well_name    - WELL
LOC .         00/11-08-072-17W4/0            : Location     - LOCATION
UWI .         00/11-08-072-17W4/0            : Uwi          - UNIQUE WELL ID
ENTR.         TIM                            : Entered      - ENTERED BY
SRVC.         SCHLUMBERGER                   : Scn          - SERVICE COMPANY
DATE.         04/09/92                       : Date         - LOG DATE
STRT.M        274.32                         : top_depth    - START DEPTH
STOP.M        466.32                         : bot_depth    - STOP DEPTH
STEP.M        0.25                           : increment    - STEP LENGTH
 NULL. -999.2500:NULL Value
~CURVE INFORMATION BLOCK
#MNEM UNIT       ERCB CURVE CODE    CURVE DESCRIPTION
#-----------   ------------------   ----------------------------------
DEPT.M        00 001 00 00         : DEPTH        - DEPTH
ILD .OHMM     00 120 00 00         : RESD         - DEEP RESISTIVITY (DIL)
NPHI.V/V      00 330 00 00         : PHIN         - NEUTRON POROSITY (SANDSTONE)
GR  .API      00 310 00 00         : GR           - GAMMA RAY
~PARAMETER INFORMATION
#MNEM.UNIT           DATA             DESCRIPTION OF MNEMONIC
#---------         -----------     ------------------------------
GL  .M        590.398              : gl           - GROUND LEVEL ELEVATION
EREF.M        593.446              : kb           - ELEVATION OF DEPTH REFERENCE
DATM.M        593.446              : datum        - DATUM ELEVATION
TDD .M        473.05               : tdd          - TOTAL DEPTH DRILLER
RUN .         ONE                  : Run          - RUN NUMBER
ENG .         BILL                 : Engineer     - RECORDING ENGINEER
WIT .         JIM                  : Witness      - WITNESSED BY
MUD .         GEL                  : Mud_type     - MUD TYPE
MATR.         SANDSTONE            : Logunit      - NEUTRON MATRIX
TMAX.C        21.6667              : BHT          - MAXIMUM RECORDED TEMPERATURE
BHTD.M        471.221              : BHTDEP       - MAXIMUM RECORDED TEMPERATURE
RMT .C        21.1111              : MDTP         - TEMPERATURE OF MUD
MUDD.KG/M     9250                 : MWT          - MUD DENSITY
NEUT.         1                    : NEUTRON      - NEUTRON TYPE
RESI.         0                    : RESIST       - RESISTIVITY TYPE
RM  .OHMM     2.06                 : RM           - RESISTIVITY OF MUD
RMC .OHMM     2.06                 : RMC          - RESISTIVITY OF MUD CAKE
RMF .OHMM     2.06                 : RMF          - RESISTIVITY OF MUD FILTRATE
SUFT.C        4                    : SUFT         - SURFACE TEMPERATURE
~A  DEPTH     RESD     PHIN       GR
# ...
  437.070    2.676    0.401   91.331
  437.320    3.159    0.346   90.726
  437.570    3.528    0.339   88.911
  437.820    4.164    0.292   86.492
  438.070    4.915    0.276   79.839
  438.320    5.910    0.326   75.605
  438.570    6.481    0.363   72.581
  438.820    6.728    0.376   84.073
  439.070    6.029    0.371   89.516
  439.320    5.405    0.368   91.331
  439.570    5.408    0.361   93.145
  439.820    5.411    0.354   96.169
  440.070    5.616    0.337   93.750
  440.320    5.723    0.330   77.419
  440.570    6.162    0.330   73.186
  440.820    6.517    0.341   75.000
  441.070    6.889    0.337   78.024
  441.320    6.893    0.329   81.048
  441.570    6.291    0.317   84.677
  441.820    5.639    0.306   88.306
  442.070    5.243    0.320   94.355
  442.320    4.875    0.350   96.774
  442.570    4.788    0.356  101.008
  442.820    4.291    0.374  105.847
  443.070    3.777    0.387  102.823
  443.320    3.643    0.390   97.379
  443.570    3.449    0.393   92.540
  443.820    3.327    0.394   92.540
  444.070    3.268    0.391   96.169
  444.320    3.152    0.388  100.403
  444.570    3.154    0.383  100.403
  444.820    3.274    0.366   97.984
  445.070    3.398    0.350   94.355
  445.320    3.727    0.332   91.936
  445.570    4.087    0.328   90.121
  445.820    4.401    0.356   90.121
  446.070    4.653    0.367   91.331
  446.320    5.012    0.369   92.540
  446.570    5.015    0.364   91.331
  446.820    4.837    0.358   89.516
  447.070    4.666    0.352   93.750
  447.320    4.582    0.359   97.984
  447.570    4.501    0.368   99.798
  447.820    4.672    0.372   99.798
  448.070    4.850    0.373   96.774
  448.320    5.222    0.364   94.355
  448.570    5.728    0.353   89.516
  448.820    6.169    0.347   84.677
  449.070    6.891    0.355   82.258
  449.320    7.696    0.360   77.419
  449.570    9.084    0.360   66.532
  449.820   11.123    0.372   54.435
  450.070   14.390    0.405   54.435
  450.320   19.315    0.393   55.645
  450.570   22.798    0.385   56.855
  450.820   25.003    0.356   56.250
  451.070   25.021    0.296   53.831
  451.320   26.942    0.220   46.573
  451.570   28.484    0.203   35.685
  451.820   25.524    0.209   30.847
  452.070   15.276    0.221   35.081
  452.320   10.784    0.242   48.992
  452.570    8.347    0.266   63.508
  452.820    7.904    0.277   85.282
  453.070    8.056    0.290   94.355
  453.320    8.208    0.291   94.960
  453.570   10.051    0.284   90.726
  453.820   12.767    0.271   86.492
  454.070   16.216    0.256   80.444
  454.320   19.140    0.237   49.597
  454.570   22.591    0.230   35.081
  454.820   29.230    0.225   34.476
  455.070   29.789    0.230   38.710
  455.320   24.357    0.231   37.500
  455.570   20.284    0.228   37.500
  455.820   16.587    0.225   38.105
  456.070   14.068    0.223   42.339
  456.320   11.932    0.238   49.597
  456.570   10.309    0.251   58.669
  456.820   10.898    0.260   69.556
  457.070   12.863    0.254   73.186
  457.320   15.750    0.239   68.952
  457.570   17.919    0.235   60.484
  457.820   14.652    0.237   32.661
  458.070   11.338    0.248   42.339
  458.320    9.270    0.268   58.065
  458.570    8.943    0.297   71.371
  458.820    9.283    0.294   79.234
  459.070    9.635    0.286   90.726
  459.320   10.375    0.272   91.331
  459.570   11.592    0.264   87.097
  459.820   12.481    0.260   71.976
  460.070   12.261    0.256   70.766
  460.320   11.824    0.255   73.186
  460.570   10.598    0.253   71.976
  460.820    9.854    0.253   65.927
  461.070    9.163    0.251   74.395
  461.320    9.001    0.240   84.073
  461.570    9.172    0.259   90.121
  461.820   12.086    0.264   95.564
  462.070   15.925    0.257   85.887
  462.320   19.145    0.228   68.347
  462.570   22.596    0.217   66.532
  462.820   27.671    0.211   63.508
  463.070   32.660    0.209   46.573
  463.320   35.824    0.213   28.427
  463.570   34.548    0.283   29.637
  463.820   20.676    0.288   34.476
  464.070   11.928    0.294   51.411
  464.320    8.898    0.299   72.581
  464.570    8.904    0.300   90.121
  464.820    9.073    0.300   96.774
  465.070    9.418    0.283  104.637
  465.320   10.329    0.255   98.589
  465.570   26.356    0.245   88.911
  465.820   42.499    0.232   57.460
  466.070   46.617    0.233   35.685
  466.320   44.963    0.235   34.476
