~VERSION INFORMATION
 VERS.                 2.0:   CWLS LOG ASCII STANDARD -VERSION 2.0
 WRAP.                  NO:   ONE LINE PER DEPTH STEP
~WELL INFORMATION BLOCK
#MNEM.UNIT           DATA                    DESCRIPTION OF MNEMONIC
#---------    -------------------            -------------------------------
# Generated from Intellog Unique Number	CS_77_79/WELL/3008
WELL.         CDN OXY WINEFRED               : Well_name    - WELL
LOC .         00/11-34-077-03W4/0            : Location     - LOCATION
UWI .         00/11-34-077-03W4/0            : Uwi          - UNIQUE WELL ID
ENTR.         TIM                            : Entered      - ENTERED BY
SRVC.         SCHLUMBERGER                   : Scn          - SERVICE COMPANY
STRT.M        195                            : top_depth    - START DEPTH
STOP.M        455                            : bot_depth    - STOP DEPTH
STEP.M        0.25                           : increment    - STEP LENGTH
 NULL. -999.2500:NULL Value
~CURVE INFORMATION BLOCK
#MNEM UNIT       ERCB CURVE CODE    CURVE DESCRIPTION
#-----------   ------------------   ----------------------------------
DEPT.M        00 001 00 00         : DEPTH        - DEPTH
GR  .API      00 310 00 00         : GR           - GAMMA RAY
NPHI.V/V      00 330 00 00         : PHIN         - NEUTRON POROSITY (DOLOMITE)
DPHI.V/V      00 890 00 00         : PHID         - DENSITY POROSITY (DOLOMITE)
ILD .OHMM     00 120 00 00         : RESD         - DEEP RESISTIVITY (DIL)
~PARAMETER INFORMATION
#MNEM.UNIT           DATA             DESCRIPTION OF MNEMONIC
#---------         -----------     ------------------------------
GL  .M        588.9                : gl           - GROUND LEVEL ELEVATION
EREF.M        591.9                : kb           - ELEVATION OF DEPTH REFERENCE
DATM.M        591.9                : datum        - DATUM ELEVATION
TDD .M        457                  : tdd          - TOTAL DEPTH DRILLER
RUN .         ONE                  : Run          - RUN NUMBER
ENG .         BILL                 : Engineer     - RECORDING ENGINEER
WIT .         JIM                  : Witness      - WITNESSED BY
MUD .         GEL                  : Mud_type     - MUD TYPE
MATR.         DOLOMITE             : Logunit      - NEUTRON MATRIX
TMAX.C        13                   : BHT          - MAXIMUM RECORDED TEMPERATURE
BHTD.M        457                  : BHTDEP       - MAXIMUM RECORDED TEMPERATURE
MATR.         1                    : LOGUNIT      - NEUTRON MATRIX
RMT .C        20                   : MDTP         - TEMPERATURE OF MUD
NEUT.         1                    : NEUTRON      - NEUTRON TYPE
RESI.         2.8                  : RESIST       - RESISTIVITY TYPE
RMC .OHMM     2.6                  : RMC          - RESISTIVITY OF MUD CAKE
RMF .OHMM     2.6                  : RMF          - RESISTIVITY OF MUD FILTRATE
SUFT.C        15                   : SUFT         - SURFACE TEMPERATURE
~A  DEPTH       GR     PHIN     PHID     RESD
# ...
  325.500   95.619    0.491    0.239    4.009
  325.750   96.178    0.497    0.242    3.722
  326.000   94.971    0.499    0.244    3.455
  326.250   94.348    0.503    0.248    3.149
  326.500   94.329    0.501    0.251    2.978
  326.750   95.491    0.498    0.254    2.815
  327.000   98.419    0.501    0.257    2.711
  327.250  104.293    0.536    0.258    2.660
  327.500  106.631    0.543    0.259    2.659
  327.750  108.377    0.565    0.258    2.657
  328.000  107.761    0.574    0.257    2.655
  328.250  101.231    0.567    0.256    2.703
  328.500   95.305    0.528    0.251    2.752
  328.750   89.964    0.500    0.248    2.853
  329.000   89.938    0.500    0.243    2.959
  329.250   92.269    0.506    0.248    3.304
  329.500   93.418    0.510    0.251    3.688
  329.750   92.808    0.501    0.257    3.968
  330.000   89.829    0.487    0.259    4.349
  330.250   85.669    0.482    0.262    4.944
  330.500   81.496    0.477    0.266    5.034
  330.750   80.295    0.481    0.270    5.318
  331.000   78.498    0.487    0.272    5.617
  331.250   78.478    0.485    0.278    5.718
  331.500   79.031    0.479    0.286    5.821
  331.750   79.609    0.470    0.288    5.924
  332.000   81.355    0.463    0.286    5.922
  332.250   84.283    0.451    0.254    6.029
  332.500   87.795    0.450    0.241    6.137
  332.750   88.944    0.456    0.229    6.248
  333.000   88.925    0.465    0.225    6.361
  333.250   87.115    0.468    0.233    6.475
  333.500   85.914    0.468    0.239    6.591
  333.750   84.707    0.465    0.246    6.834
  334.000   83.494    0.458    0.243    6.830
  334.250   82.884    0.461    0.232    6.952
  334.500   82.858    0.470    0.226    6.947
  334.750   82.833    0.475    0.233    6.945
  335.000   82.807    0.478    0.243    6.939
  335.250   82.781    0.476    0.252    6.935
  335.500   83.340    0.476    0.253    6.931
  335.750   82.717    0.475    0.253    6.927
  336.000   83.295    0.470    0.252    6.795
  336.250   86.210    0.463    0.246    6.667
  336.500   87.379    0.451    0.236    6.420
  336.750   91.481    0.441    0.229    6.300
  337.000   94.415    0.440    0.226    6.069
  337.250   91.437    0.443    0.222    5.954
  337.500   87.270    0.446    0.217    5.230
  337.750   86.069    0.451    0.219    4.346
  338.000   85.453    0.465    0.224    3.354
  338.250   85.427    0.471    0.233    2.736
  338.500   85.395    0.499    0.256    2.403
  338.750   85.370    0.510    0.273    2.230
  339.000   85.344    0.535    0.265    2.188
  339.250   85.312    0.533    0.262    2.108
  339.500   85.293    0.523    0.277    2.106
  339.750   85.852    0.517    0.283    2.067
  340.000   84.645    0.518    0.288    2.066
  340.250   82.263    0.525    0.282    2.103
  340.500   84.003    0.520    0.275    2.140
  340.750   86.346    0.508    0.256    2.179
  341.000   88.677    0.499    0.254    2.218
  341.250   86.282    0.494    0.252    2.217
  341.500   85.672    0.482    0.248    2.475
  341.750   84.465    0.473    0.243    2.712
  342.000   82.661    0.453    0.240    3.028
  342.250   81.448    0.439    0.236    3.319
  342.500   80.838    0.432    0.230    3.705
  342.750   80.216    0.426    0.221    4.292
  343.000   79.612    0.412    0.215    4.972
  343.250   78.989    0.409    0.207    5.252
  343.500   78.373    0.420    0.203    5.247
  343.750   79.522    0.427    0.230    5.244
  344.000   80.094    0.439    0.238    5.052
  344.250   82.425    0.444    0.260    4.437
  344.500   84.762    0.442    0.251    4.043
  344.750   97.140    0.443    0.244    3.616
  345.000  101.256    0.454    0.237    3.420
  345.250  101.224    0.458    0.231    3.294
  345.500   98.842    0.462    0.226    3.115
  345.750   95.863    0.465    0.222    3.000
  346.000   97.012    0.485    0.223    2.943
  346.250   97.577    0.519    0.226    2.888
  346.500   98.733    0.522    0.226    2.833
  346.750   99.291    0.515    0.223    2.831
  347.000   99.869    0.507    0.223    2.830
  347.250  100.434    0.501    0.225    2.828
  347.500  101.000    0.496    0.229    2.879
  347.750   99.780    0.494    0.224    2.930
  348.000   94.445    0.480    0.225    3.095
  348.250   88.512    0.466    0.234    3.330
  348.500   86.111    0.456    0.240    3.583
  348.750   86.098    0.449    0.234    3.786
  349.000   86.073    0.441    0.226    4.226
  349.250   83.678    0.436    0.226    4.547
  349.500   81.290    0.431    0.227    5.075
  349.750   77.714    0.424    0.228    5.168
  350.000   75.916    0.409    0.231    5.559
  350.250   73.534    0.390    0.237    5.872
  350.500   69.965    0.374    0.245    6.202
  350.750   67.576    0.366    0.255    6.432
  351.000   68.135    0.362    0.267    6.546
  351.250   71.069    0.360    0.232    6.544
  351.500   73.997    0.355    0.201    6.662
  351.750   68.058    0.350    0.146    6.535
  352.000   63.898    0.337    0.059    6.413
  352.250   62.100    0.342    0.004    6.176
  352.500   64.437    0.375    0.036    5.841
  352.750   66.768    0.390    0.210    4.591
  353.000   66.158    0.397    0.284    4.033
  353.250   67.314    0.404    0.274    3.675
  353.500   69.651    0.410    0.264    3.475
  353.750   74.941    0.432    0.267    3.285
  354.000   81.413    0.442    0.273    3.165
  354.250   86.704    0.437    0.278    3.047
  354.500   74.274    0.420    0.285    3.046
  354.750   71.288    0.408    0.291    3.045
  355.000   68.900    0.399    0.289    3.042
  355.250   65.921    0.389    0.283    3.213
  355.500   63.526    0.381    0.277    3.394
  355.750   65.864    0.380    0.273    3.585
  356.000   69.388    0.378    0.264    3.857
  356.250   79.404    0.376    0.241    4.150
  356.500   80.560    0.374    0.236    4.466
  356.750   85.253    0.370    0.229    5.079
  357.000   95.275    0.367    0.208    5.465
  357.250  101.157    0.373    0.202    5.667
  357.500  106.447    0.383    0.194    5.769
  357.750  104.643    0.383    0.184    5.872
  358.000  102.845    0.382    0.210    5.760
  358.250  100.457    0.381    0.213    5.758
  358.500   99.847    0.382    0.204    5.753
  358.750   98.050    0.382    0.192    5.644
  359.000   93.876    0.385    0.193    5.642
  359.250   92.079    0.392    0.195    5.534
  359.500   92.053    0.398    0.192    5.530
  359.750   94.987    0.398    0.189    5.528
  360.000  100.868    0.397    0.199    5.422
  360.250  100.843    0.395    0.205    5.420
  360.500  100.227    0.394    0.202    5.417
  360.750  100.188    0.390    0.188    5.413
  361.000  100.175    0.385    0.193    5.411
  361.250   98.956    0.383    0.201    5.406
  361.500   96.580    0.377    0.208    5.403
  361.750   87.097    0.374    0.217    5.399
  362.000   87.065    0.371    0.219    5.396
  362.250   92.362    0.361    0.220    5.394
  362.500   97.056    0.356    0.212    5.390
  362.750   94.667    0.354    0.216    5.386
  363.000   91.104    0.352    0.224    5.384
  363.250   91.669    0.351    0.229    5.381
  363.500  104.632    0.357    0.199    5.377
  363.750  108.747    0.368    0.190    5.275
  364.000  108.125    0.375    0.184    5.081
  364.250  105.152    0.373    0.192    4.893
  364.500  101.583    0.367    0.202    4.627
  364.750   90.918    0.357    0.214    4.376
  365.000   87.349    0.345    0.228    4.061
  365.250   83.779    0.335    0.242    3.912
  365.500   80.210    0.333    0.250    3.768
  365.750   79.003    0.340    0.258    3.562
  366.000   77.789    0.345    0.264    3.431
  366.250   74.804    0.340    0.270    3.305
  366.500   86.598    0.334    0.261    3.182
  366.750   92.486    0.337    0.254    3.181
  367.000   77.674    0.337    0.258    3.121
  367.250   74.701    0.334    0.262    3.118
  367.500   71.729    0.330    0.267    3.118
  367.750   67.569    0.327    0.271    3.002
  368.000   62.221    0.326    0.278    2.946
  368.250   58.651    0.334    0.284    2.838
  368.500   54.491    0.337    0.291    2.733
  368.750   53.868    0.343    0.291    2.584
