~VERSION INFORMATION
 VERS.                 2.0:   CWLS LOG ASCII STANDARD -VERSION 2.0
 WRAP.                  NO:   ONE LINE PER DEPTH STEP
~WELL INFORMATION BLOCK
#MNEM.UNIT           DATA                    DESCRIPTION OF MNEMONIC
#---------    -------------------            -------------------------------
# Generated from Intellog Unique Number	CS_77_79/WELL/3008
WELL.         CDN OXY WINEFRED               : Well_name    - WELL
LOC .         00/11-34-077-03W4/0            : Location     - LOCATION
UWI .         00/11-34-077-03W4/0            : Uwi          - UNIQUE WELL ID
ENTR.         TIM                            : Entered      - ENTERED BY
SRVC.         SCHLUMBERGER                   : Scn          - SERVICE COMPANY
STRT.M        195                            : top_depth    - START DEPTH
STOP.M        455                            : bot_depth    - STOP DEPTH
STEP.M        0.25                           : increment    - STEP LENGTH
 NULL. -999.2500:NULL Value
~CURVE INFORMATION BLOCK
#MNEM UNIT       ERCB CURVE CODE    CURVE DESCRIPTION
#-----------   ------------------   ----------------------------------
DEPT.M        00 001 00 00         : DEPTH        - DEPTH
GR  .API      00 310 00 00         : GR           - GAMMA RAY
NPHI.V/V      00 330 00 00         : PHIN         - NEUTRON POROSITY (DOLOMITE)
DPHI.V/V      00 890 00 00         : PHID         - DENSITY POROSITY (DOLOMITE)
ILD .OHMM     00 120 00 00         : RESD         - DEEP RESISTIVITY (DIL)
~PARAMETER INFORMATION
#MNEM.UNIT           DATA             DESCRIPTION OF MNEMONIC
#---------         -----------     ------------------------------
GL  .M        588.9                : gl           - GROUND LEVEL ELEVATION
EREF.M        591.9                : kb           - ELEVATION OF DEPTH REFERENCE
DATM.M        591.9                : datum        - DATUM ELEVATION
TDD .M        457                  : tdd          - TOTAL DEPTH DRILLER
RUN .         ONE                  : Run          - RUN NUMBER
ENG .         BILL                 : Engineer     - RECORDING ENGINEER
WIT .         JIM                  : Witness      - WITNESSED BY
MUD .         GEL                  : Mud_type     - MUD TYPE
MATR.         DOLOMITE             : Logunit      - NEUTRON MATRIX
TMAX.C        13                   : BHT          - MAXIMUM RECORDED TEMPERATURE
BHTD.M        457                  : BHTDEP       - MAXIMUM RECORDED TEMPERATURE
MATR.         1                    : LOGUNIT      - NEUTRON MATRIX
RMT .C        20                   : MDTP         - TEMPERATURE OF MUD
NEUT.         1                    : NEUTRON      - NEUTRON TYPE
RESI.         2.8                  : RESIST       - RESISTIVITY TYPE
RMC .OHMM     2.6                  : RMC          - RESISTIVITY OF MUD CAKE
RMF .OHMM     2.6                  : RMF          - RESISTIVITY OF MUD FILTRATE
SUFT.C        15                   : SUFT         - SURFACE TEMPERATURE
~A  DEPTH       GR     PHIN     PHID     RESD
  195.000  100.420    0.550    0.237    3.128
  195.250   98.032    0.536    0.237    3.243
  195.500   98.597    0.522    0.237    3.302
  195.750  102.700    0.509    0.236    3.360
  196.000  102.668    0.527    0.241    3.421
  196.250  102.058    0.538    0.251    3.418
  196.500  100.857    0.529    0.256    3.417
  196.750   98.469    0.505    0.248    3.415
  197.000   97.262    0.486    0.238    3.351
  197.250  101.956    0.496    0.238    3.287
  197.500  101.339    0.527    0.240    3.225
  197.750   99.542    0.542    0.243    3.223
  198.000   98.335    0.547    0.244    3.221
  198.250   97.128    0.538    0.237    3.279
  198.500   94.739    0.523    0.227    3.337
  198.750   90.579    0.506    0.214    3.335
  199.000   83.459    0.476    0.214    3.395
  199.250   78.117    0.453    0.217    3.457
  199.500   87.549    0.459    0.227    3.720
  199.750   95.189    0.465    0.235    4.001
  200.000   92.210    0.462    0.246    4.150
  200.250   89.828    0.454    0.269    4.719
  200.500   83.305    0.447    0.283    5.268
  200.750   74.420    0.438    0.305    5.775
  201.000   68.481    0.423    0.304    9.324
  201.250   71.402    0.419    0.302   10.034
  201.500   72.565    0.424    0.297   11.410
  201.750   75.499    0.430    0.290   12.738
  202.000   77.829    0.427    0.272   12.269
  202.250   80.744    0.421    0.268   11.389
  202.500   81.322    0.421    0.263   10.569
  202.750   80.706    0.428    0.256    9.996
  203.000   78.311    0.436    0.251    9.628
  203.250   84.789    0.443    0.254    9.103
  203.500   91.261    0.469    0.261    8.448
  203.750   90.645    0.472    0.263    8.445
  204.000   87.666    0.469    0.264    8.921
  204.250   81.143    0.449    0.262   10.722
  204.500   75.801    0.443    0.270   12.885
  204.750   69.272    0.429    0.281   14.120
  205.000   71.012    0.390    0.281   14.379
  205.250   75.121    0.389    0.272   15.471
  205.500   79.827    0.391    0.249   16.339
  205.750   85.708    0.393    0.241   16.636
  206.000   88.630    0.398    0.234   16.320
  206.250   88.604    0.402    0.234   14.868
  206.500   87.988    0.412    0.241   14.591
  206.750   86.781    0.432    0.251   13.543
  207.000   85.567    0.438    0.259   12.806
  207.250   86.132    0.439    0.261   13.038
  207.500   86.120    0.436    0.262   13.772
  207.750   86.094    0.437    0.264   14.816
  208.000   83.693    0.436    0.268   16.236
  208.250   82.492    0.424    0.274   17.155
  208.500   80.695    0.421    0.286   18.117
  208.750   81.850    0.427    0.301   18.787
  209.000   84.778    0.438    0.305   18.773
  209.250   87.115    0.443    0.279   18.418
  209.500   98.903    0.438    0.254   17.743
  209.750  109.510    0.424    0.249   17.090
  210.000  104.759    0.426    0.271   16.460
  210.250  101.189    0.439    0.281   15.565
  210.500   97.619    0.436    0.271   14.992
  210.750   93.459    0.390    0.255   14.440
  211.000   91.064    0.383    0.247   13.647
  211.250   89.260    0.381    0.243   13.392
  211.500   87.463    0.404    0.246   13.384
  211.750   85.671    0.432    0.248   13.133
  212.000   82.686    0.441    0.251   12.649
  212.250   80.895    0.446    0.252   12.180
  212.500   81.454    0.445    0.249   11.733
  212.750   84.978    0.449    0.235   10.890
  213.000   90.859    0.454    0.226   10.491
  213.250   91.425    0.459    0.216    9.920
  213.500   91.990    0.458    0.214    9.380
  213.750   94.917    0.456    0.216    8.869
  214.000   98.436    0.457    0.222    7.934
  214.250  103.720    0.458    0.231    7.643
  214.500  105.473    0.459    0.237    7.498
  214.750   98.943    0.466    0.238    8.217
  215.000   94.783    0.473    0.304    8.842
  215.250   90.623    0.480    0.342    9.691
  215.500   89.416    0.454    0.335   10.233
  215.750   91.753    0.419    0.281   10.229
  216.000   92.318    0.385    0.256   10.037
  216.250   90.520    0.394    0.242    9.848
  216.500   89.904    0.409    0.228    9.662
  216.750   99.329    0.417    0.211    9.477
  217.000   98.713    0.423    0.189    9.298
  217.250   93.365    0.427    0.147    9.122
  217.500   93.930    0.431    0.141    8.950
  217.750   99.220    0.433    0.165    8.620
  218.000  103.920    0.438    0.190    8.303
  218.250  106.257    0.443    0.197    7.997
  218.500  108.004    0.453    0.200    7.424
  218.750  109.743    0.469    0.170    6.765
  219.000  110.899    0.472    0.143    6.052
  219.250  112.646    0.476    0.151    5.618
  219.500  115.580    0.483    0.175    5.119
  219.750  120.280    0.492    0.186    4.753
  220.000  120.248    0.500    0.201    4.494
  220.250  119.631    0.517    0.210    4.019
  220.500  121.962    0.531    0.215    3.872
  220.750  123.715    0.542    0.220    3.660
  221.000  126.052    0.547    0.224    3.526
  221.250  124.254    0.547    0.233    3.524
  221.500  120.685    0.534    0.239    3.862
  221.750  116.524    0.492    0.240    4.079
  222.000  111.773    0.460    0.223    4.726
  222.250  112.338    0.425    0.208    5.894
  222.500  117.622    0.423    0.217    7.217
  222.750  113.468    0.451    0.221    8.514
  223.000  100.442    0.427    0.222    9.331
  223.250   89.784    0.417    0.226   10.227
  223.500   83.852    0.399    0.238   10.804
  223.750   76.147    0.385    0.251   11.412
  224.000   72.565    0.378    0.256   12.737
  224.250   71.358    0.380    0.257   13.212
  224.500   71.339    0.383    0.258   13.700
  224.750   71.897    0.388    0.258   14.471
  225.000   72.463    0.391    0.263   15.570
  225.250   72.437    0.414    0.276   16.144
  225.500   72.996    0.422    0.287   16.437
  225.750   74.164    0.429    0.291   16.725
  226.000   80.039    0.438    0.293   17.029
  226.250   80.610    0.441    0.293   17.016
  226.500   77.034    0.436    0.296   17.323
  226.750   75.834    0.424    0.302   17.317
  227.000   74.627    0.411    0.309   17.629
  227.250   73.991    0.397    0.315   17.947
  227.500   73.978    0.385    0.318   18.267
  227.750   74.543    0.379    0.317   18.256
  228.000   76.284    0.381    0.311   18.585
  228.250   77.446    0.388    0.305   18.570
  228.500   78.601    0.398    0.302   18.562
  228.750   79.757    0.421    0.302   18.548
  229.000   80.316    0.421    0.302   18.537
  229.250   80.290    0.423    0.298   18.190
  229.500   80.855    0.426    0.290   18.178
  229.750   81.427    0.431    0.281   17.835
  230.000   82.582    0.405    0.269   17.822
  230.250   82.557    0.392    0.238   17.488
  230.500   86.660    0.373    0.226   17.155
  230.750   90.775    0.351    0.232   16.524
  231.000   77.151    0.345    0.242   15.918
  231.250   72.997    0.351    0.259   18.099
  231.500   67.065    0.356    0.268   21.356
  231.750   61.126    0.362    0.270   25.199
  232.000   59.926    0.373    0.274   27.618
  232.250   61.069    0.375    0.291   29.168
  232.500   57.499    0.378    0.307   30.242
  232.750   52.755    0.386    0.319   30.233
  233.000   60.408    0.393    0.330   29.653
  233.250   58.019    0.392    0.337   29.097
  233.500   53.859    0.390    0.341   28.548
  233.750   52.646    0.392    0.336   28.009
  234.000   69.756    0.396    0.334   27.992
  234.250   73.274    0.391    0.339   27.979
  234.500   66.745    0.392    0.344   27.954
  234.750   62.591    0.398    0.346   28.462
  235.000   61.975    0.413    0.344   28.436
  235.250   65.474    0.411    0.337   28.423
  235.500   66.636    0.406    0.331   28.410
  235.750   67.195    0.404    0.334   28.393
  236.000   67.773    0.400    0.337   28.375
  236.250   67.747    0.399    0.339   26.823
  236.500   67.715    0.401    0.343   26.320
  236.750   67.683    0.403    0.341   25.355
  237.000   67.670    0.405    0.333   24.422
  237.250   68.235    0.410    0.329   23.082
  237.500   69.391    0.414    0.324   22.235
  237.750   71.131    0.417    0.317   21.420
  238.000   74.059    0.422    0.309   19.881
  238.250   78.174    0.426    0.301   18.796
