~VERSION INFORMATION
 VERS.                 2.0:   CWLS LOG ASCII STANDARD -VERSION 2.0
 WRAP.                  NO:   ONE LINE PER DEPTH STEP
~WELL INFORMATION BLOCK
#MNEM.UNIT           DATA                    DESCRIPTION OF MNEMONIC
#---------    -------------------            -------------------------------
# Generated from Intellog Unique Number	CS_73_76/WELL/2023
WELL.         10-22-076-03W4                 : Well_name    - WELL
LOC .         00/10-22-076-03W4/0            : Location     - LOCATION
UWI .         00/10-22-076-03W4/0            : Uwi          - UNIQUE WELL ID
ENTR.         JO                             : Entered      - ENTERED BY
SRVC.         SCHLUMBERGER                   : Scn          - SERVICE COMPANY
DATE.         05/25/92                       : Date         - LOG DATE
STRT.M        259.08                         : top_depth    - START DEPTH
STOP.M        524.33                         : bot_depth    - STOP DEPTH
STEP.M        0.25                           : increment    - STEP LENGTH
 NULL. -999.2500:NULL Value
~CURVE INFORMATION BLOCK
#MNEM UNIT       ERCB CURVE CODE    CURVE DESCRIPTION
#-----------   ------------------   ----------------------------------
DEPT.M        00 001 00 00         : DEPTH        - DEPTH
GR  .API      00 310 00 00         : GR           - GAMMA RAY
DPHI.V/V      00 890 00 00         : PHID         - DENSITY POROSITY (SANDSTONE)
ILD .OHMM     00 120 00 00         : RESD         - DEEP RESISTIVITY (DIL)
~PARAMETER INFORMATION
#MNEM.UNIT           DATA             DESCRIPTION OF MNEMONIC
#---------         -----------     ------------------------------
GL  .M        632.155              : gl           - GROUND LEVEL ELEVATION
EREF.M        634.594              : kb           - ELEVATION OF DEPTH REFERENCE
DATM.M        634.594              : datum        - DATUM ELEVATION
TDD .M        526.694              : tdd          - TOTAL DEPTH DRILLER
RUN .         ONE                  : Run          - RUN NUMBER
ENG .         BILL                 : Engineer     - RECORDING ENGINEER
WIT .         JIM                  : Witness      - WITNESSED BY
MUD .         GEL                  : Mud_type     - MUD TYPE
MATR.         SANDSTONE            : Logunit      - NEUTRON MATRIX
TMAX.C        25                   : BHT          - MAXIMUM RECORDED TEMPERATURE
BHTD.M        526.694              : BHTDEP       - MAXIMUM RECORDED TEMPERATURE
MATR.         1                    : LOGUNIT      - NEUTRON MATRIX
RMT .C        15.5556              : MDTP         - TEMPERATURE OF MUD
NEUT.         1                    : NEUTRON      - NEUTRON TYPE
RESI.         0                    : RESIST       - RESISTIVITY TYPE
RMC .OHMM     4.66                 : RMC          - RESISTIVITY OF MUD CAKE
RMF .OHMM     5.44                 : RMF          - RESISTIVITY OF MUD FILTRATE
SUFT.C        15                   : SUFT         - SURFACE TEMPERATURE
~A  DEPTH       GR     PHID     RESD
  259.080   67.889    0.218    2.513
  259.330   67.243    0.203    2.422
  259.580   67.212    0.203    2.334
  259.830   67.778    0.207    2.289
  260.080   68.325    0.211    2.206
  260.330   68.295    0.213    2.164
  260.580   68.245    0.219    2.123
  260.830   67.608    0.221    2.083
  261.080   66.336    0.221    2.080
  261.330   65.700    0.221    2.077
  261.580   65.660    0.220    2.073
  261.830   65.630    0.216    2.070
  262.080   64.963    0.204    2.067
  262.330   64.933    0.200    2.063
  262.580   64.873    0.198    2.134
  262.830   64.843    0.199    2.131
  263.080   64.813    0.202    2.166
  263.330   65.379    0.204    2.162
  263.580   65.925    0.202    2.197
  263.830   65.906    0.196    2.233
  264.080   65.835    0.188    2.268
  264.330   65.805    0.184    2.266
  264.580   65.775    0.183    2.304
  264.830   65.725    0.178    2.381
  265.080   66.301    0.176    2.421
  265.330   68.060    0.170    2.505
  265.580   68.646    0.164    2.684
  265.830   69.202    0.160    2.826
  266.080   67.950    0.158    3.029
  266.330   70.334    0.158    3.245
  266.580   70.900    0.161    3.300
  266.830   70.850    0.164    3.237
  267.080   68.376    0.163    3.012
  267.330   66.537    0.162    2.850
  267.580   63.446    0.157    2.796
  267.830   64.013    0.156    2.892
  268.080   66.993    0.152    3.099
  268.330   66.973    0.155    3.150
  268.580   66.327    0.160    2.982
  268.830   62.640    0.161    2.773
  269.080   62.600    0.160    2.625
  269.330   60.742    0.154    2.622
  269.580   58.277    0.145    2.618
  269.830   52.772    0.130    2.757
  270.080   46.670    0.120    3.117
  270.330   39.962    0.098    4.205
  270.580   35.063    0.088    5.381
  270.830   35.629    0.110    6.301
  271.080   37.407    0.126    7.119
  271.330   37.984    0.119    6.861
  271.580   33.681    0.106    6.615
  271.830   30.610    0.080    6.489
  272.080   27.529    0.078    7.465
  272.330   28.095    0.071   10.807
  272.580   31.106    0.068   12.005
  272.830   38.946    0.078   11.570
  273.080   40.108    0.085   10.206
  273.330   38.856    0.084    8.092
  273.580   45.483    0.081    6.650
  273.830   52.111    0.086    5.560
  274.080   53.889    0.121    5.265
  274.330   52.617    0.158    5.446
  274.580   51.991    0.130    5.942
  274.830   54.365    0.118    6.482
  275.080   57.356    0.107    7.324
  275.330   56.710    0.101    7.993
  275.580   54.851    0.100    9.034
  275.830   54.195    0.100   10.028
  276.080   55.377    0.102   10.752
  276.330   57.762    0.104   11.725
  276.580   61.349    0.106   12.125
  276.830   63.127    0.106   12.112
  277.080   64.915    0.106   12.098
  277.330   67.290    0.107   11.660
  277.580   68.472    0.107   11.036
  277.830   69.038    0.108   10.636
  278.080   66.544    0.108    9.716
  278.330   65.918    0.109    9.203
  278.580   65.261    0.109    7.967
  278.830   65.827    0.111    7.546
  279.080   63.969    0.112    7.275
  279.330   60.908    0.110    7.262
  279.580   53.584    0.107    7.253
  279.830   51.726    0.105    8.195
  280.080   52.292    0.107    9.266
  280.330   53.464    0.116   11.242
  280.580   52.202    0.117   14.641
  280.830   47.313    0.111   14.619
  281.080   43.636    0.109   12.890
  281.330   42.383    0.104   14.835
  281.580   42.949    0.101   19.320
  281.830   44.728    0.097   23.430
  282.080   47.709    0.095   23.387
  282.330   51.922    0.094   22.160
  282.580   57.327    0.094   19.889
  282.830   60.307    0.094   17.544
  283.080   59.661    0.096   15.470
  283.330   60.227    0.100   13.641
  283.580   61.400    0.100   12.461
  283.830   61.976    0.099   12.019
  284.080   63.138    0.097   11.583
  284.330   63.714    0.096   11.164
  284.580   63.674    0.094   10.943
  284.830   62.412    0.095   10.739
  285.080   59.927    0.101   10.530
  285.330   58.079    0.106   10.153
  285.580   56.836    0.118    9.613
  285.830   56.796    0.123   10.865
  286.080   59.787    0.124   11.845
  286.330   62.172    0.116   11.836
  286.580   62.718    0.115   11.006
  286.830   61.465    0.116   10.058
  287.080   62.041    0.122    9.867
  287.330   63.820    0.126    9.848
  287.580   65.588    0.126    9.161
  287.830   66.164    0.126    9.304
  288.080   66.710    0.121    9.134
  288.330   66.084    0.117    8.198
  288.580   64.812    0.107    7.492
  288.830   62.943    0.102    6.966
  289.080   61.095    0.097    6.714
  289.330   58.630    0.090    7.196
  289.580   55.559    0.081    7.847
  289.830   51.266    0.077    7.982
  290.080   48.206    0.077    7.689
  290.330   43.316    0.077    7.278
  290.580   39.033    0.078    7.402
  290.830   44.449    0.077    7.655
  291.080   50.460    0.073    7.506
  291.330   46.167    0.074    7.907
  291.580   49.774    0.080    9.259
  291.830   52.754    0.085    9.920
  292.080   51.492    0.090   10.266
  292.330   50.866    0.091   11.196
  292.580   50.826    0.095    9.876
  292.830   53.816    0.101   10.778
  293.080   58.626    0.108   12.847
  293.330   64.041    0.112   14.520
  293.580   67.032    0.117   11.923
  293.830   65.769    0.121   11.701
  294.080   68.750    0.122   11.079
  294.330   71.145    0.120    9.433
  294.580   74.741    0.119    7.887
  294.830   77.116    0.121    6.957
  295.080   77.682    0.132    6.358
  295.330   77.642    0.159    5.608
  295.580   77.612    0.163    5.124
  295.830   77.562    0.164    4.681
  296.080   76.916    0.169    4.352
  296.330   76.269    0.182    4.198
  296.580   74.997    0.186    3.904
  296.830   73.755    0.187    3.696
  297.080   70.674    0.192    3.500
  297.330   68.826    0.194    3.684
  297.580   65.745    0.192    4.165
  297.830   62.664    0.179    5.051
  298.080   61.422    0.170    5.917
  298.330   59.563    0.136    7.179
  298.580   60.745    0.121    8.557
  298.830   64.332    0.115    8.394
  299.080   66.707    0.114    8.090
  299.330   66.051    0.117    8.983
  299.580   64.818    0.119    9.972
  299.830   61.748    0.114    8.953
  300.080   56.858    0.108    8.179
  300.330   59.839    0.104    9.753
  300.580   65.254    0.105   10.636
  300.830   64.598    0.110   10.074
  301.080   63.942    0.112    9.038
  301.330   65.740    0.108    8.873
  301.580   68.731    0.105    9.506
  301.830   71.115    0.105    9.662
  302.080   72.278    0.107    9.471
  302.330   72.248    0.110    9.797
  302.580   71.602    0.113    9.786
  302.830   71.552    0.114    9.943
  303.080   74.542    0.116   10.113
  303.330   75.704    0.115   10.461
  303.580   75.664    0.115   10.446
  303.830   74.412    0.113   10.239
  304.080   73.766    0.114   10.048
  304.330   73.736    0.116    9.857
  304.580   74.888    0.121   10.376
  304.830   75.464    0.122   10.364
  305.080   76.020    0.120    9.981
  305.330   75.980    0.116   10.152
  305.580   74.122    0.114   11.465
  305.830   71.667    0.110   11.657
  306.080   71.001    0.107   11.848
  306.330   70.961    0.109   12.041
  306.580   70.921    0.113   11.812
  306.830   70.265    0.115   10.791
  307.080   70.245    0.113   10.586
  307.330   69.588    0.112   10.763
  307.580   68.336    0.110   10.739
  307.830   71.933    0.108   10.726
  308.080   71.287    0.105   10.522
  308.330   68.822    0.103   10.503
  308.580   67.550    0.100   10.299
  308.830   68.136    0.101   10.475
  309.080   68.096    0.103   10.832
  309.330   69.258    0.108   11.210
  309.580   69.824    0.111   10.420
  309.830   67.350    0.111   10.226
  310.080   65.491    0.108   10.393
  310.330   65.451    0.106   10.016
  310.580   66.027    0.104    9.318
  310.830   70.220    0.102    9.807
  311.080   70.786    0.101   11.287
  311.330   69.534    0.101   13.218
  311.580   69.494    0.101   11.052
  311.830   71.858    0.102    9.919
  312.080   73.041    0.109    9.904
  312.330   73.617    0.115    9.542
  312.580   74.183    0.119    9.200
  312.830   69.890    0.125    8.863
  313.080   68.021    0.130    8.694
