~VERSION INFORMATION
 VERS.                 2.0:   CWLS LOG ASCII STANDARD -VERSION 2.0
 WRAP.                  NO:   ONE LINE PER DEPTH STEP
~WELL INFORMATION BLOCK
#MNEM.UNIT           DATA                    DESCRIPTION OF MNEMONIC
#---------    -------------------            -------------------------------
# Generated from Intellog Unique Number	CW_79_81/WELL/773
WELL.         PACIFIC STONY RAPIDS           : Well_name    - WELL
LOC .         00/10-13-080-19W4/0            : Location     - LOCATION
UWI .         00/10-13-080-19W4/0            : Uwi          - UNIQUE WELL ID
ENTR.         MAX                            : Entered      - ENTERED BY
SRVC.         SCHLUMBERGER                   : Scn          - SERVICE COMPANY
STRT.M        182.88                         : top_depth    - START DEPTH
STOP.M        365.88                         : bot_depth    - STOP DEPTH
STEP.M        0.25                           : increment    - STEP LENGTH
 NULL. -999.2500:NULL Value
~CURVE INFORMATION BLOCK
#MNEM UNIT       ERCB CURVE CODE    CURVE DESCRIPTION
#-----------   ------------------   ----------------------------------
DEPT.M        00 001 00 00         : DEPTH        - DEPTH
ILD .OHMM     00 120 00 00         : RESD         - DEEP RESISTIVITY (DIL)
NPHI.V/V      00 330 00 00         : PHIN         - NEUTRON POROSITY (SANDSTONE)
DPHI.V/V      00 890 00 00         : PHID         - DENSITY POROSITY (SANDSTONE)
CALI.MM       00 280 01 00         : CAL          - CALIPER
GR  .API      00 310 00 00         : GR           - GAMMA RAY
~PARAMETER INFORMATION
#MNEM.UNIT           DATA             DESCRIPTION OF MNEMONIC
#---------         -----------     ------------------------------
GL  .M        565.526              : gl           - GROUND LEVEL ELEVATION
EREF.M        568.879              : kb           - ELEVATION OF DEPTH REFERENCE
DATM.M        565.526              : datum        - DATUM ELEVATION
TDD .M        407.213              : tdd          - TOTAL DEPTH DRILLER
RUN .         ONE                  : Run          - RUN NUMBER
ENG .         BILL                 : Engineer     - RECORDING ENGINEER
WIT .         JIM                  : Witness      - WITNESSED BY
MUD .         GEL                  : Mud_type     - MUD TYPE
MATR.         SANDSTONE            : Logunit      - NEUTRON MATRIX
TMAX.C        25.5556              : BHT          - MAXIMUM RECORDED TEMPERATURE
BHTD.M        407.213              : BHTDEP       - MAXIMUM RECORDED TEMPERATURE
RMT .C        23.3333              : MDTP         - TEMPERATURE OF MUD
MUDD.KG/M     1100                 : MWT          - MUD DENSITY
NEUT.         1                    : NEUTRON      - NEUTRON TYPE
RESI.         0                    : RESIST       - RESISTIVITY TYPE
RM  .OHMM     2.45                 : RM           - RESISTIVITY OF MUD
RMC .OHMM     0                    : RMC          - RESISTIVITY OF MUD CAKE
RMF .OHMM     2.45                 : RMF          - RESISTIVITY OF MUD FILTRATE
SUFT.C        -20.5556             : SUFT         - SURFACE TEMPERATURE
~A  DEPTH     RESD     PHIN     PHID      CAL       GR
# ...
  219.380   15.671    0.456    0.359  178.350   58.227
  219.630   15.246    0.456    0.354  178.308   58.205
  219.880   13.915    0.459    0.326  178.280   59.083
  220.130   11.699    0.455    0.309  178.741   60.260
  220.380    9.926    0.438    0.297  178.704   62.035
  220.630    7.901    0.434    0.279  178.666   63.816
  220.880    5.900    0.434    0.276  179.142   65.894
  221.130    4.871    0.452    0.310  180.120   68.272
  221.380    4.286    0.477    0.303  182.623   72.449
  221.630    4.208    0.503    0.327  184.109   75.124
  221.880    4.246    0.554    0.336  184.580   74.202
  222.130    5.236    0.563    0.368  183.014   71.783
  222.380    6.637    0.565    0.401  183.992   63.959
  222.630    8.725    0.584    0.431  182.934   59.731
  222.880   12.226    0.505    0.317  176.298   57.912
  223.130   15.638    0.455    0.260  175.748   56.392
  223.380   15.353    0.447    0.307  176.223   54.268
  223.630   13.759    0.442    0.321  176.185   53.648
  223.880   13.508    0.445    0.331  176.148   54.824
  224.130   13.630    0.446    0.337  176.111   59.301
  224.380   13.879    0.441    0.320  177.080   63.476
  224.630   14.133    0.445    0.303  178.058   64.057
  224.880   14.656    0.464    0.311  178.529   63.435
  225.130   16.053    0.459    0.320  180.523   61.613
  225.380   17.424    0.441    0.345  183.026   58.891
  225.630   18.068    0.442    0.344  183.501   57.963
  225.880   18.231    0.440    0.338  181.427   58.544
  226.130   18.063    0.434    0.314  179.362   60.322
  226.380   18.061    0.425    0.286  177.792   61.202
  226.630   17.731    0.443    0.271  177.754   60.877
  226.880   17.729    0.453    0.317  177.717   59.653
  227.130   17.405    0.450    0.334  177.679   58.433
  227.380   17.245    0.454    0.337  177.139   56.306
  227.630   16.931    0.477    0.327  177.101   55.384
  227.880   16.623    0.485    0.320  177.572   54.764
  228.130   16.172    0.470    0.300  177.022   55.042
  228.380   15.448    0.455    0.289  176.481   55.317
  228.630   14.623    0.459    0.322  176.443   54.995
  228.880   13.469    0.485    0.327  176.397   55.276
  229.130   12.293    0.494    0.365  175.851   57.648
  229.380   11.851    0.498    0.349  173.279   58.232
  229.630   11.321    0.514    0.369  172.221   58.509
  229.880   11.739    0.588    0.382  173.204   57.885
  230.130   12.399    0.587    0.405  176.210   57.565
  230.380   13.214    0.553    0.382  181.257   56.041
  230.630   13.829    0.466    0.320  182.743   54.816
  230.880   14.472    0.469    0.305  183.204   54.196
  231.130   14.736    0.466    0.311  183.167   53.572
  231.380   14.734    0.463    0.338  183.134   52.344
  231.630   14.867    0.463    0.334  183.097   51.727
  231.880   15.138    0.465    0.342  181.535   50.508
  232.130   15.275    0.468    0.339  180.477   48.986
  232.380   15.273    0.449    0.322  180.953   46.858
  232.630   15.410    0.468    0.329  181.922   45.334
  232.880   15.408    0.474    0.343  182.402   45.017
  233.130   15.406    0.470    0.353  182.360   44.695
  233.380   15.545    0.468    0.348  182.317   45.270
  233.630   15.685    0.461    0.355  182.275   46.448
  233.880   15.827    0.442    0.358  182.247   47.626
  234.130   15.969    0.428    0.342  182.718   47.301
  234.380   16.261    0.432    0.328  183.696   46.676
  234.630   16.408    0.431    0.342  183.654   47.260
  234.880   16.556    0.434    0.328  183.104   48.135
  235.130   16.403    0.455    0.321  182.568   48.107
  235.380   16.252    0.468    0.331  181.515   48.393
  235.630   15.955    0.467    0.328  180.452   50.468
  235.880   15.808    0.457    0.332  179.403   52.246
  236.130   15.663    0.460    0.336  178.853   52.524
  236.380   15.377    0.460    0.342  177.804   52.502
  236.630   15.236    0.471    0.363  177.254   52.177
  236.880   15.233    0.476    0.369  176.714   51.852
  237.130   15.231    0.474    0.369  176.164   51.836
  237.380   15.229    0.460    0.371  176.126   51.511
  237.630   15.088    0.452    0.364  175.581   51.489
  237.880   15.086    0.441    0.336  175.534   51.767
  238.130   15.084    0.458    0.356  175.496   52.044
  238.380   15.359    0.466    0.351  175.976   52.325
  238.630   15.928    0.461    0.329  174.406   51.700
  238.880   15.926    0.448    0.308  173.362   51.381
  239.130   15.923    0.434    0.274  172.816   51.353
  239.380   15.776    0.398    0.258  172.271   52.531
  239.630   15.489    0.421    0.357  172.219   53.709
  239.880   15.206    0.466    0.357  175.742   53.384
  240.130   15.066    0.475    0.339  175.705   52.465
  240.380   14.928    0.457    0.338  174.652   52.143
  240.630   14.925    0.456    0.338  174.619   53.620
  240.880   14.923    0.449    0.351  174.577   53.596
  241.130   14.921    0.465    0.337  174.539   52.676
  241.380   14.783    0.473    0.320  174.507   52.051
  241.630   14.781    0.461    0.335  174.977   52.329
  241.880   14.779    0.443    0.321  175.443   51.407
  242.130   14.777    0.428    0.327  175.914   50.788
  242.380   14.640    0.436    0.333  176.384   49.863
  242.630   14.505    0.445    0.332  177.353   49.241
  242.880   14.503    0.450    0.325  177.321   50.119
  243.130   14.768    0.456    0.313  177.288   50.400
  243.380   15.038    0.455    0.288  177.754   50.075
  243.630   15.036    0.421    0.288  178.220   50.350
  243.880   15.033    0.436    0.266  178.700   50.328
  244.130   14.895    0.479    0.337  179.678   50.006
  244.380   14.624    0.475    0.328  179.128   49.981
  244.630   14.357    0.480    0.325  177.054   51.461
  244.880   14.225    0.480    0.330  175.493   51.742
  245.130   14.223    0.480    0.342  176.476   50.520
  245.380   14.221    0.469    0.337  177.450   50.198
  245.630   14.221    0.470    0.349  176.900   50.473
  245.880   14.215    0.475    0.341  176.359   51.351
  246.130   14.215    0.477    0.345  176.321   53.726
  246.380   14.212    0.474    0.349  176.284   56.104
  246.630   14.211    0.475    0.342  176.247   57.284
  246.880   14.209    0.478    0.330  176.209   59.062
  247.130   14.206    0.467    0.326  176.167   61.437
  247.380   14.335    0.476    0.335  176.130   60.518
  247.630   14.463    0.456    0.344  176.092   58.696
  247.880   14.594    0.459    0.341  176.059   55.968
  248.130   14.725    0.478    0.326  176.525   56.546
  248.380   14.859    0.475    0.323  176.488   58.321
  248.630   15.129    0.463    0.328  176.441   60.399
  248.880   15.266    0.469    0.331  176.413   61.280
  249.130   15.264    0.471    0.329  175.863   61.261
  249.380   15.262    0.467    0.325  175.830   61.233
  249.630   14.984    0.463    0.319  175.783   61.214
  249.880   14.711    0.460    0.313  175.243   61.491
  250.130   14.843    0.449    0.305  175.205   61.469
  250.380   15.965    0.449    0.287  175.173   61.150
  250.630   18.303    0.459    0.254  174.622   59.925
  250.880   23.199    0.444    0.178  174.585   59.297
  251.130   30.219    0.402    0.139  174.548   58.078
  251.380   36.930    0.307    0.113  173.998   54.159
  251.630   44.313    0.275    0.120  173.965   51.431
  251.880   46.374    0.253    0.058  173.927   51.115
  252.130   45.946    0.228    0.062  174.398   50.187
  252.380   45.109    0.305    0.076  174.868   48.365
  252.630   43.486    0.323    0.102  175.838   48.640
  252.880   41.924    0.326    0.089  177.832   51.324
  253.130   39.324    0.305    0.124  177.795   53.999
  253.380   36.219    0.253    0.081  175.730   54.277
  253.630   33.360    0.226    0.078  175.688   55.455
  253.880   27.291    0.292    0.130  175.147   56.935
  254.130   20.379    0.357    0.210  174.592   59.907
  254.380   17.291    0.409    0.307  174.564   61.091
  254.630   15.781    0.450    0.304  174.014   61.966
  254.880   14.938    0.446    0.313  174.480   62.846
  255.130   14.270    0.442    0.318  174.447   62.822
  255.380   14.010    0.459    0.312  174.410   62.494
  255.630   13.881    0.474    0.307  174.373   63.077
