~VERSION INFORMATION
 VERS.                 2.0:   CWLS LOG ASCII STANDARD -VERSION 2.0
 WRAP.                  NO:   ONE LINE PER DEPTH STEP
~WELL INFORMATION BLOCK
#MNEM.UNIT           DATA                    DESCRIPTION OF MNEMONIC
#---------    -------------------            -------------------------------
# Generated from Intellog Unique Number	CS_71_72/WELL/853
WELL.         HOL BVX UNIGAS NIXON           : Well_name    - WELL
LOC .         00/10-10-071-15W4/0            : Location     - LOCATION
UWI .         00/10-10-071-15W4/0            : Uwi          - UNIQUE WELL ID
ENTR.         SP                             : Entered      - ENTERED BY
SRVC.         SCHLUMBERGER                   : Scn          - SERVICE COMPANY
STRT.M        313.944                        : top_depth    - START DEPTH
STOP.M        517.944                        : bot_depth    - STOP DEPTH
STEP.M        0.25                           : increment    - STEP LENGTH
 NULL. -999.2500:NULL Value
~CURVE INFORMATION BLOCK
#MNEM UNIT       ERCB CURVE CODE    CURVE DESCRIPTION
#-----------   ------------------   ----------------------------------
DEPT.M        00 001 00 00         : DEPTH        - DEPTH
GR  .API      00 310 00 00         : GR           - GAMMA RAY
DPHI.V/V      00 890 00 00         : PHID         - DENSITY POROSITY (SANDSTONE)
NPHI.V/V      00 330 00 00         : PHIN         - NEUTRON POROSITY (SANDSTONE)
ILD .OHMM     00 120 00 00         : RESD         - DEEP RESISTIVITY (DIL)
~PARAMETER INFORMATION
#MNEM.UNIT           DATA             DESCRIPTION OF MNEMONIC
#---------         -----------     ------------------------------
GL  .M        620.573              : gl           - GROUND LEVEL ELEVATION
EREF.M        623.011              : kb           - ELEVATION OF DEPTH REFERENCE
DATM.M        620.573              : datum        - DATUM ELEVATION
TDD .M        523.646              : tdd          - TOTAL DEPTH DRILLER
RUN .         ONE                  : Run          - RUN NUMBER
ENG .         BILL                 : Engineer     - RECORDING ENGINEER
WIT .         JIM                  : Witness      - WITNESSED BY
MUD .         GEL                  : Mud_type     - MUD TYPE
MATR.         SANDSTONE            : Logunit      - NEUTRON MATRIX
TMAX.C        21.6667              : BHT          - MAXIMUM RECORDED TEMPERATURE
BHTD.M        523.646              : BHTDEP       - MAXIMUM RECORDED TEMPERATURE
MATR.         1                    : LOGUNIT      - NEUTRON MATRIX
RMT .C        25                   : MDTP         - TEMPERATURE OF MUD
NEUT.         1                    : NEUTRON      - NEUTRON TYPE
RESI.         0                    : RESIST       - RESISTIVITY TYPE
RMC .OHMM     0.25                 : RMC          - RESISTIVITY OF MUD CAKE
RMF .OHMM     0.25                 : RMF          - RESISTIVITY OF MUD FILTRATE
SUFT.C        15                   : SUFT         - SURFACE TEMPERATURE
~A  DEPTH       GR     PHID     PHIN     RESD
# ...
  444.444   81.333    0.263    0.562    4.030
  444.694   79.032    0.261    0.558    3.860
  444.944   79.015    0.255    0.576    3.577
  445.194   83.156    0.256    0.607    3.280
  445.444   86.010    0.255    0.627    3.126
  445.694   86.498    0.248    0.649    3.088
  445.944   86.689    0.241    0.673    3.063
  446.194   88.016    0.236    0.678    3.150
  446.444   87.592    0.229    0.658    3.275
  446.694   85.401    0.231    0.644    3.392
  446.944   87.719    0.242    0.641    3.443
  447.194   88.378    0.230    0.652    3.431
  447.444   88.782    0.232    0.655    3.373
  447.694   88.782    0.238    0.665    3.269
  447.944   88.797    0.236    0.650    3.103
  448.194   88.451    0.234    0.631    2.970
  448.444   89.586    0.236    0.624    2.898
  448.694   92.038    0.249    0.630    2.876
  448.944   93.241    0.259    0.634    2.864
  449.194   92.062    0.268    0.629    2.877
  449.444   88.795    0.278    0.620    2.926
  449.694   86.010    0.291    0.614    3.064
  449.944   82.455    0.304    0.611    3.431
  450.194   79.455    0.311    0.602    3.639
  450.444   77.287    0.305    0.579    3.955
  450.694   74.668    0.288    0.588    4.207
  450.944   73.486    0.265    0.595    4.486
  451.194   73.641    0.229    0.566    4.592
  451.444   75.713    0.212    0.534    4.686
  451.694   78.041    0.196    0.519    4.751
  451.944   79.358    0.184    0.512    4.712
  452.194   74.567    0.170    0.494    4.661
  452.444   71.142    0.160    0.472    5.145
  452.694   70.449    0.154    0.440    5.222
  452.944   71.282    0.159    0.414    5.735
  453.194   71.839    0.164    0.398    6.185
  453.444   73.329    0.178    0.411    6.541
  453.694   75.355    0.188    0.461    6.571
  453.944   76.912    0.196    0.497    6.265
  454.194   78.643    0.201    0.539    5.650
  454.444   79.532    0.204    0.558    5.260
  454.694   79.921    0.205    0.550    4.781
  454.944   79.430    0.210    0.539    4.432
  455.194   78.501    0.211    0.531    4.261
  455.444   78.549    0.208    0.526    4.214
  455.694   79.667    0.202    0.523    4.299
  455.944   81.699    0.186    0.520    4.306
  456.194   81.593    0.179    0.517    4.401
  456.444   81.296    0.185    0.512    4.532
  456.694   81.618    0.192    0.505    4.672
  456.944   82.759    0.195    0.500    4.739
  457.194   83.967    0.213    0.496    4.694
  457.444   86.182    0.222    0.510    4.574
  457.694   87.856    0.238    0.540    4.313
  457.944   88.154    0.249    0.559    4.212
  458.194   88.238    0.230    0.528    4.233
  458.444   87.365    0.211    0.503    4.316
  458.694   86.035    0.207    0.473    4.424
  458.944   86.065    0.201    0.473    4.531
  459.194   86.602    0.195    0.504    4.614
  459.444   85.935    0.221    0.528    4.624
  459.694   83.535    0.213    0.545    4.596
  459.944   78.685    0.181    0.486    4.562
  460.194   75.045    0.129    0.448    4.569
  460.444   71.439    0.110    0.357    5.063
  460.694   69.257    0.105    0.301    6.223
  460.944   66.017    0.078    0.277    7.488
  461.194   67.525    0.114    0.329    8.333
  461.444   69.880    0.161    0.372    8.483
  461.694   70.914    0.232    0.431    7.009
  461.944   71.401    0.237    0.503    6.036
  462.194   70.866    0.156    0.436    5.402
  462.444   68.011    0.104    0.400    4.944
  462.694   68.776    0.093    0.371    4.755
  462.944   72.848    0.151    0.420    4.816
  463.194   76.965    0.207    0.473    4.949
  463.444   79.985    0.224    0.502    4.987
  463.694   79.909    0.245    0.514    4.662
  463.944   77.669    0.236    0.522    4.210
  464.194   75.615    0.277    0.515    4.011
  464.444   74.150    0.297    0.509    4.092
  464.694   73.440    0.323    0.529    4.302
  464.944   75.344    0.347    0.553    4.454
  465.194   78.830    0.304    0.569    4.199
  465.444   82.440    0.330    0.587    3.457
  465.694   84.972    0.329    0.604    2.970
  465.944   86.379    0.300    0.614    2.570
  466.194   85.905    0.316    0.637    2.250
  466.444   84.275    0.308    0.660    2.112
  466.694   82.663    0.317    0.642    2.299
  466.944   79.623    0.312    0.605    2.630
  467.194   75.698    0.324    0.566    3.105
  467.444   72.986    0.358    0.573    3.641
  467.694   70.739    0.332    0.593    4.111
  467.944   67.215    0.274    0.440    4.430
  468.194   66.946    0.262    0.423    4.617
  468.444   69.921    0.344    0.476    4.753
  468.694   73.819    0.394    0.582    4.781
  468.944   76.598    0.365    0.623    4.670
  469.194   77.403    0.325    0.575    4.429
  469.444   74.871    0.325    0.549    4.354
  469.694   71.826    0.164    0.381    4.472
  469.944   69.801    0.138    0.361    4.969
  470.194   74.277    0.143    0.413    5.458
  470.444   77.762    0.202    0.456    5.783
  470.694   78.677    0.232    0.478    5.901
  470.944   78.237    0.250    0.485    5.807
  471.194   78.275    0.263    0.490    5.642
  471.444   80.871    0.226    0.505    5.557
  471.694   83.605    0.201    0.390    5.541
  471.944   87.032    0.159    0.436    5.545
  472.194   89.833    0.214    0.553    5.209
  472.444   91.448    0.259    0.594    4.786
  472.694   89.924    0.246    0.612    4.388
  472.944   88.735    0.267    0.568    3.905
  473.194   87.716    0.279    0.578    3.653
  473.444   86.663    0.273    0.570    3.404
  473.694   86.388    0.261    0.545    3.293
  473.944   86.133    0.258    0.543    3.278
  474.194   84.697    0.261    0.553    3.279
  474.444   84.174    0.279    0.553    3.289
  474.694   84.835    0.294    0.572    3.283
  474.944   86.018    0.259    0.588    3.286
  475.194   87.129    0.255    0.602    3.276
  475.444   88.906    0.293    0.626    3.290
  475.694   89.899    0.268    0.574    3.335
  475.944   91.602    0.248    0.590    3.385
  476.194   92.811    0.278    0.609    3.446
  476.444   92.398    0.264    0.622    3.483
  476.694   88.774    0.254    0.620    3.522
  476.944   84.969    0.264    0.598    3.574
  477.194   82.168    0.263    0.580    3.575
  477.444   82.274    0.264    0.548    3.561
  477.694   84.429    0.275    0.522    3.537
  477.944   87.314    0.227    0.506    3.464
  478.194   89.722    0.249    0.552    3.397
  478.444   91.757    0.241    0.580    3.324
  478.694   94.359    0.213    0.602    3.192
  478.944   90.625    0.251    0.615    3.074
  479.194   91.531    0.272    0.578    3.006
  479.444   90.418    0.258    0.529    2.982
  479.694   88.338    0.246    0.503    3.003
  479.944   90.127    0.310    0.541    3.018
  480.194   93.692    0.336    0.580    2.859
  480.444   96.819    0.240    0.620    2.742
  480.694   98.995    0.239    0.618    2.647
  480.944   98.895    0.234    0.611    2.734
  481.194   94.107    0.240    0.589    3.060
  481.444   89.593    0.247    0.534    3.498
  481.694   83.658    0.195    0.411    4.147
  481.944   80.059    0.133    0.371    4.973
  482.194   75.084    0.110    0.376    5.807
  482.444   70.875    0.144    0.392    6.616
  482.694   65.110    0.151    0.352    7.523
  482.944   59.858    0.084    0.273    8.631
  483.194   58.553    0.136    0.298    9.551
  483.444   60.066    0.201    0.344   10.214
  483.694   60.994    0.228    0.370   10.804
  483.944   61.497    0.247    0.389   11.046
  484.194   60.923    0.252    0.404   11.093
  484.444   60.596    0.244    0.411   11.232
  484.694   59.403    0.244    0.415   11.897
  484.944   57.629    0.242    0.416   12.681
  485.194   57.518    0.239    0.416   13.346
  485.444   59.099    0.220    0.408   13.702
  485.694   61.800    0.200    0.401   13.819
  485.944   62.508    0.186    0.398   13.634
  486.194   60.673    0.176    0.406   13.217
  486.444   61.211    0.164    0.401   12.568
  486.694   65.114    0.161    0.394   11.878
  486.944   67.965    0.174    0.396   11.057
  487.194   73.716    0.193    0.400   10.067
  487.444   77.584    0.207    0.388    9.284
  487.694   85.844    0.200    0.381    8.514
