~VERSION INFORMATION
 VERS.                 2.0:   CWLS LOG ASCII STANDARD -VERSION 2.0
 WRAP.                  NO:   ONE LINE PER DEPTH STEP
~WELL INFORMATION BLOCK
#MNEM.UNIT           DATA                    DESCRIPTION OF MNEMONIC
#---------    -------------------            -------------------------------
# Generated from Intellog Unique Number	CW_76_78/WELL/829
WELL.         GULF POC DROWNED 10-07         : Well_name    - WELL
LOC .         00/10-07-077-21W4/0            : Location     - LOCATION
UWI .         00/10-07-077-21W4/0            : Uwi          - UNIQUE WELL ID
ENTR.         os                             : Entered      - ENTERED BY
SRVC.         SCHLUMBERGER                   : Scn          - SERVICE COMPANY
DATE.         12 MAR 1978                    : Date         - LOG DATE
STRT.M        429.768                        : top_depth    - START DEPTH
STOP.M        637.018                        : bot_depth    - STOP DEPTH
STEP.M        0.25                           : increment    - STEP LENGTH
 NULL. -999.2500:NULL Value
~CURVE INFORMATION BLOCK
#MNEM UNIT       ERCB CURVE CODE    CURVE DESCRIPTION
#-----------   ------------------   ----------------------------------
DEPT.M        00 001 00 00         : DEPTH        - DEPTH
ILD .OHMM     00 120 00 00         : RESD         - DEEP RESISTIVITY (DIL)
NPHI.V/V      00 330 00 00         : PHIN         - NEUTRON POROSITY (SANDSTONE)
DPHI.V/V      00 890 00 00         : PHID         - DENSITY POROSITY (SANDSTONE)
GR  .API      00 310 00 00         : GR           - GAMMA RAY
CALI.MM       00 280 01 00         : CAL          - CALIPER
~PARAMETER INFORMATION
#MNEM.UNIT           DATA             DESCRIPTION OF MNEMONIC
#---------         -----------     ------------------------------
GL  .M        752.856              : gl           - GROUND LEVEL ELEVATION
EREF.M        758.342              : kb           - ELEVATION OF DEPTH REFERENCE
DATM.M        752.856              : datum        - DATUM ELEVATION
TDD .M        641.299              : tdd          - TOTAL DEPTH DRILLER
RUN .         ONE                  : Run          - RUN NUMBER
ENG .         DEROCHIER            : Engineer     - RECORDING ENGINEER
WIT .         ROZENHART            : Witness      - WITNESSED BY
BASE.         EDMONTON             : Branch       - HOME BASE OF LOGGING UNIT
MUD .         GEL CHEM             : Mud_type     - MUD TYPE
MATR.         SANDSTONE            : Logunit      - NEUTRON MATRIX
TMAX.C        22.7778              : BHT          - MAXIMUM RECORDED TEMPERATURE
BHTD.M        640.69               : BHTDEP       - MAXIMUM RECORDED TEMPERATURE
RMT .C        18.3333              : MDTP         - TEMPERATURE OF MUD
MUDD.KG/M     1092                 : MWT          - MUD DENSITY
NEUT.         1                    : NEUTRON      - NEUTRON TYPE
RESI.         0                    : RESIST       - RESISTIVITY TYPE
RM  .OHMM     5.72                 : RM           - RESISTIVITY OF MUD
RMC .OHMM     0.25                 : RMC          - RESISTIVITY OF MUD CAKE
RMF .OHMM     6.77                 : RMF          - RESISTIVITY OF MUD FILTRATE
SUFT.C        4.5                  : SUFT         - SURFACE TEMPERATURE
~A  DEPTH     RESD     PHIN     PHID       GR      CAL
# ...
  466.268    5.230    0.447    0.164  119.248  165.437
  466.518    5.762    0.458    0.166  114.133  165.014
  466.768    6.301    0.452    0.191  107.023  165.119
  467.018    6.839    0.437    0.216  102.719  164.801
  467.268    7.206    0.399    0.227  106.523  163.955
  467.518    7.496    0.410    0.247  107.707  162.687
  467.768    7.540    0.441    0.275  102.904  162.687
  468.018    7.501    0.436    0.292   98.912  164.798
  468.268    7.271    0.423    0.278  101.469  164.375
  468.518    7.060    0.427    0.274   96.666  163.318
  468.768    7.010    0.428    0.260   99.347  163.000
  469.018    7.144    0.433    0.251  102.278  163.316
  469.268    6.900    0.440    0.261  101.155  162.787
  469.518    6.838    0.468    0.280   94.294  162.892
  469.768    6.994    0.480    0.296   84.190  164.793
  470.018    7.115    0.460    0.298   84.813  166.165
  470.268    7.117    0.453    0.299   90.426  165.530
  470.518    6.925    0.447    0.300   95.852  164.368
  470.768    6.824    0.440    0.306  102.712  164.473
  471.018    6.726    0.440    0.310  106.516  164.366
  471.268    6.520    0.445    0.285  113.252  163.732
  471.518    6.474    0.460    0.269  114.187  163.309
  471.768    6.796    0.470    0.256  110.881  164.575
  472.018    7.215    0.456    0.251   98.219  164.997
  472.268    7.588    0.408    0.267   76.638  164.891
  472.518    8.010    0.413    0.298   64.663  165.840
  472.768    8.378    0.428    0.312   62.791  167.001
  473.018    8.618    0.448    0.322   63.664  164.888
  473.268    8.668    0.444    0.316   62.603  163.409
  473.518    8.480    0.439    0.313   62.540  163.408
  473.768    8.281    0.428    0.318   61.605  164.781
  474.018    8.132    0.416    0.326   60.045  163.829
  474.268    7.882    0.413    0.335   59.920  164.040
  474.518    7.855    0.416    0.326   59.483  164.778
  474.768    7.858    0.433    0.322   61.291  163.404
  475.018    7.790    0.477    0.312   62.850  162.136
  475.268    7.692    0.465    0.312   61.727  163.086
  475.518    7.679    0.432    0.302   62.599  163.719
  475.768    7.725    0.436    0.292   64.595  163.507
  476.018    8.020    0.441    0.273   64.594  162.133
  476.268    8.341    0.403    0.219   64.157  163.611
  476.518    8.563    0.381    0.203   62.660  164.349
  476.768    8.743    0.390    0.242   58.980  164.243
  477.018    8.522    0.401    0.261   58.293  162.869
  477.268    8.019    0.417    0.278   60.413  163.291
  477.518    7.559    0.421    0.308   65.465  163.713
  477.768    6.995    0.407    0.300   65.963  162.973
  478.018    6.730    0.407    0.289   68.021  161.916
  478.268    6.286    0.432    0.269   68.831  162.866
  478.518    6.070    0.450    0.246   72.511  163.287
  478.768    6.209    0.422    0.220   74.818  163.181
  479.018    6.866    0.407    0.190   74.880  162.441
  479.268    7.864    0.401    0.190   72.696  162.862
  479.518    8.226    0.402    0.211   70.825  163.495
  479.768    8.122    0.377    0.217   65.024  163.600
  480.018    7.800    0.256    0.044   58.724  164.233
  480.268    7.504    0.284    0.092   60.720  164.021
  480.518    6.906    0.402    0.162   68.141  163.598
  480.768    6.355    0.439    0.281   73.380  163.175
  481.018    6.114    0.451    0.306   71.820  163.491
  481.268    6.395    0.446    0.323   72.568  163.490
  481.518    6.664    0.430    0.314   75.936  162.539
  481.768    6.155    0.459    0.305   79.553  161.165
  482.018    5.988    0.463    0.313   81.236  160.742
  482.268    6.126    0.478    0.297   79.427  161.058
  482.518    6.289    0.462    0.296   77.930  161.691
  482.768    6.541    0.469    0.316   75.060  162.852
  483.018    6.702    0.453    0.315   74.187  163.590
  483.268    6.843    0.440    0.319   72.939  163.590
  483.518    6.949    0.434    0.316   69.508  162.110
  483.768    7.016    0.435    0.316   67.761  161.793
  484.018    7.096    0.457    0.331   70.817  162.003
  484.268    7.192    0.481    0.335   70.754  162.214
  484.518    7.316    0.468    0.322   70.629  162.318
  484.768    7.345    0.457    0.316   70.566  162.529
  485.018    7.253    0.465    0.314   68.570  161.789
  485.268    7.215    0.453    0.342   69.692  161.260
  485.518    7.111    0.448    0.340   71.812  160.520
  485.768    6.816    0.437    0.332   66.510  160.730
  486.018    6.078    0.419    0.335   66.697  161.363
  486.268    5.552    0.446    0.323   70.439  161.679
  486.518    4.941    0.459    0.300   76.363  161.150
  486.768    4.222    0.481    0.239   94.013  160.411
  487.018    3.994    0.539    0.230   95.884  159.565
  487.268    3.808    0.509    0.243   93.327  160.303
  487.518    3.960    0.442    0.254   99.813  162.415
  487.768    4.058    0.448    0.238  107.421  164.315
  488.018    3.883    0.465    0.221  116.402  165.793
  488.268    3.750    0.469    0.201  119.832  166.637
  488.518    3.696    0.459    0.194  119.894  165.263
  488.768    3.802    0.461    0.208  120.642  164.312
  489.018    3.947    0.468    0.239  119.394  165.473
  489.268    4.221    0.478    0.245  114.716  165.789
  489.518    4.530    0.484    0.295   83.593  165.788
  489.768    5.747    0.422    0.321   73.800  163.781
  490.018    6.486    0.426    0.328   69.558  162.618
  490.268    6.697    0.439    0.323   69.932  162.618
  490.518    6.649    0.454    0.329   65.940  163.039
  490.768    6.603    0.452    0.340   65.004  163.567
  491.018    6.666    0.458    0.338   68.746  163.671
  491.268    6.831    0.463    0.345   68.059  161.981
  491.518    6.949    0.475    0.339   70.055  161.663
  491.768    7.042    0.464    0.328   70.865  160.923
  492.018    7.110    0.469    0.335   68.245  160.711
  492.268    7.192    0.464    0.343   65.501  161.344
  492.518    7.181    0.469    0.334   65.250  160.604
  492.768    7.144    0.477    0.320   65.811  158.914
  493.018    7.146    0.464    0.323   68.493  157.329
  493.268    7.110    0.452    0.319   69.241  156.483
  493.518    7.047    0.463    0.315   68.679  157.749
  493.768    7.010    0.469    0.331   68.928  159.861
  494.018    6.948    0.450    0.348   70.362  160.811
  494.268    6.937    0.442    0.344   70.112  161.655
  494.518    6.888    0.447    0.335   69.675  162.394
  494.768    6.827    0.461    0.328   68.864  159.224
  495.018    6.741    0.462    0.332   66.368  157.956
  495.268    6.644    0.450    0.322   67.615  157.427
  495.518    6.405    0.444    0.316   69.050  157.638
  495.768    6.242    0.453    0.288   70.359  159.326
  496.018    6.062    0.452    0.296   71.855  159.748
  496.268    5.887    0.440    0.310   74.412  159.959
  496.518    5.911    0.458    0.298   76.782  158.268
  496.768    5.968    0.478    0.292   78.403  158.267
  497.018    6.048    0.502    0.283   77.716  159.006
  497.268    6.084    0.481    0.283   76.406  159.956
  497.518    5.974    0.473    0.304   75.283  159.216
  497.768    5.834    0.469    0.324   76.530  159.004
  498.018    5.469    0.455    0.325   78.775  158.792
  498.268    4.995    0.458    0.307   85.074  158.685
  498.518    4.372    0.475    0.288   89.314  158.051
  498.768    3.979    0.493    0.286   92.495  158.050
  499.018    3.995    0.506    0.271   98.045  159.422
  499.268    4.186    0.512    0.262  102.910  160.055
  499.518    4.519    0.542    0.263  110.207  160.160
  499.768    4.868    0.523    0.259  114.323  159.526
  500.018    5.245    0.507    0.246  109.582  159.419
  500.268    5.486    0.496    0.255  109.207  160.158
  500.518    5.570    0.483    0.250  108.396  160.897
  500.768    5.541    0.503    0.242  101.348  161.952
  501.018    5.543    0.491    0.242   93.988  162.479
  501.268    5.629    0.467    0.284   85.692  162.161
  501.518    5.714    0.470    0.312   76.586  161.421
  501.768    5.867    0.472    0.335   70.909  160.893
  502.018    6.024    0.502    0.346   72.593  161.209
  502.268    6.094    0.503    0.334   75.711  162.053
  502.518    6.095    0.488    0.329   74.900  162.052
