~VERSION INFORMATION
 VERS.                 2.0:   CWLS LOG ASCII STANDARD -VERSION 2.0
 WRAP.                  NO:   ONE LINE PER DEPTH STEP
~WELL INFORMATION BLOCK
#MNEM.UNIT           DATA                    DESCRIPTION OF MNEMONIC
#---------    -------------------            -------------------------------
# Generated from Intellog Unique Number	CS_73_76/WELL/3234
WELL.         10-11-076-08W4                 : Well_name    - WELL
LOC .         00/10-11-076-08W4/0            : Location     - LOCATION
UWI .         00/10-11-076-08W4/0            : Uwi          - UNIQUE WELL ID
ENTR.         SP                             : Entered      - ENTERED BY
SRVC.         SCHLUMBERGER                   : Scn          - SERVICE COMPANY
STRT.M        228.6                          : top_depth    - START DEPTH
STOP.M        460.1                          : bot_depth    - STOP DEPTH
STEP.M        0.25                           : increment    - STEP LENGTH
 NULL. -999.2500:NULL Value
~CURVE INFORMATION BLOCK
#MNEM UNIT       ERCB CURVE CODE    CURVE DESCRIPTION
#-----------   ------------------   ----------------------------------
DEPT.M        00 001 00 00         : DEPTH        - DEPTH
GR  .API      00 310 00 00         : GR           - GAMMA RAY
DPHI.V/V      00 890 00 00         : PHID         - DENSITY POROSITY (SANDSTONE)
NPHI.V/V      00 330 00 00         : PHIN         - NEUTRON POROSITY (SANDSTONE)
ILD .OHMM     00 120 00 00         : RESD         - DEEP RESISTIVITY (DIL)
~PARAMETER INFORMATION
#MNEM.UNIT           DATA             DESCRIPTION OF MNEMONIC
#---------         -----------     ------------------------------
GL  .M        637.794              : gl           - GROUND LEVEL ELEVATION
EREF.M        640.232              : kb           - ELEVATION OF DEPTH REFERENCE
DATM.M        637.794              : datum        - DATUM ELEVATION
TDD .M        466.344              : tdd          - TOTAL DEPTH DRILLER
RUN .         ONE                  : Run          - RUN NUMBER
ENG .         BILL                 : Engineer     - RECORDING ENGINEER
WIT .         JIM                  : Witness      - WITNESSED BY
MUD .         GEL                  : Mud_type     - MUD TYPE
MATR.         SANDSTONE            : Logunit      - NEUTRON MATRIX
TMAX.C        15.5556              : BHT          - MAXIMUM RECORDED TEMPERATURE
BHTD.M        466.344              : BHTDEP       - MAXIMUM RECORDED TEMPERATURE
MATR.         1                    : LOGUNIT      - NEUTRON MATRIX
RMT .C        25                   : MDTP         - TEMPERATURE OF MUD
NEUT.         1                    : NEUTRON      - NEUTRON TYPE
RESI.         0                    : RESIST       - RESISTIVITY TYPE
RMC .OHMM     0.25                 : RMC          - RESISTIVITY OF MUD CAKE
RMF .OHMM     0.25                 : RMF          - RESISTIVITY OF MUD FILTRATE
SUFT.C        15                   : SUFT         - SURFACE TEMPERATURE
~A  DEPTH       GR     PHID     PHIN     RESD
# ...
  315.600  104.678    0.220    0.538    4.062
  315.850  104.317    0.207    0.563    4.158
  316.100  103.966    0.222    0.577    3.977
  316.350  104.454    0.224    0.571    3.981
  316.600  104.539    0.216    0.560    4.064
  316.850  104.539    0.227    0.555    4.141
  317.100  103.498    0.239    0.580    4.247
  317.350  102.513    0.250    0.575    4.560
  317.600  100.853    0.242    0.541    4.962
  317.850   98.874    0.240    0.542    5.328
  318.100   96.011    0.238    0.527    5.884
  318.350   92.918    0.233    0.507    6.625
  318.600   90.487    0.229    0.508    7.427
  318.850   88.954    0.227    0.513    7.762
  319.100   87.867    0.253    0.498    8.034
  319.350   87.974    0.262    0.495    7.531
  319.600   89.739    0.269    0.502    6.864
  319.850   91.674    0.276    0.505    5.758
  320.100   95.753    0.249    0.507    5.117
  320.350   99.486    0.240    0.518    4.455
  320.600  100.971    0.248    0.532    3.968
  320.850  100.551    0.242    0.552    3.587
  321.100  102.989    0.248    0.568    3.455
  321.350  103.649    0.257    0.582    3.566
  321.600  102.127    0.273    0.594    4.212
  321.850   94.925    0.286    0.577    4.993
  322.100   85.556    0.297    0.547    6.388
  322.350   78.365    0.298    0.515    8.894
  322.600   71.931    0.304    0.500    9.996
  322.850   69.983    0.309    0.502   10.690
  323.100   69.703    0.317    0.495   10.129
  323.350   70.007    0.319    0.490    8.946
  323.600   71.662    0.315    0.513    7.756
  323.850   74.567    0.296    0.523    6.940
  324.100   77.968    0.267    0.517    6.755
  324.350   83.219    0.269    0.530    6.853
  324.600   87.006    0.275    0.560    7.297
  324.850   80.748    0.285    0.534    7.976
  325.100   80.995    0.287    0.517    8.710
  325.350   84.256    0.283    0.514    9.260
  325.600   83.670    0.283    0.504    9.232
  325.850   83.751    0.270    0.493    8.956
  326.100   81.783    0.272    0.488    8.573
  326.350   79.855    0.281    0.495    8.377
  326.600   81.953    0.279    0.500    8.655
  326.850   84.922    0.269    0.510    8.818
  327.100   85.041    0.263    0.510    8.779
  327.350   86.737    0.257    0.509    8.504
  327.600   88.042    0.241    0.507    8.165
  327.850   89.990    0.249    0.507    7.870
  328.100   91.596    0.237    0.500    7.636
  328.350   92.245    0.233    0.511    7.476
  328.600   92.741    0.237    0.515    7.517
  328.850   88.947    0.260    0.520    8.164
  329.100   87.406    0.251    0.506    8.191
  329.350   86.680    0.235    0.494    8.194
  329.600   86.017    0.225    0.484    7.950
  329.850   85.967    0.235    0.488    7.761
  330.100   87.263    0.218    0.493    7.625
  330.350   88.191    0.219    0.505    7.699
  330.600   89.938    0.221    0.516    8.169
  330.850   89.540    0.195    0.528    8.943
  331.100   80.224    0.171    0.523   10.127
  331.350   71.206    0.136    0.495   10.943
  331.600   64.302    0.073    0.330   11.971
  331.850   60.623    0.111    0.308   12.043
  332.100   75.116    0.221    0.342   11.163
  332.350   80.300    0.240    0.472    9.879
  332.600   82.895    0.247    0.501    8.738
  332.850   85.340    0.252    0.485    8.204
  333.100   86.889    0.222    0.473    7.874
  333.350   89.760    0.202    0.468    7.600
  333.600   93.231    0.212    0.495    7.364
  333.850   93.922    0.223    0.529    7.215
  334.100   93.917    0.221    0.521    6.944
  334.350   93.301    0.224    0.510    6.735
  334.600   92.943    0.202    0.510    6.539
  334.850   92.650    0.193    0.545    6.355
  335.100   92.060    0.203    0.542    6.365
  335.350   91.505    0.198    0.537    6.065
  335.600   90.058    0.215    0.523    5.462
  335.850   89.814    0.219    0.513    4.548
  336.100   91.812    0.232    0.532    3.808
  336.350   93.161    0.248    0.551    3.116
  336.600   94.166    0.252    0.559    2.899
  336.850   95.164    0.266    0.587    2.760
  337.100   96.160    0.268    0.591    2.552
  337.350   96.863    0.276    0.575    2.591
  337.600   96.821    0.264    0.566    2.818
  337.850   96.364    0.272    0.573    3.023
  338.100   93.413    0.259    0.576    3.408
  338.350   90.400    0.240    0.562    3.932
  338.600   88.882    0.230    0.566    4.434
  338.850   88.114    0.253    0.520    4.968
  339.100   86.764    0.267    0.513    6.171
  339.350   85.379    0.281    0.515    6.735
  339.600   84.644    0.298    0.510    7.345
  339.850   78.895    0.299    0.485    7.796
  340.100   75.508    0.286    0.469    8.013
  340.350   70.156    0.261    0.476    8.416
  340.600   66.026    0.263    0.494    8.543
  340.850   67.470    0.271    0.504    8.652
  341.100   71.643    0.305    0.498    8.542
  341.350   63.539    0.320    0.488    8.565
  341.600   57.452    0.334    0.463    8.629
  341.850   53.844    0.319    0.445    8.715
  342.100   49.702    0.329    0.442    8.843
  342.350   48.250    0.330    0.447    8.878
  342.600   51.520    0.335    0.444    8.884
  342.850   52.327    0.323    0.438    8.904
  343.100   49.917    0.317    0.446    8.718
  343.350   49.609    0.323    0.457    8.576
  343.600   50.584    0.321    0.455    8.573
  343.850   52.590    0.321    0.441    8.570
  344.100   55.076    0.338    0.443    8.570
  344.350   55.265    0.350    0.463    8.572
  344.600   53.837    0.349    0.470    8.573
  344.850   52.343    0.349    0.472    8.574
  345.100   50.493    0.348    0.464    8.575
  345.350   49.531    0.337    0.459    8.576
  345.600   48.633    0.327    0.466    8.577
  345.850   48.246    0.330    0.468    8.578
  346.100   49.464    0.328    0.453    8.579
  346.350   51.135    0.340    0.450    8.581
  346.600   52.099    0.340    0.451    8.582
  346.850   53.120    0.339    0.453    8.583
  347.100   52.815    0.324    0.446    8.584
  347.350   52.551    0.327    0.443    8.585
  347.600   52.464    0.328    0.455    8.586
  347.850   53.138    0.340    0.466    8.589
  348.100   53.792    0.345    0.473    8.591
  348.350   54.943    0.346    0.462    8.469
  348.600   53.379    0.328    0.451    8.440
  348.850   52.447    0.332    0.454    8.436
  349.100   51.805    0.338    0.460    8.332
  349.350   51.941    0.326    0.465    8.289
  349.600   53.022    0.317    0.469    8.286
  349.850   53.068    0.312    0.463    8.287
  350.100   52.224    0.315    0.457    8.287
  350.350   52.203    0.335    0.454    8.292
  350.600   54.756    0.352    0.459    8.370
  350.850   54.126    0.355    0.465    8.456
  351.100   53.061    0.343    0.474    8.712
  351.350   52.922    0.332    0.481    9.154
  351.600   52.863    0.335    0.470    9.818
  351.850   49.449    0.323    0.461   10.611
  352.100   48.360    0.303    0.454   11.232
  352.350   47.976    0.263    0.436   11.130
  352.600   48.364    0.216    0.418   10.365
  352.850   48.608    0.310    0.387    9.731
  353.100   50.864    0.327    0.358    9.454
  353.350   53.166    0.330    0.422    9.165
  353.600   56.127    0.337    0.481    9.123
  353.850   54.371    0.348    0.488    9.407
  354.100   53.228    0.344    0.484    9.613
  354.350   52.226    0.339    0.473    9.805
  354.600   52.881    0.327    0.455    9.803
  354.850   53.196    0.332    0.450    9.484
  355.100   55.304    0.328    0.467    9.103
  355.350   57.196    0.337    0.475    8.833
  355.600   58.250    0.340    0.483    8.573
  355.850   60.158    0.340    0.492    8.321
  356.100   60.523    0.341    0.493    8.075
  356.350   60.763    0.345    0.482    7.838
  356.600   60.221    0.332    0.472    7.605
  356.850   59.179    0.329    0.465    7.334
  357.100   58.128    0.322    0.466    6.742
  357.350   58.072    0.313    0.470    6.160
  357.600   59.353    0.300    0.479    5.849
  357.850   68.441    0.274    0.485    5.341
  358.100   77.091    0.254    0.484    5.208
  358.350   83.821    0.251    0.497    5.129
  358.600   86.572    0.240    0.527    5.361
  358.850   83.991    0.247    0.531    5.993
