~VERSION INFORMATION
 VERS.                 2.0:   CWLS LOG ASCII STANDARD -VERSION 2.0
 WRAP.                  NO:   ONE LINE PER DEPTH STEP
~WELL INFORMATION BLOCK
#MNEM.UNIT           DATA                    DESCRIPTION OF MNEMONIC
#---------    -------------------            -------------------------------
# Generated from Intellog Unique Number	CC_84_87/WELL/1182
NULL.         -999.25                        : NULL_VALUE
WELL.         CANADIAN SUPERIOR ALGAR        : Well_name    - WELL              
LOC .         10-01-084-16W4                 : Location     - LOCATION          
UWI .         00/10-01-084-16W400            : Uwi          - UNIQUE WELL ID    
ENTR.         JHS                            : Entered      - ENTERED BY        
SRVC.         SCHLUMBERGER                   : Scn          - SERVICE COMPANY   
DATE.         25 MAR 76                      : Date         - LOG DATE
STRT.M        85.344                         : top_depth    - START DEPTH       
STOP.M        271.645                        : bot_depth    - STOP DEPTH        
STEP.M        0.3                            : increment    - STEP LENGTH       
~CURVE INFORMATION BLOCK
#MNEM UNIT       ERCB CURVE CODE    CURVE DESCRIPTION
#-----------   ------------------   ----------------------------------
DEPT.M        00 001 00 00         : DEPTH        - DEPTH                       
ILD .OHMM     00 120 00 00         : RESD         - DEEP RESISTIVITY (DIL)      
GR  .API      00 310 00 00         : GR           - GAMMA RAY                   
NPHI.V/V      00 330 00 00         : PHIN         - NEUTRON POROSITY (LIMESTONE)
DPHI.V/V      00 890 00 00         : PHID         - DENSITY POROSITY (LIMESTONE)
~PARAMETER INFORMATION       
#MNEM.UNIT           DATA             DESCRIPTION OF MNEMONIC
#---------         -----------     ------------------------------
GL  .M        527.609              : gl           - GROUND LEVEL ELEVATION      
EREF.M        531.754              : kb           - ELEVATION OF DEPTH REFERENCE
DATM.M        531.754              : datum        - DATUM ELEVATION             
TDD .M        271.272              : tdd          - TOTAL DEPTH DRILLER         
RUN .         ONE                  : Run          - RUN NUMBER                  
ENG .         BILL                 : Engineer     - RECORDING ENGINEER          
WIT .         JIM                  : Witness      - WITNESSED BY                
MUD .         GEL                  : Mud_type     - MUD TYPE                    
MATR.         LIMESTONE            : Logunit      - NEUTRON MATRIX              
TMAX.C        60                   : BHT          - MAXIMUM RECORDED TEMPERATURE
BHTD.M        271.272              : BHTDEP       - MAXIMUM RECORDED TEMPERATURE
MATR.         1                    : LOGUNIT      - NEUTRON MATRIX              
RMT .C        25                   : MDTP         - TEMPERATURE OF MUD          
NEUT.         1                    : NEUTRON      - NEUTRON TYPE                
RESI.         0                    : RESIST       - RESISTIVITY TYPE            
RMC .OHMM     0.25                 : RMC          - RESISTIVITY OF MUD CAKE     
RMF .OHMM     0.25                 : RMF          - RESISTIVITY OF MUD FILTRATE 
SUFT.C        15                   : SUFT         - SURFACE TEMPERATURE         
~A  DEPTH     RESD       GR     PHIN     PHID
# ...
  137.545   11.642   59.595    0.448    0.310
  137.845   11.863   61.384    0.428    0.306
  138.145   11.237   63.175    0.410    0.295
  138.445   10.451   63.179    0.429    0.295
  138.745   10.456   63.182    0.435    0.310
  139.045   10.852   62.590    0.422    0.321
  139.345   11.263   62.000    0.411    0.326
  139.645   11.065   61.407    0.429    0.307
  139.945   10.674   60.816    0.450    0.309
  140.245   10.876   58.439    0.448    0.309
  140.545   11.709   55.467    0.425    0.290
  140.845   12.374   53.684    0.399    0.228
  141.145   13.816   49.522    0.246    0.168
  141.445   15.425   45.954    0.267    0.100
  141.745   16.008   47.744    0.367    0.188
  142.045   14.620   51.319    0.424    0.305
  142.345   14.104   51.323    0.435    0.335
  142.645   14.374   50.136    0.408    0.343
  142.945   14.644   51.926    0.418    0.341
  143.245   14.922   51.334    0.436    0.345
  143.545   15.486   50.148    0.435    0.354
  143.845   15.780   51.937    0.433    0.361
  144.145   16.081   53.131    0.438    0.351
  144.445   15.798   50.755    0.450    0.339
  144.745   15.240   54.329    0.434    0.329
  145.045   14.434   57.905    0.430    0.326
  145.345   13.925   56.123    0.448    0.328
  145.645   13.681   53.151    0.460    0.335
  145.945   13.689   54.345    0.444    0.334
  146.245   14.207   55.539    0.431    0.327
  146.545   14.742   59.114    0.372    0.311
  146.845   16.458   63.880    0.299    0.274
  147.145   20.136   68.051    0.231    0.202
  147.445   21.281   69.841    0.335    0.091
  147.745   20.158   73.416    0.378    0.177
  148.045   17.109   79.372    0.447    0.282
  148.345   13.748   81.757    0.447    0.295
  148.645   11.458   82.356    0.448    0.295
  148.945    9.905   81.764    0.489    0.280
  149.245    9.045   79.982    0.512    0.252
  149.545    8.567   76.414    0.508    0.274
  149.845    8.893   69.871    0.486    0.291
  150.145    9.572   57.375    0.466    0.308
  150.445   10.304   56.784    0.454    0.329
  150.745   10.891   57.978    0.444    0.309
  151.045   11.509   57.386    0.437    0.327
  151.345   11.730   56.200    0.429    0.335
  151.645   11.951   56.204    0.424    0.336
  151.945   12.179   57.993    0.424    0.323
  152.245   11.748   63.949    0.430    0.331
  152.545   10.533   77.048    0.462    0.321
  152.845    8.779   94.314    0.527    0.293
  153.145    7.317  103.247    0.543    0.243
  153.445    5.880  105.631    0.533    0.243
  153.745    5.272  104.445    0.482    0.241
  154.045    4.994  102.067    0.466    0.226
  154.345    4.997   99.095    0.466    0.210
  154.645    5.185   99.694    0.486    0.223
  154.945    5.481  105.055    0.482    0.222
  155.245    5.484  103.273    0.491    0.226
  155.545    5.194  100.896    0.518    0.203
  155.845    5.102  103.876    0.515    0.227
  156.145    4.833  109.237    0.502    0.220
  156.445    4.749  108.646    0.493    0.233
  156.745    4.751  107.459    0.504    0.217
  157.045    4.753  107.464    0.496    0.228
  157.345    4.756  108.657    0.544    0.226
  157.645    4.673  110.447    0.553    0.220
  157.945    4.591  112.237    0.512    0.208
  158.245    4.510  113.431    0.494    0.215
  158.545    4.350  112.840    0.499    0.231
  158.845    4.196  109.866    0.533    0.221
  159.145    4.124  107.490    0.519    0.204
  159.445    4.125  103.922    0.508    0.224
  159.745    4.204   96.188    0.543    0.241
  160.045    4.206   92.620    0.542    0.267
  160.345    4.445   86.672    0.509    0.248
  160.645    5.055   76.556    0.487    0.255
  160.945    5.962   71.203    0.469    0.225
  161.245    8.138   65.255    0.454    0.275
  161.545    9.776   65.258    0.446    0.298
  161.845   10.719   65.262    0.460    0.306
  162.145   10.921   65.861    0.475    0.299
  162.445   11.129   68.246    0.458    0.311
  162.745   11.550   71.226    0.463    0.321
  163.045   11.771   68.254    0.448    0.316
  163.345   12.441   65.282    0.432    0.309
  163.645   12.910   65.286    0.419    0.300
  163.945   13.155   67.671    0.457    0.303
  164.245   13.405   69.460    0.458    0.317
  164.545   13.414   68.273    0.449    0.319
  164.845   13.180   66.491    0.445    0.309
  165.145   12.713   68.877    0.452    0.297
  165.445   12.263   71.261    0.443    0.287
  165.745   11.828   74.241    0.459    0.295
  166.045   11.204   76.625    0.461    0.297
  166.345   10.612   80.201    0.463    0.304
  166.645   10.051   83.776    0.456    0.292
  166.945    9.013   84.971    0.433    0.278
  167.245    8.232   85.569    0.442    0.265
  167.545    7.797   89.144    0.432    0.255
  167.845    7.658   93.315    0.440    0.259
  168.145    7.256   93.319    0.459    0.260
  168.445    7.126   92.132    0.468    0.256
  168.745    7.132   89.160    0.472    0.246
  169.045    7.135   84.402    0.470    0.225
  169.345    7.138   80.239    0.427    0.279
  169.645    7.142   79.052    0.423    0.263
  169.945    6.890   80.247    0.436    0.249
  170.245    6.769   82.632    0.447    0.261
  170.545    6.650   81.444    0.472    0.247
  170.845    6.415   80.854    0.506    0.254
  171.145    6.302   82.643    0.469    0.247
  171.445    6.306   81.456    0.474    0.211
  171.745    6.544   75.508    0.470    0.261
  172.045    6.793   69.559    0.440    0.274
  172.345    6.795   71.348    0.431    0.263
  172.645    6.678   74.924    0.455    0.244
  172.945    6.679   78.499    0.468    0.259
  173.245    6.443   74.931    0.484    0.274
  173.545    6.216   73.150    0.478    0.287
  173.845    6.108   76.725    0.451    0.302
  174.145    6.110   77.324    0.469    0.312
  174.445    6.227   70.780    0.485    0.279
  174.745    6.344   64.236    0.453    0.236
  175.045    6.829   61.859    0.261    0.123
  175.345    8.055   66.625    0.367    0.168
  175.645    8.830   70.200    0.446    0.254
  175.945    8.836   69.013    0.456    0.313
  176.245    8.523   67.827    0.466    0.307
  176.545    8.373   69.021    0.458    0.315
  176.845    8.533   67.835    0.447    0.308
  177.145    8.698   67.839    0.449    0.319
  177.445    8.700   72.009    0.464    0.319
  177.745    8.392   73.203    0.453    0.306
  178.045    8.095   67.850    0.475    0.285
  178.345    7.668   66.663    0.470    0.291
  178.645    6.876   67.857    0.462    0.277
  178.945    5.524   71.433    0.484    0.264
  179.245    4.439   74.413    0.513    0.258
  179.545    4.607   77.393    0.501    0.255
  179.845    5.239   81.563    0.484    0.270
  180.145    5.338   85.139    0.471    0.273
  180.445    5.246   85.142    0.486    0.277
  180.745    5.247   82.170    0.477    0.286
  181.045    5.062   79.793    0.478    0.292
  181.345    5.254   78.607    0.501    0.263
  181.645    5.655   79.205    0.492    0.324
  181.945    6.087   78.614    0.483    0.305
  182.245    6.921   76.832    0.471    0.284
  182.545    7.728   76.241    0.457    0.295
  182.845    8.473   72.673    0.460    0.283
  183.145    8.955   65.534    0.464    0.280
  183.445    9.294   58.990    0.444    0.255
  183.745    9.644   56.613    0.423    0.257
  184.045    9.828   56.617    0.428    0.326
  184.345   10.201   58.406    0.441    0.320
  184.645   10.396   59.600    0.442    0.319
  184.945   10.590   60.795    0.426    0.327
  185.245   10.792   60.203    0.415    0.336
  185.545   10.997   57.826    0.408    0.336
  185.845   11.206   56.045    0.413    0.324
  186.145   11.213   56.049    0.432    0.319
  186.445   11.426   56.648    0.431    0.321
  186.745   11.434   57.842    0.427    0.328
  187.045   11.233   57.846    0.429    0.334
  187.345   11.237   56.659    0.422    0.335
  187.645   11.244   55.472    0.413    0.332
  187.945   11.251   56.072    0.412    0.325
  188.245   11.260   56.670    0.420    0.325
  188.545   11.060   57.865    0.427    0.330
  188.845   11.066   56.678    0.426    0.328
  189.145   11.071   54.896    0.425    0.326
  189.445   10.879   55.495    0.422    0.322
