~VERSION INFORMATION
 VERS.                 2.0:   CWLS LOG ASCII STANDARD -VERSION 2.0
 WRAP.                  NO:   ONE LINE PER DEPTH STEP
~WELL INFORMATION BLOCK
#MNEM.UNIT           DATA                    DESCRIPTION OF MNEMONIC
#---------    -------------------            -------------------------------
# Generated from Intellog Unique Number	CW_70_72/WELL/3024
NULL.         -999.25                        : NULL_VALUE
WELL.         CHIEFCO ET AL RANCH 10-32      : Well_name    - WELL              
LOC .         10-32-070-26W4                 : Location     - LOCATION          
UWI .         00/10-32-070-26W4/0            : Uwi          - UNIQUE WELL ID    
ENTR.         J                              : Entered      - ENTERED BY        
SRVC.         SCHLUMBERGER                   : Scn          - SERVICE COMPANY   
DATE.         31 DEC 75                      : Date         - LOG DATE          
STRT.M        435.864                        : top_depth    - START DEPTH       
STOP.M        701.114                        : bot_depth    - STOP DEPTH        
STEP.M        0.25                           : increment    - STEP LENGTH       
~CURVE INFORMATION BLOCK
#MNEM UNIT       ERCB CURVE CODE    CURVE DESCRIPTION
#-----------   ------------------   ----------------------------------
DEPT.M        00 001 00 00         : DEPTH        - DEPTH                       
ILD .OHMM     00 120 00 00         : RESD         - DEEP RESISTIVITY (DIL)      
CALI.MM       00 280 01 00         : CAL          - CALIPER                     
GR  .API      00 310 00 00         : GR           - GAMMA RAY                   
NPHI.V/V      00 330 00 00         : PHIN         - NEUTRON POROSITY (SANDSTONE)
DPHI.V/V      00 890 00 00         : PHID         - DENSITY POROSITY (SANDSTONE)
~PARAMETER INFORMATION       
#MNEM.UNIT           DATA             DESCRIPTION OF MNEMONIC
#---------         -----------     ------------------------------
GL  .M        612.953              : gl           - GROUND LEVEL ELEVATION      
EREF.M        615.696              : kb           - ELEVATION OF DEPTH REFERENCE
DATM.M        612.953              : datum        - DATUM ELEVATION             
TDD .M        715.975              : tdd          - TOTAL DEPTH DRILLER         
RUN .         ONE                  : Run          - RUN NUMBER                  
ENG .         WILTSHIRE            : Engineer     - RECORDING ENGINEER          
BASE.         EDM                  : Branch       - HOME BASE OF LOGGING UNIT   
MUD .         GEL CHEM             : Mud_type     - MUD TYPE                    
MATR.         SANDSTONE            : Logunit      - NEUTRON MATRIX              
TMAX.C        -17.7778             : BHT          - MAXIMUM RECORDED TEMPERATURE
BHTD.M        717.194              : BHTDEP       - MAXIMUM RECORDED TEMPERATURE
RMT .C        21.1111              : MDTP         - TEMPERATURE OF MUD          
MUDD.KG/M     1128                 : MWT          - MUD DENSITY                 
NEUT.         1                    : NEUTRON      - NEUTRON TYPE                
RESI.         0                    : RESIST       - RESISTIVITY TYPE            
RM  .OHMM     3.87                 : RM           - RESISTIVITY OF MUD          
RMC .OHMM     0.25                 : RMC          - RESISTIVITY OF MUD CAKE     
RMF .OHMM     4.74                 : RMF          - RESISTIVITY OF MUD FILTRATE 
SUFT.C        -17.7778             : SUFT         - SURFACE TEMPERATURE         
~A  DEPTH     RESD      CAL       GR     PHIN     PHID
# ...
  581.864    3.023  170.466   68.001    0.378    0.219
  582.114    3.024  170.007   62.817    0.387    0.221
  582.364    3.089  170.086   63.644    0.390    0.227
  582.614    3.227  170.559   66.478    0.398    0.231
  582.864    3.370  170.530   69.311    0.388    0.218
  583.114    3.607  170.597   65.829    0.380    0.215
  583.364    3.851  170.558   63.076    0.371    0.218
  583.614    4.022  170.524   60.989    0.357    0.178
  583.864    4.157  170.281   62.001    0.351    0.189
  584.114    3.832  170.446   64.893    0.346    0.203
  584.364    3.401  170.315   64.687    0.363    0.209
  584.614    3.001  170.069   64.486    0.379    0.218
  584.864    2.727  169.624   64.648    0.385    0.248
  585.114    2.600  169.691   65.963    0.375    0.266
  585.364    2.468  169.657   66.972    0.369    0.247
  585.614    2.355  169.827   69.198    0.375    0.241
  585.864    2.273  170.092   71.912    0.391    0.238
  586.114    2.217  169.956   73.587    0.403    0.255
  586.364    2.196  169.922   73.143    0.407    0.264
  586.614    2.194  169.682   72.031    0.403    0.269
  586.864    2.229  169.746   70.974    0.397    0.268
  587.114    2.319  170.117   70.653    0.398    0.267
  587.364    2.364  170.293   74.151    0.408    0.250
  587.614    2.485  170.156   75.832    0.422    0.235
  587.864    2.582  170.322   76.358    0.437    0.233
  588.114    2.687  170.493   77.489    0.402    0.247
  588.364    2.799  170.666   81.049    0.382    0.241
  588.614    2.849  171.139   87.711    0.391    0.237
  588.864    2.871  171.310   84.594    0.406    0.248
  589.114    2.800  171.277   77.039    0.425    0.258
  589.364    2.715  171.335   71.372    0.377    0.259
  589.614    2.649  171.299   73.658    0.352    0.205
  589.864    2.625  171.272   76.976    0.351    0.187
  590.114    2.641  171.644   79.503    0.376    0.246
  590.364    2.719  171.710   80.395    0.404    0.256
  590.614    2.852  171.874   80.128    0.390    0.233
  590.864    2.937  172.054   78.715    0.391    0.226
  591.114    2.980  172.942   78.995    0.411    0.242
  591.364    3.008  174.139   79.887    0.399    0.258
  591.614    2.966  175.545   81.744    0.383    0.268
  591.864    2.903  176.429   83.365    0.363    0.253
  592.114    2.777  176.500   84.499    0.381    0.263
  592.364    2.731  176.047   81.260    0.405    0.263
  592.614    2.662  175.915   83.601    0.420    0.235
  592.864    2.621  175.675   82.794    0.431    0.252
  593.114    2.651  175.634   81.130    0.421    0.270
  593.364    2.700  175.595   79.045    0.402    0.266
  593.614    2.775  175.666   77.752    0.396    0.244
  593.864    2.862  175.834   75.965    0.391    0.225
  594.114    3.059  176.313   76.311    0.384    0.225
  594.364    3.142  176.794   77.992    0.376    0.218
  594.614    3.278  177.473   79.184    0.373    0.219
  594.864    3.347  178.365   80.924    0.376    0.223
  595.114    3.335  179.051   82.359    0.358    0.203
  595.364    3.187  179.730   83.129    0.348    0.183
  595.614    3.143  180.301   83.716    0.378    0.199
  595.864    3.037  180.481   83.695    0.405    0.216
  596.114    2.930  181.068   82.884    0.414    0.232
  596.364    2.898  181.745   82.559    0.402    0.220
  596.614    2.903  182.124   84.601    0.394    0.213
  596.864    2.911  182.091   85.001    0.390    0.229
  597.114    2.923  182.465   85.165    0.399    0.226
  597.364    2.943  182.839   86.600    0.393    0.213
  597.614    2.943  183.012   88.891    0.388    0.217
  597.864    2.943  183.076   90.809    0.385    0.216
  598.114    3.063  183.037   90.365    0.385    0.206
  598.364    3.084  183.004   89.007    0.384    0.190
  598.614    3.110  182.968   88.133    0.379    0.181
  598.864    3.120  183.242   88.536    0.372    0.185
  599.114    3.149  183.613   89.488    0.370    0.193
  599.364    3.238  183.683   90.746    0.375    0.199
  599.614    3.439  184.048   91.029    0.377    0.197
  599.864    3.605  184.223   91.246    0.372    0.190
  600.114    3.794  184.195   94.628    0.367    0.188
  600.364    4.075  183.842   98.919    0.356    0.169
  600.614    4.343  183.805  101.935    0.342    0.139
  600.864    4.529  184.182  104.950    0.315    0.134
  601.114    4.812  184.359  107.723    0.332    0.123
  601.364    5.019  184.115  110.919    0.349    0.139
  601.614    5.322  183.668  109.198    0.356    0.143
  601.864    5.479  183.626  102.858    0.335    0.127
  602.114    5.643  183.589   99.379    0.325    0.114
  602.364    5.623  183.453   94.862    0.327    0.102
  602.614    5.307  183.519   92.409    0.357    0.097
  602.864    4.795  183.687   92.148    0.376    0.105
  603.114    4.535  183.554   93.159    0.367    0.130
  603.364    4.437  183.413   95.568    0.373    0.147
  603.614    4.432  183.370   98.583    0.368    0.146
  603.864    4.547  183.343   95.038    0.362    0.124
  604.114    4.750  183.305   90.766    0.373    0.112
  604.364    4.884  183.269   95.963    0.366    0.111
  604.614    4.685  183.233   99.348    0.359    0.113
  604.864    4.536  183.300  103.943    0.366    0.121
  605.114    4.721  183.267  102.890    0.395    0.126
  605.364    5.134  182.610   97.221    0.390    0.123
  605.614    5.435  181.955   88.815    0.388    0.109
  605.864    5.515  181.509   82.420    0.365    0.091
  606.114    5.196  181.170   90.714    0.309    0.075
  606.364    4.720  180.724   93.001    0.281    0.076
  606.614    4.398  180.269   93.531    0.328    0.129
  606.864    4.189  180.242   95.877    0.388    0.141
  607.114    4.100  179.894  102.294    0.386    0.129
  607.364    4.125  179.857  105.066    0.376    0.133
  607.614    4.186  179.616  100.367    0.373    0.143
  607.864    4.256  179.579   97.979    0.390    0.130
  608.114    4.321  179.750   97.412    0.385    0.127
  608.364    4.329  180.128  100.670    0.377    0.119
  608.614    4.337  180.291  101.254    0.368    0.110
  608.864    4.277  180.262  101.295    0.383    0.141
  609.114    4.201  180.533  101.455    0.369    0.121
  609.364    4.197  180.908  104.227    0.362    0.127
  609.614    4.236  180.525  108.666    0.365    0.143
  609.864    4.163  180.510  108.532    0.372    0.149
  610.114    4.164  180.493  105.316    0.390    0.154
  610.364    4.181  180.785  104.889    0.396    0.144
  610.614    4.229  180.791  106.516    0.386    0.129
  610.864    4.268  180.445  105.599    0.381    0.132
  611.114    4.396  179.929  102.319    0.378    0.121
  611.364    4.609  179.811   99.102    0.371    0.099
  611.614    4.841  180.200   96.372    0.365    0.100
  611.864    5.067  179.495   92.912    0.350    0.103
  612.114    5.190  179.688   93.994    0.329    0.091
  612.364    5.296  179.869  100.286    0.336    0.107
  612.614    5.336  179.956  102.635    0.355    0.125
  612.864    5.243  179.747  101.597    0.343    0.101
  613.114    4.862  179.845  104.073    0.320    0.085
  613.364    4.820  180.208  106.188    0.325    0.103
  613.614    4.972  180.321  103.573    0.338    0.123
  613.864    5.204  180.108  101.810    0.346    0.120
  614.114    5.418  180.072   99.626    0.342    0.116
  614.364    5.489  180.055   95.920    0.320    0.108
  614.614    5.442  180.048   94.894    0.310    0.098
  614.864    5.279  180.129   98.938    0.316    0.089
  615.114    5.021  180.138  102.864    0.311    0.092
  615.364    4.724  179.916  105.756    0.310    0.111
  615.614    4.533  180.210  109.320    0.318    0.129
  615.864    4.374  180.304  113.855    0.327    0.131
  616.114    4.290  180.285  119.361    0.338    0.136
  616.364    4.307  180.366  122.556    0.348    0.133
  616.614    4.484  180.255  120.984    0.364    0.115
  616.864    4.718  179.832  113.518    0.373    0.130
  617.114    5.120  179.294  101.587    0.346    0.122
  617.364    5.516  178.767   94.741    0.324    0.093
  617.614    5.690  178.966   95.035    0.306    0.077
  617.864    5.126  179.672  101.208    0.297    0.089
  618.114    4.265  180.989  105.980    0.336    0.142
