~VERSION INFORMATION
 VERS.                 2.0:   CWLS LOG ASCII STANDARD -VERSION 2.0
 WRAP.                  NO:   ONE LINE PER DEPTH STEP
~WELL INFORMATION BLOCK
#MNEM.UNIT           DATA                    DESCRIPTION OF MNEMONIC
#---------    -------------------            -------------------------------
# Generated from Intellog Unique Number	CC_80_83/WELL/2435
NULL.         -999.25                        : NULL_VALUE
WELL.         NOVALTA NEWBY                  : Well_name    - WELL              
LOC .         13-19-083-04W4                 : Location     - LOCATION          
UWI .         00/13-19-083-04W4/0            : Uwi          - UNIQUE WELL ID    
ENTR.         DW                             : Entered      - ENTERED BY        
SRVC.         COMPUTALOG                     : Scn          - SERVICE COMPANY   
DATE.         08 JAN 84                      : Date         - LOG DATE
STRT.M        63                             : top_depth    - START DEPTH       
STOP.M        270.001                        : bot_depth    - STOP DEPTH        
STEP.M        0.3                            : increment    - STEP LENGTH       
~CURVE INFORMATION BLOCK
#MNEM UNIT       ERCB CURVE CODE    CURVE DESCRIPTION
#-----------   ------------------   ----------------------------------
DEPT.M        00 001 00 00         : DEPTH        - DEPTH                       
DPHI.V/V      00 890 00 00         : PHID         - DENSITY POROSITY (LIMESTONE)
NPHI.V/V      00 330 00 00         : PHIN         - NEUTRON POROSITY (LIMESTONE)
GR  .API      00 310 00 00         : GR           - GAMMA RAY                   
ILD .OHMM     00 120 00 00         : RESD         - DEEP RESISTIVITY (DIL)      
~PARAMETER INFORMATION       
#MNEM.UNIT           DATA             DESCRIPTION OF MNEMONIC
#---------         -----------     ------------------------------
GL  .M        464                  : gl           - GROUND LEVEL ELEVATION      
EREF.M        467                  : kb           - ELEVATION OF DEPTH REFERENCE
DATM.M        467                  : datum        - DATUM ELEVATION             
TDD .M        276                  : tdd          - TOTAL DEPTH DRILLER         
RUN .         ONE                  : Run          - RUN NUMBER                  
ENG .         BILL                 : Engineer     - RECORDING ENGINEER          
WIT .         JIM                  : Witness      - WITNESSED BY                
MUD .         GEL                  : Mud_type     - MUD TYPE                    
MATR.         LIMESTONE            : Logunit      - NEUTRON MATRIX              
TMAX.C        22                   : BHT          - MAXIMUM RECORDED TEMPERATURE
BHTD.M        275                  : BHTDEP       - MAXIMUM RECORDED TEMPERATURE
MATR.         1                    : LOGUNIT      - NEUTRON MATRIX              
RMT .C        25                   : MDTP         - TEMPERATURE OF MUD          
NEUT.         1                    : NEUTRON      - NEUTRON TYPE                
RESI.         0                    : RESIST       - RESISTIVITY TYPE            
RMC .OHMM     0.25                 : RMC          - RESISTIVITY OF MUD CAKE     
RMF .OHMM     0.25                 : RMF          - RESISTIVITY OF MUD FILTRATE 
SUFT.C        4                    : SUFT         - SURFACE TEMPERATURE         
~A  DEPTH     PHID     PHIN       GR     RESD
# ...
  167.401    0.263    0.505  108.233    4.246
  167.701    0.291    0.487   99.074    4.321
  168.001    0.312    0.436   88.080    4.737
  168.301    0.300    0.438   83.204    5.290
  168.601    0.275    0.446   88.725    5.587
  168.901    0.277    0.479  110.763    5.681
  169.201    0.284    0.504  112.003    5.465
  169.501    0.278    0.512  108.349    3.417
  169.801    0.267    0.466  107.144    3.347
  170.101    0.243    0.437  107.771    3.602
  170.401    0.242    0.428  107.177    4.254
  170.701    0.259    0.421  104.746    4.753
  171.001    0.286    0.444   98.645    6.402
  171.301    0.280    0.357   74.804    7.706
  171.601    0.145    0.309   68.705    8.287
  171.901    0.160    0.333   86.461    8.432
  172.201    0.316    0.388   88.925    8.577
  172.501    0.331    0.409   86.493    8.886
  172.801    0.308    0.426   82.230    9.383
  173.101    0.256    0.367   75.516    9.545
  173.401    0.266    0.360   72.475    9.531
  173.701    0.321    0.396   79.220    9.167
  174.001    0.326    0.413   81.686    8.649
  174.301    0.325    0.428   79.865    8.319
  174.601    0.316    0.421   77.436    7.998
  174.901    0.309    0.420   76.839    7.838
  175.201    0.316    0.424   79.302    7.536
  175.501    0.317    0.418   84.824    7.804
  175.801    0.313    0.406   81.781    7.944
  176.101    0.290    0.386   79.352    8.079
  176.401    0.204    0.392   87.321    8.067
  176.701    0.237    0.434  102.631    7.757
  177.001    0.254    0.414  100.814    6.922
  177.301    0.259    0.408  101.442    6.534
  177.601    0.260    0.419  102.071    6.396
  177.901    0.259    0.425  100.863    6.390
  178.201    0.252    0.408  100.268    6.497
  178.501    0.244    0.395  100.282    6.612
  178.801    0.243    0.392  107.028    6.851
  179.101    0.252    0.416  107.044    6.837
  179.401    0.247    0.428  105.226    6.698
  179.701    0.241    0.392  112.583    6.691
  180.001    0.246    0.383  113.822    6.679
  180.301    0.264    0.408  105.277    6.540
  180.601    0.287    0.454   99.175    5.948
  180.901    0.312    0.506   95.524    4.834
  181.201    0.323    0.483   93.704    3.645
  181.501    0.316    0.506   89.438    2.697
  181.801    0.315    0.523   88.231    2.361
  182.101    0.322    0.519   91.917    2.314
  182.401    0.319    0.492   88.263    2.310
  182.701    0.294    0.444   86.445    2.439
  183.001    0.249    0.456   88.297    2.624
  183.301    0.249    0.455   90.763    3.341
  183.601    0.257    0.429   90.777    3.802
  183.901    0.262    0.432   93.852    4.015
  184.201    0.259    0.435   98.150    4.239
  184.501    0.248    0.429   96.944    4.478
  184.801    0.242    0.425   95.124    4.728
  185.101    0.243    0.431   95.141    4.900
  185.401    0.263    0.448  101.275    4.711
  185.701    0.278    0.470  103.740    4.446
  186.001    0.270    0.468  104.372    3.966
  186.301    0.264    0.439  103.772    3.675
  186.601    0.262    0.429  103.181    3.534
  186.901    0.262    0.460  103.804    3.395
  187.201    0.265    0.485  105.046    3.329
  187.501    0.266    0.492  105.061    3.322
  187.801    0.262    0.482  102.631    3.319
  188.101    0.265    0.437   95.918    3.312
  188.401    0.270    0.424  102.666    3.368
  188.701    0.240    0.431  105.127    3.428
  189.001    0.235    0.413  100.861    3.485
  189.301    0.255    0.405   95.984    3.680
  189.601    0.265    0.426   95.393    3.814
  189.901    0.247    0.441   96.634    4.028
  190.201    0.254    0.439   97.869    4.098
  190.501    0.246    0.444  106.449    4.167
  190.801    0.238    0.419  102.185    4.160
  191.101    0.241    0.377   97.920    4.230
  191.401    0.236    0.397  102.829    4.387
  191.701    0.235    0.414  104.071    4.460
  192.001    0.256    0.318   96.135    4.538
  192.301    0.278    0.307   91.259    4.790
  192.601    0.302    0.332   88.217    4.965
  192.901    0.258    0.348   82.116    5.444
  193.201    0.271    0.322   75.402    6.193
  193.501    0.319    0.303   72.362    6.666
  193.801    0.354    0.262   72.993    7.446
  194.101    0.325    0.245   73.006    8.635
  194.401    0.315    0.152   71.797    9.826
  194.701    0.345    0.047   69.979   11.181
  195.001    0.379    0.048   50.421   13.460
  195.301    0.383    0.065   55.331   18.825
  195.601    0.377    0.122   68.195   27.327
  195.901    0.374    0.171   65.768   35.454
  196.201    0.354    0.201   65.781   36.742
  196.501    0.328    0.203   71.913   35.977
  196.801    0.310    0.197   93.952   30.362
  197.101    0.287    0.213   96.417   21.640
  197.401    0.260    0.287   99.490   16.626
  197.701    0.234    0.323   95.836   12.072
  198.001    0.227    0.334   91.574    9.809
  198.301    0.242    0.321   92.201    8.590
  198.601    0.251    0.307   97.725    7.520
  198.901    0.243    0.305  102.019    7.368
  199.201    0.233    0.352  107.545    7.494
  199.501    0.224    0.405  111.231    7.482
  199.801    0.222    0.418  111.858    7.195
  200.101    0.222    0.405  108.817    6.919
  200.401    0.222    0.381  102.717    6.529
  200.701    0.222    0.366  100.285    6.396
  201.001    0.227    0.364  100.299    6.504
  201.301    0.229    0.371  106.435    6.621
  201.601    0.217    0.391  105.838    6.858
  201.901    0.221    0.408  103.414    6.849
  202.201    0.228    0.423  104.650    6.836
  202.501    0.229    0.422  105.889    6.698
  202.801    0.228    0.395  107.130    6.564
  203.101    0.230    0.398  107.757    6.312
  203.401    0.224    0.405  107.773    6.183
  203.701    0.220    0.405  107.790    6.057
  204.001    0.228    0.410  109.031    6.160
  204.301    0.232    0.422  114.552    6.154
  204.601    0.229    0.433  117.015    6.140
  204.901    0.221    0.436  120.703    6.126
  205.201    0.219    0.436  115.212    6.005
  205.501    0.224    0.430  106.054    5.887
  205.801    0.219    0.420  105.459    5.765
  206.101    0.219    0.425  109.758    5.753
  206.401    0.221    0.431  114.667    5.747
  206.701    0.230    0.445  114.684    5.841
  207.001    0.237    0.422  120.206    5.726
  207.301    0.228    0.420  118.998    5.715
  207.601    0.221    0.430  114.127    5.709
  207.901    0.221    0.436  114.749    5.593
  208.201    0.228    0.435  117.217    5.480
  208.501    0.237    0.436  116.008    5.368
  208.801    0.238    0.441  112.966    5.359
  209.101    0.243    0.447  112.369    5.250
  209.401    0.248    0.452  114.222    5.143
  209.701    0.237    0.447  117.907    5.138
  210.001    0.238    0.460  118.536    5.128
  210.301    0.255    0.478  115.494    5.021
  210.601    0.255    0.470  111.230    5.016
  210.901    0.247    0.447  107.575    5.100
  211.201    0.249    0.414   98.415    4.996
  211.501    0.267    0.392   88.645    4.898
  211.801    0.289    0.378   80.098    4.623
  212.102    0.298    0.371   78.281    4.282
  212.402    0.281    0.371   81.967    3.544
  212.702    0.262    0.418   92.383    2.990
  213.002    0.263    0.417   96.069    2.874
  213.302    0.258    0.401   93.028    2.979
  213.602    0.251    0.388   94.879    3.266
  213.902    0.253    0.364   95.506    3.648
  214.202    0.286    0.354   70.442    3.781
  214.502    0.317    0.362   64.344    3.569
  214.802    0.311    0.379   72.312    3.010
  215.102    0.287    0.387   96.184    2.684
  215.402    0.242    0.405  108.436    2.631
  215.702    0.236    0.396  109.066    2.727
  216.002    0.237    0.397  114.585    3.345
  216.302    0.230    0.457  120.109    4.259
  216.602    0.226    0.478  122.574    4.250
  216.902    0.225    0.497  123.812    4.012
  217.202    0.220    0.518  120.769    3.649
  217.502    0.216    0.485  123.232    3.379
  217.802    0.211    0.470  122.636    3.374
  218.102    0.207    0.453  111.030    3.367
  218.402    0.253    0.387   78.626    3.300
  218.702    0.313    0.345   35.212    2.835
  219.002    0.341    0.323   32.783    2.304
  219.302    0.346    0.324   30.964    1.804
