~VERSION INFORMATION
 VERS.                 2.0:   CWLS LOG ASCII STANDARD -VERSION 2.0
 WRAP.                  NO:   ONE LINE PER DEPTH STEP
~WELL INFORMATION BLOCK
#MNEM.UNIT           DATA                    DESCRIPTION OF MNEMONIC
#---------    -------------------            -------------------------------
# Generated from Intellog Unique Number	CW_79_81/WELL/2469
WELL.         10-18-081-20W4                 : Well_name    - WELL
LOC .         00/10-18-081-20W4/0            : Location     - LOCATION
UWI .         00/10-18-081-20W4/0            : Uwi          - UNIQUE WELL ID
ENTR.         MAX                            : Entered      - ENTERED BY
SRVC.         COMPUTALOG                     : Scn          - SERVICE COMPANY
STRT.M        190                            : top_depth    - START DEPTH
STOP.M        415                            : bot_depth    - STOP DEPTH
STEP.M        0.3                            : increment    - STEP LENGTH
 NULL. -999.2500:NULL Value
~CURVE INFORMATION BLOCK
#MNEM UNIT       ERCB CURVE CODE    CURVE DESCRIPTION
#-----------   ------------------   ----------------------------------
DEPT.M        00 001 00 00         : DEPTH        - DEPTH
GR  .API      00 310 00 00         : GR           - GAMMA RAY
CALI.MM       00 280 01 00         : CAL          - CALIPER
DPHI.V/V      00 890 00 00         : PHID         - DENSITY POROSITY (SANDSTONE)
NPHI.V/V      00 330 00 00         : PHIN         - NEUTRON POROSITY (SANDSTONE)
ILD .OHMM     00 120 00 00         : RESD         - DEEP RESISTIVITY (DIL)
~PARAMETER INFORMATION
#MNEM.UNIT           DATA             DESCRIPTION OF MNEMONIC
#---------         -----------     ------------------------------
GL  .M        581.81               : gl           - GROUND LEVEL ELEVATION
EREF.M        585.04               : kb           - ELEVATION OF DEPTH REFERENCE
DATM.M        581.81               : datum        - DATUM ELEVATION
TDD .M        415                  : tdd          - TOTAL DEPTH DRILLER
RUN .         ONE                  : Run          - RUN NUMBER
ENG .         BILL                 : Engineer     - RECORDING ENGINEER
WIT .         JIM                  : Witness      - WITNESSED BY
MUD .         GEL                  : Mud_type     - MUD TYPE
MATR.         SANDSTONE            : Logunit      - NEUTRON MATRIX
TMAX.C        27                   : BHT          - MAXIMUM RECORDED TEMPERATURE
BHTD.M        415                  : BHTDEP       - MAXIMUM RECORDED TEMPERATURE
MATR.         1                    : LOGUNIT      - NEUTRON MATRIX
RMT .C        9                    : MDTP         - TEMPERATURE OF MUD
NEUT.         1                    : NEUTRON      - NEUTRON TYPE
RESI.         0                    : RESIST       - RESISTIVITY TYPE
RMC .OHMM     6.3                  : RMC          - RESISTIVITY OF MUD CAKE
RMF .OHMM     8                    : RMF          - RESISTIVITY OF MUD FILTRATE
SUFT.C        -20                  : SUFT         - SURFACE TEMPERATURE
~A  DEPTH       GR      CAL     PHID     PHIN     RESD
# ...
  365.200   97.689  235.505    0.253    0.353   10.108
  365.500   99.166  230.072    0.274    0.391   10.008
  365.800  101.237  245.860    0.310    0.374    9.908
  366.100  103.011  218.221    0.265    0.372   10.181
  366.400   95.015  210.322    0.231    0.357   10.753
  366.700   78.727  206.370    0.188    0.319   11.787
  367.000   77.836  196.002    0.158    0.275   13.042
  367.300   83.164  200.439    0.179    0.289   17.847
  367.600   90.860  200.929    0.190    0.321   20.682
  367.900   89.969  198.951    0.191    0.337   24.186
  368.200   88.782  198.454    0.191    0.360   26.512
  368.500   89.076  200.424    0.191    0.342   26.494
  368.800   93.515  203.875    0.182    0.324   25.279
  369.100   98.250  204.858    0.182    0.341   25.259
  369.400   97.359  205.347    0.191    0.348   26.196
  369.700  100.614  205.836    0.189    0.353   27.927
  370.000  105.053  206.326    0.195    0.362   27.907
  370.300  105.643  206.816    0.196    0.356   27.635
  370.600  103.864  207.305    0.188    0.337   26.860
  370.900  101.789  208.288    0.179    0.336   25.866
  371.200   98.529  208.777    0.185    0.344   24.449
  371.500   92.605  210.253    0.210    0.365   23.117
  371.800   81.056  210.744    0.244    0.365   22.263
  372.100   55.293  207.286    0.252    0.382   23.086
  372.400   48.185  204.814    0.253    0.387   25.540
  372.700   53.808  213.693    0.298    0.373   31.283
  373.000   41.962  224.546    0.341    0.345   42.417
  373.300   41.367  224.048    0.298    0.367   51.477
  373.600   43.141  202.824    0.270    0.342   58.017
  373.900   44.027  199.859    0.269    0.328   63.594
  374.200   44.913  202.817    0.267    0.331   64.736
  374.500   45.799  204.293    0.266    0.348   65.291
  374.800   45.500  201.822    0.272    0.344   68.333
  375.100   45.498  198.363    0.283    0.354   69.565
  375.400   45.496  198.359    0.276    0.339   70.809
  375.700   45.197  198.355    0.267    0.346   68.828
  376.000   46.971  198.351    0.282    0.350   63.286
  376.300   51.115  198.840    0.286    0.346   58.195
  376.600   59.107  200.318    0.256    0.350   49.236
  376.900   67.099  203.768    0.226    0.353   42.832
  377.200   69.169  204.257    0.215    0.310   36.909
  377.500   69.167  202.772    0.187    0.289   33.938
  377.800   73.902  201.289    0.166    0.267   30.354
  378.100   81.302  206.220    0.172    0.312   25.921
  378.400   85.741  221.514    0.151    0.248   21.931
  378.700   79.817  223.484    0.107    0.227   18.385
  379.000   88.401  206.701    0.173    0.327   14.445
  379.300   96.689  225.450    0.211    0.355   12.222
  379.600  102.609  240.250    0.202    0.410   10.244
  379.900   95.500  236.792    0.197    0.430    8.508
  380.200   80.397  231.853    0.213    0.414    7.969
  380.500   71.512  224.940    0.195    0.347    8.265
  380.800   70.917  212.600    0.171    0.211    8.893
  381.100   86.608  208.648    0.130    0.325    9.839
  381.400   97.561  211.111    0.170    0.377   11.507
  381.700   98.743  228.379    0.189    0.386   12.728
  382.000   99.925  234.297    0.187    0.354   12.035
  382.300  104.956  232.319    0.179    0.362   10.566
  382.600  113.244  232.315    0.218    0.429    9.191
  382.900  111.465  234.285    0.239    0.462    8.372
  383.200   98.139  236.255    0.267    0.476    7.915
  383.500   85.700  237.731    0.282    0.428    8.285
  383.800   80.665  234.767    0.256    0.398    8.915
  384.100   77.701  218.971    0.227    0.367   10.234
  384.400   75.330  208.603    0.195    0.380   11.429
  384.700   78.585  207.120    0.203    0.355   13.241
  385.000   72.068  209.090    0.197    0.391   14.924
  385.300   54.301  211.553    0.206    0.367   16.509
  385.600   52.818  209.575    0.191    0.332   17.765
  385.900   71.765  209.078    0.205    0.335   18.084
  386.200   80.646  209.070    0.230    0.340   17.743
  386.500   83.900  208.082    0.233    0.344   16.313
  386.800   81.825  208.079    0.226    0.371   15.001
  387.100   80.638  208.075    0.222    0.434   13.417
  387.400   89.815  208.070    0.225    0.397   10.838
  387.700   95.735  213.989    0.220    0.342    8.755
  388.000   92.475  221.880    0.195    0.493    7.008
  388.300   94.545  218.916    0.207    0.480    6.209
  388.600   95.135  214.964    0.223    0.414    6.499
  388.900   86.842  212.493    0.211    0.323    7.256
  389.200   88.320  211.502    0.234    0.381    8.331
  389.500   94.832  211.004    0.287    0.399    9.565
  389.800   97.494  211.000    0.300    0.384   10.483
  390.100   96.308  212.477    0.273    0.349   10.771
  390.400   83.573  219.875    0.262    0.375   11.169
  390.700   77.649  227.273    0.299    0.340   12.242
  391.000   89.786  228.256    0.280    0.343   13.545
  391.300   85.047  225.291    0.309    0.360   15.408
  391.600   76.458  221.340    0.259    0.355   17.205
  391.900   79.713  217.882    0.220    0.348   16.721
  392.200   81.487  212.942    0.223    0.330   16.866
  392.500   84.149  210.471    0.194    0.320   17.012
  392.800   93.621  208.987    0.121    0.335   17.000
  393.100   97.172  208.490    0.127    0.352   16.988
  393.400   94.209  210.459    0.181    0.392   16.977
  393.700   91.542  218.844    0.224    0.404   16.807
  394.000   90.059  229.697    0.247    0.381   16.798
  394.300   89.168  226.733    0.232    0.358   16.784
  394.600   87.093  214.885    0.197    0.359   16.775
  394.900   90.052  211.920    0.213    0.335   17.075
  395.200   90.642  213.890    0.223    0.310   17.065
  395.500   94.192  215.860    0.237    0.348   17.051
  395.800  106.922  224.739    0.237    0.393   17.041
  396.100  118.763  227.202    0.198    0.417   16.874
  396.400  118.169  224.238    0.181    0.390   16.706
  396.700  100.105  214.364    0.206    0.344   16.540
  397.000  100.991  214.359    0.219    0.359   16.223
  397.300  115.201  221.265    0.233    0.331   16.065
  397.600  113.422  231.131    0.240    0.286   16.056
  397.900  109.866  236.062    0.247    0.335   15.749
  398.200  103.942  234.577    0.295    0.423   15.741
  398.500   97.130  229.145    0.278    0.411   16.023
  398.800   98.608  223.713    0.250    0.393   16.924
  399.100  112.226  218.280    0.273    0.380   17.880
  399.400  107.189  214.821    0.280    0.351   18.885
  399.700  111.629  214.818    0.290    0.388   19.765
  400.000  116.956  215.800    0.262    0.420   20.309
  400.300  111.032  214.317    0.248    0.385   20.675
  400.600  104.515  213.819    0.292    0.345   20.660
  400.900   96.815  213.815    0.286    0.345   19.893
  401.200   92.371  215.291    0.301    0.342   19.161
  401.500   90.592  219.728    0.329    0.347   17.947
  401.800   86.740  223.179    0.361    0.388   16.348
  402.100   82.000  227.123    0.347    0.443   15.600
  402.400   79.037  231.068    0.314    0.416   15.304
  402.700   76.074  232.050    0.253    0.395   15.292
  403.000   83.770  228.099    0.291    0.453   15.283
  403.300   88.209  220.199    0.363    0.427   15.272
  403.600   86.726  218.220    0.317    0.436   15.404
  403.900   89.389  217.230    0.286    0.390   15.536
  404.200   84.649  214.759    0.287    0.373   15.380
  404.500   80.797  208.339    0.276    0.379   15.373
  404.800   90.269  206.361    0.283    0.372   15.363
  405.100   89.971  206.357    0.288    0.421   15.350
  405.400   86.712  207.340    0.272    0.388   15.485
  405.700   79.603  209.311    0.255    0.361   15.618
  406.000   76.344  212.267    0.258    0.364   16.045
  406.300   76.045  216.704    0.295    0.424   16.035
  406.600   79.004  224.596    0.313    0.426   15.875
  406.900   79.594  228.047    0.295    0.398   15.432
  407.200   78.999  228.537    0.278    0.359   14.999
  407.500   79.293  221.130    0.260    0.348   14.578
  407.800   80.179  224.088    0.244    0.364   14.301
  408.100   81.953  224.084    0.250    0.374   14.292
  408.400   82.839  216.184    0.240    0.373   14.021
  408.700   87.278  208.778    0.240    0.353   13.754
