~VERSION INFORMATION
 VERS.                 2.0:   CWLS LOG ASCII STANDARD -VERSION 2.0
 WRAP.                  NO:   ONE LINE PER DEPTH STEP
~WELL INFORMATION BLOCK
#MNEM.UNIT           DATA                    DESCRIPTION OF MNEMONIC
#---------    -------------------            -------------------------------
# Generated from Intellog Unique Number	CS_67_68/WELL/812
WELL.         PENNENT-PUMA OILS LTD          : Well_name    - WELL
LOC .         00/11-01-068-16W4/0            : Location     - LOCATION
UWI .         00/11-01-068-16W4/0            : Uwi          - UNIQUE WELL ID
ENTR.         SP                             : Entered      - ENTERED BY
SRVC.         SCHLUMBERGER                   : Scn          - SERVICE COMPANY
STRT.M        320.040                        : top_depth    - START DEPTH
STOP.M        511.790                        : bot_depth    - STOP DEPTH
STEP.M        0.25                           : increment    - STEP LENGTH
 NULL. -999.2500:NULL Value
~CURVE INFORMATION BLOCK
#MNEM UNIT       ERCB CURVE CODE    CURVE DESCRIPTION
#-----------   ------------------   ----------------------------------
DEPT.M        00 001 00 00         : DEPTH        - DEPTH
GR  .API      00 310 00 00         : GR           - GAMMA RAY
DPHI.V/V      00 890 00 00         : PHID         - DENSITY POROSITY (SANDSTONE)
NPHI.V/V      00 330 00 00         : PHIN         - NEUTRON POROSITY (SANDSTONE)
ILD .OHMM     00 120 00 00         : RESD         - DEEP RESISTIVITY (DIL)
~PARAMETER INFORMATION
#MNEM.UNIT           DATA             DESCRIPTION OF MNEMONIC
#---------         -----------     ------------------------------
GL  .M        572.414              : gl           - GROUND LEVEL ELEVATION
EREF.M        605.333              : kb           - ELEVATION OF DEPTH REFERENCE
DATM.M        572.414              : datum        - DATUM ELEVATION
TDD .M        516.026              : tdd          - TOTAL DEPTH DRILLER
RUN .         ONE                  : Run          - RUN NUMBER
ENG .         BILL                 : Engineer     - RECORDING ENGINEER
WIT .         JIM                  : Witness      - WITNESSED BY
MUD .         GEL                  : Mud_type     - MUD TYPE
MATR.         SANDSTONE            : Logunit      - NEUTRON MATRIX
TMAX.C        24.4444              : BHT          - MAXIMUM RECORDED TEMPERATURE
BHTD.M        516.026              : BHTDEP       - MAXIMUM RECORDED TEMPERATURE
MATR.         1                    : LOGUNIT      - NEUTRON MATRIX
RMT .C        25                   : MDTP         - TEMPERATURE OF MUD
NEUT.         1                    : NEUTRON      - NEUTRON TYPE
RESI.         0                    : RESIST       - RESISTIVITY TYPE
RMC .OHMM     0.25                 : RMC          - RESISTIVITY OF MUD CAKE
RMF .OHMM     0.25                 : RMF          - RESISTIVITY OF MUD FILTRATE
SUFT.C        15                   : SUFT         - SURFACE TEMPERATURE
~A  DEPTH       GR     PHID     PHIN     RESD
# ...
  363.540   90.492    0.252    0.409    2.547
  363.790   80.506    0.239    0.371    3.252
  364.040   72.561    0.219    0.340    4.201
  364.290   64.854    0.182    0.314    5.012
  364.540   61.492    0.075    0.265    6.047
  364.790   62.771    0.026    0.148    7.068
  365.040   72.577    0.016    0.132    4.563
  365.290   76.426    0.019    0.394    3.740
  365.540   81.290    0.090    0.416    3.263
  365.790   85.800    0.167    0.431    2.841
  366.040   87.608    0.227    0.438    2.529
  366.290   86.115    0.254    0.440    2.307
  366.540   84.793    0.269    0.433    2.189
  366.790   84.363    0.272    0.428    2.162
  367.040   85.607    0.273    0.426    2.174
  367.290   87.299    0.272    0.428    2.270
  367.540   89.692    0.268    0.432    2.331
  367.790   92.610    0.267    0.433    2.397
  368.040   94.828    0.266    0.433    2.471
  368.290   95.719    0.272    0.424    2.545
  368.540   95.156    0.276    0.433    2.385
  368.790   94.424    0.280    0.441    2.428
  369.040   95.438    0.280    0.447    2.454
  369.290  100.049    0.277    0.450    2.488
  369.540  103.638    0.278    0.438    2.525
  369.790  106.238    0.274    0.427    2.561
  370.040  108.054    0.266    0.427    2.610
  370.290  107.986    0.257    0.431    2.683
  370.540  105.376    0.248    0.423    2.750
  370.790  104.251    0.238    0.432    2.849
  371.040  107.890    0.234    0.437    2.957
  371.290  110.749    0.226    0.437    3.039
  371.540  112.860    0.220    0.448    3.152
  371.790  113.889    0.219    0.462    3.245
  372.040  111.873    0.230    0.474    3.325
  372.290  107.730    0.240    0.474    3.372
  372.540  104.712    0.253    0.447    3.375
  372.790  102.786    0.262    0.425    3.314
  373.040  101.145    0.258    0.411    3.223
  373.290  106.944    0.247    0.411    3.056
  373.540  110.895    0.236    0.438    2.904
  373.790  113.913    0.226    0.456    2.794
  374.040  115.730    0.220    0.474    2.712
  374.290  115.441    0.216    0.486    2.660
  374.540  113.725    0.217    0.492    2.674
  374.790  116.941    0.222    0.493    2.767
  375.040  119.866    0.229    0.473    2.930
  375.290  121.435    0.236    0.458    3.147
  375.540  121.513    0.228    0.445    3.347
  375.790  120.163    0.224    0.432    3.580
  376.040  116.074    0.224    0.421    3.867
  376.290  110.515    0.226    0.418    4.052
  376.540  109.229    0.226    0.416    4.162
  376.790  109.818    0.224    0.410    4.149
  377.040  108.051    0.224    0.399    4.034
  377.290  107.290    0.220    0.390    3.966
  377.540  107.811    0.210    0.390    3.939
  377.790  106.994    0.201    0.401    3.952
  378.040  106.629    0.208    0.396    3.970
  378.290  109.412    0.211    0.400    4.013
  378.540  111.764    0.209    0.409    3.952
  378.790  112.029    0.210    0.413    3.630
  379.040  108.549    0.206    0.413    3.210
  379.290  100.553    0.203    0.422    2.944
  379.540   89.808    0.217    0.432    2.673
  379.790   80.914    0.241    0.425    2.436
  380.040   73.929    0.260    0.407    2.169
  380.290   69.609    0.283    0.399    1.998
  380.540   67.796    0.308    0.391    1.876
  380.790   69.709    0.315    0.393    1.771
  381.040   71.669    0.315    0.399    1.678
  381.290   73.694    0.314    0.407    1.631
  381.540   75.943    0.320    0.418    1.668
  381.790   78.738    0.322    0.427    1.748
  382.040   79.907    0.313    0.429    1.857
  382.290   82.219    0.307    0.422    2.041
  382.540   86.017    0.296    0.418    2.267
  382.790   88.262    0.279    0.423    2.459
  383.040   89.877    0.260    0.428    2.643
  383.290   89.993    0.241    0.414    2.763
  383.540   88.698    0.244    0.402    2.759
  383.790   88.801    0.265    0.394    2.552
  384.040   87.433    0.285    0.423    2.259
  384.290   85.036    0.301    0.442    2.052
  384.540   82.406    0.314    0.440    1.902
  384.790   80.291    0.327    0.433    1.786
  385.040   79.525    0.315    0.422    1.816
  385.290   79.902    0.307    0.412    1.997
  385.540   82.664    0.302    0.419    2.259
  385.790   87.516    0.293    0.424    2.518
  386.040   93.611    0.283    0.415    2.721
  386.290   97.720    0.275    0.407    2.900
  386.540  101.264    0.261    0.401    3.098
  386.790  104.756    0.249    0.396    3.344
  387.040  108.862    0.233    0.399    3.527
  387.290  112.577    0.216    0.396    3.710
  387.540  114.684    0.209    0.399    3.786
  387.790  115.746    0.212    0.414    3.838
  388.040  115.471    0.225    0.426    3.803
  388.290  114.911    0.230    0.436    3.722
  388.540  114.881    0.221    0.439    3.612
  388.790  114.760    0.214    0.439    3.453
  389.040  112.063    0.209    0.431    3.328
  389.290  108.231    0.224    0.404    3.218
  389.540  105.389    0.233    0.381    3.235
  389.790  109.689    0.244    0.374    3.315
  390.040  115.241    0.235    0.386    3.382
  390.290  118.110    0.223    0.392    3.435
  390.540  121.397    0.211    0.396    3.463
  390.790  116.775    0.204    0.389    3.387
  391.040  108.850    0.214    0.385    3.012
  391.290  101.198    0.254    0.394    2.464
  391.540   94.706    0.281    0.407    2.234
  391.790   93.721    0.301    0.417    2.119
  392.040   98.153    0.302    0.413    2.082
  392.290  102.698    0.280    0.402    2.268
  392.540  107.626    0.261    0.391    2.455
  392.790  110.407    0.245    0.390    2.637
  393.040  112.959    0.233    0.427    2.766
  393.290  112.128    0.225    0.458    2.831
  393.540  106.773    0.220    0.476    2.837
  393.790  102.446    0.242    0.467    2.838
  394.040   99.298    0.226    0.469    2.809
  394.290   95.204    0.221    0.467    2.637
  394.540   88.005    0.242    0.456    2.558
  394.790   83.306    0.275    0.450    2.435
  395.040   80.748    0.294    0.446    2.305
  395.290   80.216    0.302    0.449    2.153
  395.540   81.098    0.300    0.445    2.061
  395.790   80.736    0.296    0.434    1.989
  396.040   78.396    0.303    0.430    1.975
  396.290   76.365    0.304    0.439    1.949
  396.540   77.386    0.298    0.448    1.956
  396.790   80.957    0.284    0.426    1.978
  397.040   85.052    0.275    0.409    2.023
  397.290   91.088    0.281    0.398    2.081
  397.540   97.385    0.282    0.402    2.174
  397.790  102.913    0.258    0.422    2.308
  398.040  106.637    0.235    0.438    2.376
  398.290  109.737    0.223    0.453    2.466
  398.540  111.804    0.208    0.467    2.453
  398.790  108.985    0.206    0.454    2.350
  399.040   99.554    0.231    0.445    2.208
  399.290   93.447    0.248    0.444    2.104
  399.540   87.601    0.256    0.437    2.035
  399.790   83.005    0.270    0.431    2.000
  400.040   77.880    0.271    0.425    2.117
  400.290   75.123    0.267    0.435    2.585
  400.540   73.602    0.276    0.410    3.303
  400.790   71.389    0.273    0.370    4.229
  401.040   68.623    0.228    0.333    5.761
  401.290   66.551    0.163    0.233    8.119
  401.540   66.819    0.110    0.230   12.106
  401.790   67.149    0.101    0.234   20.024
  402.040   67.130    0.101    0.249   22.032
  402.290   65.974    0.107    0.271   17.117
  402.540   65.120    0.112    0.290    6.502
  402.790   66.092    0.119    0.324    4.052
  403.040   67.258    0.190    0.383    3.277
  403.290   67.308    0.241    0.422    3.126
  403.540   65.913    0.205    0.347    3.257
  403.790   62.039    0.156    0.277    3.441
  404.040   59.871    0.103    0.233    3.665
  404.290   65.088    0.093    0.323    3.863
  404.540   70.749    0.143    0.365    3.692
  404.790   74.929    0.194    0.396    3.042
  405.040   78.456    0.259    0.414    2.745
  405.290   80.638    0.273    0.427    2.584
  405.540   82.308    0.262    0.419    2.442
  405.790   83.242    0.254    0.413    2.409
  406.040   83.655    0.254    0.411    2.355
  406.290   84.500    0.259    0.413    2.355
  406.540   87.243    0.253    0.426    2.490
  406.790   89.149    0.250    0.434    2.598
