~VERSION INFORMATION
 VERS.                 2.0:   CWLS LOG ASCII STANDARD -VERSION 2.0
 WRAP.                  NO:   ONE LINE PER DEPTH STEP
~WELL INFORMATION BLOCK
#MNEM.UNIT           DATA                    DESCRIPTION OF MNEMONIC
#---------    -------------------            -------------------------------
# Generated from Intellog Unique Number	CS_73_76/WELL/3277
WELL.         STAR OIL & GAS LTD.            : Well_name    - WELL
LOC .         00/14-04-076-10W4/0            : Location     - LOCATION
UWI .         00/14-04-076-10W4/0            : Uwi          - UNIQUE WELL ID
ENTR.         SP                             : Entered      - ENTERED BY
SRVC.         SCHLUMBERGER                   : Scn          - SERVICE COMPANY
STRT.M        265                            : top_depth    - START DEPTH
STOP.M        485                            : bot_depth    - STOP DEPTH
STEP.M        0.25                           : increment    - STEP LENGTH
 NULL. -999.2500:NULL Value
~CURVE INFORMATION BLOCK
#MNEM UNIT       ERCB CURVE CODE    CURVE DESCRIPTION
#-----------   ------------------   ----------------------------------
DEPT.M        00 001 00 00         : DEPTH        - DEPTH
ILD .OHMM     00 120 00 00         : RESD         - DEEP RESISTIVITY (DIL)
DPHI.V/V      00 890 00 00         : PHID         - DENSITY POROSITY (LIMESTONE)
NPHI.V/V      00 330 00 00         : PHIN         - NEUTRON POROSITY (LIMESTONE)
GR  .API      00 310 00 00         : GR           - GAMMA RAY
~PARAMETER INFORMATION
#MNEM.UNIT           DATA             DESCRIPTION OF MNEMONIC
#---------         -----------     ------------------------------
GL  .M        662.45               : gl           - GROUND LEVEL ELEVATION
EREF.M        665.5                : kb           - ELEVATION OF DEPTH REFERENCE
DATM.M        662.45               : datum        - DATUM ELEVATION
TDD .M        530                  : tdd          - TOTAL DEPTH DRILLER
RUN .         ONE                  : Run          - RUN NUMBER
ENG .         BILL                 : Engineer     - RECORDING ENGINEER
WIT .         JIM                  : Witness      - WITNESSED BY
MUD .         GEL                  : Mud_type     - MUD TYPE
MATR.         LIMESTONE            : Logunit      - NEUTRON MATRIX
TMAX.C        24                   : BHT          - MAXIMUM RECORDED TEMPERATURE
BHTD.M        530                  : BHTDEP       - MAXIMUM RECORDED TEMPERATURE
MATR.         1                    : LOGUNIT      - NEUTRON MATRIX
RMT .C        25                   : MDTP         - TEMPERATURE OF MUD
NEUT.         1                    : NEUTRON      - NEUTRON TYPE
RESI.         0                    : RESIST       - RESISTIVITY TYPE
RMC .OHMM     0.25                 : RMC          - RESISTIVITY OF MUD CAKE
RMF .OHMM     0.25                 : RMF          - RESISTIVITY OF MUD FILTRATE
SUFT.C        15                   : SUFT         - SURFACE TEMPERATURE
~A  DEPTH     RESD     PHID     PHIN       GR
  265.000    3.487    0.259    0.000  110.622
  265.250    3.423    0.260    0.476  109.367
  265.500    3.423    0.255    0.476  109.987
  265.750    3.489    0.246    0.482  111.234
  266.000    3.625    0.231    0.494  109.354
  266.250    3.695    0.234    0.492  104.350
  266.500    3.766    0.236    0.465  103.096
  266.750    3.767    0.235    0.475  104.340
  267.000    3.767    0.234    0.484  106.837
  267.250    3.768    0.236    0.480  109.959
  267.500    3.698    0.239    0.480  111.829
  267.750    3.699    0.244    0.485  109.325
  268.000    3.700    0.247    0.492  102.445
  268.250    3.700    0.245    0.494  101.817
  268.500    3.772    0.239    0.490  106.812
  268.750    3.773    0.234    0.497  104.307
  269.000    3.845    0.241    0.501  103.054
  269.250    3.846    0.239    0.491  102.424
  269.500    3.995    0.233    0.501  103.669
  269.750    4.310    0.228    0.506  104.915
  270.000    4.477    0.226    0.488  106.162
  270.250    5.210    0.228    0.464  106.157
  270.500    5.950    0.229    0.437  107.403
  270.750    6.418    0.238    0.443  110.524
  271.000    8.056    0.245    0.450  107.394
  271.250    9.923    0.262    0.427   88.016
  271.500   16.233    0.298    0.363   75.512
  271.750   22.399    0.365    0.297   62.383
  272.000   28.115    0.390    0.252   56.753
  272.250   35.966    0.392    0.228   51.749
  272.500   39.541    0.387    0.197   47.371
  272.750   44.306    0.387    0.186   41.116
  273.000   44.313    0.387    0.173   39.861
  273.250   44.322    0.377    0.163   39.858
  273.500   35.999    0.389    0.150   42.979
  273.750   27.626    0.400    0.135   36.099
  274.000   22.018    0.408    0.144   32.346
  274.250   18.573    0.327    0.187   46.716
  274.500   15.966    0.281    0.297   69.836
  274.750   14.528    0.262    0.358   75.457
  275.000   13.729    0.256    0.384   72.952
  275.250   13.221    0.265    0.396   67.948
  275.500   12.494    0.293    0.396   69.194
  275.750   11.585    0.316    0.394   73.563
  276.000   11.370    0.280    0.386   76.061
  276.250   11.160    0.223    0.375   84.804
  276.500   11.162    0.199    0.384   87.302
  276.750   11.377    0.211    0.392   91.672
  277.000   11.818    0.229    0.395   95.417
  277.250   12.749    0.256    0.394   96.663
  277.500   13.497    0.290    0.395   93.534
  277.750   13.758    0.301    0.395   84.155
  278.000   13.761    0.311    0.395   77.276
  278.250   13.505    0.316    0.396   73.522
  278.500   13.255    0.305    0.396   72.267
  278.750   12.765    0.287    0.396   73.513
  279.000   12.528    0.279    0.399   77.885
  279.250   12.064    0.276    0.406   80.380
  279.500   11.619    0.271    0.397   82.876
  279.750   11.404    0.263    0.387   87.246
  280.000   11.623    0.258    0.400   90.367
  280.250   12.305    0.261    0.412   90.988
  280.500   13.026    0.285    0.431   94.732
  280.750   13.790    0.312    0.442   95.353
  281.000   14.324    0.319    0.439   94.725
  281.250   14.602    0.318    0.427  104.720
  281.500   14.884    0.307    0.418  103.466
  281.750   14.886    0.297    0.405   93.461
  282.000   14.889    0.285    0.385   87.833
  282.250   14.891    0.285    0.370   93.454
  282.500   14.342    0.287    0.383   97.199
  282.750   14.075    0.286    0.395   94.694
  283.000   13.556    0.280    0.411   92.814
  283.250   13.304    0.270    0.423   94.060
  283.500   13.056    0.259    0.394   94.682
  283.750   12.814    0.245    0.368   92.802
  284.000   13.062    0.232    0.352   85.299
  284.250   13.313    0.219    0.342   67.795
  284.500   13.570    0.102    0.380   57.792
  284.750   15.206    0.134    0.391   60.911
  285.000   16.718    0.358    0.407   65.282
  285.250   17.366    0.333    0.416   67.153
  285.500   18.039    0.329    0.420   67.772
  285.750   19.098    0.328    0.422   68.394
  286.000   19.838    0.329    0.421   69.639
  286.250   21.001    0.338    0.409   70.261
  286.500   21.815    0.339    0.402   69.007
  286.750   21.410    0.341    0.401   64.627
  287.000   21.014    0.338    0.396   63.998
  287.250   20.623    0.334    0.396   66.494
  287.500   20.239    0.334    0.396   68.990
  287.750   19.865    0.334    0.399   68.359
  288.000   19.867    0.334    0.402   67.732
  288.250   20.638    0.333    0.399   67.102
  288.500   20.256    0.332    0.399   67.097
  288.750   20.260    0.337    0.411   67.717
  289.000   19.884    0.342    0.417   67.713
  289.250   19.888    0.337    0.419   67.710
  289.500   19.519    0.329    0.420   68.955
  289.750   19.156    0.323    0.422   70.201
  290.000   19.160    0.315    0.426   72.697
  290.250   18.804    0.313    0.433   73.318
  290.500   18.807    0.320    0.436   71.438
  290.750   18.811    0.331    0.438   70.809
  291.000   18.816    0.334    0.446   71.429
  291.250   18.818    0.332    0.431   72.050
  291.500   18.822    0.330    0.431   73.297
  291.750   18.828    0.327    0.417   73.293
  292.000   18.477    0.328    0.394   72.037
  292.250   18.136    0.331    0.389   72.034
  292.500   17.799    0.337    0.395   76.405
  292.750   17.142    0.344    0.395   82.026
  293.000   16.509    0.347    0.398   78.271
  293.250   15.898    0.344    0.407   72.640
  293.500   15.023    0.342    0.411   71.388
  293.750   14.467    0.335    0.399   71.384
  294.000   13.670    0.301    0.389   75.128
  294.250   11.532    0.281    0.398   79.500
  294.500    9.913    0.262    0.408   91.370
  294.750    6.664    0.248    0.427  106.991
  295.000    5.949    0.236    0.435  125.736
  295.250    5.839    0.223    0.437  122.607
  295.500    6.182    0.216    0.445  114.478
  295.750    7.059    0.208    0.459  118.849
  296.000    8.214    0.218    0.472  131.968
  296.250    9.204    0.238    0.471  130.089
  296.500    9.742    0.254    0.412  123.210
  296.750   10.711    0.258    0.415  116.331
  297.000   11.777    0.260    0.426  112.578
  297.250   12.467    0.280    0.430  108.198
  297.500   12.708    0.291    0.415  104.444
  297.750   12.239    0.309    0.404  101.314
  298.000   11.566    0.314    0.413  101.309
  298.250   11.138    0.284    0.421  104.430
  298.500   10.726    0.257    0.417  108.176
  298.750   10.136    0.242    0.416  111.922
  299.000    9.948    0.241    0.425  113.793
  299.250    9.950    0.254    0.426  115.663
  299.500    9.767    0.268    0.424  118.159
  299.750    9.955    0.273    0.421  121.904
  300.000   10.340    0.252    0.415  124.401
  300.250   11.155    0.236    0.409  120.647
  300.500   12.499    0.233    0.406  103.767
  300.750   12.983    0.229    0.406   88.139
  301.000   13.744    0.208    0.408   71.885
  301.250   13.490    0.204    0.406   63.756
  301.500   13.239    0.221    0.406   67.501
  301.750   12.511    0.268    0.421   73.123
  302.000   11.383    0.284    0.431   84.993
  302.250    9.973    0.277    0.440   93.738
  302.500    9.424    0.264    0.432  100.607
  302.750    8.906    0.262    0.434  105.604
  303.000    8.741    0.258    0.442  110.600
  303.250    9.255    0.237    0.435  110.595
  303.500    9.612    0.239    0.423  107.466
  303.750   10.770    0.257    0.414  104.963
  304.000   11.401    0.283    0.420   94.334
  304.250   11.843    0.294    0.436   93.080
  304.500   11.847    0.296    0.444   95.575
  304.750   11.849    0.281    0.437   93.696
  305.000   11.628    0.269    0.432   91.816
  305.250   11.199    0.273    0.435   96.186
  305.500   10.990    0.280    0.446   98.683
  305.750   10.993    0.283    0.468   95.553
  306.000   10.994    0.288    0.460   95.549
  306.250   10.997    0.279    0.442   96.794
  306.500   10.794    0.268    0.441   96.791
  306.750   10.795    0.268    0.441   93.661
  307.000   10.798    0.275    0.441   90.533
  307.250   10.799    0.291    0.481   94.278
  307.500   10.802    0.293    0.479   97.399
  307.750   10.601    0.291    0.466   95.520
  308.000   10.404    0.285    0.454   99.266
  308.250   10.211    0.280    0.444  101.136
