~VERSION INFORMATION
 VERS.                 2.0:   CWLS LOG ASCII STANDARD -VERSION 2.0
 WRAP.                  NO:   ONE LINE PER DEPTH STEP
~WELL INFORMATION BLOCK
#MNEM.UNIT           DATA                    DESCRIPTION OF MNEMONIC
#---------    -------------------            -------------------------------
# Generated from Intellog Unique Number	CS_77_79/WELL/960
WELL.         CDN. SUP. THORNBURY            : Well_name    - WELL
LOC .         00/10-22-078-14W4/0            : Location     - LOCATION
UWI .         00/10-22-078-14W4/0            : Uwi          - UNIQUE WELL ID
ENTR.         JHS                            : Entered      - ENTERED BY
SRVC.         SCHLUMBERGER                   : Scn          - SERVICE COMPANY
STRT.M        275                            : top_depth    - START DEPTH
STOP.M        518.25                         : bot_depth    - STOP DEPTH
STEP.M        0.25                           : increment    - STEP LENGTH
 NULL. -999.2500:NULL Value
~CURVE INFORMATION BLOCK
#MNEM UNIT       ERCB CURVE CODE    CURVE DESCRIPTION
#-----------   ------------------   ----------------------------------
DEPT.M        00 001 00 00         : DEPTH        - DEPTH
NPHI.V/V      00 330 00 00         : PHIN         - NEUTRON POROSITY (LIMESTONE)
GR  .API      00 310 00 00         : GR           - GAMMA RAY
ILD .OHMM     00 120 00 00         : RESD         - DEEP RESISTIVITY (DIL)
DPHI.V/V      00 890 00 00         : PHID         - DENSITY POROSITY (LIMESTONE)
~PARAMETER INFORMATION
#MNEM.UNIT           DATA             DESCRIPTION OF MNEMONIC
#---------         -----------     ------------------------------
GL  .M        685.4                : gl           - GROUND LEVEL ELEVATION
EREF.M        689.9                : kb           - ELEVATION OF DEPTH REFERENCE
DATM.M        689.9                : datum        - DATUM ELEVATION
TDD .M        665                  : tdd          - TOTAL DEPTH DRILLER
RUN .         ONE                  : Run          - RUN NUMBER
ENG .         BILL                 : Engineer     - RECORDING ENGINEER
WIT .         JIM                  : Witness      - WITNESSED BY
MUD .         GEL                  : Mud_type     - MUD TYPE
MATR.         LIMESTONE            : Logunit      - NEUTRON MATRIX
TMAX.C        19                   : BHT          - MAXIMUM RECORDED TEMPERATURE
BHTD.M        665                  : BHTDEP       - MAXIMUM RECORDED TEMPERATURE
MATR.         1                    : LOGUNIT      - NEUTRON MATRIX
RMT .C        25                   : MDTP         - TEMPERATURE OF MUD
NEUT.         1                    : NEUTRON      - NEUTRON TYPE
RESI.         0                    : RESIST       - RESISTIVITY TYPE
RMC .OHMM     0.25                 : RMC          - RESISTIVITY OF MUD CAKE
RMF .OHMM     0.25                 : RMF          - RESISTIVITY OF MUD FILTRATE
SUFT.C        15                   : SUFT         - SURFACE TEMPERATURE
~A  DEPTH     PHIN       GR     RESD     PHID
# ...
  492.500    0.323   76.901   21.347    0.256
  492.750    0.305   82.448   19.054    0.237
  493.000    0.299   89.229   16.686    0.209
  493.250    0.292   96.009   14.612    0.185
  493.500    0.317  100.938   13.043    0.168
  493.750    0.364  104.017   12.094    0.156
  494.000    0.373  107.712   11.872    0.147
  494.250    0.381  102.765   13.316    0.169
  494.500    0.348   81.151   15.514    0.209
  494.750    0.355   72.500   18.073    0.204
  495.000    0.374   71.874   23.158    0.197
  495.250    0.380   69.398   27.502    0.242
  495.500    0.386   64.449   29.693    0.292
  495.750    0.370   68.144   30.860    0.280
  496.000    0.365   71.840   32.073    0.254
  496.250    0.369   71.830   30.311    0.239
  496.500    0.362   73.675   26.044    0.241
  496.750    0.338   76.752   21.138    0.229
  497.000    0.324   77.360   18.868    0.212
  497.250    0.317   76.116   17.497    0.192
  497.500    0.307   79.192   16.852    0.179
  497.750    0.328   81.038   16.232    0.179
  498.000    0.347   77.324   15.933    0.192
  498.250    0.329   72.996   15.641    0.214
  498.500    0.329   75.455   14.780    0.218
  498.750    0.343   80.386   13.968    0.199
  499.000    0.344   85.933   13.453    0.191
  499.250    0.359   87.158   12.961    0.182
  499.500    0.351   84.680   12.965    0.178
  499.750    0.333   82.819   12.973    0.173
  500.000    0.333   79.106   12.736    0.175
  500.250    0.332   79.098   12.267    0.178
  500.500    0.323   89.582   11.815    0.173
  500.750    0.318   93.893   11.599    0.164
  501.000    0.321   95.737   11.605    0.154
  501.250    0.346   90.172   11.834    0.156
  501.500    0.387   79.054   12.775    0.171
  501.750    0.394   67.935   13.534    0.214
  502.000    0.404   56.197   14.338    0.263
  502.250    0.390   53.103   14.075    0.300
  502.500    0.392   54.327   13.556    0.285
  502.750    0.429   51.849   11.649    0.280
  503.000    0.405   48.754   10.397    0.281
  503.250    0.378   47.513    9.105    0.290
  503.500    0.352   46.268    8.127    0.295
  503.750    0.341   54.285    7.828    0.288
  504.000    0.332   66.622    8.136    0.269
  504.250    0.329   74.020    8.954    0.251
  504.500    0.325   75.861    9.853    0.238
  504.750    0.308   77.088   10.436    0.236
  505.000    0.293   85.722   10.246    0.228
  505.250    0.283   97.440    9.500    0.213
  505.500    0.278  106.691    8.977    0.196
  505.750    0.319  114.706    8.324    0.189
  506.000    0.332  114.695    7.868    0.184
  506.250    0.340  114.690    7.723    0.175
  506.500    0.331  119.000    7.727    0.170
  506.750    0.344  118.990    8.031    0.158
  507.000    0.337  117.132    8.346    0.137
  507.250    0.315  112.802    8.676    0.122
  507.500    0.311  109.090    8.681    0.121
  507.750    0.305  113.402    8.521    0.144
  508.000    0.356  124.504    8.526    0.148
  508.250    0.370  130.050    8.530    0.152
  508.500    0.364  126.337    8.698    0.158
  508.750    0.345  114.602    9.041    0.149
  509.000    0.325  115.208    9.577    0.141
  509.250    0.341  119.522    9.954    0.133
  509.500    0.356  121.365   10.345    0.149
  509.750    0.365  118.270   10.352    0.154
  510.000    0.332  112.706   10.357    0.160
  510.250    0.299  112.080   10.168    0.158
  510.500    0.284  113.921   10.369    0.149
  510.750    0.293  113.912   10.573    0.136
  511.000    0.319  111.436   10.580    0.069
  511.250    0.353  112.044    9.999    0.025
  511.500    0.384  119.442    9.817    0.024
  511.750    0.381  124.989    9.820    0.139
  512.000    0.394  128.067   10.014    0.156
  512.250    0.364  128.673   10.408    0.153
  512.500    0.339  128.047   10.818    0.148
  512.750    0.339  126.802   11.243    0.146
  513.000    0.326  126.181   11.465    0.162
  513.250    0.297  124.937   11.473    0.146
  513.500    0.296  125.544   11.050    0.138
  513.750    0.300  126.152   10.643    0.128
  514.000    0.300  126.144    9.869    0.122
  514.250    0.314  128.606    9.505    0.111
  514.500    0.334  131.683    9.154    0.162
  514.750    0.347  131.674    8.652    0.305
  515.000    0.363  130.429    8.493    0.347
  515.250    0.343  130.419    8.660    0.300
  515.500    0.326  129.795    9.001    0.158
  515.750    0.318  129.168    9.179    0.099
  516.000    0.303  129.162    8.842    0.073
  516.250    0.301  131.621    8.846    0.000
  516.500    0.305  131.613    8.852    0.000
  516.750    0.305  129.134    8.855    0.000
  517.000    0.299  129.125    8.860    0.006
  517.250    0.294  129.733    8.865    0.020
  517.500    0.300  131.577    8.872    0.048
  517.750    0.316  133.421    8.875    0.085
  518.000    0.327   36.502    9.051    0.098
  518.250    0.341    4.395    8.885    0.095
