~VERSION INFORMATION
 VERS.                 2.0:   CWLS LOG ASCII STANDARD -VERSION 2.0
 WRAP.                  NO:   ONE LINE PER DEPTH STEP
~WELL INFORMATION BLOCK
#MNEM.UNIT           DATA                    DESCRIPTION OF MNEMONIC
#---------    -------------------            -------------------------------
# Generated from Intellog Unique Number	CS_69_70/WELL/857
NULL.         -999.25                        : NULL_VALUE
WELL.         BVX HART LAKE                  : Well_name    - WELL              
LOC .         00/10-02-070-11W4/0            : Location     - LOCATION          
UWI .         00/10-02-070-11W4/0            : Uwi          - UNIQUE WELL ID    
ENTR.         SP                             : Entered      - ENTERED BY        
SRVC.         SCHLUMBERGER                   : Scn          - SERVICE COMPANY   
STRT.M        275                            : top_depth    - START DEPTH       
STOP.M        480                            : bot_depth    - STOP DEPTH        
STEP.M        0.25                           : increment    - STEP LENGTH       
~CURVE INFORMATION BLOCK
#MNEM UNIT       ERCB CURVE CODE    CURVE DESCRIPTION
#-----------   ------------------   ----------------------------------
DEPT.M        00 001 00 00         : DEPTH        - DEPTH                       
ILD .OHMM     00 120 00 00         : RESD         - DEEP RESISTIVITY (DIL)      
GR  .API      00 310 00 00         : GR           - GAMMA RAY                   
NPHI.V/V      00 330 00 00         : PHIN         - NEUTRON POROSITY (LIMESTONE)
DPHI.V/V      00 890 00 00         : PHID         - DENSITY POROSITY (LIMESTONE)
~PARAMETER INFORMATION       
#MNEM.UNIT           DATA             DESCRIPTION OF MNEMONIC
#---------         -----------     ------------------------------
GL  .M        604.1                : gl           - GROUND LEVEL ELEVATION      
EREF.M        606.85               : kb           - ELEVATION OF DEPTH REFERENCE
DATM.M        604.1                : datum        - DATUM ELEVATION             
TDD .M        481.2                : tdd          - TOTAL DEPTH DRILLER         
RUN .         ONE                  : Run          - RUN NUMBER                  
ENG .         BILL                 : Engineer     - RECORDING ENGINEER          
WIT .         JIM                  : Witness      - WITNESSED BY                
MUD .         GEL                  : Mud_type     - MUD TYPE                    
MATR.         LIMESTONE            : Logunit      - NEUTRON MATRIX              
TMAX.C        21                   : BHT          - MAXIMUM RECORDED TEMPERATURE
BHTD.M        481.2                : BHTDEP       - MAXIMUM RECORDED TEMPERATURE
MATR.         1                    : LOGUNIT      - NEUTRON MATRIX              
RMT .C        25                   : MDTP         - TEMPERATURE OF MUD          
NEUT.         1                    : NEUTRON      - NEUTRON TYPE                
RESI.         0                    : RESIST       - RESISTIVITY TYPE            
RMC .OHMM     0.25                 : RMC          - RESISTIVITY OF MUD CAKE     
RMF .OHMM     0.25                 : RMF          - RESISTIVITY OF MUD FILTRATE 
SUFT.C        15                   : SUFT         - SURFACE TEMPERATURE         
~A  DEPTH     RESD       GR     PHIN     PHID
# ...
  449.000    4.742   88.677    0.396    0.213
  449.250    4.603   88.866    0.397    0.229
  449.500    4.526   89.477    0.406    0.235
  449.750    4.467   90.273    0.417    0.239
  450.000    4.491   90.821    0.426    0.239
  450.250    4.626   93.486    0.419    0.224
  450.500    4.747   98.570    0.410    0.205
  450.750    4.834  100.932    0.423    0.200
  451.000    4.825   91.817    0.425    0.210
  451.250    4.554   79.016    0.429    0.191
  451.500    4.037   62.954    0.414    0.214
  451.750    3.679   52.993    0.394    0.235
  452.000    3.403   48.651    0.383    0.254
  452.250    3.188   45.999    0.371    0.265
  452.500    3.072   52.109    0.368    0.277
  452.750    3.170   60.516    0.375    0.269
  453.000    3.515   66.563    0.383    0.259
  453.250    3.856   72.309    0.389    0.243
  453.500    4.152   77.873    0.391    0.228
  453.750    4.389   83.439    0.385    0.229
  454.000    4.665   78.915    0.379    0.242
  454.250    4.941   81.701    0.377    0.249
  454.500    5.126   92.342    0.352    0.207
  454.750    5.319  100.083    0.359    0.196
  455.000    5.408  102.626    0.367    0.182
  455.250    5.539   95.988    0.372    0.171
  455.500    5.662   91.525    0.354    0.163
  455.750    5.735   87.485    0.327    0.157
  456.000    5.681   83.928    0.319    0.153
  456.250    5.535   81.458    0.326    0.165
  456.500    5.313   78.566    0.333    0.193
  456.750    4.960   75.311    0.339    0.202
  457.000    4.613   70.605    0.340    0.203
  457.250    4.346   66.927    0.349    0.214
  457.500    4.005   63.069    0.369    0.236
  457.750    3.670   58.062    0.391    0.257
  458.000    3.414   54.866    0.395    0.272
  458.250    3.229   52.337    0.386    0.275
  458.500    3.180   51.316    0.374    0.268
  458.750    3.282   55.795    0.365    0.259
  459.000    3.560   66.133    0.361    0.252
  459.250    3.749   78.042    0.362    0.243
  459.500    3.941   87.172    0.364    0.195
  459.750    3.940   92.676    0.375    0.175
  460.000    3.803   99.149    0.400    0.174
  460.250    3.610  104.774    0.433    0.196
  460.500    3.563  109.673    0.476    0.169
  460.750    3.609  114.997    0.504    0.178
  461.000    3.717  120.321    0.504    0.150
  461.250    3.892  121.657    0.505    0.131
  461.500    3.987  119.551    0.520    0.140
  461.750    4.230  116.115    0.539    0.140
  462.000    4.340  114.732    0.553    0.140
  462.250    4.372  112.201    0.528    0.177
  462.500    4.259   98.193    0.496    0.193
  462.750    3.796   83.702    0.399    0.201
  463.000    3.447   75.855    0.369    0.212
  463.250    3.129   66.498    0.382    0.244
  463.500    2.868   58.047    0.388    0.275
  463.750    2.712   53.040    0.398    0.298
  464.000    2.565   53.531    0.413    0.321
  464.250    2.522   56.801    0.406    0.291
  464.500    2.631   59.587    0.396    0.298
  464.750    2.807   63.343    0.406    0.290
  465.000    3.000   64.979    0.411    0.282
  465.250    3.154   68.309    0.407    0.281
  465.500    3.315   72.121    0.397    0.260
  465.750    3.346   76.116    0.386    0.241
  466.000    3.616   76.425    0.380    0.233
  466.250    3.759   76.674    0.380    0.235
  466.500    3.922   81.636    0.383    0.246
  466.750    4.294   87.141    0.377    0.242
  467.000    4.447   91.860    0.370    0.225
  467.250    4.815   96.580    0.364    0.191
  467.500    4.887  100.514    0.361    0.186
  467.750    4.977  105.659    0.358    0.191
  468.000    4.876  107.415    0.357    0.181
  468.250    4.611  109.295    0.365    0.175
  468.500    4.313  109.604    0.384    0.185
  468.750    3.989  102.423    0.394    0.195
  469.000    3.642   95.121    0.397    0.201
  469.250    3.477   86.669    0.388    0.212
  469.500    3.495   78.098    0.376    0.215
  469.750    4.009   80.159    0.374    0.189
  470.000    4.277   91.886    0.371    0.216
  470.250    4.588  108.326    0.364    0.226
  470.500    4.958  118.302    0.356    0.205
  470.750    4.967  132.506    0.374    0.197
  471.000    4.663  143.025    0.400    0.192
  471.250    4.265  145.691    0.414    0.185
  471.500    3.787  137.965    0.430    0.183
  471.750    3.426  132.173    0.433    0.180
  472.000    3.105  133.388    0.429    0.166
  472.250    2.872  131.946    0.465    0.192
  472.500    2.787  125.851    0.496    0.205
  472.750    2.876  121.267    0.483    0.222
  473.000    3.063  134.505    0.466    0.244
  473.250    3.219  148.467    0.541    0.263
  473.500    3.665  155.906    0.572    0.247
  473.750    4.005  156.517    0.585    0.240
  474.000    4.337  156.585    0.568    0.225
  474.250    4.644  156.109    0.526    0.198
  474.500    4.809  155.694    0.463    0.171
  474.750    4.963  155.277    0.441    0.182
  475.000    5.036  154.620    0.420    0.151
  475.250    5.017  153.903    0.417    0.138
  475.500    4.951  152.945    0.429    0.144
  475.750    4.814  152.346    0.438    0.150
  476.000    4.751  151.024    0.454    0.156
  476.250    4.795  149.642    0.488    0.143
  476.500    4.884  147.958    0.531    0.120
  476.750    5.067  138.903    0.543    0.043
  477.000    5.277  130.694    0.460   -0.007
  477.250    5.466  111.853    0.447    0.040
  477.500    5.831   93.253    0.435    0.060
  477.750    6.480   82.205    0.427    0.079
  478.000    7.613   90.006    0.422    0.070
  478.250    8.927   92.187    0.438    0.056
  478.500    9.902   91.653    0.433    0.043
  478.750   10.862   91.539    0.421    0.061
  479.000   11.187   91.305    0.395    0.001
  479.250   11.185   90.891    0.327   -0.016
  479.500   11.059   90.478    0.241    0.002
  479.750   10.956   90.479    0.125    0.012
  480.000   10.913   90.488    0.005    0.011
