~VERSION INFORMATION
 VERS.                 2.0:   CWLS LOG ASCII STANDARD -VERSION 2.0
 WRAP.                  NO:   ONE LINE PER DEPTH STEP
~WELL INFORMATION BLOCK
#MNEM.UNIT           DATA                    DESCRIPTION OF MNEMONIC
#---------    -------------------            -------------------------------
# Generated from Intellog Unique Number	CS_77_79/WELL/1009
WELL.         MESA PORTAGE                   : Well_name    - WELL
LOC .         00/11-34-079-18W4/0            : Location     - LOCATION
UWI .         00/11-34-079-18W4/0            : Uwi          - UNIQUE WELL ID
ENTR.         JHS                            : Entered      - ENTERED BY
SRVC.         SCHLUMBERGER                   : Scn          - SERVICE COMPANY
STRT.M        152.4                          : top_depth    - START DEPTH
STOP.M        374.65                         : bot_depth    - STOP DEPTH
STEP.M        0.25                           : increment    - STEP LENGTH
 NULL. -999.2500:NULL Value
~CURVE INFORMATION BLOCK
#MNEM UNIT       ERCB CURVE CODE    CURVE DESCRIPTION
#-----------   ------------------   ----------------------------------
DEPT.M        00 001 00 00         : DEPTH        - DEPTH
RHOB.KG/M3    00 350 00 00         : DENS         - BULK DENSITY
GR  .API      00 310 00 00         : GR           - GAMMA RAY
DPHI.V/V      00 890 00 00         : PHID         - DENSITY POROSITY (SANDSTONE)
NPHI.V/V      00 330 00 00         : PHIN         - NEUTRON POROSITY (SANDSTONE)
ILD .OHMM     00 120 00 00         : RESD         - DEEP RESISTIVITY (DIL)
~PARAMETER INFORMATION
#MNEM.UNIT           DATA             DESCRIPTION OF MNEMONIC
#---------         -----------     ------------------------------
GL  .M        554.462              : gl           - GROUND LEVEL ELEVATION
EREF.M        557.814              : kb           - ELEVATION OF DEPTH REFERENCE
DATM.M        557.814              : datum        - DATUM ELEVATION
TDD .M        374.904              : tdd          - TOTAL DEPTH DRILLER
RUN .         ONE                  : Run          - RUN NUMBER
ENG .         BILL                 : Engineer     - RECORDING ENGINEER
WIT .         JIM                  : Witness      - WITNESSED BY
MUD .         GEL                  : Mud_type     - MUD TYPE
MATR.         SANDSTONE            : Logunit      - NEUTRON MATRIX
TMAX.C        60                   : BHT          - MAXIMUM RECORDED TEMPERATURE
BHTD.M        374.904              : BHTDEP       - MAXIMUM RECORDED TEMPERATURE
MATR.         1                    : LOGUNIT      - NEUTRON MATRIX
RMT .C        25                   : MDTP         - TEMPERATURE OF MUD
NEUT.         1                    : NEUTRON      - NEUTRON TYPE
RESI.         0                    : RESIST       - RESISTIVITY TYPE
RMC .OHMM     0.25                 : RMC          - RESISTIVITY OF MUD CAKE
RMF .OHMM     0.25                 : RMF          - RESISTIVITY OF MUD FILTRATE
SUFT.C        15                   : SUFT         - SURFACE TEMPERATURE
~A  DEPTH     DENS       GR     PHID     PHIN     RESD
# ...
  298.400    0.000   58.882    0.215    0.469    9.372
  298.650    0.000   55.965    0.230    0.474    9.210
  298.900    0.000   58.193    0.214    0.476    9.027
  299.150   -0.000   60.585    0.204    0.465    9.047
  299.400   -0.000   60.464    0.187    0.471    8.892
  299.650   -0.000   58.008    0.195    0.485    8.546
  299.900    0.000   55.769    0.189    0.463    8.416
  300.150    0.000   58.653    0.188    0.458    8.415
  300.400    0.000   60.928    0.189    0.472    8.610
  300.650   -0.000   62.010    0.207    0.475    8.492
  300.900   -0.000   62.505    0.206    0.490    8.242
  301.150   -0.000   62.058    0.197    0.478    8.000
  301.400    0.000   60.935    0.189    0.464    7.995
  301.650    0.000   60.299    0.188    0.448    8.178
  301.900   -0.000   57.228    0.193    0.443    8.313
  302.150   -0.000   59.150    0.207    0.458    8.863
  302.400   -0.000   62.139    0.191    0.471    9.200
  302.650    0.000   58.322    0.179    0.475    9.373
  302.900    0.000   53.520    0.168    0.461    9.009
  303.150    0.000   53.069    0.125    0.428    8.653
  303.400   -0.000   57.218    0.153    0.419    8.285
  303.650   -0.000   56.117    0.196    0.440    8.023
  303.900   -0.000   56.129    0.208    0.450    7.784
  304.150    0.000   57.566    0.211    0.447    7.680
  304.400    0.000   59.475    0.217    0.441    7.873
  304.650   -0.000   60.430    0.198    0.453    7.954
  304.900   -0.000   61.794    0.184    0.467    8.367
  305.150   -0.000   59.497    0.205    0.469    8.843
  305.400    0.000   53.917    0.218    0.452    9.414
  305.650    0.000   50.823    0.227    0.442   10.151
  305.900    0.000   54.174    0.241    0.448   10.368
  306.150   -0.000   53.871    0.200    0.447    9.741
  306.400   -0.000   53.559    0.182    0.433    9.132
  306.650   -0.000   53.243    0.212    0.432    8.776
  306.900    0.000   53.106    0.197    0.441    8.350
  307.150    0.000   55.968    0.226    0.436    8.343
  307.400    0.000   60.683    0.230    0.446    8.347
  307.650   -0.000   63.810    0.232    0.452    8.628
  307.900   -0.000   64.016    0.243    0.449    8.943
  308.150    0.000   61.931    0.232    0.435    9.358
  308.400    0.000   64.287    0.201    0.423    9.654
  308.650    0.000   67.719    0.146    0.402    9.938
  308.900   -0.000   66.523    0.181    0.407    9.934
  309.150   -0.000   63.788    0.189    0.419    9.938
  309.400   -0.000   61.053    0.193    0.436    9.930
  309.650    0.000   58.544    0.200    0.452    9.782
  309.900    0.000   56.424    0.243    0.461    9.511
  310.150    0.000   52.699    0.253    0.448    9.441
  310.400   -0.000   50.829    0.242    0.451    9.316
  310.650   -0.000   46.660    0.227    0.469    9.326
  310.900    0.000   49.787    0.237    0.477    9.641
  311.150    0.000   53.107    0.278    0.447    9.648
  311.400    0.000   53.510    0.273    0.438    9.664
  311.650   -0.000   55.438    0.266    0.435    9.660
  311.900   -0.000   52.405    0.254    0.423    9.841
  312.150   -0.000   50.522    0.231    0.391   10.297
  312.400    0.000   50.529    0.211    0.375   10.780
  312.650    0.000   50.605    0.233    0.414   11.589
  312.900    0.000   49.910    0.192    0.392   12.472
  313.150   -0.000   49.944    0.137    0.358   14.196
  313.400   -0.000   49.597    0.108    0.333   15.938
  313.650   -0.000   47.501    0.102    0.312   18.096
  313.900    0.000   45.476    0.095    0.298   19.082
  314.150    0.000   44.545    0.081    0.280   18.536
  314.400   -0.000   43.361    0.070    0.293   16.266
  314.650   -0.000   41.317    0.090    0.323   13.707
  314.900   -0.000   41.293    0.184    0.348   11.550
  315.150    0.000   48.489    0.237    0.396   10.267
  315.400    0.000   48.521    0.251    0.455    9.208
  315.650    0.000   47.662    0.236    0.436    9.356
  315.900   -0.000   46.736    0.238    0.423   10.132
  316.150   -0.000   44.533    0.242    0.420   10.750
  316.400   -0.000   46.127    0.181    0.375   10.377
  316.650    0.000   50.267    0.154    0.332    9.776
  316.900    0.000   53.715    0.156    0.407    9.238
  317.150    0.000   53.886    0.200    0.452    9.162
  317.400   -0.000   56.357    0.223    0.454    9.168
  317.650   -0.000   57.366    0.216    0.416    9.176
  317.900    0.000   55.255    0.207    0.400    9.194
  318.150    0.000   53.538    0.189    0.405    8.926
  318.400    0.000   52.482    0.208    0.418    8.671
  318.650   -0.000   51.544    0.214    0.418    8.401
  318.900   -0.000   50.860    0.222    0.420    8.325
  319.150   -0.000   50.937    0.231    0.428    8.253
  319.400    0.000   51.482    0.212    0.424    8.262
  319.650    0.000   51.877    0.191    0.439    8.330
  319.900    0.000   52.297    0.196    0.442    8.432
  320.150   -0.000   54.846    0.213    0.427    8.712
  320.400   -0.000   54.555    0.218    0.420    8.999
  320.650    0.000   54.092    0.203    0.445    9.110
  320.900    0.000   54.819    0.182    0.455    9.117
  321.150    0.000   54.998    0.182    0.452    9.095
  321.400   -0.000   56.545    0.188    0.455    8.827
  321.650   -0.000   57.220    0.197    0.452    8.397
  321.900   -0.000   57.903    0.196    0.437    7.972
  322.150    0.000   58.284    0.183    0.429    7.631
  322.400    0.002   59.912    0.201    0.445    7.214
  322.650    0.004   63.015    0.188    0.458    6.656
  322.900   -0.088   66.135    0.181    0.461    6.465
  323.150   -0.993   66.475    0.163    0.460    6.454
  323.400   -0.388   66.534    0.170    0.472    6.452
  323.650   68.506   67.894    0.197    0.467    6.703
  323.900  631.343   70.956    0.188    0.455    7.078
  324.150 2442.480   73.905    0.174    0.448    7.774
  324.400 2457.940   72.670    0.156    0.447    8.629
  324.650 2482.600   69.711    0.134    0.461    9.566
  324.900 2428.830   64.527    0.164    0.440   10.680
  325.150 2467.910   61.076    0.142    0.420   11.290
  325.400 2518.110   59.261    0.112    0.403   11.642
  325.650 2438.710   57.861    0.159    0.419   12.035
  325.900 2359.610   55.556    0.205    0.453   12.144
  326.150 2385.380   55.048    0.190    0.466   12.558
  326.400 2397.660   55.068    0.183    0.415   12.558
  326.650 2460.930   56.187    0.146    0.392   12.574
  326.900 2495.590   59.977    0.125    0.404   12.585
  327.150 2473.800   61.865    0.138    0.429   12.728
  327.400 2440.180   59.605    0.158    0.445   13.125
  327.650 2418.800   55.402    0.170    0.424   14.052
  327.900 2442.010   52.891    0.157    0.400   15.116
  328.150 2424.130   52.097    0.167    0.383   16.196
  328.400 2460.980   51.054    0.146    0.373   16.716
  328.650 2494.980   50.680    0.126    0.365   16.653
  328.900 2520.330   53.544    0.111    0.349   16.148
  329.150 2536.620   55.988    0.101    0.334   15.637
  329.400 2447.490   57.805    0.154    0.377   15.427
  329.650 2427.870   57.735    0.165    0.393   14.766
  329.900 2441.450   56.258    0.157    0.394   14.495
  330.150 2498.630   54.674    0.124    0.387   14.526
  330.400 2559.460   51.736    0.088    0.374   14.538
  330.650 2593.740   51.101    0.068    0.356   14.238
  330.900 2589.530   56.557    0.070    0.369   13.604
  331.150 2451.010   58.953    0.151    0.399   11.995
  331.400 2475.220   59.004    0.137    0.416   10.291
  331.650 2430.150   59.814    0.164    0.431    9.021
  331.900 2468.100   60.341    0.141    0.441    7.577
  332.150 2436.800   60.186    0.160    0.458    6.902
  332.400 2454.510   58.443    0.149    0.459    6.167
  332.650 2483.270   56.402    0.133    0.439    5.505
  332.900 2506.020   56.717    0.119    0.424    4.568
  333.150 2526.800   57.968    0.107    0.430    3.683
  333.400 2378.490   56.795    0.194    0.461    3.134
  333.650 2315.090   53.471    0.231    0.502    2.973
  333.900 2264.710   50.885    0.260    0.554    3.268
  334.150 2235.720   47.418    0.277    0.601    4.208
  334.400 2222.910   44.716    0.285    0.577    5.871
  334.650 2260.410   40.518    0.263    0.438    7.619
