~VERSION INFORMATION
 VERS.                 2.0:   CWLS LOG ASCII STANDARD -VERSION 2.0
 WRAP.                  NO:   ONE LINE PER DEPTH STEP
~WELL INFORMATION BLOCK
#MNEM.UNIT           DATA                    DESCRIPTION OF MNEMONIC
#---------    -------------------            -------------------------------
# Generated from Intellog Unique Number	CN_94_101/WELL/2757
WELL.         PARAMOUNT LTD.                 : Well_name    - WELL
LOC .         00/10-03-094-21W4/0            : Location     - LOCATION
UWI .         00/10-03-094-21W4/0            : Uwi          - UNIQUE WELL ID
ENTR.         JOETTE                         : Entered      - ENTERED BY
SRVC.         COMPUTALOG                     : Scn          - SERVICE COMPANY
DATE.         07/03/92                       : Date         - LOG DATE
STRT.M        200                            : top_depth    - START DEPTH
STOP.M        364.25                         : bot_depth    - STOP DEPTH
STEP.M        0.25                           : increment    - STEP LENGTH
 NULL. -999.2500:NULL Value
~CURVE INFORMATION BLOCK
#MNEM UNIT       ERCB CURVE CODE    CURVE DESCRIPTION
#-----------   ------------------   ----------------------------------
DEPT.M        00 001 00 00         : DEPTH        - DEPTH
CALI.MM       00 280 01 00         : CAL          - CALIPER
GR  .API      00 310 00 00         : GR           - GAMMA RAY
NPHI.V/V      00 330 00 00         : PHIN         - NEUTRON POROSITY (SANDSTONE)
DPHI.V/V      00 890 00 00         : PHID         - DENSITY POROSITY (SANDSTONE)
ILD .OHMM     00 120 00 00         : RESD         - DEEP RESISTIVITY (DIL)
~PARAMETER INFORMATION
#MNEM.UNIT           DATA             DESCRIPTION OF MNEMONIC
#---------         -----------     ------------------------------
GL  .M        615.5                : gl           - GROUND LEVEL ELEVATION
EREF.M        618.8                : kb           - ELEVATION OF DEPTH REFERENCE
DATM.M        618.8                : datum        - DATUM ELEVATION
TDD .M        367                  : tdd          - TOTAL DEPTH DRILLER
RUN .         ONE                  : Run          - RUN NUMBER
ENG .         BILL                 : Engineer     - RECORDING ENGINEER
WIT .         JIM                  : Witness      - WITNESSED BY
MUD .         GEL                  : Mud_type     - MUD TYPE
MATR.         SANDSTONE            : Logunit      - NEUTRON MATRIX
TMAX.C        35                   : BHT          - MAXIMUM RECORDED TEMPERATURE
BHTD.M        367                  : BHTDEP       - MAXIMUM RECORDED TEMPERATURE
RMT .C        16                   : MDTP         - TEMPERATURE OF MUD
MUDD.KG/M     1120                 : MWT          - MUD DENSITY
NEUT.         1                    : NEUTRON      - NEUTRON TYPE
RESI.         0                    : RESIST       - RESISTIVITY TYPE
RM  .OHMM     5                    : RM           - RESISTIVITY OF MUD
RMC .OHMM     5                    : RMC          - RESISTIVITY OF MUD CAKE
RMF .OHMM     5                    : RMF          - RESISTIVITY OF MUD FILTRATE
SUFT.C        4                    : SUFT         - SURFACE TEMPERATURE
~A  DEPTH      CAL       GR     PHIN     PHID     RESD
# ...
  273.000  173.382   93.157    0.457    0.258    4.923
  273.250  168.406   90.174    0.432    0.257    4.916
  273.500  163.439   88.984    0.432    0.250    4.819
  273.750  163.448   86.598    0.438    0.241    4.724
  274.000  168.461   86.009    0.456    0.235    4.295
  274.250  167.485   92.613    0.478    0.249    4.135
  274.500  166.505   97.418    0.487    0.267    3.980
  274.750  167.517   96.836    0.482    0.276    3.831
  275.000  167.545   95.043    0.465    0.267    3.826
  275.250  168.558   90.263    0.451    0.255    4.269
  275.500  170.574   88.473    0.425    0.256    4.853
  275.750  171.586   87.890    0.442    0.246    5.315
  276.000  176.599   84.904    0.459    0.229    5.408
  276.250  175.619   84.316    0.470    0.221    5.401
  276.500  168.645   88.520    0.476    0.213    5.197
  276.750  166.670   93.925    0.471    0.201    5.093
  277.000  166.684   93.936    0.464    0.188    5.087
  277.250  168.700   90.351    0.447    0.196    5.082
  277.500  170.716   87.965    0.477    0.220    4.982
  277.750  170.739   87.975    0.494    0.226    4.973
  278.000  169.754   92.182    0.510    0.230    4.968
  278.250  166.776   94.590    0.518    0.236    4.961
  278.500  164.796   94.005    0.518    0.237    4.954
  278.750  164.819   92.817    0.510    0.229    4.944
  279.000  165.841   93.427    0.463    0.220    4.940
  279.250  165.860   96.435    0.474    0.215    5.026
  279.500  165.874   98.241    0.481    0.226    5.017
  279.750  162.900   96.454    0.467    0.236    5.104
  280.000  161.915   95.869    0.436    0.232    5.390
  280.250  162.941   96.479    0.440    0.224    5.688
  280.500  164.953   97.090    0.432    0.215    6.007
  280.750  168.962   95.902    0.414    0.203    6.701
  281.000  167.986   94.115    0.404    0.196    7.481
  281.250  166.002   91.729    0.418    0.212   10.424
  281.500  164.023   88.740    0.422    0.183   10.608
  281.750  163.042   85.755    0.415    0.180   10.993
  282.000  163.065   81.570    0.416    0.199   11.388
  282.250  171.070   77.386    0.441    0.220   10.761
  282.500  177.091   71.407    0.451    0.235    8.762
  282.750  176.101   79.209    0.450    0.242    7.832
  283.000  167.134   84.015    0.443    0.243    6.744
  283.250  164.156   88.221    0.437    0.237    6.026
  283.500  166.172   92.427    0.447    0.231    5.381
  283.750  169.183   97.832    0.477    0.221    5.084
  284.000  171.204   99.042    0.483    0.181    4.542
  284.250  171.217   95.457    0.492    0.168    4.290
  284.500  171.240   92.472    0.503    0.213    4.052
  284.750  170.264   90.687    0.520    0.220    3.974
  285.000  170.287   88.298    0.536    0.219    3.824
  285.250  170.297   93.104    0.537    0.217    3.610
  285.500  171.314   99.108    0.508    0.213    3.540
  285.750  173.335  104.513    0.489    0.209    3.471
  286.000  174.357  109.918    0.501    0.214    3.531
  286.250  174.366  108.731    0.507    0.225    3.728
  286.500  173.385  104.549    0.496    0.238    3.935
  286.750  171.410  102.160    0.473    0.243    4.392
  287.000  168.437  100.373    0.457    0.245    4.810
  287.250  167.452   97.987    0.466    0.251    4.893
  287.500  167.475   95.601    0.476    0.266    4.977
  287.750  167.484   92.018    0.470    0.273    4.969
  288.000  167.502   94.427    0.463    0.262    4.874
  288.250  168.520   98.633    0.458    0.251    4.603
  288.500  169.546   98.047    0.455    0.245    4.268
  288.750  170.554   95.661    0.451    0.239    4.105
  289.000  171.571   94.474    0.453    0.232    4.103
  289.250  169.597   95.084    0.465    0.219    4.410
  289.500  165.624   98.092    0.475    0.192    4.830
  289.750  164.639   99.301    0.485    0.178    4.917
  290.000  164.653   98.713    0.491    0.153    4.820
  290.250  165.675  100.519    0.492    0.149    4.387
  290.500  166.692  104.726    0.486    0.122    4.067
  290.750  167.714  109.534    0.480    0.119    3.840
  291.000  168.736  105.946    0.480    0.210    3.836
  291.250  168.745  101.762    0.480    0.216    3.973
  291.500  168.772   96.978    0.481    0.218    4.120
  291.750  167.783   99.989    0.486    0.219    4.349
  292.000  163.819  102.997    0.483    0.223    4.676
  292.250  163.829  103.607    0.471    0.225    4.938
  292.500  161.849  102.425    0.457    0.225    5.308
  292.750  160.869  102.430    0.448    0.220    5.503
  293.000  160.892  101.842    0.438    0.216    5.497
  293.250  160.901  101.254    0.436    0.213    5.590
  293.500  159.921  100.666    0.452    0.214    5.480
  293.750  159.939   96.481    0.469    0.215    4.893
  294.000  158.963   93.496    0.483    0.217    4.624
  294.250  157.978   96.506    0.493    0.217    4.451
  294.500  160.003  100.110    0.486    0.218    4.203
  294.750  161.011  103.118    0.486    0.221    4.120
  295.000  163.032  106.728    0.500    0.229    4.268
  295.250  164.054  107.937    0.494    0.240    4.426
  295.500  164.068  101.353    0.481    0.246    4.847
  295.750  164.086   94.175    0.467    0.255    5.312
  296.000  164.109   90.590    0.455    0.253    6.039
  296.250  164.123   88.204    0.462    0.225    6.864
  296.500  164.137   88.215    0.461    0.198    7.246
  296.750  165.154   90.623    0.447    0.174    7.369
  297.000  166.180   91.830    0.422    0.164    7.363
  297.250  166.194   93.040    0.391    0.121    7.631
  297.500  166.194   93.054    0.356    0.087    8.513
  297.750  165.241   86.469    0.338    0.061    8.990
  298.000  166.254   71.497    0.334    0.064    8.648
  298.250  168.275   55.926    0.377    0.157    8.169
  298.500  170.282   70.920    0.405    0.185    7.300
  298.750  172.298   87.712    0.440    0.193    6.525
  299.000  171.317   98.511    0.472    0.190    5.939
  299.250  168.339  109.310    0.485    0.179    5.305
  299.500  165.365  113.525    0.483    0.170    5.011
  299.750  165.384  111.135    0.507    0.165    4.824
  300.000  167.400  111.743    0.524    0.165    4.554
  300.250  170.415  114.154    0.531    0.162    4.464
  300.500  170.429  113.566    0.497    0.154    4.458
  300.750  170.452  110.580    0.484    0.202    4.451
  301.000  168.477  108.194    0.468    0.221    4.447
  301.250  166.488  109.401    0.452    0.226    4.524
  301.500  162.516  115.408    0.410    0.235    4.956
  301.750  162.530  110.622    0.400    0.246    5.636
  302.000  166.544  102.242    0.401    0.269    6.649
  302.250  174.558   96.260    0.409    0.264    7.845
  302.500  177.568   89.678    0.422    0.246    8.755
  302.750  178.585   83.699    0.423    0.261    9.771
  303.000  178.618   83.707    0.421    0.289   10.308
  303.250  178.636   83.721    0.412    0.303   10.493
  303.500  178.645   83.729    0.400    0.310   10.479
  303.750  178.673   82.547    0.390    0.282   10.460
  304.000  178.682   81.357    0.378    0.239   10.446
  304.250  178.705   79.567    0.372    0.213   10.619
  304.500  178.719   75.985    0.378    0.207   10.611
  304.750  178.742   73.596    0.383    0.194   10.996
  305.000  178.756   74.805    0.384    0.251   11.187
  305.250  179.777   81.412    0.376    0.210   11.593
  305.500  180.799   79.625    0.382    0.202   11.789
  305.750  181.807   77.835    0.403    0.210   12.001
  306.000  181.830   74.852    0.439    0.227   11.984
  306.250  180.850   74.863    0.462    0.224   11.113
  306.500  176.868   91.056    0.465    0.220    9.930
  306.750  168.900  101.256    0.445    0.217    8.236
  307.000  165.917  108.459    0.428    0.216    7.224
  307.250  162.939  113.864    0.425    0.217    6.104
  307.500  161.963  110.878    0.429    0.220    5.764
  307.750  161.981  106.095    0.436    0.223    5.760
  308.000  162.999   98.914    0.445    0.217    6.923
  308.250  164.021   92.332    0.449    0.222    7.308
  308.500  164.030   97.138    0.453    0.228    5.952
  308.750  164.048  101.946    0.459    0.228    5.520
  309.000  165.070  102.557    0.443    0.224    5.825
  309.250  166.083  103.764    0.430    0.211    6.501
