~VERSION INFORMATION
 VERS.                 2.0:   CWLS LOG ASCII STANDARD -VERSION 2.0
 WRAP.                  NO:   ONE LINE PER DEPTH STEP
~WELL INFORMATION BLOCK
#MNEM.UNIT           DATA                    DESCRIPTION OF MNEMONIC
#---------    -------------------            -------------------------------
# Generated from Intellog Unique Number	CW_73_75/WELL/3525
WELL.         HCO ET AL FRANCIS              : Well_name    - WELL
LOC .         00/11-01-073-21W4/0            : Location     - LOCATION
UWI .         00/11-01-073-21W4/0            : Uwi          - UNIQUE WELL ID
ENTR.         TIM                            : Entered      - ENTERED BY
SRVC.         SCHLUMBERGER                   : Scn          - SERVICE COMPANY
STRT.M        320                            : top_depth    - START DEPTH
STOP.M        575                            : bot_depth    - STOP DEPTH
STEP.M        0.25                           : increment    - STEP LENGTH
 NULL. -999.2500:NULL Value
~CURVE INFORMATION BLOCK
#MNEM UNIT       ERCB CURVE CODE    CURVE DESCRIPTION
#-----------   ------------------   ----------------------------------
DEPT.M        00 001 00 00         : DEPTH        - DEPTH
GR  .API      00 310 00 00         : GR           - GAMMA RAY
CALI.MM       00 280 01 00         : CAL          - CALIPER
NPHI.V/V      00 330 00 00         : PHIN         - NEUTRON POROSITY (SANDSTONE)
DPHI.V/V      00 890 00 00         : PHID         - DENSITY POROSITY (SANDSTONE)
ILD .OHMM     00 120 00 00         : RESD         - DEEP RESISTIVITY (DIL)
~PARAMETER INFORMATION
#MNEM.UNIT           DATA             DESCRIPTION OF MNEMONIC
#---------         -----------     ------------------------------
GL  .M        658.2                : gl           - GROUND LEVEL ELEVATION
EREF.M        661.7                : kb           - ELEVATION OF DEPTH REFERENCE
DATM.M        661.7                : datum        - DATUM ELEVATION
TDD .M        587                  : tdd          - TOTAL DEPTH DRILLER
RUN .         ONE                  : Run          - RUN NUMBER
ENG .         BILL                 : Engineer     - RECORDING ENGINEER
WIT .         JIM                  : Witness      - WITNESSED BY
MUD .         GEL                  : Mud_type     - MUD TYPE
MATR.         SANDSTONE            : Logunit      - NEUTRON MATRIX
TMAX.C        26                   : BHT          - MAXIMUM RECORDED TEMPERATURE
BHTD.M        487                  : BHTDEP       - MAXIMUM RECORDED TEMPERATURE
MATR.         1                    : LOGUNIT      - NEUTRON MATRIX
RMT .C        18                   : MDTP         - TEMPERATURE OF MUD
NEUT.         1                    : NEUTRON      - NEUTRON TYPE
RESI.         0                    : RESIST       - RESISTIVITY TYPE
RMC .OHMM     3.39                 : RMC          - RESISTIVITY OF MUD CAKE
RMF .OHMM     3.39                 : RMF          - RESISTIVITY OF MUD FILTRATE
SUFT.C        5                    : SUFT         - SURFACE TEMPERATURE
~A  DEPTH       GR      CAL     PHIN     PHID     RESD
# ...
  393.000   83.343  173.399    0.431    0.266    6.860
  393.250   88.080  173.423    0.424    0.266    6.870
  393.500   93.410  173.453    0.416    0.283    6.876
  393.750   98.143  173.477    0.409    0.294    6.885
  394.000  104.650  173.507    0.407    0.285    6.893
  394.250  107.619  173.519    0.410    0.258    6.774
  394.500  101.141  173.543    0.419    0.246    6.783
  394.750   88.756  173.573    0.424    0.256    6.787
  395.000   78.146  173.603    0.425    0.260    6.794
  395.250   63.407  173.615    0.425    0.263    6.931
  395.500   73.453  173.639    0.427    0.270    7.201
  395.750   82.324  173.675    0.433    0.287    8.207
  396.000   85.884  173.687    0.439    0.289    9.707
  396.250   81.173  172.739    0.446    0.282   12.596
  396.500   69.385  172.751    0.453    0.272   16.344
  396.750   65.264  171.791    0.448    0.287   25.533
  397.000   59.967  170.831    0.439    0.310   33.131
  397.250   54.672  169.884    0.423    0.325   40.666
  397.500   51.739  168.912    0.403    0.334   43.843
  397.750   49.975  167.952    0.356    0.303   46.413
  398.000   46.452  166.008    0.274    0.104   48.219
  398.250   45.282  165.049    0.193    0.022   45.662
  398.500   52.970  164.089    0.140   -0.009   39.415
  398.750   68.331  164.113    0.124    0.008   32.785
  399.000   80.150  164.149    0.299    0.056   25.315
  399.250   87.838  164.173    0.338    0.129   21.456
  399.500   84.311  166.164    0.395    0.210   18.862
  399.750   70.159  167.172    0.421    0.258   15.982
  400.000   66.635  168.180    0.437    0.293   13.294
  400.250   66.060  169.187    0.434    0.306   10.460
  400.500   69.616  170.201    0.423    0.311    9.029
  400.750   72.578  170.213    0.418    0.302    7.794
  401.000   77.904  170.243    0.441    0.286    6.853
  401.250   80.874  169.289    0.456    0.266    6.028
  401.500   82.662  168.317    0.472    0.268    6.870
  401.750   83.271  166.374    0.472    0.280    7.684
  402.000   83.868  165.426    0.471    0.288    8.758
  402.250   83.882  164.466    0.467    0.295    9.272
  402.500   83.897  164.478    0.461    0.289    8.619
  402.750   82.144  163.518    0.449    0.283    7.863
  403.000   79.207  161.581    0.434    0.278    6.304
  403.250   79.812  160.621    0.420    0.273    5.340
  403.500   82.774  160.639    0.416    0.265    4.280
  403.750   88.100  159.679    0.411    0.272    3.627
  404.000   92.837  161.671    0.402    0.279    3.017
  404.250   96.396  164.646    0.403    0.287    3.022
  404.500   91.095  167.621    0.455    0.271    3.196
  404.750   85.797  169.625    0.445    0.251    3.510
  405.000   84.040  168.659    0.430    0.226    4.076
  405.250   87.010  166.721    0.420    0.202    4.822
  405.500   88.791  164.772    0.440    0.182    5.106
  405.750   92.945  163.812    0.457    0.177    5.109
  406.000   92.369  164.820    0.456    0.191    5.210
  406.250   90.609  167.795    0.447    0.204    5.216
  406.500   87.078  170.776    0.432    0.213    5.320
  406.750   81.780  172.768    0.431    0.253    5.952
  407.000   68.809  172.792    0.495    0.341    7.581
  407.250   54.657  172.810    0.636    0.510    9.308
  407.500   37.561  171.862    0.615    0.498    9.493
  407.750   38.159  171.874    0.558    0.354    9.160
  408.000   39.357  169.936    0.485    0.321    8.999
  408.250   40.552  168.970    0.398    0.314    8.999
  408.500   42.928  168.011    0.381    0.310    7.781
  408.750   44.709  167.057    0.379    0.305    8.701
  409.000   46.494  165.113    0.377    0.298    8.558
  409.250   45.335  165.131    0.374    0.292    8.562
  409.500   44.756  164.171    0.371    0.288    8.569
  409.750   44.770  163.218    0.366    0.284    8.579
  410.000   44.785  162.264    0.363    0.282    8.593
  410.250   44.799  162.276    0.361    0.282    8.600
  410.500   45.407  161.322    0.361    0.282    8.612
  410.750   46.008  160.362    0.362    0.281    8.461
  411.000   47.207  159.408    0.365    0.281    8.165
  411.250   47.811  158.449    0.372    0.286    7.874
  411.500   47.829  157.483    0.379    0.290    7.459
  411.750   47.836  157.513    0.386    0.293    7.199
  412.000   48.445  156.547    0.398    0.295    7.203
  412.250   49.643  156.577    0.393    0.304    7.079
  412.500   50.241  156.595    0.387    0.306    7.089
  412.750   49.078  155.641    0.379    0.313    7.093
  413.000   46.728  155.665    0.379    0.320    6.972
  413.250   43.791  154.705    0.383    0.328    6.852
  413.500   43.805  152.768    0.389    0.333    6.857
  413.750   45.004  150.818    0.395    0.335    6.739
  414.000   46.195  149.864    0.399    0.334    6.506
  414.250   46.803  148.893    0.396    0.333    6.392
  414.500   46.227  148.917    0.395    0.333    6.280
  414.750   46.238  149.936    0.390    0.333    6.057
  415.000   44.489  150.932    0.388    0.334    5.954
  415.250   43.917  150.956    0.386    0.336    5.745
  415.500   43.924  152.947    0.388    0.338    5.644
  415.750   43.938  154.945    0.393    0.340    5.652
  416.000   44.547  154.963    0.396    0.340    5.657
  416.250   45.148  156.954    0.401    0.340    5.663
  416.500   47.526  158.958    0.395    0.339    5.671
  416.750   49.902  159.972    0.388    0.336    5.677
  417.000   49.913  160.967    0.380    0.334    5.579
  417.250   48.747  160.991    0.385    0.331    5.585
  417.500   47.581  161.999    0.390    0.330    5.489
  417.750   49.369  163.007    0.384    0.326    5.493
  418.000   50.560  163.037    0.365    0.326    5.399
  418.250   52.936  163.055    0.351    0.329    5.307
  418.500   51.770  163.079    0.378    0.334    5.217
  418.750   49.423  163.103    0.397    0.336    5.124
  419.000   48.847  163.145    0.409    0.337    5.035
  419.250   50.046  163.151    0.417    0.339    4.950
  419.500   51.241  163.174    0.406    0.337    4.864
  419.750   52.435  163.204    0.384    0.334    4.781
  420.000   52.446  163.222    0.375    0.329    5.059
  420.250   51.287  162.275    0.401    0.325    5.556
  420.500   52.482  162.287    0.409    0.323    5.990
  420.750   53.083  162.317    0.403    0.324    6.340
  421.000   54.282  162.340    0.397    0.329    6.586
  421.250   54.886  162.364    0.404    0.335    6.717
  421.500   54.314  162.394    0.416    0.349    6.601
  421.750   54.321  161.435    0.429    0.347    6.136
  422.000   53.155  161.471    0.430    0.330    5.919
  422.250   52.579  161.489    0.422    0.332    5.710
  422.500   52.003  161.507    0.420    0.342    5.510
  422.750   50.247  161.530    0.419    0.353    5.316
  423.000   47.900  161.560    0.413    0.367    5.127
  423.250   46.738  161.572    0.408    0.354    4.767
  423.500   46.756  161.596    0.415    0.337    4.685
  423.750   46.767  161.626    0.420    0.338    4.604
  424.000   46.777  161.650    0.427    0.349    4.524
  424.250   45.611  161.674    0.433    0.355    4.446
  424.500   42.084  161.692    0.433    0.354    4.451
  424.750   40.922  161.722    0.412    0.353    4.891
  425.000   40.346  161.746    0.410    0.351    5.174
  425.250   39.770  161.764    0.432    0.350    5.684
  425.500   39.781  161.788    0.423    0.353    6.126
  425.750   39.795  161.812    0.409    0.356    6.605
  426.000   39.813  162.820    0.395    0.362    7.394
  426.250   39.237  162.844    0.398    0.360    7.681
  426.500   37.484  162.868    0.403    0.353    7.690
  426.750   36.901  162.892    0.416    0.350    7.557
  427.000   35.148  162.916    0.423    0.354    7.426
  427.250   34.576  161.968    0.426    0.360    7.296
  427.500   34.590  161.980    0.427    0.361    7.038
  427.750   34.608  161.032    0.426    0.362    6.667
  428.000   35.209  161.056    0.423    0.362    6.432
  428.250   35.814  161.092    0.421    0.358    6.319
  428.500   36.419  161.110    0.417    0.356    6.210
  428.750   36.433  161.122    0.417    0.355    5.882
  429.000   37.632  161.152    0.419    0.356    5.676
  429.250   38.823  161.170    0.424    0.358    5.575
