~VERSION INFORMATION
 VERS.                 2.0:   CWLS LOG ASCII STANDARD -VERSION 2.0
 WRAP.                  NO:   ONE LINE PER DEPTH STEP
~WELL INFORMATION BLOCK
#MNEM.UNIT           DATA                    DESCRIPTION OF MNEMONIC
#---------    -------------------            -------------------------------
# Generated from Intellog Unique Number	CS_69_70/WELL/868
WELL.         MANGRAN EXPLORATION CO.        : Well_name    - WELL
LOC .         00/10-16-069-16W4/0            : Location     - LOCATION
UWI .         00/10-16-069-16W4/0            : Uwi          - UNIQUE WELL ID
ENTR.         SP                             : Entered      - ENTERED BY
SRVC.         SCHLUMBERGER                   : Scn          - SERVICE COMPANY
STRT.M        280.416                        : top_depth    - START DEPTH
STOP.M        481.166                        : bot_depth    - STOP DEPTH
STEP.M        0.25                           : increment    - STEP LENGTH
 NULL. -999.2500:NULL Value
~CURVE INFORMATION BLOCK
#MNEM UNIT       ERCB CURVE CODE    CURVE DESCRIPTION
#-----------   ------------------   ----------------------------------
DEPT.M        00 001 00 00         : DEPTH        - DEPTH
GR  .API      00 310 00 00         : GR           - GAMMA RAY
DPHI.V/V      00 890 00 00         : PHID         - DENSITY POROSITY (SANDSTONE)
NPHI.V/V      00 330 00 00         : PHIN         - NEUTRON POROSITY (SANDSTONE)
ILD .OHMM     00 120 00 00         : RESD         - DEEP RESISTIVITY (DIL)
~PARAMETER INFORMATION
#MNEM.UNIT           DATA             DESCRIPTION OF MNEMONIC
#---------         -----------     ------------------------------
GL  .M        558.394              : gl           - GROUND LEVEL ELEVATION
EREF.M        562.051              : kb           - ELEVATION OF DEPTH REFERENCE
DATM.M        558.394              : datum        - DATUM ELEVATION
TDD .M        489.814              : tdd          - TOTAL DEPTH DRILLER
RUN .         ONE                  : Run          - RUN NUMBER
ENG .         BILL                 : Engineer     - RECORDING ENGINEER
WIT .         JIM                  : Witness      - WITNESSED BY
MUD .         GEL                  : Mud_type     - MUD TYPE
MATR.         SANDSTONE            : Logunit      - NEUTRON MATRIX
TMAX.C        28.3333              : BHT          - MAXIMUM RECORDED TEMPERATURE
BHTD.M        489.814              : BHTDEP       - MAXIMUM RECORDED TEMPERATURE
MATR.         1                    : LOGUNIT      - NEUTRON MATRIX
RMT .C        25                   : MDTP         - TEMPERATURE OF MUD
NEUT.         1                    : NEUTRON      - NEUTRON TYPE
RESI.         0                    : RESIST       - RESISTIVITY TYPE
RMC .OHMM     0.25                 : RMC          - RESISTIVITY OF MUD CAKE
RMF .OHMM     0.25                 : RMF          - RESISTIVITY OF MUD FILTRATE
SUFT.C        15                   : SUFT         - SURFACE TEMPERATURE
~A  DEPTH       GR     PHID     PHIN     RESD
  280.416   92.606    0.227    0.609    2.503
  280.666   94.033    0.223    0.609    2.532
  280.916   95.605    0.222    0.608    2.553
  281.166   96.665    0.224    0.598    2.659
  281.416   97.012    0.211    0.587    2.717
  281.666   97.155    0.219    0.572    2.776
  281.916   96.503    0.236    0.584    2.879
  282.166   95.720    0.241    0.563    2.954
  282.416   92.986    0.273    0.537    3.006
  282.666   90.559    0.283    0.529    2.990
  282.916   92.897    0.287    0.567    2.929
  283.166   94.910    0.252    0.583    2.839
  283.416   95.345    0.236    0.595    2.736
  283.666   93.894    0.223    0.600    2.643
  283.916   92.367    0.216    0.603    2.557
  284.166   91.270    0.249    0.602    2.490
  284.416   90.986    0.274    0.595    2.478
  284.666   91.465    0.292    0.588    2.451
  284.916   92.002    0.301    0.586    2.428
  285.166   90.760    0.292    0.590    2.405
  285.416   89.273    0.274    0.597    2.422
  285.666   88.543    0.269    0.602    2.558
  285.916   88.696    0.275    0.604    2.698
  286.166   88.992    0.253    0.606    2.833
  286.416   88.722    0.244    0.608    2.953
  286.666   86.184    0.244    0.607    3.054
  286.916   81.047    0.243    0.596    3.199
  287.166   77.587    0.264    0.583    3.190
  287.416   76.428    0.256    0.493    3.042
  287.666   76.401    0.223    0.455    2.829
  287.916   76.060    0.182    0.449    2.596
  288.166   74.876    0.267    0.466    2.484
  288.416   72.966    0.305    0.474    2.469
  288.666   71.472    0.315    0.478    2.502
  288.916   72.157    0.312    0.481    2.764
  289.166   82.059    0.304    0.485    2.916
  289.416   89.789    0.294    0.494    3.007
  289.666   91.827    0.274    0.487    3.084
  289.916   92.320    0.260    0.487    3.088
  290.166   93.361    0.243    0.511    3.051
  290.416   93.780    0.243    0.526    2.931
  290.666   94.663    0.254    0.543    2.734
  290.916   96.315    0.268    0.562    2.489
  291.166   90.874    0.286    0.577    2.300
  291.416   83.160    0.302    0.587    2.186
  291.666   78.909    0.323    0.537    2.185
  291.916   76.623    0.301    0.509    2.222
  292.166   77.552    0.287    0.483    2.293
  292.416   76.556    0.296    0.484    2.391
  292.666   73.125    0.295    0.489    2.435
  292.916   72.165    0.290    0.493    2.428
  293.166   70.167    0.280    0.487    2.390
  293.416   66.567    0.293    0.472    2.342
  293.666   64.862    0.311    0.472    2.406
  293.916   69.201    0.298    0.483    2.566
  294.166   74.086    0.289    0.479    2.742
  294.416   77.909    0.270    0.463    2.907
  294.666   80.079    0.257    0.448    3.142
  294.916   80.330    0.249    0.437    3.362
  295.166   80.130    0.242    0.437    3.524
  295.416   80.246    0.233    0.432    3.614
  295.666   80.993    0.239    0.485    3.616
  295.916   82.549    0.282    0.523    3.522
  296.166   78.886    0.303    0.543    3.410
  296.416   75.155    0.340    0.563    3.394
  296.666   72.035    0.346    0.598    3.429
  296.916   69.799    0.333    0.573    3.606
  297.166   66.743    0.322    0.553    3.839
  297.416   64.671    0.311    0.546    4.068
  297.666   63.245    0.300    0.570    4.259
  297.916   63.314    0.297    0.555    4.275
  298.166   64.780    0.314    0.539    4.074
  298.416   65.490    0.314    0.531    3.837
  298.666   64.449    0.309    0.547    3.939
  298.916   62.935    0.306    0.566    4.223
  299.166   60.843    0.283    0.319    4.672
  299.416   58.937    0.210    0.303    5.412
  299.666   57.840    0.144    0.282    5.995
  299.916   56.652    0.095    0.272    6.126
  300.166   56.171    0.080    0.277    5.265
  300.416   56.862    0.115    0.319    4.329
  300.666   58.973    0.217    0.420    3.497
  300.916   61.194    0.250    0.510    2.908
  301.166   63.778    0.273    0.492    2.576
  301.416   65.332    0.298    0.489    2.444
  301.666   64.963    0.317    0.493    2.458
  301.916   65.051    0.313    0.525    2.511
  302.166   67.557    0.307    0.561    2.602
  302.416   70.403    0.302    0.581    2.735
  302.666   72.988    0.277    0.592    2.959
  302.916   79.658    0.241    0.574    3.149
  303.166   82.404    0.235    0.565    3.352
  303.416   81.200    0.248    0.561    3.532
  303.666   79.829    0.267    0.557    3.439
  303.916   77.222    0.264    0.561    3.370
  304.166   73.343    0.277    0.590    3.499
  304.416   71.558    0.298    0.616    3.725
  304.666   69.002    0.288    0.609    3.922
  304.916   68.237    0.287    0.580    3.981
  305.166   71.421    0.281    0.565    3.899
  305.416   76.908    0.276    0.548    3.692
  305.666   80.353    0.283    0.535    3.529
  305.916   83.572    0.279    0.527    3.519
  306.166   85.637    0.258    0.533    3.589
  306.416   86.400    0.240    0.559    3.725
  306.666   87.003    0.243    0.563    3.873
  306.916   87.508    0.217    0.556    4.033
  307.166   88.740    0.199    0.545    4.162
  307.416   90.636    0.214    0.541    4.207
  307.666   92.192    0.253    0.550    4.141
  307.916   94.256    0.239    0.574    4.007
  308.166   97.544    0.233    0.601    3.821
  308.416   99.936    0.228    0.609    3.683
  308.666   99.394    0.234    0.609    3.539
  308.916   96.874    0.263    0.609    3.439
  309.166   99.469    0.236    0.609    3.446
  309.416  103.028    0.198    0.606    3.513
  309.666  105.649    0.179    0.587    3.652
  309.916  104.673    0.184    0.536    3.739
  310.166   97.482    0.253    0.506    3.774
  310.416   92.078    0.269    0.474    3.713
  310.666   86.537    0.279    0.449    3.646
  310.916   94.445    0.265    0.454    3.673
  311.166   99.744    0.252    0.464    3.760
  311.416  102.677    0.241    0.480    3.966
  311.666  103.530    0.231    0.482    4.118
  311.916  102.903    0.223    0.478    4.355
  312.166  102.438    0.219    0.482    4.531
  312.416  102.150    0.221    0.482    4.743
  312.666  102.348    0.222    0.474    4.799
  312.916  102.830    0.221    0.470    4.765
  313.166  102.920    0.221    0.470    4.690
  313.416  102.135    0.228    0.469    4.512
  313.666  102.959    0.239    0.473    4.344
  313.916  104.944    0.217    0.492    4.230
  314.166  107.265    0.211    0.515    4.190
  314.416  108.465    0.221    0.537    4.189
  314.666  108.937    0.230    0.562    4.211
  314.916  110.057    0.238    0.579    4.243
  315.166  106.042    0.245    0.530    4.267
  315.416  102.631    0.257    0.497    4.285
  315.666   98.955    0.243    0.476    4.269
  315.916   97.330    0.224    0.461    4.280
  316.166  104.741    0.215    0.453    4.335
  316.416  105.665    0.210    0.458    4.400
  316.666  105.848    0.212    0.461    4.493
  316.916  108.222    0.212    0.469    4.619
  317.166  109.169    0.208    0.498    4.685
  317.416  109.284    0.198    0.523    4.721
  317.666  109.306    0.185    0.558    4.695
  317.916  109.420    0.197    0.594    4.508
  318.166  109.402    0.213    0.592    4.146
  318.416  109.474    0.251    0.585    3.757
  318.666  108.301    0.245    0.572    3.442
  318.916  104.957    0.260    0.575    3.237
  319.166  101.317    0.254    0.578    3.139
  319.416   97.837    0.245    0.552    3.095
  319.666   93.330    0.241    0.544    3.069
  319.916   89.071    0.238    0.570    3.083
  320.166   88.646    0.231    0.588    3.086
  320.416   88.956    0.230    0.551    3.076
  320.666   88.963    0.259    0.517    3.046
  320.916   86.821    0.274    0.500    3.036
  321.166   84.869    0.285    0.485    3.026
  321.416   82.430    0.291    0.482    3.055
  321.666   79.769    0.281    0.492    3.108
  321.916   79.642    0.268    0.495    3.213
  322.166   82.045    0.250    0.480    3.349
  322.416   79.601    0.268    0.466    3.467
  322.666   77.080    0.281    0.460    3.544
  322.916   76.621    0.289    0.462    3.571
  323.166   78.076    0.309    0.463    3.527
  323.416   76.316    0.319    0.466    3.576
  323.666   73.091    0.323    0.419    3.992
