~VERSION INFORMATION
 VERS.                 2.0:   CWLS LOG ASCII STANDARD -VERSION 2.0
 WRAP.                  NO:   ONE LINE PER DEPTH STEP
~WELL INFORMATION BLOCK
#MNEM.UNIT           DATA                    DESCRIPTION OF MNEMONIC
#---------    -------------------            -------------------------------
# Generated from Intellog Unique Number	CS_69_70/WELL/872
NULL.         -999.25                        : NULL_VALUE
WELL.         HB PITLOCHRIE                  : Well_name    - WELL              
LOC .         00/10-27-070-12W4/0            : Location     - LOCATION          
UWI .         00/10-27-070-12W4/0            : Uwi          - UNIQUE WELL ID    
ENTR.         SP                             : Entered      - ENTERED BY        
SRVC.         SCHLUMBERGER                   : Scn          - SERVICE COMPANY   
STRT.M        268.224                        : top_depth    - START DEPTH       
STOP.M        472.224                        : bot_depth    - STOP DEPTH        
STEP.M        0.25                           : increment    - STEP LENGTH       
~CURVE INFORMATION BLOCK
#MNEM UNIT       ERCB CURVE CODE    CURVE DESCRIPTION
#-----------   ------------------   ----------------------------------
DEPT.M        00 001 00 00         : DEPTH        - DEPTH                       
GR  .API      00 310 00 00         : GR           - GAMMA RAY                   
DPHI.V/V      00 890 00 00         : PHID         - DENSITY POROSITY (SANDSTONE)
NPHI.V/V      00 330 00 00         : PHIN         - NEUTRON POROSITY (SANDSTONE)
ILD .OHMM     00 120 00 00         : RESD         - DEEP RESISTIVITY (DIL)      
~PARAMETER INFORMATION       
#MNEM.UNIT           DATA             DESCRIPTION OF MNEMONIC
#---------         -----------     ------------------------------
GL  .M        589.818              : gl           - GROUND LEVEL ELEVATION      
EREF.M        592.866              : kb           - ELEVATION OF DEPTH REFERENCE
DATM.M        589.818              : datum        - DATUM ELEVATION             
TDD .M        482.498              : tdd          - TOTAL DEPTH DRILLER         
RUN .         ONE                  : Run          - RUN NUMBER                  
ENG .         BILL                 : Engineer     - RECORDING ENGINEER          
WIT .         JIM                  : Witness      - WITNESSED BY                
MUD .         GEL                  : Mud_type     - MUD TYPE                    
MATR.         SANDSTONE            : Logunit      - NEUTRON MATRIX              
TMAX.C        23.3333              : BHT          - MAXIMUM RECORDED TEMPERATURE
BHTD.M        482.498              : BHTDEP       - MAXIMUM RECORDED TEMPERATURE
MATR.         1                    : LOGUNIT      - NEUTRON MATRIX              
RMT .C        25                   : MDTP         - TEMPERATURE OF MUD          
NEUT.         1                    : NEUTRON      - NEUTRON TYPE                
RESI.         0                    : RESIST       - RESISTIVITY TYPE            
RMC .OHMM     0.25                 : RMC          - RESISTIVITY OF MUD CAKE     
RMF .OHMM     0.25                 : RMF          - RESISTIVITY OF MUD FILTRATE 
SUFT.C        15                   : SUFT         - SURFACE TEMPERATURE         
~A  DEPTH       GR     PHID     PHIN     RESD
# ...
  311.724   86.350    0.292    0.478    5.783
  311.974   88.189    0.289    0.494    5.682
  312.224   86.899    0.276    0.507    5.658
  312.474   86.201    0.271    0.509    5.692
  312.724   85.894    0.277    0.499    5.760
  312.974   88.409    0.287    0.491    5.886
  313.224   90.763    0.280    0.492    6.019
  313.474   93.419    0.266    0.494    6.048
  313.724   96.119    0.252    0.497    5.955
  313.974   99.290    0.238    0.489    5.768
  314.224  102.494    0.231    0.500    5.537
  314.474  104.213    0.232    0.512    5.334
  314.724  105.303    0.230    0.512    5.152
  314.974  106.468    0.229    0.509    5.021
  315.224  108.013    0.234    0.506    4.943
  315.474  110.035    0.243    0.506    4.925
  315.724  112.131    0.228    0.502    4.972
  315.974  111.964    0.231    0.496    5.115
  316.224  108.966    0.267    0.486    5.222
  316.474  107.073    0.275    0.489    5.354
  316.724  103.675    0.266    0.505    5.436
  316.974  100.133    0.267    0.500    5.427
  317.224   98.399    0.263    0.493    5.372
  317.474  100.956    0.258    0.495    5.294
  317.724   98.458    0.253    0.503    5.304
  317.974   91.872    0.271    0.500    5.392
  318.224   87.143    0.295    0.481    5.555
  318.474   84.293    0.308    0.466    5.696
  318.724   87.683    0.315    0.461    5.886
  318.974   86.851    0.311    0.466    5.963
  319.224   86.025    0.307    0.471    6.050
  319.474   85.992    0.300    0.472    6.047
  319.724   86.034    0.290    0.459    5.941
  319.974   87.074    0.277    0.447    5.873
  320.224   89.081    0.273    0.436    5.834
  320.474   91.891    0.278    0.441    5.848
  320.724   94.759    0.277    0.454    5.892
  320.974   95.778    0.266    0.470    6.066
  321.224   95.773    0.260    0.479    6.267
  321.474   92.582    0.253    0.482    6.403
  321.724   89.196    0.256    0.468    6.554
  321.974   88.753    0.257    0.457    6.692
  322.224   92.058    0.259    0.443    6.837
  322.474   94.478    0.247    0.435    6.958
  322.724   96.789    0.248    0.426    7.084
  322.974  100.437    0.238    0.435    7.180
  323.224  103.209    0.225    0.438    7.233
  323.474  102.836    0.220    0.437    7.256
  323.724  102.657    0.241    0.455    7.228
  323.974  101.956    0.232    0.466    7.119
  324.224  101.466    0.218    0.471    6.965
  324.474  102.010    0.209    0.469    6.731
  324.724  104.077    0.207    0.477    6.363
  324.974  106.639    0.217    0.478    6.207
  325.224  108.868    0.225    0.482    6.128
  325.474  110.127    0.200    0.493    6.172
  325.724  107.605    0.212    0.486    6.363
  325.974   97.090    0.227    0.482    6.693
  326.224   85.687    0.248    0.475    6.990
  326.474   80.539    0.282    0.466    7.226
  326.724   80.544    0.302    0.461    7.347
  326.974   80.382    0.299    0.471    7.348
  327.224   79.628    0.296    0.491    7.162
  327.474   76.872    0.293    0.500    7.042
  327.724   73.901    0.296    0.477    6.776
  327.974   70.822    0.304    0.461    6.546
  328.224   66.681    0.324    0.456    6.436
  328.474   63.662    0.332    0.463    6.293
  328.724   61.115    0.320    0.472    6.193
  328.974   60.577    0.320    0.462    6.162
  329.224   63.212    0.318    0.449    6.143
  329.474   67.141    0.313    0.441    6.255
  329.724   71.680    0.312    0.440    6.452
  329.974   76.344    0.296    0.445    6.553
  330.224   81.311    0.279    0.451    6.658
  330.474   86.367    0.270    0.447    6.741
  330.724   90.421    0.282    0.450    6.758
  330.974   92.920    0.287    0.455    6.672
  331.224   95.775    0.279    0.465    6.585
  331.474   97.469    0.273    0.463    6.519
  331.724   98.335    0.279    0.461    6.504
  331.974   98.941    0.290    0.460    6.535
  332.224   99.234    0.293    0.458    6.593
  332.474   98.725    0.272    0.460    6.705
  332.724   97.575    0.257    0.459    6.825
  332.974   95.761    0.247    0.456    6.884
  333.224   93.351    0.256    0.455    6.971
  333.474   90.505    0.263    0.458    6.973
  333.724   87.303    0.269    0.460    6.870
  333.974   85.001    0.281    0.453    6.744
  334.224   83.624    0.288    0.447    6.577
  334.474   81.905    0.275    0.443    6.438
  334.724   80.129    0.258    0.450    6.259
  334.974   76.520    0.274    0.467    6.146
  335.224   73.231    0.285    0.479    6.019
  335.474   71.017    0.295    0.472    5.902
  335.724   69.863    0.306    0.468    5.873
  335.974   71.094    0.312    0.467    5.906
  336.224   72.730    0.318    0.468    5.985
  336.474   78.149    0.313    0.478    6.152
  336.724   80.175    0.295    0.488    6.357
  336.974   82.308    0.274    0.501    6.523
  337.224   83.133    0.260    0.513    6.621
  337.474   81.709    0.269    0.518    6.582
  337.724   81.368    0.281    0.507    6.289
  337.974   85.878    0.294    0.502    5.737
  338.224   90.389    0.292    0.497    5.339
  338.474   95.025    0.275    0.505    4.997
  338.724   97.977    0.262    0.535    4.712
  338.974   99.602    0.255    0.528    4.573
  339.224   97.105    0.259    0.522    4.753
  339.474   87.101    0.249    0.509    5.172
  339.724   78.300    0.246    0.499    5.527
  339.974   71.269    0.286    0.490    5.911
  340.224   69.073    0.312    0.483    6.429
  340.474   69.712    0.321    0.481    6.806
  340.724   71.634    0.317    0.488    7.103
  340.974   73.652    0.311    0.489    7.174
  341.224   74.717    0.306    0.484    7.164
  341.474   73.268    0.302    0.483    7.080
  341.724   71.843    0.303    0.489    7.045
  341.974   67.811    0.304    0.472    7.076
  342.224   65.339    0.300    0.461    7.146
  342.474   65.535    0.297    0.467    7.259
  342.724   68.003    0.299    0.488    7.399
  342.974   70.938    0.310    0.485    7.474
  343.224   71.511    0.317    0.484    7.528
  343.474   70.536    0.307    0.485    7.599
  343.724   68.211    0.300    0.494    7.636
  343.974   65.744    0.293    0.491    7.627
  344.224   65.289    0.287    0.482    7.625
  344.474   67.685    0.285    0.467    7.602
  344.724   69.146    0.280    0.459    7.590
  344.974   70.530    0.277    0.453    7.524
  345.224   70.547    0.291    0.453    7.428
  345.474   69.749    0.294    0.457    7.305
  345.724   68.298    0.290    0.458    7.178
  345.974   67.786    0.290    0.455    7.038
  346.224   68.367    0.295    0.452    6.849
  346.474   69.734    0.304    0.450    6.661
  346.724   71.907    0.311    0.455    6.529
  346.974   72.615    0.312    0.459    6.398
  347.224   72.892    0.309    0.467    6.337
  347.474   72.912    0.310    0.477    6.312
  347.724   72.128    0.310    0.484    6.273
  347.974   72.019    0.308    0.482    6.316
  348.224   75.681    0.303    0.476    6.359
  348.474   83.423    0.296    0.484    6.414
  348.724   88.177    0.288    0.502    6.422
  348.974   90.185    0.279    0.528    6.303
  349.224   87.497    0.277    0.519    6.160
  349.474   82.393    0.281    0.503    5.992
  349.724   78.441    0.295    0.480    5.879
  349.974   78.436    0.293    0.462    5.823
  350.224   82.050    0.270    0.453    5.816
  350.474   85.549    0.254    0.465    5.891
  350.724   88.034    0.225    0.467    6.153
  350.974   89.407    0.235    0.471    6.061
  351.224   88.876    0.250    0.474    6.124
  351.474   88.779    0.260    0.476    6.211
  351.724   89.457    0.256    0.478    6.453
  351.974   89.250    0.249    0.480    6.826
  352.224   87.862    0.243    0.484    7.359
  352.474   83.833    0.250    0.492    8.600
  352.724   78.380    0.261    0.484   11.877
  352.974   72.600    0.271    0.446   18.210
  353.224   67.552    0.158    0.344   21.131
  353.474   63.543    0.045    0.278   22.839
  353.724   62.405    0.029    0.211   23.768
  353.974   63.255    0.045    0.215   22.136
  354.224   69.607    0.152    0.257   15.181
  354.474   74.996    0.263    0.316   12.493
  354.724   81.886    0.294    0.360   10.545
  354.974   88.026    0.313    0.417    8.583
