~VERSION INFORMATION
 VERS.                 2.0:   CWLS LOG ASCII STANDARD -VERSION 2.0
 WRAP.                  NO:   ONE LINE PER DEPTH STEP
~WELL INFORMATION BLOCK
#MNEM.UNIT           DATA                    DESCRIPTION OF MNEMONIC
#---------    -------------------            -------------------------------
# Generated from Intellog Unique Number	CW_82_90/WELL/3447
WELL.         COSEKA RES.                    : Well_name    - WELL
LOC .         00/11-07-090-19W4/0            : Location     - LOCATION
UWI .         00/11-07-090-19W4/0            : Uwi          - UNIQUE WELL ID
ENTR.         MAX                            : Entered      - ENTERED BY
SRVC.         SCHLUMBERGER                   : Scn          - SERVICE COMPANY
STRT.M        160                            : top_depth    - START DEPTH
STOP.M        254                            : bot_depth    - STOP DEPTH
STEP.M        0.25                           : increment    - STEP LENGTH
 NULL. -999.2500:NULL Value
~CURVE INFORMATION BLOCK
#MNEM UNIT       ERCB CURVE CODE    CURVE DESCRIPTION
#-----------   ------------------   ----------------------------------
DEPT.M        00 001 00 00         : DEPTH        - DEPTH
NPHI.V/V      00 330 00 00         : PHIN         - NEUTRON POROSITY (SANDSTONE)
CALI.MM       00 280 01 00         : CAL          - CALIPER
DPHI.V/V      00 890 00 00         : PHID         - DENSITY POROSITY (SANDSTONE)
GR  .API      00 310 00 00         : GR           - GAMMA RAY
ILD .OHMM     00 120 00 00         : RESD         - DEEP RESISTIVITY (DIL)
~PARAMETER INFORMATION
#MNEM.UNIT           DATA             DESCRIPTION OF MNEMONIC
#---------         -----------     ------------------------------
GL  .M        518.6                : gl           - GROUND LEVEL ELEVATION
EREF.M        522.2                : kb           - ELEVATION OF DEPTH REFERENCE
DATM.M        522.2                : datum        - DATUM ELEVATION
TDD .M        257                  : tdd          - TOTAL DEPTH DRILLER
RUN .         ONE                  : Run          - RUN NUMBER
ENG .         BILL                 : Engineer     - RECORDING ENGINEER
WIT .         JIM                  : Witness      - WITNESSED BY
MUD .         GEL                  : Mud_type     - MUD TYPE
MATR.         SANDSTONE            : Logunit      - NEUTRON MATRIX
TMAX.C        17.5                 : BHT          - MAXIMUM RECORDED TEMPERATURE
BHTD.M        257                  : BHTDEP       - MAXIMUM RECORDED TEMPERATURE
MATR.         1                    : LOGUNIT      - NEUTRON MATRIX
RMT .C        16                   : MDTP         - TEMPERATURE OF MUD
NEUT.         1                    : NEUTRON      - NEUTRON TYPE
RESI.         0                    : RESIST       - RESISTIVITY TYPE
RMC .OHMM     6                    : RMC          - RESISTIVITY OF MUD CAKE
RMF .OHMM     4.6                  : RMF          - RESISTIVITY OF MUD FILTRATE
SUFT.C        1                    : SUFT         - SURFACE TEMPERATURE
~A  DEPTH     PHIN      CAL     PHID       GR     RESD
# ...
  196.500    0.443  183.220    0.176   99.528   10.606
  196.750    0.427  182.120    0.177  104.282   10.679
  197.000    0.427  178.992    0.187  104.523   10.854
  197.250    0.413  176.915    0.194   98.739   11.341
  197.500    0.391  173.311    0.183   89.343   11.315
  197.750    0.359  172.199    0.152   83.266   11.507
  198.000    0.306  171.087    0.087   79.881   14.581
  198.250    0.322  169.486    0.148   85.854   16.552
  198.500    0.379  167.886    0.191   88.795   18.103
  198.750    0.401  167.287    0.217   90.849   18.400
  199.000    0.401  167.202    0.196   86.870   16.598
  199.250    0.362  166.603    0.118   80.792   15.528
  199.500    0.279  166.994    0.023   76.512   16.996
  199.750    0.225  167.397    0.020   71.021   20.569
  200.000    0.225  167.800    0.043   71.570   24.673
  200.250    0.279  168.203    0.094   73.925   28.260
  200.500    0.406  167.604    0.150   75.972   27.944
  200.750    0.421  166.993    0.268   77.409   22.778
  201.000    0.422  166.895    0.254   76.153   16.782
  201.250    0.425  166.284    0.228   77.898   16.594
  201.500    0.427  165.674    0.223   78.131   16.409
  201.750    0.422  165.612    0.176   74.769   17.462
  202.000    0.311  165.014    0.092   70.790   19.103
  202.250    0.279  164.904    0.044   61.688   21.680
  202.500    0.266  164.293    0.052   60.131   24.386
  202.750    0.275  164.708    0.068   60.372   29.778
  203.000    0.284  165.099    0.093   63.013   33.189
  203.250    0.287  166.015    0.109   66.564   34.686
  203.500    0.305  166.406    0.118   66.504   32.137
  203.750    0.304  167.310    0.107   67.354   28.468
  204.000    0.331  169.143    0.152   75.125   25.923
  204.250    0.381  169.631    0.192   83.189   23.377
  204.500    0.386  169.509    0.206   82.828   20.135
  204.750    0.378  168.923    0.150   80.662   19.011
  205.000    0.365  168.837    0.152   75.480   19.874
  205.250    0.342  169.741    0.140   72.110   22.555
  205.500    0.281  172.136    0.121   72.050   23.560
  205.750    0.289  174.054    0.134   83.130   23.297
  206.000    0.311  175.447    0.163   90.292   22.002
  206.250    0.381  177.365    0.150   92.940   20.401
  206.500    0.381  178.770    0.132   93.475   16.481
  206.750    0.394  180.162    0.161   94.317   15.415
  207.000    0.406  180.578    0.181   93.061   14.297
  207.250    0.409  181.482    0.161   87.277   12.428
  207.500    0.408  182.862    0.130   84.208   13.725
  207.750    0.416  183.766    0.156   84.742   16.308
  208.000    0.408  184.670    0.193   90.099   17.677
  208.250    0.386  185.074    0.201   92.453   19.156
  208.500    0.389  185.489    0.197   92.995   20.026
  208.750    0.400  185.379    0.201   94.139   21.111
  209.000    0.416  185.281    0.194   98.901   21.656
  209.250    0.410  184.682    0.176   92.213   21.606
  209.500    0.406  183.583    0.129   86.422   20.588
  209.750    0.386  183.974    0.116   88.784   18.925
  210.000    0.394  185.379    0.140   94.433   16.603
  210.250    0.406  185.806    0.176   96.781   15.111
  210.500    0.416  185.207    0.188  100.339   14.274
  210.750    0.440  184.083    0.200  101.784   13.111
  211.000    0.446  181.982    0.202  101.122   12.157
  211.250    0.421  179.379    0.171   96.548   11.911
  211.500    0.406  178.292    0.123   90.155   13.269
  211.750    0.381  179.697    0.135   88.289   15.487
  212.000    0.381  179.587    0.163   90.042   16.938
  212.250    0.411  177.986    0.192   96.000   16.148
  212.500    0.434  177.400    0.197   96.535   13.656
  212.750    0.452  177.790    0.183   96.482   12.543
  213.000    0.472  177.192    0.138   91.608   12.520
  213.250    0.413  177.082    0.104   84.018   13.568
  213.500    0.356  177.973    0.058   88.171   15.828
  213.750    0.365  178.401    0.115   98.650   15.655
  214.000    0.430  178.303    0.190  102.802   15.056
  214.250    0.423  178.694    0.181  100.335   11.829
  214.500    0.420  179.109    0.170  100.275   12.592
  214.750    0.420  178.999    0.164  104.127   12.222
  215.000    0.423  179.403    0.168  107.069   12.082
  215.250    0.438  179.317    0.184  103.699   12.063
  215.500    0.447  179.720    0.184   98.223   12.601
  215.750    0.433  179.610    0.168   89.715   12.811
  216.000    0.366  179.500    0.105   91.475   13.260
  216.250    0.365  181.418    0.139   98.645   13.602
  216.500    0.405  182.322    0.172  101.594   13.209
  216.750    0.412  182.713    0.195  103.941   11.695
  217.000    0.419  182.627    0.185  105.679   10.549
  217.250    0.415  182.530    0.173  105.025   11.543
  217.500    0.397  182.420    0.190  102.558   13.100
  217.750    0.380  182.334    0.205   99.481   13.688
  218.000    0.371  182.236    0.194   98.519   13.407
  218.250    0.373  182.126    0.178  100.264   12.897
  218.500    0.383  182.028    0.149   98.399   13.233
  218.750    0.368  181.931    0.127   90.207   16.164
  219.000    0.312  182.822    0.001   86.536   19.202
  219.250    0.277  184.741    0.016   99.422   19.884
  219.500    0.322  187.648    0.095  109.600   18.779
  219.750    0.389  189.554    0.153  111.038   15.453
  220.000    0.418  189.945    0.173  107.969   13.188
  220.250    0.426  189.860    0.180  104.599   11.787
  220.500    0.405  189.762    0.189  104.539   12.200
  220.750    0.388  189.639    0.197  106.886   12.868
  221.000    0.381  190.067    0.169  108.316   12.492
  221.250    0.382  191.460    0.138  109.474   12.128
  221.500    0.404  192.376    0.120  110.611   11.774
  221.750    0.428  193.280    0.157  110.551   10.814
  222.000    0.449  194.673    0.184  110.190    9.936
  222.250    0.471  196.090    0.197  110.732    8.477
  222.500    0.444  197.483    0.204  107.061    7.239
  222.750    0.450  197.886    0.189  103.390    7.027
  223.000    0.415  197.776    0.107   99.704    8.663
  223.250    0.387  197.703    0.078  101.450   10.391
  223.500    0.405  197.593    0.141  103.195   10.954
  223.750    0.440  197.495    0.182  103.135   11.237
  224.000    0.428  196.395    0.181  103.986   10.044
  224.250    0.408  196.297    0.174  106.935    9.223
  224.500    0.407  196.199    0.173  107.770    8.958
  224.750    0.410  195.588    0.177  107.718    8.460
  225.000    0.422  193.988    0.182  109.463    8.062
  225.250    0.420  192.399    0.186  110.607    7.544
  225.500    0.427  190.298    0.178  106.936    7.739
  225.750    0.431  187.683    0.092  104.168    8.236
  226.000    0.397  185.068    0.071  111.630    8.449
  226.250    0.402  182.979    0.131  116.979    7.906
  226.500    0.400  180.352    0.178  117.220    7.002
  226.750    0.416  178.263    0.191  117.160    7.451
  227.000    0.430  176.662    0.173  117.100    9.615
  227.250    0.431  175.062    0.159  111.632   10.144
  227.500    0.412  173.950    0.139  104.945   10.403
  227.750    0.399  173.351    0.071   98.551   10.973
  228.000    0.373  172.752    0.022  100.913   11.782
  228.250    0.316  172.654    0.093  117.109   12.310
  228.500    0.401  173.558    0.175  117.651   12.176
  228.750    0.382  173.962    0.111  110.362   10.294
  229.000    0.309  174.352    0.052  118.735   12.464
  229.250    0.338  174.267    0.124  143.062   12.783
  229.500    0.409  174.645    0.160  150.224   12.413
  229.750    0.403  174.560    0.178  151.059   11.295
  230.000    0.399  174.462    0.184  138.662   11.804
  230.250    0.391  174.364    0.180  132.570   12.333
  230.500    0.380  174.780    0.174  131.314   13.005
  230.750    0.369  175.183    0.172  130.043   12.860
  231.000    0.367  175.085    0.161  126.071   12.481
  231.250    0.390  175.476    0.145  119.692   12.453
  231.500    0.387  175.891    0.081  107.288   12.664
  231.750    0.361  175.781    0.030   97.291   12.872
  232.000    0.363  175.182    0.106   86.993   13.201
  232.250    0.357  175.085    0.194   76.996   13.924
  232.500    0.359  175.976    0.246   67.902   16.856
  232.750    0.387  176.893    0.253   61.809   22.569
