~VERSION INFORMATION
 VERS.                 2.0:   CWLS LOG ASCII STANDARD -VERSION 2.0
 WRAP.                  NO:   ONE LINE PER DEPTH STEP
~WELL INFORMATION BLOCK
#MNEM.UNIT           DATA                    DESCRIPTION OF MNEMONIC
#---------    -------------------            -------------------------------
# Generated from Intellog Unique Number	CS_67_68/WELL/851
WELL.         ESSO RESOURCES CANADA LTD      : Well_name    - WELL
LOC .         00/12-18-068-07W4/0            : Location     - LOCATION
UWI .         00/12-18-068-07W4/0            : Uwi          - UNIQUE WELL ID
ENTR.         SP                             : Entered      - ENTERED BY
SRVC.         SCHLUMBERGER                   : Scn          - SERVICE COMPANY
STRT.M        290                            : top_depth    - START DEPTH
STOP.M        525                            : bot_depth    - STOP DEPTH
STEP.M        0.25                           : increment    - STEP LENGTH
 NULL. -999.2500:NULL Value
~CURVE INFORMATION BLOCK
#MNEM UNIT       ERCB CURVE CODE    CURVE DESCRIPTION
#-----------   ------------------   ----------------------------------
DEPT.M        00 001 00 00         : DEPTH        - DEPTH
ILD .OHMM     00 120 00 00         : RESD         - DEEP RESISTIVITY (DIL)
DPHI.V/V      00 890 00 00         : PHID         - DENSITY POROSITY (LIMESTONE)
NPHI.V/V      00 330 00 00         : PHIN         - NEUTRON POROSITY (LIMESTONE)
GR  .API      00 310 00 00         : GR           - GAMMA RAY
~PARAMETER INFORMATION
#MNEM.UNIT           DATA             DESCRIPTION OF MNEMONIC
#---------         -----------     ------------------------------
GL  .M        619.1                : gl           - GROUND LEVEL ELEVATION
EREF.M        623.3                : kb           - ELEVATION OF DEPTH REFERENCE
DATM.M        619.1                : datum        - DATUM ELEVATION
TDD .M        533                  : tdd          - TOTAL DEPTH DRILLER
RUN .         ONE                  : Run          - RUN NUMBER
ENG .         BILL                 : Engineer     - RECORDING ENGINEER
WIT .         JIM                  : Witness      - WITNESSED BY
MUD .         GEL                  : Mud_type     - MUD TYPE
MATR.         LIMESTONE            : Logunit      - NEUTRON MATRIX
TMAX.C        29                   : BHT          - MAXIMUM RECORDED TEMPERATURE
BHTD.M        533                  : BHTDEP       - MAXIMUM RECORDED TEMPERATURE
MATR.         1                    : LOGUNIT      - NEUTRON MATRIX
RMT .C        25                   : MDTP         - TEMPERATURE OF MUD
NEUT.         1                    : NEUTRON      - NEUTRON TYPE
RESI.         0                    : RESIST       - RESISTIVITY TYPE
RMC .OHMM     0.25                 : RMC          - RESISTIVITY OF MUD CAKE
RMF .OHMM     0.25                 : RMF          - RESISTIVITY OF MUD FILTRATE
SUFT.C        15                   : SUFT         - SURFACE TEMPERATURE
~A  DEPTH     RESD     PHID     PHIN       GR
# ...
  420.500    2.471    0.273    0.456   95.701
  420.750    2.288    0.265    0.460   96.496
  421.000    2.152    0.262    0.449  100.110
  421.250    2.105    0.282    0.437  100.660
  421.500    2.074    0.294    0.425   99.003
  421.750    2.052    0.292    0.417  102.985
  422.000    2.038    0.287    0.442  106.293
  422.250    2.028    0.279    0.463  106.598
  422.500    2.029    0.275    0.479   97.892
  422.750    2.041    0.270    0.452   94.273
  423.000    2.054    0.273    0.413   92.984
  423.250    2.078    0.293    0.394   94.514
  423.500    2.115    0.302    0.408   95.309
  423.750    2.148    0.296    0.423   92.242
  424.000    2.186    0.293    0.434   92.424
  424.250    2.211    0.291    0.447   95.548
  424.500    2.297    0.293    0.439   92.727
  424.750    2.405    0.294    0.436   87.698
  425.000    2.536    0.285    0.443   84.018
  425.250    2.705    0.277    0.448   82.852
  425.500    2.934    0.266    0.430   83.830
  425.750    3.147    0.257    0.416   84.625
  426.000    3.313    0.262    0.406   87.136
  426.250    3.474    0.259    0.400   85.786
  426.500    3.616    0.250    0.400   84.619
  426.750    3.792    0.241    0.396   85.292
  427.000    3.924    0.237    0.399   86.761
  427.250    4.070    0.231    0.409   87.372
  427.500    4.156    0.187    0.414   84.857
  427.750    4.245    0.158    0.428   81.115
  428.000    4.320    0.184    0.439   81.543
  428.250    4.363    0.214    0.446   83.747
  428.500    4.382    0.232    0.434   87.546
  428.750    4.327    0.231    0.410   87.483
  429.000    4.273    0.231    0.396   85.519
  429.250    4.267    0.231    0.392   87.601
  429.500    4.277    0.232    0.392   91.216
  429.750    4.336    0.234    0.392   93.298
  430.000    4.397    0.239    0.389   92.193
  430.250    4.431    0.244    0.385   90.290
  430.500    4.458    0.248    0.380   91.392
  430.750    4.494    0.249    0.382   91.942
  431.000    4.513    0.244    0.380   90.407
  431.250    4.541    0.236    0.376   93.225
  431.500    4.605    0.239    0.376   95.001
  431.750    4.667    0.254    0.380   96.470
  432.000    4.821    0.261    0.382   94.691
  432.250    5.009    0.252    0.377   88.988
  432.500    5.526    0.239    0.356   86.105
  432.750    6.224    0.060    0.308   81.076
  433.000    6.932    0.041    0.271   69.243
  433.250    7.619    0.034    0.255   53.916
  433.500    8.234    0.088    0.272   54.037
  433.750    8.192    0.220    0.333   61.268
  434.000    7.631    0.271    0.395   65.802
  434.250    6.911    0.284    0.447   68.436
  434.500    6.306    0.279    0.474   70.028
  434.750    6.088    0.283    0.463   71.559
  435.000    6.183    0.303    0.458   70.821
  435.250    6.435    0.305    0.453   68.061
  435.500    6.585    0.299    0.445   66.159
  435.750    6.752    0.314    0.445   64.563
  436.000    6.819    0.324    0.426   58.860
  436.250    6.721    0.321    0.404   59.839
  436.500    6.367    0.304    0.398   65.476
  436.750    6.078    0.290    0.406   70.930
  437.000    5.868    0.283    0.424   74.974
  437.250    5.772    0.286    0.433   74.910
  437.500    5.604    0.295    0.437   75.951
  437.750    5.400    0.282    0.417   82.569
  438.000    5.012    0.273    0.415   89.065
  438.250    4.865    0.268    0.441   92.373
  438.500    4.635    0.271    0.456   91.329
  438.750    4.475    0.273    0.449   88.569
  439.000    4.435    0.261    0.442   88.076
  439.250    4.331    0.240    0.435   88.197
  439.500    4.316    0.219    0.427   86.294
  439.750    4.222    0.210    0.416   86.660
  440.000    4.053    0.241    0.415   87.516
  440.250    3.719    0.265    0.423   87.085
  440.500    3.317    0.283    0.431   85.306
  440.750    2.993    0.292    0.438   85.304
  441.000    2.660    0.300    0.442   85.853
  441.250    2.400    0.313    0.431   86.158
  441.500    2.137    0.322    0.432   81.436
  441.750    1.843    0.332    0.436   79.166
  442.000    1.681    0.342    0.432   77.264
  442.250    1.554    0.344    0.419   77.936
  442.500    1.506    0.334    0.405   79.650
  442.750    1.501    0.325    0.389   79.281
  443.000    1.516    0.327    0.396   76.826
  443.250    1.549    0.333    0.424   76.395
  443.500    1.591    0.335    0.447   78.662
  443.750    1.607    0.333    0.466   81.602
  444.000    1.623    0.330    0.474   84.297
  444.250    1.679    0.326    0.473   83.376
  444.500    1.758    0.324    0.472   82.700
  444.750    1.840    0.321    0.452   87.785
  445.000    1.855    0.310    0.418   92.074
  445.250    1.877    0.299    0.410   96.731
  445.500    1.892    0.295    0.408   99.549
  445.750    1.904    0.294    0.410  100.283
  446.000    1.908    0.294    0.423   93.108
  446.250    1.913    0.297    0.426   91.268
  446.500    1.929    0.301    0.417   92.369
  446.750    1.966    0.282    0.406   93.593
  447.000    2.008    0.238    0.400   94.756
  447.250    2.055    0.222    0.411   92.792
  447.500    2.119    0.229    0.421   93.649
  447.750    2.185    0.245    0.423   96.282
  448.000    2.282    0.262    0.413   98.303
  448.250    2.393    0.279    0.408   97.627
  448.500    2.496    0.288    0.405   92.230
  448.750    2.613    0.291    0.403   87.386
  449.000    2.734    0.292    0.410   82.051
  449.250    2.994    0.261    0.416   78.126
  449.500    3.248    0.166    0.411   75.979
  449.750    3.537    0.143    0.402   82.229
  450.000    3.695    0.172    0.391   87.744
  450.250    3.810    0.201    0.387   91.175
  450.500    3.826    0.226    0.384   91.479
  450.750    3.771    0.214    0.385   92.764
  451.000    3.703    0.213    0.383   94.173
  451.250    3.575    0.223    0.374   94.722
  451.500    3.393    0.231    0.373   94.537
  451.750    3.203    0.236    0.386   94.289
  452.000    3.091    0.235    0.396   97.230
  452.250    3.001    0.235    0.401  101.090
  452.500    2.969    0.237    0.394  104.214
  452.750    2.954    0.237    0.384  101.883
  453.000    2.917    0.241    0.399   98.938
  453.250    2.880    0.252    0.420  101.634
  453.500    2.893    0.264    0.420  103.287
  453.750    2.966    0.272    0.413   98.871
  454.000    3.134    0.266    0.402   91.391
  454.250    3.329    0.252    0.377   86.178
  454.500    3.598    0.237    0.362   88.873
  454.750    3.970    0.224    0.356   92.059
  455.000    4.446    0.047    0.346   91.076
  455.250    5.329    0.001    0.333   74.830
  455.500    6.174    0.032    0.347   63.120
  455.750    6.981    0.127    0.368   67.470
  456.000    7.982    0.180    0.386   72.801
  456.250    8.482    0.274    0.403   80.707
  456.500    8.582    0.287    0.411   85.854
  456.750    8.668    0.290    0.401   83.951
  457.000    8.640    0.289    0.397   83.091
  457.250    8.628    0.284    0.405   84.683
  457.500    8.600    0.281    0.415   85.723
  457.750    8.460    0.291    0.420   86.457
  458.000    8.183    0.282    0.405   88.294
  458.250    7.810    0.267    0.396   91.173
  458.500    7.358    0.250    0.384   97.914
  458.750    7.307    0.241    0.375  105.697
  459.000    7.365    0.235    0.390  113.787
  459.250    7.695    0.229    0.408  110.413
  459.500    8.443    0.243    0.422   85.033
  459.750    9.279    0.266    0.437   74.181
  460.000   10.590    0.304    0.447   67.743
  460.250   12.226    0.315    0.419   59.220
  460.500   11.779    0.300    0.394   54.621
  460.750   11.986    0.286    0.377   63.262
  461.000   12.174    0.271    0.372   68.593
  461.250   12.319    0.281    0.375   72.147
  461.500   12.258    0.293    0.377   69.080
  461.750   12.239    0.283    0.375   71.284
  462.000   12.176    0.271    0.373   70.302
  462.250   12.183    0.277    0.380   65.580
  462.500   12.373    0.288    0.378   68.581
  462.750   12.287    0.268    0.366   77.468
  463.000   11.424    0.252    0.353   86.844
  463.250    9.687    0.239    0.361   96.344
  463.500    8.641    0.216    0.356  101.614
  463.750    8.373    0.179    0.354   96.156
