~VERSION INFORMATION
 VERS.                 2.0:   CWLS LOG ASCII STANDARD -VERSION 2.0
 WRAP.                  NO:   ONE LINE PER DEPTH STEP
~WELL INFORMATION BLOCK
#MNEM.UNIT           DATA                    DESCRIPTION OF MNEMONIC
#---------    -------------------            -------------------------------
# Generated from Intellog Unique Number	CS_71_72/WELL/842
WELL.         AEE IPIATIK                    : Well_name    - WELL
LOC .         00/10-14-071-05W4/0            : Location     - LOCATION
UWI .         00/10-14-071-05W4/0            : Uwi          - UNIQUE WELL ID
ENTR.         SP                             : Entered      - ENTERED BY
SRVC.         SCHLUMBERGER                   : Scn          - SERVICE COMPANY
STRT.M        290                            : top_depth    - START DEPTH
STOP.M        510                            : bot_depth    - STOP DEPTH
STEP.M        0.25                           : increment    - STEP LENGTH
 NULL. -999.2500:NULL Value
~CURVE INFORMATION BLOCK
#MNEM UNIT       ERCB CURVE CODE    CURVE DESCRIPTION
#-----------   ------------------   ----------------------------------
DEPT.M        00 001 00 00         : DEPTH        - DEPTH
GR  .API      00 310 00 00         : GR           - GAMMA RAY
NPHI.V/V      00 330 00 00         : PHIN         - NEUTRON POROSITY (LIMESTONE)
DPHI.V/V      00 890 00 00         : PHID         - DENSITY POROSITY (LIMESTONE)
ILD .OHMM     00 120 00 00         : RESD         - DEEP RESISTIVITY (DIL)
~PARAMETER INFORMATION
#MNEM.UNIT           DATA             DESCRIPTION OF MNEMONIC
#---------         -----------     ------------------------------
GL  .M        661.74               : gl           - GROUND LEVEL ELEVATION
EREF.M        665.55               : kb           - ELEVATION OF DEPTH REFERENCE
DATM.M        661.74               : datum        - DATUM ELEVATION
TDD .M        520                  : tdd          - TOTAL DEPTH DRILLER
RUN .         ONE                  : Run          - RUN NUMBER
ENG .         BILL                 : Engineer     - RECORDING ENGINEER
WIT .         JIM                  : Witness      - WITNESSED BY
MUD .         GEL                  : Mud_type     - MUD TYPE
MATR.         LIMESTONE            : Logunit      - NEUTRON MATRIX
TMAX.C        16                   : BHT          - MAXIMUM RECORDED TEMPERATURE
BHTD.M        520                  : BHTDEP       - MAXIMUM RECORDED TEMPERATURE
MATR.         1                    : LOGUNIT      - NEUTRON MATRIX
RMT .C        25                   : MDTP         - TEMPERATURE OF MUD
NEUT.         1                    : NEUTRON      - NEUTRON TYPE
RESI.         0                    : RESIST       - RESISTIVITY TYPE
RMC .OHMM     0.25                 : RMC          - RESISTIVITY OF MUD CAKE
RMF .OHMM     0.25                 : RMF          - RESISTIVITY OF MUD FILTRATE
SUFT.C        15                   : SUFT         - SURFACE TEMPERATURE
~A  DEPTH       GR     PHIN     PHID     RESD
# ...
  333.500   70.734    0.274    0.107    9.030
  333.750   76.217    0.324    0.156    7.736
  334.000   81.823    0.370    0.230    6.765
  334.250   83.116    0.432    0.241    6.186
  334.500   82.528    0.444    0.239    5.700
  334.750   79.810    0.431    0.249    5.164
  335.000   72.904    0.421    0.274    4.687
  335.250   65.025    0.436    0.289    4.319
  335.500   57.693    0.438    0.306    4.024
  335.750   52.668    0.430    0.321    3.680
  336.000   50.985    0.436    0.325    3.397
  336.250   50.820    0.451    0.317    3.248
  336.500   50.597    0.456    0.314    3.136
  336.750   50.188    0.445    0.313    3.067
  337.000   49.663    0.449    0.324    3.033
  337.250   49.494    0.457    0.334    3.017
  337.500   50.727    0.460    0.335    3.001
  337.750   53.903    0.462    0.328    3.001
  338.000   57.868    0.452    0.326    2.979
  338.250   62.321    0.453    0.327    2.969
  338.500   65.010    0.464    0.319    2.958
  338.750   66.427    0.465    0.313    2.986
  339.000   65.775    0.456    0.308    3.077
  339.250   62.937    0.444    0.298    3.142
  339.500   59.796    0.434    0.290    3.213
  339.750   65.100    0.427    0.290    3.268
  340.000   67.729    0.430    0.296    3.299
  340.250   68.840    0.444    0.291    3.319
  340.500   69.283    0.439    0.299    3.319
  340.750   69.120    0.440    0.305    3.320
  341.000   68.589    0.449    0.309    3.326
  341.250   68.424    0.461    0.303    3.327
  341.500   68.568    0.472    0.297    3.327
  341.750   68.945    0.481    0.301    3.341
  342.000   69.996    0.477    0.302    3.488
  342.250   72.079    0.465    0.295    3.501
  342.500   75.073    0.454    0.297    3.502
  342.750   76.670    0.448    0.305    3.489
  343.000   77.841    0.457    0.300    3.451
  343.250   76.889    0.452    0.296    3.407
  343.500   76.783    0.451    0.294    3.369
  343.750   78.805    0.462    0.302    3.326
  344.000   80.280    0.473    0.312    3.308
  344.250   80.846    0.487    0.311    3.327
  344.500   81.712    0.491    0.304    3.397
  344.750   83.796    0.471    0.298    3.487
  345.000   87.153    0.454    0.295    3.587
  345.250   88.327    0.444    0.299    3.710
  345.500   86.766    0.439    0.294    3.895
  345.750   85.506    0.444    0.282    4.006
  346.000   83.458    0.447    0.269    4.144
  346.250   78.616    0.463    0.260    4.207
  346.500   73.532    0.480    0.284    4.114
  346.750   69.054    0.465    0.313    3.913
  347.000   66.217    0.458    0.329    3.559
  347.250   69.090    0.461    0.326    3.410
  347.500   71.173    0.475    0.319    3.267
  347.750   71.799    0.487    0.307    3.201
  348.000   69.146    0.479    0.294    3.172
  348.250   66.245    0.475    0.279    3.172
  348.500   61.645    0.473    0.284    3.191
  348.750   57.411    0.451    0.299    3.203
  349.000   56.153    0.433    0.304    3.198
  349.250   57.994    0.422    0.308    3.157
  349.500   59.225    0.419    0.302    3.064
  349.750   60.579    0.430    0.300    2.953
  350.000   64.058    0.442    0.301    2.931
  350.250   67.723    0.446    0.296    2.926
  350.500   71.505    0.458    0.292    2.960
  350.750   73.891    0.470    0.283    2.982
  351.000   71.600    0.475    0.280    3.005
  351.250   67.003    0.462    0.285    2.995
  351.500   61.858    0.450    0.302    2.880
  351.750   64.185    0.440    0.306    2.833
  352.000   68.150    0.446    0.300    2.739
  352.250   69.745    0.461    0.303    2.640
  352.500   67.093    0.461    0.310    2.492
  352.750   63.951    0.446    0.308    2.451
  353.000   61.417    0.439    0.313    2.415
  353.250   58.882    0.435    0.315    2.384
  353.500   58.838    0.439    0.306    2.371
  353.750   60.253    0.438    0.302    2.354
  354.000   61.121    0.455    0.302    2.336
  354.250   60.959    0.476    0.306    2.315
  354.500   60.792    0.469    0.310    2.294
  354.750   61.177    0.459    0.315    2.294
  355.000   62.837    0.453    0.318    2.303
  355.250   65.222    0.450    0.315    2.317
  355.500   67.244    0.442    0.304    2.370
  355.750   68.595    0.436    0.299    2.451
  356.000   69.159    0.429    0.292    2.583
  356.250   68.692    0.424    0.284    2.788
  356.500   66.284    0.422    0.273    2.955
  356.750   65.022    0.425    0.294    3.138
  357.000   63.282    0.418    0.317    3.046
  357.250   62.934    0.423    0.329    2.723
  357.500   62.826    0.439    0.344    2.408
  357.750   61.082    0.457    0.347    2.162
  358.000   58.004    0.471    0.337    2.075
  358.250   56.198    0.465    0.329    2.033
  358.500   54.758    0.453    0.336    2.015
  358.750   53.744    0.448    0.329    2.008
  359.000   52.611    0.454    0.322    2.019
  359.250   51.480    0.464    0.307    2.050
  359.500   51.063    0.443    0.291    2.259
  359.750   50.229    0.416    0.251    2.754
  360.000   49.639    0.373    0.161    3.276
  360.250   51.845    0.334    0.146    3.433
  360.500   56.359    0.382    0.198    3.700
  360.750   58.803    0.468    0.290    3.763
  361.000   60.521    0.490    0.320    3.377
  361.250   61.875    0.507    0.331    2.788
  361.500   63.168    0.496    0.336    2.559
  361.750   64.462    0.488    0.335    2.217
  362.000   64.419    0.489    0.333    2.027
  362.250   63.952    0.497    0.329    2.009
  362.500   63.909    0.502    0.326    2.043
  362.750   64.958    0.509    0.324    2.070
  363.000   68.012    0.515    0.331    2.117
  363.250   72.038    0.501    0.329    2.261
  363.500   76.858    0.501    0.317    2.351
  363.750   80.031    0.501    0.302    2.525
  364.000   82.721    0.498    0.290    2.582
  364.250   83.650    0.534    0.297    2.824
  364.500   82.270    0.526    0.316    2.921
  364.750   79.071    0.523    0.328    2.960
  365.000   77.143    0.536    0.337    2.939
  365.250   78.193    0.527    0.341    2.858
  365.500   82.463    0.517    0.326    2.769
  365.750   87.584    0.524    0.316    2.698
  366.000   91.670    0.541    0.323    2.639
  366.250   95.817    0.522    0.336    2.644
  366.500  100.270    0.506    0.324    2.695
  366.750  103.507    0.493    0.309    2.819
  367.000  102.979    0.482    0.307    2.970
  367.250   96.134    0.484    0.303    3.090
  367.500   90.805    0.494    0.305    3.196
  367.750   85.537    0.501    0.319    3.250
  368.000   82.517    0.502    0.313    3.227
  368.250   80.166    0.507    0.303    3.150
  368.500   75.810    0.502    0.296    3.018
  368.750   70.361    0.484    0.301    2.935
  369.000   70.378    0.469    0.321    2.865
  369.250   76.897    0.467    0.315    2.818
  369.500   80.862    0.474    0.300    2.787
  369.750   83.553    0.482    0.288    2.788
  370.000   85.331    0.481    0.280    2.841
  370.250   85.229    0.469    0.297    2.955
  370.500   84.334    0.469    0.280    3.067
  370.750   82.834    0.484    0.261    3.208
  371.000   81.392    0.492    0.263    3.356
  371.250   81.595    0.491    0.286    3.465
  371.500   84.708    0.471    0.302    3.537
  371.750   88.311    0.458    0.307    3.518
  372.000   89.605    0.458    0.305    3.434
  372.250   89.864    0.463    0.303    3.359
  372.500   88.909    0.469    0.298    3.334
  372.750   85.099    0.478    0.294    3.360
  373.000   84.388    0.475    0.302    3.475
  373.250   85.803    0.466    0.281    3.621
  373.500   86.792    0.467    0.266    3.816
  373.750   85.534    0.478    0.269    3.969
  374.000   82.091    0.484    0.275    4.144
  374.250   79.495    0.490    0.271    4.262
  374.500   78.300    0.493    0.274    4.368
  374.750   83.115    0.479    0.290    4.451
  375.000   89.512    0.487    0.281    4.535
  375.250   92.322    0.495    0.253    4.604
  375.500   93.251    0.504    0.236    4.639
  375.750   86.769    0.524    0.234    4.640
  376.000   78.708    0.537    0.259    4.589
  376.250   71.862    0.510    0.280    4.514
  376.500   68.659    0.472    0.299    4.439
  376.750   74.088    0.447    0.300    4.382
