~VERSION INFORMATION
 VERS.                 2.0:   CWLS LOG ASCII STANDARD -VERSION 2.0
 WRAP.                  NO:   ONE LINE PER DEPTH STEP
~WELL INFORMATION BLOCK
#MNEM.UNIT           DATA                    DESCRIPTION OF MNEMONIC
#---------    -------------------            -------------------------------
# Generated from Intellog Unique Number	CS_73_76/WELL/856
WELL.         SULPETRO LIMITED               : Well_name    - WELL
LOC .         00/14-25-073-11W4/0            : Location     - LOCATION
UWI .         00/14-25-073-11W4/0            : Uwi          - UNIQUE WELL ID
ENTR.         SP                             : Entered      - ENTERED BY
SRVC.         SCHLUMBERGER                   : Scn          - SERVICE COMPANY
STRT.M        300                            : top_depth    - START DEPTH
STOP.M        525                            : bot_depth    - STOP DEPTH
STEP.M        0.25                           : increment    - STEP LENGTH
 NULL. -999.2500:NULL Value
~CURVE INFORMATION BLOCK
#MNEM UNIT       ERCB CURVE CODE    CURVE DESCRIPTION
#-----------   ------------------   ----------------------------------
DEPT.M        00 001 00 00         : DEPTH        - DEPTH
ILD .OHMM     00 120 00 00         : RESD         - DEEP RESISTIVITY (DIL)
DPHI.V/V      00 890 00 00         : PHID         - DENSITY POROSITY (LIMESTONE)
NPHI.V/V      00 330 00 00         : PHIN         - NEUTRON POROSITY (LIMESTONE)
GR  .API      00 310 00 00         : GR           - GAMMA RAY
~PARAMETER INFORMATION
#MNEM.UNIT           DATA             DESCRIPTION OF MNEMONIC
#---------         -----------     ------------------------------
GL  .M        654.38               : gl           - GROUND LEVEL ELEVATION
EREF.M        657.23               : kb           - ELEVATION OF DEPTH REFERENCE
DATM.M        654.38               : datum        - DATUM ELEVATION
TDD .M        535                  : tdd          - TOTAL DEPTH DRILLER
RUN .         ONE                  : Run          - RUN NUMBER
ENG .         BILL                 : Engineer     - RECORDING ENGINEER
WIT .         JIM                  : Witness      - WITNESSED BY
MUD .         GEL                  : Mud_type     - MUD TYPE
MATR.         LIMESTONE            : Logunit      - NEUTRON MATRIX
TMAX.C        22                   : BHT          - MAXIMUM RECORDED TEMPERATURE
BHTD.M        535                  : BHTDEP       - MAXIMUM RECORDED TEMPERATURE
MATR.         1                    : LOGUNIT      - NEUTRON MATRIX
RMT .C        25                   : MDTP         - TEMPERATURE OF MUD
NEUT.         1                    : NEUTRON      - NEUTRON TYPE
RESI.         0                    : RESIST       - RESISTIVITY TYPE
RMC .OHMM     0.25                 : RMC          - RESISTIVITY OF MUD CAKE
RMF .OHMM     0.25                 : RMF          - RESISTIVITY OF MUD FILTRATE
SUFT.C        15                   : SUFT         - SURFACE TEMPERATURE
~A  DEPTH     RESD     PHID     PHIN       GR
# ...
  387.000   14.397    0.284    0.467   82.359
  387.250   14.409    0.293    0.461   75.648
  387.500   14.416    0.301    0.451   75.033
  387.750   13.635    0.288    0.460   81.128
  388.000   10.888    0.250    0.483   89.660
  388.250    8.063    0.229    0.512   94.537
  388.500    5.333    0.244    0.548   98.192
  388.750    4.025    0.254    0.569   94.530
  389.000    3.337    0.256    0.574   95.746
  389.250    2.873    0.259    0.546   96.353
  389.500    3.220    0.271    0.511   91.471
  389.750    3.890    0.292    0.490   80.493
  390.000    4.611    0.304    0.479   71.952
  390.250    5.165    0.307    0.471   68.290
  390.500    6.479    0.310    0.471   66.458
  390.750    7.827    0.281    0.471   66.454
  391.000    8.936    0.199    0.427   65.841
  391.250   10.013    0.200    0.379   66.448
  391.500   10.603    0.247    0.432   70.101
  391.750   10.613    0.297    0.456   73.147
  392.000   10.425    0.287    0.473   74.364
  392.250   10.044    0.283    0.490   74.970
  392.500    9.325    0.278    0.460   76.795
  392.750    8.820    0.283    0.464   77.403
  393.000    8.662    0.311    0.463   78.618
  393.250    8.509    0.325    0.462   81.054
  393.500    8.513    0.320    0.471   79.831
  393.750    8.520    0.309    0.468   77.388
  394.000    8.372    0.299    0.461   77.386
  394.250    8.378    0.297    0.468   76.163
  394.500    8.383    0.310    0.478   70.061
  394.750    8.388    0.329    0.483   68.230
  395.000    8.238    0.338    0.489   67.616
  395.250    8.245    0.340    0.480   68.222
  395.500    8.407    0.321    0.458   70.048
  395.750    8.740    0.314    0.438   72.484
  396.000    8.911    0.340    0.478   74.309
  396.250    9.259    0.349    0.478   74.916
  396.500    9.267    0.326    0.483   76.132
  396.750    8.603    0.316    0.500   79.177
  397.000    8.136    0.297    0.495   82.832
  397.250    7.841    0.253    0.482   84.049
  397.500    7.418    0.237    0.473   82.826
  397.750    7.285    0.241    0.454   79.164
  398.000    7.432    0.237    0.441   77.941
  398.250    7.576    0.232    0.440   80.986
  398.500    7.582    0.227    0.431   82.812
  398.750    7.587    0.226    0.417   83.419
  399.000    7.593    0.227    0.429   81.586
  399.250    7.600    0.241    0.437   78.534
  399.500    7.605    0.248    0.446   72.433
  399.750    7.905    0.246    0.493   68.162
  400.000    8.214    0.106    0.432   63.280
  400.250    8.699    0.125    0.325   63.887
  400.500    8.869    0.198    0.367   71.810
  400.750    9.046    0.222    0.417   80.343
  401.000    8.884    0.237    0.444   80.949
  401.250    8.246    0.253    0.448   79.727
  401.500    7.656    0.233    0.437   81.552
  401.750    7.379    0.231    0.432   82.159
  402.000    7.384    0.232    0.445   81.545
  402.250    7.390    0.244    0.448   80.933
  402.500    7.397    0.235    0.443   84.588
  402.750    7.403    0.220    0.454   85.804
  403.000    7.409    0.231    0.468   83.971
  403.250    7.412    0.241    0.482   82.748
  403.500    7.281    0.247    0.484   82.135
  403.750    7.287    0.249    0.472   83.961
  404.000    7.291    0.243    0.468   86.397
  404.250    7.163    0.229    0.474   86.394
  404.500    7.167    0.229    0.468   81.511
  404.750    7.176    0.229    0.459   80.899
  405.000    7.181    0.221    0.461   85.773
  405.250    7.185    0.216    0.477   88.818
  405.500    7.059    0.219    0.464   91.864
  405.750    7.063    0.226    0.451   93.690
  406.000    7.068    0.232    0.464   91.858
  406.250    7.073    0.224    0.471   87.585
  406.500    7.078    0.218    0.475   86.973
  406.750    7.084    0.225    0.489   87.578
  407.000    7.092    0.230    0.499   88.184
  407.250    7.096    0.210    0.468   89.401
  407.500    7.102    0.202    0.462   91.227
  407.750    6.844    0.199    0.465   92.444
  408.000    5.892    0.198    0.459   90.000
  408.250    4.202    0.210    0.443   88.169
  408.500    3.171    0.232    0.428   88.775
  408.750    2.439    0.246    0.449   93.649
  409.000    2.221    0.256    0.514   97.304
  409.250    2.062    0.256    0.565  100.350
  409.500    2.184    0.257    0.583  100.346
  409.750    2.540    0.265    0.584   97.294
  410.000    3.069    0.274    0.574   95.462
  410.250    3.851    0.276    0.562   97.897
  410.500    4.313    0.258    0.571   98.504
  410.750    5.310    0.235    0.552   91.793
  411.000    5.728    0.229    0.511   89.961
  411.250    5.954    0.228    0.479   92.395
  411.500    6.071    0.229    0.448   93.613
  411.750    5.962    0.239    0.434   89.950
  412.000    5.968    0.230    0.447   85.677
  412.250    5.972    0.230    0.437   84.456
  412.500    6.091    0.240    0.447   83.233
  412.750    6.096    0.241    0.454   83.839
  413.000    6.217    0.242    0.454   86.274
  413.250    6.223    0.232    0.458   85.661
  413.500    6.344    0.235    0.471   83.218
  413.750    6.473    0.253    0.472   81.387
  414.000    6.599    0.275    0.454   79.554
  414.250    6.603    0.258    0.447   79.551
  414.500    6.610    0.236    0.432   81.376
  414.750    6.614    0.251    0.420   79.543
  415.000    6.497    0.275    0.415   77.100
  415.250    6.501    0.284    0.410   75.269
  415.500    6.387    0.298    0.408   71.607
  415.750    6.392    0.304    0.427   69.775
  416.000    6.396    0.310    0.442   68.552
  416.250    6.282    0.317    0.459   69.157
  416.500    6.286    0.296    0.466   72.202
  416.750    6.293    0.265    0.449   77.077
  417.000    6.297    0.251    0.436   81.342
  417.250    6.301    0.245    0.441   83.779
  417.500    6.308    0.242    0.452   84.995
  417.750    6.195    0.239    0.458   85.599
  418.000    6.198    0.239    0.461   85.597
  418.250    6.203    0.241    0.464   84.983
  418.500    6.092    0.241    0.454   84.981
  418.750    6.100    0.247    0.439   83.758
  419.000    5.990    0.251    0.431   80.096
  419.250    5.994    0.258    0.424   77.043
  419.500    5.997    0.257    0.418   75.821
  419.750    5.893    0.247    0.433   77.647
  420.000    5.895    0.253    0.450   79.473
  420.250    5.902    0.278    0.455   78.860
  420.500    5.795    0.290    0.441   75.808
  420.750    5.800    0.297    0.429   70.927
  421.000    5.804    0.303    0.442   67.264
  421.250    5.701    0.306    0.453   64.822
  421.500    5.706    0.308    0.448   66.038
  421.750    5.710    0.307    0.457   64.815
  422.000    5.714    0.304    0.468   67.250
  422.250    5.826    0.298    0.476   69.077
  422.500    5.942    0.294    0.455   72.121
  422.750    6.293    0.290    0.443   72.728
  423.000    6.540    0.291    0.438   70.286
  423.250    6.668    0.298    0.454   70.282
  423.500    6.800    0.300    0.468   71.498
  423.750    6.807    0.303    0.460   73.324
  424.000    6.686    0.303    0.452   73.930
  424.250    6.690    0.302    0.447   72.098
  424.500    6.570    0.307    0.442   70.875
  424.750    6.454    0.308    0.438   70.871
  425.000    6.458    0.306    0.436   71.479
  425.250    6.466    0.301    0.451   72.695
  425.500    6.471    0.298    0.453   72.081
  425.750    6.598    0.286    0.424   67.809
  426.000    6.602    0.284    0.386   64.147
  426.250    6.610    0.289    0.341   61.096
  426.500    6.612    0.291    0.387   58.654
  426.750    6.619    0.279    0.419   64.747
  427.000    6.622    0.281    0.462   70.232
  427.250    6.629    0.273    0.452   73.886
  427.500    6.632    0.268    0.438   75.713
  427.750    6.639    0.264    0.432   75.710
  428.000    6.645    0.266    0.429   73.877
  428.250    6.528    0.269    0.428   74.483
  428.500    6.531    0.273    0.437   76.918
  428.750    6.535    0.267    0.445   77.524
  429.000    6.418    0.262    0.445   77.521
  429.250    6.186    0.262    0.453   76.297
  429.500    5.962    0.255    0.451   76.905
  429.750    5.640    0.246    0.459   78.730
  430.000    5.435    0.240    0.449   80.557
  430.250    5.141    0.238    0.445   81.163
