~VERSION INFORMATION
 VERS.                 2.0:   CWLS LOG ASCII STANDARD -VERSION 2.0
 WRAP.                  NO:   ONE LINE PER DEPTH STEP
~WELL INFORMATION BLOCK
#MNEM.UNIT           DATA                    DESCRIPTION OF MNEMONIC
#---------    -------------------            -------------------------------
# Generated from Intellog Unique Number	CS_71_72/WELL/879
WELL.         SUN OIL COMPANY                : Well_name    - WELL
LOC .         00/10-33-071-18W4/0            : Location     - LOCATION
UWI .         00/10-33-071-18W4/0            : Uwi          - UNIQUE WELL ID
ENTR.         SP                             : Entered      - ENTERED BY
SRVC.         SCHLUMBERGER                   : Scn          - SERVICE COMPANY
STRT.M        298.704                        : top_depth    - START DEPTH
STOP.M        487.454                        : bot_depth    - STOP DEPTH
STEP.M        0.25                           : increment    - STEP LENGTH
 NULL. -999.2500:NULL Value
~CURVE INFORMATION BLOCK
#MNEM UNIT       ERCB CURVE CODE    CURVE DESCRIPTION
#-----------   ------------------   ----------------------------------
DEPT.M        00 001 00 00         : DEPTH        - DEPTH
GR  .API      00 310 00 00         : GR           - GAMMA RAY
DPHI.V/V      00 890 00 00         : PHID         - DENSITY POROSITY (SANDSTONE)
NPHI.V/V      00 330 00 00         : PHIN         - NEUTRON POROSITY (SANDSTONE)
ILD .OHMM     00 120 00 00         : RESD         - DEEP RESISTIVITY (DIL)
~PARAMETER INFORMATION
#MNEM.UNIT           DATA             DESCRIPTION OF MNEMONIC
#---------         -----------     ------------------------------
GL  .M        592.684              : gl           - GROUND LEVEL ELEVATION
EREF.M        595.579              : kb           - ELEVATION OF DEPTH REFERENCE
DATM.M        592.684              : datum        - DATUM ELEVATION
TDD .M        489.814              : tdd          - TOTAL DEPTH DRILLER
RUN .         ONE                  : Run          - RUN NUMBER
ENG .         BILL                 : Engineer     - RECORDING ENGINEER
WIT .         JIM                  : Witness      - WITNESSED BY
MUD .         GEL                  : Mud_type     - MUD TYPE
MATR.         SANDSTONE            : Logunit      - NEUTRON MATRIX
TMAX.C        12.2222              : BHT          - MAXIMUM RECORDED TEMPERATURE
BHTD.M        489.814              : BHTDEP       - MAXIMUM RECORDED TEMPERATURE
MATR.         1                    : LOGUNIT      - NEUTRON MATRIX
RMT .C        25                   : MDTP         - TEMPERATURE OF MUD
NEUT.         1                    : NEUTRON      - NEUTRON TYPE
RESI.         0                    : RESIST       - RESISTIVITY TYPE
RMC .OHMM     0.25                 : RMC          - RESISTIVITY OF MUD CAKE
RMF .OHMM     0.25                 : RMF          - RESISTIVITY OF MUD FILTRATE
SUFT.C        15                   : SUFT         - SURFACE TEMPERATURE
~A  DEPTH       GR     PHID     PHIN     RESD
# ...
  429.204   74.759    0.265    0.430    3.687
  429.454   79.086    0.264    0.435    3.701
  429.704   81.189    0.263    0.445    3.685
  429.954   82.718    0.262    0.455    3.586
  430.204   83.423    0.265    0.470    3.559
  430.454   82.816    0.265    0.463    3.571
  430.704   81.902    0.263    0.447    3.635
  430.954   81.235    0.258    0.438    3.652
  431.204   82.190    0.253    0.434    3.649
  431.454   81.921    0.246    0.433    3.645
  431.704   81.873    0.261    0.434    3.724
  431.954   82.184    0.268    0.436    3.769
  432.204   80.100    0.260    0.447    3.870
  432.454   79.903    0.267    0.459    3.927
  432.704   83.481    0.264    0.451    3.950
  432.954   85.147    0.255    0.444    3.966
  433.204   84.340    0.247    0.444    3.945
  433.454   83.880    0.251    0.447    3.940
  433.704   86.240    0.253    0.442    3.930
  433.954   89.941    0.256    0.435    3.952
  434.204   92.189    0.257    0.427    3.955
  434.454   93.875    0.256    0.433    3.946
  434.704   93.738    0.247    0.427    3.967
  434.954   91.396    0.242    0.420    4.026
  435.204   89.738    0.229    0.419    4.122
  435.454   89.007    0.219    0.434    4.148
  435.704   90.415    0.206    0.446    3.823
  435.954   98.918    0.206    0.475    3.551
  436.204  105.676    0.219    0.539    3.337
  436.454  111.328    0.228    0.532    3.204
  436.704  114.657    0.212    0.512    3.091
  436.954  114.501    0.227    0.495    3.019
  437.204  112.074    0.204    0.494    3.000
  437.454  110.688    0.191    0.501    2.979
  437.704  107.915    0.190    0.491    2.968
  437.954  106.098    0.187    0.482    2.964
  438.204  105.800    0.165    0.489    2.967
  438.454  110.216    0.172    0.497    2.939
  438.704  113.049    0.221    0.503    2.916
  438.954  115.497    0.239    0.509    2.930
  439.204  113.060    0.234    0.517    2.976
  439.454  113.158    0.225    0.511    3.067
  439.704  116.028    0.218    0.502    3.140
  439.954  116.988    0.214    0.488    3.300
  440.204  114.440    0.206    0.483    3.422
  440.454  113.497    0.196    0.471    3.625
  440.704  117.056    0.187    0.461    3.786
  440.954  119.139    0.174    0.466    3.997
  441.204  118.339    0.162    0.475    4.179
  441.454  115.218    0.169    0.478    4.282
  441.704  113.107    0.184    0.476    4.344
  441.954  114.992    0.169    0.482    4.350
  442.204  114.577    0.172    0.479    4.346
  442.454  113.087    0.186    0.455    4.350
  442.704  113.335    0.171    0.438    4.398
  442.954  117.948    0.171    0.440    4.461
  443.204  119.283    0.176    0.429    4.676
  443.454  115.330    0.177    0.423    4.798
  443.704  107.223    0.188    0.425    4.969
  443.954   93.144    0.194    0.427    5.102
  444.204   87.809    0.191    0.420    5.180
  444.454   85.821    0.168    0.408    5.293
  444.704   83.918    0.142    0.396    5.610
  444.954   82.209    0.119    0.382    6.086
  445.204   80.626    0.101    0.359    6.726
  445.454   79.052    0.085    0.329    7.347
  445.704   76.364    0.070    0.306    8.125
  445.954   74.085    0.057    0.277    9.085
  446.204   71.421    0.047    0.238   10.567
  446.454   67.927    0.028    0.193   12.255
  446.704   74.943    0.037    0.216   13.989
  446.954   83.005    0.085    0.237   14.565
  447.204   92.300    0.112    0.262   12.225
  447.454   99.057    0.129    0.283    9.316
  447.704  108.205    0.149    0.355    7.551
  447.954  111.341    0.167    0.430    6.630
  448.204  111.953    0.177    0.439    5.983
  448.454  110.393    0.184    0.444    5.516
  448.704  108.317    0.173    0.430    5.161
  448.954  105.158    0.164    0.417    5.013
  449.204  103.452    0.168    0.414    4.979
  449.454  101.676    0.162    0.422    5.009
  449.704   99.439    0.155    0.428    5.006
  449.954  103.142    0.146    0.430    5.000
  450.204  106.726    0.144    0.420    4.984
  450.454  109.438    0.146    0.416    4.976
  450.704  111.370    0.155    0.425    4.994
  450.954  112.549    0.152    0.431    5.008
  451.204  111.039    0.148    0.435    5.075
  451.454  108.762    0.152    0.437    5.189
  451.704  105.748    0.158    0.434    5.297
  451.954  106.067    0.171    0.423    5.465
  452.204  110.994    0.182    0.412    5.543
  452.454  116.431    0.194    0.399    5.576
  452.704  119.203    0.176    0.410    5.536
  452.954  121.802    0.164    0.412    5.397
  453.204  121.739    0.179    0.402    5.328
  453.454  120.361    0.162    0.395    5.232
  453.704  119.457    0.171    0.392    5.113
  453.954  118.515    0.173    0.405    4.976
  454.204  119.975    0.158    0.412    4.918
  454.454  122.454    0.139    0.407    4.836
  454.704  124.033    0.134    0.409    4.780
  454.954  124.826    0.171    0.416    4.787
  455.204  122.528    0.180    0.408    4.769
  455.454  120.070    0.165    0.394    4.723
  455.704  117.832    0.152    0.387    4.518
  455.954  117.101    0.167    0.400    4.080
  456.204  121.540    0.173    0.414    3.675
  456.454  127.847    0.151    0.429    3.062
  456.704  136.491    0.168    0.449    2.810
  456.954  140.255    0.207    0.468    2.516
  457.204  140.121    0.229    0.496    2.319
  457.454  138.104    0.239    0.516    2.153
  457.704  135.412    0.236    0.528    2.065
  457.954  132.192    0.214    0.523    2.129
  458.204  125.995    0.230    0.526    2.453
  458.454  117.610    0.133    0.505    2.900
  458.704  108.638    0.120    0.414    3.743
  458.954   99.983    0.107    0.352    4.728
  459.204   99.841    0.091    0.364    5.495
  459.454  110.667    0.142    0.385    5.701
  459.704  116.227    0.174    0.411    5.618
  459.954  120.558    0.155    0.442    5.398
  460.204  117.287    0.137    0.437    5.042
  460.454  119.453    0.119    0.417    4.693
  460.704  123.937    0.133    0.421    4.399
  460.954  125.934    0.162    0.427    4.296
  461.204  122.631    0.176    0.431    4.334
  461.454  118.654    0.182    0.426    4.613
  461.704  110.992    0.131    0.413    4.986
  461.954  101.962    0.078    0.397    5.363
  462.204   94.319    0.075    0.386    5.844
  462.454  101.300    0.106    0.373    6.197
  462.704  113.116    0.127    0.396    5.387
  462.954  121.251    0.155    0.424    4.422
  463.204  128.407    0.172    0.449    3.827
  463.454  132.357    0.159    0.469    3.374
  463.704  137.017    0.153    0.486    3.103
  463.954  140.141    0.165    0.494    2.973
  464.204  139.533    0.184    0.490    2.935
  464.454  138.260    0.181    0.487    2.922
  464.704  137.316    0.175    0.483    2.882
  464.954  139.023    0.166    0.480    2.780
  465.204  140.282    0.169    0.480    2.808
  465.454  138.476    0.198    0.490    2.826
  465.704  135.904    0.198    0.490    2.833
  465.954  136.965    0.191    0.492    2.945
  466.204  138.403    0.172    0.479    3.017
  466.454  138.302    0.145    0.468    3.216
  466.704  135.246    0.125    0.461    3.436
  466.954  132.766    0.131    0.460    3.612
  467.204  131.887    0.176    0.465    3.623
  467.454  132.479    0.185    0.480    3.628
  467.704  133.605    0.179    0.468    3.620
  467.954  135.667    0.176    0.450    3.615
  468.204  136.294    0.187    0.438    3.637
  468.454  135.393    0.170    0.448    3.669
  468.704  132.945    0.152    0.449    3.785
  468.954  129.577    0.133    0.431    3.857
  469.204  127.895    0.118    0.428    4.078
  469.454  130.896    0.140    0.438    4.223
  469.704  134.009    0.152    0.444    4.208
  469.954  132.917    0.140    0.457    4.054
  470.204  111.892    0.160    0.462    4.163
  470.454  101.468    0.178    0.472    4.449
  470.704   91.456    0.174    0.411    5.693
  470.954   81.397    0.208    0.388    8.216
  471.204   72.444    0.225    0.382   10.800
  471.454   73.199    0.243    0.374   12.902
  471.704   79.371    0.244    0.366   14.704
  471.954   81.453    0.232    0.379   14.669
  472.204   78.654    0.232    0.389   12.927
  472.454   71.077    0.231    0.401   12.050
