~VERSION INFORMATION
 VERS.                 2.0:   CWLS LOG ASCII STANDARD -VERSION 2.0
 WRAP.                  NO:   ONE LINE PER DEPTH STEP
~WELL INFORMATION BLOCK
#MNEM.UNIT           DATA                    DESCRIPTION OF MNEMONIC
#---------    -------------------            -------------------------------
# Generated from Intellog Unique Number	CW_73_75/WELL/195
WELL.         10-12-074-26W4                 : Well_name    - WELL
LOC .         00/10-12-074-26W4/0            : Location     - LOCATION
UWI .         00/10-12-074-26W4/0            : Uwi          - UNIQUE WELL ID
ENTR.         JJ                             : Entered      - ENTERED BY
SRVC.         SCHLUMBERGER                   : Scn          - SERVICE COMPANY
DATE.         10 FEB 67                      : Date         - LOG DATE
STRT.M        475.488                        : top_depth    - START DEPTH
STOP.M        603.488                        : bot_depth    - STOP DEPTH
STEP.M        0.25                           : increment    - STEP LENGTH
 NULL. -999.2500:NULL Value
~CURVE INFORMATION BLOCK
#MNEM UNIT       ERCB CURVE CODE    CURVE DESCRIPTION
#-----------   ------------------   ----------------------------------
DEPT.M        00 001 00 00         : DEPTH        - DEPTH
DELT.US/F     00 520 00 00         : DELT         - SONIC TRAVEL TIME
GR  .API      00 310 00 00         : GR           - GAMMA RAY
CALI.MM       00 280 01 00         : CAL          - CALIPER
ILD .OHMM     00 120 00 00         : RESD         - DEEP RESISTIVITY (DIL)
~PARAMETER INFORMATION
#MNEM.UNIT           DATA             DESCRIPTION OF MNEMONIC
#---------         -----------     ------------------------------
GL  .M        677.479              : gl           - GROUND LEVEL ELEVATION
EREF.M        680.923              : kb           - ELEVATION OF DEPTH REFERENCE
DATM.M        677.479              : datum        - DATUM ELEVATION
TDD .M        606.552              : tdd          - TOTAL DEPTH DRILLER
RUN .         ONE                  : Run          - RUN NUMBER
ENG .         MCORE                : Engineer     - RECORDING ENGINEER
WIT .         RANSOM               : Witness      - WITNESSED BY
BASE.         S.L.                 : Branch       - HOME BASE OF LOGGING UNIT
MUD .         GEL                  : Mud_type     - MUD TYPE
MATR.         SANDSTONE            : Logunit      - NEUTRON MATRIX
TMAX.C        30                   : BHT          - MAXIMUM RECORDED TEMPERATURE
BHTD.M        605.638              : BHTDEP       - MAXIMUM RECORDED TEMPERATURE
RMT .C        14.4444              : MDTP         - TEMPERATURE OF MUD
MUDD.KG/M     1104                 : MWT          - MUD DENSITY
NEUT.         1                    : NEUTRON      - NEUTRON TYPE
RESI.         0                    : RESIST       - RESISTIVITY TYPE
RM  .OHMM     3.9                  : RM           - RESISTIVITY OF MUD
RMC .OHMM     3.6                  : RMC          - RESISTIVITY OF MUD CAKE
RMF .OHMM     4.8                  : RMF          - RESISTIVITY OF MUD FILTRATE
SUFT.C        5                    : SUFT         - SURFACE TEMPERATURE
~A  DEPTH     DELT       GR      CAL     RESD
# ...
  518.988  350.303   50.097  217.033    5.234
  519.238  351.046   49.301  217.453    5.201
  519.488  351.990   51.589  217.346    5.234
  519.738  359.322   54.374  217.556    5.572
  519.988  375.800   55.966  218.186    6.243
  520.238  388.983   56.612  219.659    7.488
  520.488  378.361   53.129  220.711    9.745
  520.738  284.761   48.203  221.553   11.815
  520.988  209.250   44.919  222.288   13.618
  521.238  253.701   42.679  222.708   14.555
  521.488  314.425   43.574  222.918   14.217
  521.738  331.508   47.603  223.127   13.322
  521.988  236.630   46.807  223.547   12.402
  522.238  211.283   47.602  223.967   10.353
  522.488  253.178   50.438  225.335    8.797
  522.738  295.007   53.323  223.754    7.695
  522.988  329.505   57.800  219.435    6.612
  523.238  360.978   61.879  217.644    5.223
  523.488  369.791   63.420  217.011    5.070
  523.738  367.709   59.290  217.009    5.386
  523.988  352.044   59.290  216.903    6.097
  524.238  336.514   60.334  216.796    6.686
  524.488  327.103   60.831  216.269    6.988
  524.738  312.581   59.935  216.267    7.118
  524.988  320.519   57.745  216.161    7.191
  525.238  332.155   56.551  216.055    7.306
  525.488  336.663   58.441  215.632    7.479
  525.738  318.712   60.082  215.631    7.656
  525.988  305.065   60.330  215.629    7.665
  526.238  302.715   59.036  215.628    7.469
  526.488  323.563   59.234  215.943    7.129
  526.738  332.644   60.328  216.152    6.708
  526.988  313.684   63.313  216.467    6.470
  527.238  326.127   65.352  216.887    6.193
  527.488  362.711   67.789  217.096    6.039
  527.738  374.213   70.127  217.622    5.942
  527.988  377.309   71.619  218.463    5.767
  528.238  375.161   71.270  218.883    5.633
  528.488  373.146   67.986  219.303    5.644
  528.738  371.064   65.796  219.723    5.654
  528.988  367.705   67.487  219.932    5.708
  529.238  364.211   70.770  220.141    5.800
  529.488  363.139   74.103  220.140    5.913
  529.738  363.679   76.789  220.455    5.943
  529.988  365.094   77.037  221.086    6.040
  530.238  366.510   71.763  222.348    6.091
  530.488  366.110   71.713  223.084    6.060
  530.738  362.952   71.712  223.399    6.067
  530.988  354.751   70.169  223.713    6.097
  531.238  361.143   68.726  223.396    6.150
  531.488  366.121   67.929  222.763    6.139
  531.738  365.721   74.993  221.709    6.068
  531.988  364.245   76.933  220.760    6.036
  532.238  360.011   71.310  219.600    5.984
  532.488  357.056   65.240  219.178    5.997
  532.738  357.932   65.239  218.439    6.047
  532.988  363.450   67.528  218.228    6.017
  533.238  363.452   70.761  218.437    5.923
  533.488  362.447   73.397  219.594    5.831
  533.738  363.056   76.978  222.541    5.699
  533.988  364.538   79.615  219.592    5.584
  534.238  366.827   81.555  219.591    5.573
  534.488  370.663   77.226  226.961    5.603
  534.738  370.935   72.250  219.799    6.191
  534.988  369.526   67.971  219.165    7.212
  535.238  360.250   64.637  219.585    8.127
  535.488  348.821   60.955  221.058    9.290
  535.738  332.820   57.223  223.479   10.867
  535.988  301.622   54.784  225.269   11.063
  536.238  225.572   53.838  226.636    9.961
  536.488  225.710   57.320  226.319    8.488
  536.738  294.032   64.584  224.633    7.529
  536.988  316.158   72.493  220.314    6.510
  537.238  348.775   75.776  224.841    6.111
  537.488  359.200   70.900  225.261    5.955
  537.738  360.078   69.855  219.573    5.923
  537.988  359.879   70.551  219.993    5.934
  538.238  356.587   69.704  222.414    5.967
  538.488  352.017   70.749  225.572    5.993
  538.738  351.684   70.897  229.362    6.067
  538.988  363.925   70.150  226.728    6.160
  539.238  361.373   68.757  221.988    6.273
  539.488  355.123   65.871  221.355    6.429
  539.738  353.310   65.024  224.302    6.562
  539.988  350.690   68.108  226.723    6.800
  540.238  337.043   69.849  226.722    6.953
  540.488  333.012   73.231  226.615    7.212
  540.738  345.925   71.490  226.719    7.322
  540.988  345.995   70.743  226.823    7.479
  541.238  328.583   71.190  226.927    7.508
  541.488  327.980   70.543  228.190    7.417
  541.738  358.848   69.199  232.296    7.281
  541.988  355.892   67.556  223.975    7.148
  542.238  340.766   70.541  221.762    7.054
  542.488  342.719   73.824  224.078    7.787
  542.738  345.546   72.530  228.605    8.148
  542.988  351.466   69.693  231.763    8.241
  543.238  352.343   65.464  223.337    8.168
  543.488  322.759   62.528  222.915    8.035
  543.738  278.987   71.085  223.019    7.858
  543.988  309.384   75.711  225.545    7.456
  544.238  338.504   78.198  230.704    7.116
  544.488  352.695   75.660  232.914    6.881
  544.738  352.294   74.415  229.753    7.055
  544.988  350.146   75.112  228.488    7.911
  545.238  348.938   75.857  229.330    7.775
  545.488  345.713   73.021  230.381    7.456
  545.738  336.706   71.826  231.117    7.180
  545.988  339.197   77.796  232.907    7.477
  546.238  348.211   79.934  240.803    8.785
  546.488  353.526   74.063  229.324   10.732
  546.738  355.412   61.973  220.161   14.123
  546.988  367.384   56.948  219.001   16.130
  547.238  378.146   52.967  219.316   18.717
  547.488  368.466   46.897  219.630   23.609
  547.738  299.544   43.065  220.682   30.419
  547.988  244.004   43.612  221.629   31.316
  548.238  226.726   45.502  223.418   29.574
  548.488  226.527   46.546  225.523   28.225
  548.738  247.039   47.043  225.521   24.114
  548.988  276.024   49.082  224.994   20.848
  549.238  359.947   49.679  224.045   20.200
  549.488  361.026   48.882  222.990   20.292
  549.738  352.960   50.076  221.831   20.838
  549.988  349.467   53.558  220.776   21.469
  550.238  348.124   50.522  219.932   22.016
  550.488  348.464   49.178  219.510   22.332
  550.738  349.408   48.183  219.193   22.816
  550.988  351.227   46.341  218.771   23.406
  551.238  354.793   44.599  218.980   23.661
  551.488  354.864   43.803  219.294   23.671
  551.738  352.514   44.698  219.188   23.229
  551.988  352.382   47.881  219.292   22.333
  552.238  356.084   49.672  219.817   21.210
  552.488  361.332   48.079  220.237   20.415
  552.738  365.907   45.989  220.868   20.096
  552.988  374.450   48.973  220.972   20.563
  553.238  375.327   51.361  220.655   21.085
  553.488  370.152   50.614  220.443   22.931
  553.738  361.077   48.524  220.126   24.362
  553.988  348.371   48.971  219.914   25.237
  554.238  340.507   50.612  220.018   25.762
  554.488  347.907   51.855  220.228   25.529
  554.738  353.625   52.850  219.700   25.189
  554.988  343.071   48.471  219.699   24.908
  555.238  334.400   49.068  216.117   24.074
  555.488  370.647   50.858  204.953   22.994
  555.738  383.897   51.305  207.795   22.364
  555.988  337.502   47.474  213.796   21.736
  556.238  294.873   45.732  219.061   21.353
  556.488  303.617   48.567  222.324   20.726
  556.738  313.505   50.955  223.376   20.611
  556.988  316.601   52.944  222.532   20.747
  557.238  317.075   52.347  221.688   20.694
  557.488  317.347   50.257  224.109   19.817
  557.738  314.660   50.156  226.530   17.150
  557.988  305.720   50.703  227.582   14.358
  558.238  297.721   51.797  226.843   11.875
  558.488  315.342   53.836  225.263    9.784
  558.738  350.312   57.020  223.050    8.373
  558.988  363.562   61.149  222.628    7.726
  559.238  350.788   66.073  228.839    7.302
  559.488  346.959   69.953  231.155    7.806
  559.738  346.020   69.206  230.627    8.990
  559.988  337.685   64.280  229.573   11.289
  560.238  330.627   60.598  228.940   13.771
  560.488  327.739   55.871  227.886   15.100
  560.738  313.284   54.279  226.937   16.367
  560.988  295.199   53.631  226.409   16.563
  561.238  287.065   53.631  226.407   15.771
  561.488  357.338   52.685  226.933   15.018
  561.738  369.377   47.908  227.669   14.184
  561.988  353.578   46.067  228.299   13.371
  562.238  339.796   48.305  226.613   12.658
