~VERSION INFORMATION
 VERS.                 2.0:   CWLS LOG ASCII STANDARD -VERSION 2.0
 WRAP.                  NO:   ONE LINE PER DEPTH STEP
~WELL INFORMATION BLOCK
#MNEM.UNIT           DATA                    DESCRIPTION OF MNEMONIC
#---------    -------------------            -------------------------------
# Generated from Intellog Unique Number	CS_71_72/WELL/875
WELL.         PEX PHILLIPS AEC GRIST         : Well_name    - WELL
LOC .         00/10-31-071-07W4/0            : Location     - LOCATION
UWI .         00/10-31-071-07W4/0            : Uwi          - UNIQUE WELL ID
ENTR.         SP                             : Entered      - ENTERED BY
SRVC.         SCHLUMBERGER                   : Scn          - SERVICE COMPANY
STRT.M        300                            : top_depth    - START DEPTH
STOP.M        520                            : bot_depth    - STOP DEPTH
STEP.M        0.25                           : increment    - STEP LENGTH
 NULL. -999.2500:NULL Value
~CURVE INFORMATION BLOCK
#MNEM UNIT       ERCB CURVE CODE    CURVE DESCRIPTION
#-----------   ------------------   ----------------------------------
DEPT.M        00 001 00 00         : DEPTH        - DEPTH
ILD .OHMM     00 120 00 00         : RESD         - DEEP RESISTIVITY (DIL)
DPHI.V/V      00 890 00 00         : PHID         - DENSITY POROSITY (LIMESTONE)
NPHI.V/V      00 330 00 00         : PHIN         - NEUTRON POROSITY (LIMESTONE)
GR  .API      00 310 00 00         : GR           - GAMMA RAY
~PARAMETER INFORMATION
#MNEM.UNIT           DATA             DESCRIPTION OF MNEMONIC
#---------         -----------     ------------------------------
GL  .M        660.2                : gl           - GROUND LEVEL ELEVATION
EREF.M        664                  : kb           - ELEVATION OF DEPTH REFERENCE
DATM.M        660.2                : datum        - DATUM ELEVATION
TDD .M        532                  : tdd          - TOTAL DEPTH DRILLER
RUN .         ONE                  : Run          - RUN NUMBER
ENG .         BILL                 : Engineer     - RECORDING ENGINEER
WIT .         JIM                  : Witness      - WITNESSED BY
MUD .         GEL                  : Mud_type     - MUD TYPE
MATR.         LIMESTONE            : Logunit      - NEUTRON MATRIX
TMAX.C        22                   : BHT          - MAXIMUM RECORDED TEMPERATURE
BHTD.M        532                  : BHTDEP       - MAXIMUM RECORDED TEMPERATURE
MATR.         1                    : LOGUNIT      - NEUTRON MATRIX
RMT .C        25                   : MDTP         - TEMPERATURE OF MUD
NEUT.         1                    : NEUTRON      - NEUTRON TYPE
RESI.         0                    : RESIST       - RESISTIVITY TYPE
RMC .OHMM     0.25                 : RMC          - RESISTIVITY OF MUD CAKE
RMF .OHMM     0.25                 : RMF          - RESISTIVITY OF MUD FILTRATE
SUFT.C        15                   : SUFT         - SURFACE TEMPERATURE
~A  DEPTH     RESD     PHID     PHIN       GR
  300.000    3.162    0.257    0.556   91.752
  300.250    3.111    0.262    0.554   89.127
  300.500    3.038    0.249    0.543   87.413
  300.750    3.005    0.233    0.532   86.187
  301.000    3.041    0.227    0.512   85.931
  301.250    3.089    0.222    0.519   85.979
  301.500    3.156    0.219    0.543   87.605
  301.750    3.182    0.225    0.503   89.414
  302.000    3.190    0.233    0.501   91.587
  302.250    3.216    0.240    0.513   92.911
  302.500    3.260    0.229    0.523   94.173
  302.750    3.312    0.215    0.535   93.614
  303.000    3.370    0.225    0.525   90.686
  303.250    3.430    0.236    0.533   90.309
  303.500    3.565    0.223    0.553   92.300
  303.750    3.668    0.207    0.578   92.894
  304.000    3.951    0.210    0.519   90.573
  304.250    4.097    0.211    0.509   86.310
  304.500    4.162    0.112    0.471   82.167
  304.750    4.188    0.241    0.477   85.798
  305.000    4.182    0.264    0.498   88.213
  305.250    4.030    0.268    0.513   85.469
  305.500    3.840    0.221    0.487   81.751
  305.750    3.686    0.218    0.509   84.954
  306.000    3.505    0.233    0.537   89.011
  306.250    3.365    0.240    0.542   91.368
  306.500    3.298    0.244    0.557   90.686
  306.750    3.331    0.244    0.571   87.213
  307.000    3.461    0.245    0.515   85.803
  307.250    3.658    0.233    0.521   87.429
  307.500    3.808    0.238    0.512   87.660
  307.750    3.919    0.242    0.493   86.978
  308.000    3.870    0.238    0.499   87.390
  308.250    3.687    0.247    0.513   86.892
  308.500    3.480    0.256    0.518   82.629
  308.750    3.398    0.263    0.496   80.915
  309.000    3.771    0.111    0.498   82.178
  309.250    4.379    0.093    0.504   75.424
  309.500    5.211    0.102    0.430   69.521
  309.750    6.296    0.195    0.423   67.139
  310.000    7.242    0.221    0.428   73.867
  310.250    7.828    0.236    0.441   78.045
  310.500    8.320    0.244    0.454   72.323
  310.750    8.661    0.223    0.448   62.291
  311.000    8.782    0.202    0.404   55.053
  311.250    8.720    0.223    0.392   55.343
  311.500    8.451    0.235    0.394   64.257
  311.750    8.251    0.198    0.398   72.925
  312.000    8.042    0.183    0.401   78.014
  312.250    7.895    0.187    0.386   81.038
  312.500    7.666    0.206    0.391   82.178
  312.750    7.443    0.218    0.395   82.894
  313.000    7.280    0.201    0.408   83.914
  313.250    7.176    0.190    0.425   85.115
  313.500    6.980    0.188    0.421   87.349
  313.750    6.802    0.219    0.419   83.936
  314.000    6.667    0.226    0.424   81.676
  314.250    6.546    0.215    0.429   85.428
  314.500    6.563    0.209    0.438   88.573
  314.750    6.641    0.203    0.450   91.171
  315.000    6.784    0.212    0.461   93.708
  315.250    6.904    0.227    0.464   95.880
  315.500    7.040    0.241    0.458   95.868
  315.750    7.178    0.220    0.455   92.394
  316.000    7.319    0.196    0.444   88.736
  316.250    7.393    0.198    0.422   87.024
  316.500    7.467    0.212    0.424   86.282
  316.750    7.585    0.197    0.432   87.059
  317.000    7.837    0.195    0.439   90.750
  317.250    8.266    0.187    0.432   92.742
  317.500    8.986    0.175    0.451   86.778
  317.750    9.918    0.244    0.446   79.356
  318.000   10.740    0.217    0.409   79.768
  318.250   11.632    0.167    0.413   78.419
  318.500   12.293    0.139    0.403   69.055
  318.750   12.557    0.132    0.369   62.363
  319.000   12.589    0.251    0.385   56.398
  319.250   12.455    0.270    0.408   51.043
  319.500   12.322    0.282    0.384   46.232
  319.750   12.032    0.291    0.384   42.758
  320.000   11.571    0.297    0.387   40.255
  320.250   10.881    0.299    0.382   40.121
  320.500   10.097    0.295    0.373   47.942
  320.750    9.317    0.290    0.369   58.615
  321.000    8.645    0.221    0.365   74.452
  321.250    8.159    0.168    0.370   85.612
  321.500    7.572    0.169    0.389   92.582
  321.750    6.986    0.148    0.414   97.730
  322.000    6.187    0.126    0.436   95.106
  322.250    6.084    0.122    0.456   94.486
  322.500    5.753    0.146    0.479  102.125
  322.750    5.279    0.173    0.504  109.641
  323.000    4.926    0.195    0.523  109.809
  323.250    4.597    0.219    0.529  105.486
  323.500    4.290    0.188    0.528  103.834
  323.750    3.959    0.166    0.513  106.128
  324.000    3.605    0.196    0.516  107.148
  324.250    3.264    0.225    0.527  105.008
  324.500    3.175    0.244    0.539  104.208
  324.750    4.136    0.258    0.545  104.923
  325.000    6.010    0.265    0.547   93.432
  325.250    7.933    0.274    0.529   78.118
  325.500    9.494    0.295    0.472   59.463
  325.750   10.839    0.321    0.437   49.977
  326.000   11.673    0.340    0.412   45.469
  326.250   11.724    0.344    0.391   43.940
  326.500   11.555    0.344    0.379   43.501
  326.750   11.389    0.338    0.393   43.246
  327.000   11.247    0.330    0.404   43.231
  327.250   11.106    0.336    0.402   45.405
  327.500   11.030    0.342    0.387   52.559
  327.750   11.036    0.346    0.386   63.536
  328.000   11.043    0.349    0.398   75.243
  328.250   11.091    0.351    0.406   89.378
  328.500   11.097    0.352    0.407  101.936
  328.750   11.146    0.348    0.418  109.938
  329.000   11.152    0.342    0.409  101.424
  329.250   11.117    0.345    0.410   94.365
  329.500   11.145    0.350    0.419   90.344
  329.750   11.152    0.348    0.427   86.022
  330.000   11.117    0.345    0.434   84.977
  330.250   11.102    0.341    0.419   91.704
  330.500   11.109    0.340    0.407   97.642
  330.750   11.094    0.344    0.407   92.042
  331.000   11.081    0.346    0.396   89.540
  331.250   11.066    0.348    0.398   98.939
  331.500   11.052    0.346    0.410  111.191
  331.750   10.976    0.342    0.416  120.531
  332.000   11.002    0.333    0.426  127.682
  332.250   11.071    0.329    0.430  110.425
  332.500   11.099    0.339    0.420   97.599
  332.750   11.212    0.345    0.419   88.903
  333.000   11.281    0.338    0.438   83.182
  333.250   11.438    0.324    0.436   81.468
  333.500   11.640    0.313    0.445   80.120
  333.750   11.757    0.305    0.461   77.556
  334.000   11.854    0.301    0.475   75.480
  334.250   11.839    0.301    0.481   74.677
  334.500   11.823    0.202    0.457   76.485
  334.750   11.786    0.117    0.437   78.233
  335.000   11.793    0.076    0.432   75.609
  335.250   11.756    0.118    0.444   67.460
  335.500   11.696    0.214    0.459   62.771
  335.750   11.681    0.319    0.452   58.144
  336.000   11.644    0.340    0.442   53.636
  336.250   11.542    0.340    0.436   49.735
  336.500   11.355    0.341    0.431   47.599
  336.750   11.213    0.346    0.432   46.493
  337.000   11.135    0.350    0.439   48.786
  337.250   11.100    0.352    0.431   50.656
  337.500   11.127    0.345    0.422   52.223
  337.750   11.134    0.335    0.416   53.485
  338.000   11.121    0.330    0.428   55.414
  338.250   11.105    0.331    0.437   58.256
  338.500   11.029    0.337    0.445   60.976
  338.750   10.973    0.341    0.443   64.727
  339.000   10.918    0.321    0.432   69.330
  339.250   10.822    0.274    0.425   75.390
  339.500   10.727    0.264    0.430   79.688
  339.750   10.693    0.264    0.435   81.618
  340.000   10.639    0.269    0.424   83.123
  340.250   10.605    0.271    0.411   85.175
  340.500   10.552    0.266    0.420   83.764
  340.750   10.499    0.273    0.441   81.566
  341.000   10.426    0.285    0.458   84.225
  341.250   10.199    0.275    0.447   87.249
  341.500    9.884    0.263    0.438   90.332
  341.750    9.614    0.258    0.439   92.688
  342.000    9.458    0.277    0.457   85.812
  342.250    9.446    0.329    0.477   78.450
  342.500    9.613    0.366    0.485   73.947
  342.750    9.894    0.304    0.463   71.565
  343.000    9.900    0.269    0.445   77.866
  343.250    9.486    0.261    0.431   88.906
