~VERSION INFORMATION
 VERS.                 2.0:   CWLS LOG ASCII STANDARD -VERSION 2.0
 WRAP.                  NO:   ONE LINE PER DEPTH STEP
~WELL INFORMATION BLOCK
#MNEM.UNIT           DATA                    DESCRIPTION OF MNEMONIC
#---------    -------------------            -------------------------------
# Generated from Intellog Unique Number	CC_84_87/WELL/2308
NULL.         -999.25                        : NULL_VALUE
WELL.         SUNCOR CHEECHAM                : Well_name    - WELL              
LOC .         10-29-084-06W4                 : Location     - LOCATION          
UWI .         00/10-29-084-06W4/0            : Uwi          - UNIQUE WELL ID    
ENTR.         JHS                            : Entered      - ENTERED BY        
SRVC.         SCHLUMBERGER                   : Scn          - SERVICE COMPANY   
DATE.         16 FEB 81                      : Date         - LOG DATE
STRT.M        110                            : top_depth    - START DEPTH       
STOP.M        284.9                          : bot_depth    - STOP DEPTH        
STEP.M        0.3                            : increment    - STEP LENGTH       
~CURVE INFORMATION BLOCK
#MNEM UNIT       ERCB CURVE CODE    CURVE DESCRIPTION
#-----------   ------------------   ----------------------------------
DEPT.M        00 001 00 00         : DEPTH        - DEPTH                       
DPHI.V/V      00 890 00 00         : PHID         - DENSITY POROSITY (LIMESTONE)
NPHI.V/V      00 330 00 00         : PHIN         - NEUTRON POROSITY (LIMESTONE)
GR  .API      00 310 00 00         : GR           - GAMMA RAY                   
ILD .OHMM     00 120 00 00         : RESD         - DEEP RESISTIVITY (DIL)      
~PARAMETER INFORMATION       
#MNEM.UNIT           DATA             DESCRIPTION OF MNEMONIC
#---------         -----------     ------------------------------
GL  .M        491.2                : gl           - GROUND LEVEL ELEVATION      
EREF.M        494.9                : kb           - ELEVATION OF DEPTH REFERENCE
DATM.M        494.9                : datum        - DATUM ELEVATION             
TDD .M        289.5                : tdd          - TOTAL DEPTH DRILLER         
RUN .         ONE                  : Run          - RUN NUMBER                  
ENG .         BILL                 : Engineer     - RECORDING ENGINEER          
WIT .         JIM                  : Witness      - WITNESSED BY                
MUD .         GEL                  : Mud_type     - MUD TYPE                    
MATR.         LIMESTONE            : Logunit      - NEUTRON MATRIX              
TMAX.C        20                   : BHT          - MAXIMUM RECORDED TEMPERATURE
BHTD.M        289.5                : BHTDEP       - MAXIMUM RECORDED TEMPERATURE
MATR.         1                    : LOGUNIT      - NEUTRON MATRIX              
RMT .C        25                   : MDTP         - TEMPERATURE OF MUD          
NEUT.         1                    : NEUTRON      - NEUTRON TYPE                
RESI.         0                    : RESIST       - RESISTIVITY TYPE            
RMC .OHMM     0.25                 : RMC          - RESISTIVITY OF MUD CAKE     
RMF .OHMM     0.25                 : RMF          - RESISTIVITY OF MUD FILTRATE 
SUFT.C        15                   : SUFT         - SURFACE TEMPERATURE         
~A  DEPTH     PHID     PHIN       GR     RESD
  110.000    0.289    0.404   53.050    6.625
  110.300    0.313    0.454   51.225    6.632
  110.600    0.333    0.442   50.009    6.517
  110.900    0.329    0.426   53.672    6.527
  111.200    0.331    0.432   54.286    6.414
  111.500    0.327    0.418   58.558    6.301
  111.800    0.335    0.410   61.612    6.191
  112.100    0.322    0.429   61.616    6.196
  112.400    0.323    0.435   60.400    6.091
  112.700    0.335    0.425   58.576    5.982
  113.000    0.327    0.415   57.360    5.879
  113.300    0.315    0.435   56.755    5.776
  113.600    0.315    0.437   57.978    5.676
  113.900    0.293    0.441   60.421    5.685
  114.200    0.295    0.417   63.474    5.688
  114.500    0.288    0.395   65.308    5.696
  114.800    0.305    0.430   67.751    5.809
  115.100    0.316    0.435   68.365    6.038
  115.400    0.310    0.421   66.539    6.159
  115.700    0.323    0.443   64.104    6.168
  116.000    0.326    0.435   59.841    6.061
  116.300    0.308    0.420   62.286    5.953
  116.600    0.277    0.449   64.118    5.851
  116.900    0.269    0.475   66.560    5.748
  117.200    0.251    0.483   75.102    5.648
  117.500    0.253    0.449   82.422    5.448
  117.800    0.245    0.469   90.963    5.155
  118.100    0.256    0.498   95.236    4.528
  118.400    0.274    0.524   97.680    4.051
  118.700    0.276    0.514   97.074    3.558
  119.000    0.273    0.531   94.029    3.243
  119.300    0.259    0.567   90.375    3.129
  119.600    0.268    0.581   91.598    3.251
  119.900    0.261    0.594   90.993    3.444
  120.200    0.283    0.518   84.290    3.785
  120.500    0.291    0.476   79.415    4.161
  120.800    0.302    0.476   75.151    4.575
  121.100    0.290    0.472   70.887    4.666
  121.400    0.323    0.470   70.281    4.501
  121.700    0.320    0.477   72.115    4.422
  122.000    0.327    0.488   76.388    4.428
  122.300    0.320    0.489   75.782    4.516
  122.600    0.319    0.474   80.664    4.782
  122.900    0.327    0.447   77.010    4.879
  123.200    0.309    0.448   77.015    4.884
  123.500    0.292    0.470   80.677    4.798
  123.800    0.296    0.471   81.901    4.805
  124.100    0.296    0.470   86.783    4.721
  124.400    0.300    0.465   94.714    4.726
  124.700    0.296    0.448   99.596    4.732
  125.000    0.301    0.453   97.162    4.827
  125.300    0.279    0.460   96.555    4.743
  125.600    0.255    0.471  100.828    4.574
  125.900    0.269    0.487   99.003    4.410
  126.200    0.284    0.509   98.397    4.021
  126.500    0.274    0.548   95.353    3.531
  126.800    0.284    0.563   95.968    3.044
  127.100    0.279    0.548   98.410    2.724
  127.400    0.281    0.549   98.415    2.530
  127.700    0.275    0.500   97.199    2.440
  128.000    0.280    0.502   97.203    2.397
  128.300    0.282    0.521   94.158    2.539
  128.600    0.282    0.535   90.504    2.739
  128.900    0.285    0.514   89.289    3.127
  129.200    0.273    0.493   88.073    3.437
  129.500    0.273    0.500   88.688    3.924
  129.800    0.275    0.526   91.130    4.234
  130.100    0.274    0.546   89.305    4.483
  130.400    0.276    0.526   85.041    4.928
  130.700    0.313    0.476   78.948    5.317
  131.000    0.329    0.470   72.855    5.631
  131.300    0.340    0.457   69.200    5.744
  131.600    0.330    0.440   64.937    5.539
  131.900    0.332    0.432   61.891    5.343
  132.200    0.336    0.434   58.236    5.449
  132.500    0.334    0.439   55.192    5.770
  132.800    0.330    0.446   55.806    5.463
  133.100    0.341    0.462   55.810    5.366
  133.400    0.334    0.477   55.205    5.474
  133.700    0.316    0.461   53.990    6.487
  134.000    0.245    0.362   51.555    7.831
  134.300    0.192    0.294   49.729    9.280
  134.600    0.216    0.290   49.734    9.465
  134.900    0.266    0.327   52.786    8.468
  135.200    0.305    0.417   55.231    7.437
  135.500    0.280    0.419   52.185    7.307
  135.800    0.229    0.378   43.652    9.508
  136.100    0.000    0.237   39.998   14.641
  136.400    0.000    0.158   40.612   20.921
  136.700    0.034    0.207   47.934   19.430
  137.000    0.074    0.274   53.425   14.151
  137.300    0.270    0.348   58.917    6.700
  137.600    0.319    0.428   59.531    5.360
  137.900    0.324    0.444   61.365    5.266
  138.200    0.341    0.444   64.418    5.371
  138.500    0.333    0.451   63.812    5.585
  138.800    0.337    0.450   65.645    5.697
  139.100    0.329    0.449   65.040    5.705
  139.400    0.316    0.453   66.264    5.816
  139.700    0.297    0.457   69.317    5.823
  140.000    0.307    0.451   69.931    5.830
  140.300    0.294    0.472   69.325    5.837
  140.600    0.306    0.482   68.110    5.843
  140.900    0.327    0.469   66.285    5.849
  141.200    0.321    0.451   65.069    5.856
  141.500    0.320    0.437   63.855    5.650
  141.800    0.319    0.440   62.639    5.551
  142.100    0.293    0.424   60.814    5.556
  142.400    0.309    0.424   62.037    5.460
  142.700    0.313    0.461   65.091    5.465
  143.000    0.309    0.458   63.875    5.473
  143.300    0.324    0.451   60.221    5.479
  143.600    0.305    0.468   63.275    5.485
  143.900    0.310    0.467   63.888    5.491
  144.200    0.320    0.445   62.672    5.602
  144.500    0.313    0.450   60.238    5.713
  144.800    0.321    0.462   60.851    5.938
  145.100    0.330    0.463   62.684    6.057
  145.400    0.341    0.453   63.299    6.178
  145.700    0.332    0.442   62.084    6.071
  146.000    0.323    0.443   60.868    5.966
  146.300    0.321    0.451   62.092    5.754
  146.600    0.322    0.452   63.315    5.654
  146.900    0.303    0.450   65.148    5.767
  147.200    0.284    0.440   65.153    5.993
  147.500    0.262    0.432   63.328    6.466
  147.800    0.232    0.416   62.113    7.109
  148.100    0.174    0.382   60.897    7.528
  148.400    0.222    0.394   60.901    7.537
  148.700    0.266    0.443   61.515    7.405
  149.000    0.304    0.443   62.738    7.009
  149.300    0.301    0.452   66.401    6.041
  149.600    0.309    0.443   65.186    6.048
  149.900    0.315    0.436   62.142    6.286
  150.200    0.323    0.449   62.756    6.293
  150.500    0.325    0.454   62.150    6.301
  150.800    0.317    0.458   61.544    6.427
  151.100    0.284    0.446   60.329    7.200
  151.400    0.217    0.400   57.894    9.725
  151.700    0.064    0.327   54.849   15.547
  152.000    0.069    0.282   51.806   15.568
  152.300    0.242    0.345   56.077   13.167
  152.600    0.298    0.426   70.106    9.770
  152.900    0.300    0.454   73.159    7.387
  153.200    0.312    0.465   71.945    6.487
  153.500    0.317    0.463   71.948    6.494
  153.800    0.301    0.448   75.611    6.263
  154.100    0.288    0.442   79.883    5.711
  154.400    0.272    0.452   83.546    5.305
  154.700    0.263    0.470   85.989    4.836
  155.000    0.277    0.497   84.164    4.841
  155.300    0.271    0.496   82.339    4.757
  155.600    0.246    0.486   83.563    4.675
  155.900    0.249    0.476   88.445    4.425
  156.200    0.269    0.492   93.327    4.188
  156.500    0.279    0.523   96.990    3.747
  156.800    0.284    0.535   96.994    3.547
  157.100    0.269    0.530   93.949    3.551
  157.400    0.268    0.522   88.466    3.622
  157.700    0.280    0.511   86.031    3.982
  158.000    0.293    0.503   87.254    4.378
  158.300    0.294    0.508   86.040    4.636
  158.600    0.286    0.531   84.824    4.729
  158.900    0.346    0.548   85.438    4.647
  159.201    0.310    0.501   83.612    4.317
  159.501    0.301    0.477   85.446    4.011
  159.801    0.292    0.497   89.109    3.725
  160.101    0.261    0.499   93.992    3.525
  160.401    0.280    0.509   95.824    3.337
  160.701    0.286    0.541   97.658    3.158
  161.001    0.294    0.550   96.443    2.879
  161.301    0.285    0.563   96.447    2.675
  161.601    0.297    0.591   97.671    2.439
  161.901    0.305    0.585  100.115    2.352
