~VERSION INFORMATION
 VERS.                 2.0:   CWLS LOG ASCII STANDARD -VERSION 2.0
 WRAP.                  NO:   ONE LINE PER DEPTH STEP
~WELL INFORMATION BLOCK
#MNEM.UNIT           DATA                    DESCRIPTION OF MNEMONIC
#---------    -------------------            -------------------------------
# Generated from Intellog Unique Number	CC_80_83/WELL/2326
WELL.         NOVALTA NEWBY                  : Well_name    - WELL
LOC .         00/12-07-083-04W4/0            : Location     - LOCATION
UWI .         00/12-07-083-04W4/0            : Uwi          - UNIQUE WELL ID
ENTR.         DW                             : Entered      - ENTERED BY
SRVC.         SCHLUMBERGER                   : Scn          - SERVICE COMPANY
STRT.M        70                             : top_depth    - START DEPTH
STOP.M        279.75                         : bot_depth    - STOP DEPTH
STEP.M        0.25                           : increment    - STEP LENGTH
 NULL. -999.2500:NULL Value
~CURVE INFORMATION BLOCK
#MNEM UNIT       ERCB CURVE CODE    CURVE DESCRIPTION
#-----------   ------------------   ----------------------------------
DEPT.M        00 001 00 00         : DEPTH        - DEPTH
GR  .API      00 310 00 00         : GR           - GAMMA RAY
DPHI.V/V      00 890 00 00         : PHID         - DENSITY POROSITY (SANDSTONE)
NPHI.V/V      00 330 00 00         : PHIN         - NEUTRON POROSITY (SANDSTONE)
ILD .OHMM     00 120 00 00         : RESD         - DEEP RESISTIVITY (DIL)
~PARAMETER INFORMATION
#MNEM.UNIT           DATA             DESCRIPTION OF MNEMONIC
#---------         -----------     ------------------------------
GL  .M        462.29               : gl           - GROUND LEVEL ELEVATION
EREF.M        465.29               : kb           - ELEVATION OF DEPTH REFERENCE
DATM.M        465.29               : datum        - DATUM ELEVATION
TDD .M        288.9                : tdd          - TOTAL DEPTH DRILLER
RUN .         ONE                  : Run          - RUN NUMBER
ENG .         BILL                 : Engineer     - RECORDING ENGINEER
WIT .         JIM                  : Witness      - WITNESSED BY
MUD .         GEL                  : Mud_type     - MUD TYPE
MATR.         SANDSTONE            : Logunit      - NEUTRON MATRIX
TMAX.C        19                   : BHT          - MAXIMUM RECORDED TEMPERATURE
BHTD.M        288.9                : BHTDEP       - MAXIMUM RECORDED TEMPERATURE
MATR.         1                    : LOGUNIT      - NEUTRON MATRIX
RMT .C        25                   : MDTP         - TEMPERATURE OF MUD
NEUT.         1                    : NEUTRON      - NEUTRON TYPE
RESI.         0                    : RESIST       - RESISTIVITY TYPE
RMC .OHMM     0.25                 : RMC          - RESISTIVITY OF MUD CAKE
RMF .OHMM     0.25                 : RMF          - RESISTIVITY OF MUD FILTRATE
SUFT.C        15                   : SUFT         - SURFACE TEMPERATURE
~A  DEPTH       GR     PHID     PHIN     RESD
# ...
  157.000   82.094    0.318    0.442    6.759
  157.250   86.608    0.291    0.433    6.691
  157.500   91.562    0.277    0.425    6.161
  157.750   95.387    0.279    0.425    5.705
  158.000   97.728    0.281    0.441    4.997
  158.250   99.131    0.284    0.467    4.013
  158.500  101.323    0.283    0.481    3.769
  158.750  105.408    0.269    0.496    3.609
  159.000  108.827    0.265    0.509    3.999
  159.250  106.261    0.281    0.511    4.764
  159.500   97.373    0.298    0.501    5.399
  159.750   89.121    0.299    0.471    5.750
  160.000   87.731    0.284    0.433    5.389
  160.250   91.573    0.276    0.445    3.547
  160.500  102.878    0.287    0.455    2.801
  160.750  111.994    0.294    0.460    2.682
  161.000  113.849    0.289    0.471    2.472
  161.250  112.102    0.284    0.479    2.448
  161.500  110.682    0.288    0.485    2.533
  161.750  112.432    0.290    0.500    2.651
  162.000  116.413    0.286    0.516    2.834
  162.250  117.637    0.267    0.512    3.151
  162.500  116.470    0.253    0.490    3.468
  162.750  114.380    0.255    0.481    3.759
  163.000  110.105    0.261    0.494    4.206
  163.250  107.380    0.267    0.471    4.704
  163.500  105.525    0.269    0.417    5.166
  163.750  102.582    0.267    0.416    5.722
  164.000  100.155    0.271    0.451    6.119
  164.250   98.447    0.269    0.457    6.290
  164.500   94.648    0.250    0.448    6.605
  164.750   91.293    0.256    0.425    6.912
  165.000   90.856    0.263    0.417    7.354
  165.250   93.129    0.266    0.436    7.747
  165.500   95.230    0.276    0.467    8.161
  165.750   96.088    0.283    0.484    8.689
  166.000   96.520    0.269    0.472    9.088
  166.250   94.098    0.268    0.445    9.373
  166.500   90.909    0.281    0.447    9.707
  166.750   88.063    0.295    0.440    9.814
  167.000   85.850    0.302    0.418    9.820
  167.250   84.607    0.307    0.404    9.736
  167.500   84.155    0.312    0.401    9.257
  167.750   84.047    0.312    0.426    8.952
  168.000   85.774    0.299    0.453    8.782
  168.250   92.835    0.289    0.445    8.752
  168.500   99.805    0.284    0.432    9.121
  168.750  102.756    0.272    0.433    9.688
  169.000  106.468    0.256    0.418    9.969
  169.250  108.168    0.242    0.404   10.303
  169.500  103.511    0.243    0.398   10.390
  169.750  100.696    0.252    0.394   10.262
  170.000  100.746    0.256    0.392   10.077
  170.250   99.425    0.255    0.394    9.655
  170.500   98.460    0.254    0.402    8.737
  170.750   98.347    0.257    0.427    7.676
  171.000   99.456    0.269    0.445    7.156
  171.250  102.120    0.271    0.449    7.079
  171.500  106.741    0.258    0.442    7.111
  171.750  111.635    0.246    0.430    7.295
  172.000  112.125    0.238    0.425    7.792
  172.250  105.997    0.236    0.430    8.310
  172.500  101.140    0.248    0.441    8.722
  172.750   97.469    0.270    0.436    9.142
  173.000   94.473    0.286    0.418    9.095
  173.250   93.472    0.292    0.401    8.162
  173.500   93.553    0.290    0.383    6.706
  173.750   95.070    0.263    0.390    5.197
  174.000  102.896    0.257    0.447    4.355
  174.250  115.429    0.258    0.487    4.000
  174.500  118.495    0.252    0.496    3.834
  174.750  110.012    0.249    0.502    3.810
  175.000  106.590    0.250    0.491    3.878
  175.250  109.096    0.258    0.480    4.047
  175.500  110.662    0.261    0.470    4.403
  175.750  108.740    0.263    0.486    4.900
  176.000  102.017    0.272    0.501    5.470
  176.250   92.502    0.282    0.474    5.927
  176.500   88.031    0.286    0.429    6.088
  176.750   92.914    0.290    0.417    5.923
  177.000   98.359    0.278    0.415    4.607
  177.250  104.059    0.274    0.449    3.512
  177.500  108.449    0.282    0.487    3.316
  177.750  110.084    0.283    0.485    3.419
  178.000  108.534    0.284    0.464    3.658
  178.250   97.952    0.285    0.431    4.321
  178.500   99.234    0.286    0.417    5.295
  178.750  104.885    0.249    0.414    6.462
  179.000   93.717    0.204    0.411    7.669
  179.250   75.604    0.232    0.406    8.459
  179.500   76.918    0.317    0.407    8.529
  179.750   81.239    0.331    0.433    8.600
  180.000   83.421    0.346    0.470    9.339
  180.250   80.909    0.271    0.365   10.221
  180.500   72.281    0.145    0.226   11.004
  180.750   66.405    0.083    0.197   11.579
  181.000   71.373    0.106    0.187   11.518
  181.250   73.515    0.258    0.202   11.050
  181.500   76.196    0.308    0.219   10.003
  181.750   76.556    0.311    0.335    8.975
  182.000   74.243    0.317    0.437    8.259
  182.250   73.259    0.294    0.427    8.105
  182.500   74.506    0.277    0.431    8.675
  182.750   77.442    0.290    0.429    8.833
  183.000   80.766    0.309    0.424    8.935
  183.250   75.626    0.306    0.418    9.089
  183.500   71.393    0.248    0.404    8.797
  183.750   78.045    0.174    0.406    8.059
  184.000   87.507    0.178    0.448    7.461
  184.250   97.364    0.233    0.467    6.882
  184.500  100.817    0.251    0.458    6.565
  184.750  102.341    0.255    0.442    6.574
  185.000  104.238    0.265    0.429    6.711
  185.250  105.086    0.264    0.416    6.794
  185.500  104.930    0.253    0.403    6.911
  185.750  102.420    0.245    0.394    7.252
  186.000  105.739    0.240    0.382    7.425
  186.250  110.092    0.237    0.402    7.505
  186.500  105.156    0.236    0.426    7.658
  186.750   96.719    0.240    0.423    7.722
  187.000   99.351    0.246    0.418    7.588
  187.250  105.216    0.245    0.409    7.501
  187.500  108.620    0.242    0.406    6.950
  187.750  109.955    0.241    0.398    5.715
  188.000  109.317    0.252    0.425    4.299
  188.250  105.008    0.276    0.484    3.280
  188.500   96.959    0.300    0.508    2.745
  188.750   88.448    0.308    0.518    2.556
  189.000   83.468    0.308    0.516    2.558
  189.250   85.324    0.300    0.509    2.673
  189.500   91.217    0.291    0.507    2.900
  189.750   91.741    0.287    0.504    3.274
  190.000   83.355    0.284    0.484    3.774
  190.250   79.331    0.269    0.444    4.235
  190.500   83.389    0.260    0.428    4.495
  190.750   85.843    0.256    0.425    4.646
  191.000   86.474    0.250    0.420    5.011
  191.250   88.500    0.243    0.423    5.446
  191.500   88.919    0.238    0.430    5.497
  191.750   91.129    0.236    0.416    5.505
  192.000   91.285    0.235    0.405    5.388
  192.250   93.043    0.238    0.402    5.101
  192.500   99.292    0.248    0.412    4.568
  192.750  107.079    0.268    0.435    3.973
  193.000  111.863    0.291    0.459    3.700
  193.250  110.965    0.277    0.486    3.580
  193.500  104.837    0.259    0.489    3.508
  193.750  101.140    0.256    0.481    3.498
  194.000  100.324    0.262    0.475    3.474
  194.250   99.477    0.264    0.476    3.427
  194.500  100.128    0.263    0.488    3.493
  194.750  101.731    0.263    0.495    3.612
  195.000  107.159    0.258    0.492    3.631
  195.250  103.589    0.243    0.472    3.635
  195.500   98.264    0.231    0.446    3.590
  195.750  101.409    0.233    0.449    3.473
  196.000  103.250    0.244    0.483    3.425
  196.250  104.256    0.259    0.493    3.419
  196.500  105.705    0.266    0.456    3.468
  196.750  107.110    0.266    0.439    3.512
  197.000  106.171    0.263    0.452    3.612
  197.250  103.477    0.254    0.459    3.796
  197.500  102.048    0.242    0.454    3.978
  197.750  100.057    0.237    0.427    4.183
  198.000   97.737    0.238    0.414    4.227
  198.250   96.789    0.239    0.416    4.177
  198.500   97.546    0.237    0.426    4.083
  198.750   99.421    0.234    0.438    3.954
  199.000  102.671    0.232    0.446    3.902
  199.250  107.382    0.228    0.462    3.961
  199.500  109.852    0.227    0.463    4.016
  199.750  102.529    0.221    0.437    4.145
  200.000   97.881    0.214    0.428    4.392
  200.250  102.811    0.212    0.447    4.671
