~VERSION INFORMATION
 VERS.                 2.0:   CWLS LOG ASCII STANDARD -VERSION 2.0
 WRAP.                  NO:   ONE LINE PER DEPTH STEP
~WELL INFORMATION BLOCK
#MNEM.UNIT           DATA                    DESCRIPTION OF MNEMONIC
#---------    -------------------            -------------------------------
# Generated from Intellog Unique Number	CS_73_76/WELL/3253
WELL.         HOME LIESMER                   : Well_name    - WELL
LOC .         00/10-34-075-07W4/0            : Location     - LOCATION
UWI .         00/10-34-075-07W4/0            : Uwi          - UNIQUE WELL ID
ENTR.         SP                             : Entered      - ENTERED BY
SRVC.         SCHLUMBERGER                   : Scn          - SERVICE COMPANY
STRT.M        222.504                        : top_depth    - START DEPTH
STOP.M        438.754                        : bot_depth    - STOP DEPTH
STEP.M        0.25                           : increment    - STEP LENGTH
 NULL. -999.2500:NULL Value
~CURVE INFORMATION BLOCK
#MNEM UNIT       ERCB CURVE CODE    CURVE DESCRIPTION
#-----------   ------------------   ----------------------------------
DEPT.M        00 001 00 00         : DEPTH        - DEPTH
GR  .API      00 310 00 00         : GR           - GAMMA RAY
DPHI.V/V      00 890 00 00         : PHID         - DENSITY POROSITY (SANDSTONE)
NPHI.V/V      00 330 00 00         : PHIN         - NEUTRON POROSITY (SANDSTONE)
ILD .OHMM     00 120 00 00         : RESD         - DEEP RESISTIVITY (DIL)
~PARAMETER INFORMATION
#MNEM.UNIT           DATA             DESCRIPTION OF MNEMONIC
#---------         -----------     ------------------------------
GL  .M        624.764              : gl           - GROUND LEVEL ELEVATION
EREF.M        628.025              : kb           - ELEVATION OF DEPTH REFERENCE
DATM.M        624.764              : datum        - DATUM ELEVATION
TDD .M        518.16               : tdd          - TOTAL DEPTH DRILLER
RUN .         ONE                  : Run          - RUN NUMBER
ENG .         BILL                 : Engineer     - RECORDING ENGINEER
WIT .         JIM                  : Witness      - WITNESSED BY
MUD .         GEL                  : Mud_type     - MUD TYPE
MATR.         SANDSTONE            : Logunit      - NEUTRON MATRIX
TMAX.C        20.5556              : BHT          - MAXIMUM RECORDED TEMPERATURE
BHTD.M        518.16               : BHTDEP       - MAXIMUM RECORDED TEMPERATURE
MATR.         1                    : LOGUNIT      - NEUTRON MATRIX
RMT .C        25                   : MDTP         - TEMPERATURE OF MUD
NEUT.         1                    : NEUTRON      - NEUTRON TYPE
RESI.         0                    : RESIST       - RESISTIVITY TYPE
RMC .OHMM     0.25                 : RMC          - RESISTIVITY OF MUD CAKE
RMF .OHMM     0.25                 : RMF          - RESISTIVITY OF MUD FILTRATE
SUFT.C        15                   : SUFT         - SURFACE TEMPERATURE
~A  DEPTH       GR     PHID     PHIN     RESD
# ...
  396.504   92.509    0.034    0.301    7.855
  396.754  101.526    0.015    0.339    7.423
  397.004  107.715    0.048    0.370    6.721
  397.254  110.382    0.083    0.382    5.996
  397.504  113.610    0.128    0.395    5.582
  397.754  116.800    0.135    0.420    5.001
  398.004  113.606    0.127    0.449    4.939
  398.254  106.474    0.121    0.443    5.157
  398.504  103.667    0.133    0.402    5.829
  398.754  104.365    0.120    0.368    6.659
  399.004  107.565    0.122    0.371    7.112
  399.254  111.934    0.127    0.384    7.503
  399.504  111.222    0.134    0.403    7.244
  399.754  106.679    0.097    0.417    6.802
  400.004  110.295    0.061    0.433    6.317
  400.254  113.111    0.066    0.435    5.909
  400.504  110.569    0.121    0.436    5.555
  400.754  109.096    0.144    0.437    5.214
  401.004  109.904    0.140    0.434    5.012
  401.254  110.857    0.165    0.432    4.782
  401.504  111.081    0.155    0.440    4.629
  401.754  109.760    0.151    0.449    4.586
  402.004  110.213    0.151    0.465    4.512
  402.254  110.616    0.151    0.471    4.414
  402.504  109.204    0.147    0.462    4.422
  402.754  109.621    0.145    0.466    4.418
  403.004  110.605    0.150    0.482    4.393
  403.254  112.252    0.137    0.503    4.335
  403.504  113.291    0.127    0.491    4.333
  403.754  113.470    0.118    0.487    4.327
  404.004  113.520    0.129    0.491    4.410
  404.254  112.302    0.139    0.495    4.311
  404.504  110.381    0.138    0.482    4.415
  404.754  108.915    0.134    0.478    4.406
  405.004  108.099    0.122    0.477    4.405
  405.254  108.156    0.113    0.474    4.404
  405.504  109.745    0.128    0.475    4.400
  405.754  110.227    0.141    0.475    4.370
  406.004  113.015    0.150    0.473    4.318
  406.254  110.819    0.154    0.479    4.324
  406.504  107.939    0.140    0.495    4.225
  406.754  107.007    0.126    0.491    4.235
  407.004  108.715    0.119    0.483    4.145
  407.254  110.076    0.123    0.490    4.137
  407.504  109.495    0.132    0.495    4.072
  407.754  109.471    0.145    0.497    4.072
  408.004  109.476    0.154    0.493    4.071
  408.254  109.024    0.158    0.490    4.067
  408.504  108.230    0.145    0.486    4.036
  408.754  108.283    0.153    0.505    3.992
  409.004  108.669    0.159    0.528    3.990
  409.254  109.245    0.160    0.541    3.988
  409.504  107.125    0.148    0.548    3.987
  409.754  106.495    0.137    0.539    3.985
  410.004  106.514    0.134    0.523    3.984
  410.254  107.082    0.151    0.510    3.982
  410.504  107.462    0.161    0.499    3.981
  410.754  106.149    0.147    0.513    3.979
  411.004  101.352    0.135    0.517    3.977
  411.254  102.438    0.126    0.509    3.976
  411.504  103.764    0.136    0.521    3.974
  411.754  105.671    0.135    0.544    3.981
  412.004  103.357    0.131    0.560    3.891
  412.254  101.173    0.113    0.550    3.897
  412.504   99.333    0.098    0.535    3.896
  412.754   98.847    0.107    0.510    3.894
  413.004   99.413    0.134    0.491    3.893
  413.254  100.163    0.153    0.480    3.931
  413.504   99.434    0.144    0.472    4.058
  413.754   98.959    0.144    0.479    4.112
  414.004   97.988    0.147    0.487    4.110
  414.254   97.064    0.139    0.490    4.108
  414.504   96.989    0.141    0.491    4.101
  414.754   99.848    0.151    0.478    4.223
  415.004  101.369    0.157    0.467    4.257
  415.254  100.430    0.149    0.481    4.257
  415.504  100.146    0.138    0.502    4.253
  415.754  100.772    0.128    0.508    4.253
  416.004  100.380    0.127    0.519    4.167
  416.254  100.340    0.128    0.510    4.171
  416.504  101.338    0.126    0.498    4.171
  416.754  103.017    0.115    0.492    4.200
  417.004  103.960    0.096    0.491    4.437
  417.254  105.000    0.110    0.488    4.793
  417.504  105.096    0.118    0.481    5.053
  417.754  104.385    0.112    0.476    5.315
  418.004  103.481    0.103    0.471    5.545
  418.254  101.841    0.105    0.469    5.866
  418.504   99.572    0.112    0.465    6.039
  418.754   96.391    0.104    0.451    6.549
  419.004   94.495    0.084    0.435    6.993
  419.254   92.521    0.059    0.399    7.378
  419.504   87.442    0.042    0.378    7.757
  419.754   87.675    0.030    0.357    7.960
  420.004   89.506    0.057    0.332    7.942
  420.254   88.107    0.092    0.349    7.914
  420.504   84.445    0.113    0.356    8.283
  420.754   82.430    0.117    0.355    8.394
  421.004   83.129    0.114    0.353    8.403
  421.254   81.668    0.120    0.356    8.225
  421.504   82.534    0.123    0.360    8.022
  421.754   86.891    0.147    0.365    7.532
  422.004   99.316    0.146    0.379    7.082
  422.254  102.093    0.103    0.394    6.884
  422.504  102.116    0.089    0.415    6.530
  422.754  101.158    0.101    0.441    6.229
  423.004   98.489    0.121    0.418    6.104
  423.254   97.459    0.130    0.410    5.968
  423.504   97.460    0.132    0.443    6.077
  423.754   98.183    0.109    0.433    6.323
  424.004   98.161    0.087    0.425    6.585
  424.254   94.338    0.103    0.418    6.911
  424.504   86.603    0.114    0.415    7.168
  424.754   83.777    0.113    0.407    7.466
  425.004   85.853    0.099    0.393    7.680
  425.254   84.764    0.090    0.388    8.097
  425.504   81.369    0.101    0.388    8.324
  425.754   74.903    0.109    0.386    8.862
  426.004   70.042    0.138    0.384    9.216
  426.254   69.064    0.174    0.379    9.625
  426.504   72.855    0.173    0.371   10.025
  426.754   74.954    0.171    0.363   10.213
  427.004   78.073    0.168    0.353   10.193
  427.254   80.853    0.150    0.370   10.261
  427.504   73.651    0.129    0.388   10.591
  427.754   64.464    0.161    0.405   10.867
  428.004   50.083    0.196    0.422   11.658
  428.254   40.980    0.224    0.432   14.553
  428.504   37.157    0.278    0.438   19.639
  428.754   36.208    0.263    0.442   26.055
  429.004   36.874    0.253    0.443   31.356
  429.254   38.536    0.249    0.435   35.533
  429.504   40.764    0.252    0.422   38.155
  429.754   40.147    0.240    0.400   38.612
  430.004   38.112    0.237    0.427   39.788
  430.254   37.819    0.253    0.439   40.033
  430.504   41.007    0.252    0.436   40.676
  430.754   43.181    0.246    0.430   38.827
  431.004   45.501    0.241    0.424   35.696
  431.254   47.416    0.223    0.414   33.017
  431.504   49.976    0.211    0.401   29.402
  431.754   47.295    0.196    0.407   27.078
  432.004   42.610    0.184    0.414   25.425
  432.254   38.505    0.214    0.433   24.534
  432.504   39.301    0.242    0.433   23.788
  432.754   41.915    0.251    0.427   23.309
  433.004   44.511    0.230    0.426   22.822
  433.254   45.445    0.225    0.426   22.838
  433.504   45.502    0.234    0.422   23.704
  433.754   45.489    0.256    0.420   24.688
  434.004   44.985    0.252    0.436   25.514
  434.254   44.337    0.270    0.444   26.053
  434.504   43.751    0.261    0.414   25.985
  434.754   42.336    0.244    0.404   26.225
  435.004   41.022    0.230    0.414   24.743
  435.254   39.637    0.239    0.424   22.830
  435.504   36.999    0.259    0.425   21.223
  435.754   35.034    0.220    0.413   19.753
  436.004   31.477    0.219    0.367   18.287
  436.254   28.677    0.135    0.339   17.327
  436.504   23.630    0.145    0.299   17.254
  436.754   21.756    0.099    0.275   17.691
  437.004   21.388    0.055    0.247   20.318
  437.254   21.055    0.040    0.228   22.929
  437.504   27.006    0.022    0.201   26.972
  437.754   77.947    0.003    0.176   31.608
  438.004   78.867    0.000    0.162   38.151
  438.254   79.792   -0.000    0.154   44.316
  438.504   80.739   -0.000    0.147   48.083
  438.754   80.705    0.000    0.140   50.311
