~VERSION INFORMATION
 VERS.                 2.0:   CWLS LOG ASCII STANDARD -VERSION 2.0
 WRAP.                  NO:   ONE LINE PER DEPTH STEP
~WELL INFORMATION BLOCK
#MNEM.UNIT           DATA                    DESCRIPTION OF MNEMONIC
#---------    -------------------            -------------------------------
# Generated from Intellog Unique Number	CS_71_72/WELL/909
WELL.         BVX-PCP ET AL DUNCAN           : Well_name    - WELL
LOC .         00/11-30-071-14W4/0            : Location     - LOCATION
UWI .         00/11-30-071-14W4/0            : Uwi          - UNIQUE WELL ID
ENTR.         SP                             : Entered      - ENTERED BY
SRVC.         SCHLUMBERGER                   : Scn          - SERVICE COMPANY
STRT.M        350                            : top_depth    - START DEPTH
STOP.M        535                            : bot_depth    - STOP DEPTH
STEP.M        0.25                           : increment    - STEP LENGTH
 NULL. -999.2500:NULL Value
~CURVE INFORMATION BLOCK
#MNEM UNIT       ERCB CURVE CODE    CURVE DESCRIPTION
#-----------   ------------------   ----------------------------------
DEPT.M        00 001 00 00         : DEPTH        - DEPTH
ILD .OHMM     00 120 00 00         : RESD         - DEEP RESISTIVITY (DIL)
DPHI.V/V      00 890 00 00         : PHID         - DENSITY POROSITY (LIMESTONE)
NPHI.V/V      00 330 00 00         : PHIN         - NEUTRON POROSITY (LIMESTONE)
GR  .API      00 310 00 00         : GR           - GAMMA RAY
~PARAMETER INFORMATION
#MNEM.UNIT           DATA             DESCRIPTION OF MNEMONIC
#---------         -----------     ------------------------------
GL  .M        668.81               : gl           - GROUND LEVEL ELEVATION
EREF.M        672.81               : kb           - ELEVATION OF DEPTH REFERENCE
DATM.M        668.81               : datum        - DATUM ELEVATION
TDD .M        536                  : tdd          - TOTAL DEPTH DRILLER
RUN .         ONE                  : Run          - RUN NUMBER
ENG .         BILL                 : Engineer     - RECORDING ENGINEER
WIT .         JIM                  : Witness      - WITNESSED BY
MUD .         GEL                  : Mud_type     - MUD TYPE
MATR.         LIMESTONE            : Logunit      - NEUTRON MATRIX
TMAX.C        25                   : BHT          - MAXIMUM RECORDED TEMPERATURE
BHTD.M        536                  : BHTDEP       - MAXIMUM RECORDED TEMPERATURE
MATR.         1                    : LOGUNIT      - NEUTRON MATRIX
RMT .C        25                   : MDTP         - TEMPERATURE OF MUD
NEUT.         1                    : NEUTRON      - NEUTRON TYPE
RESI.         0                    : RESIST       - RESISTIVITY TYPE
RMC .OHMM     0.25                 : RMC          - RESISTIVITY OF MUD CAKE
RMF .OHMM     0.25                 : RMF          - RESISTIVITY OF MUD FILTRATE
SUFT.C        15                   : SUFT         - SURFACE TEMPERATURE
~A  DEPTH     RESD     PHID     PHIN       GR
# ...
  393.500    3.942    0.266    0.418  101.759
  393.750    4.045    0.260    0.425  100.593
  394.000    4.236    0.268    0.439   92.954
  394.250    4.378    0.273    0.450   84.094
  394.500    4.417    0.288    0.458   76.943
  394.750    4.405    0.293    0.449   71.502
  395.000    4.411    0.291    0.440   69.177
  395.250    4.441    0.301    0.429   69.232
  395.500    4.539    0.307    0.429   70.693
  395.750    4.631    0.312    0.424   70.873
  396.000    4.804    0.307    0.413   69.951
  396.250    4.985    0.304    0.415   68.236
  396.500    5.182    0.304    0.469   66.765
  396.750    5.267    0.312    0.506   66.944
  397.000    5.273    0.322    0.507   70.298
  397.250    5.172    0.326    0.457   72.491
  397.500    4.885    0.305    0.423   72.548
  397.750    4.667    0.285    0.425   69.673
  398.000    4.483    0.277    0.440   68.447
  398.250    4.405    0.298    0.451   70.640
  398.500    4.386    0.308    0.432   71.369
  398.750    4.408    0.297    0.423   71.057
  399.000    4.497    0.289    0.432   69.648
  399.250    4.553    0.282    0.446   69.216
  399.500    4.602    0.272    0.444   69.700
  399.750    4.642    0.275    0.434   72.993
  400.000    4.621    0.282    0.443   80.623
  400.250    4.541    0.269    0.461   90.633
  400.500    4.354    0.238    0.472   95.209
  400.750    4.215    0.220    0.456   99.357
  401.000    4.204    0.224    0.482  102.162
  401.250    4.265    0.248    0.479  104.234
  401.500    4.343    0.260    0.467  105.023
  401.750    4.414    0.252    0.468  104.346
  402.000    4.452    0.253    0.484  103.119
  402.250    4.492    0.266    0.490  101.221
  402.500    4.582    0.277    0.472   97.675
  402.750    4.639    0.279    0.461   90.828
  403.000    4.689    0.288    0.457   87.710
  403.250    4.730    0.294    0.466   84.223
  403.500    4.762    0.302    0.466   82.814
  403.750    4.840    0.296    0.466   86.046
  404.000    4.901    0.282    0.462   89.461
  404.250    4.907    0.276    0.450   92.388
  404.500    4.904    0.269    0.468   97.208
  404.750    4.836    0.265    0.470  102.638
  405.000    4.708    0.264    0.442  106.054
  405.250    4.531    0.268    0.421  108.676
  405.500    4.297    0.274    0.445  109.159
  405.750    4.128    0.281    0.491  106.894
  406.000    4.102    0.272    0.515  103.348
  406.250    4.561    0.247    0.455  100.900
  406.500    4.822    0.231    0.440  103.033
  406.750    5.117    0.238    0.450  101.440
  407.000    5.340    0.248    0.441  100.763
  407.250    5.489    0.254    0.434  102.896
  407.500    5.642    0.246    0.433  103.196
  407.750    5.734    0.242    0.429   96.839
  408.000    5.817    0.250    0.415   90.056
  408.250    5.846    0.253    0.398   90.356
  408.500    5.875    0.246    0.392   93.527
  408.750    5.904    0.241    0.392   96.453
  409.000    5.878    0.240    0.400   97.914
  409.250    5.798    0.249    0.415   99.129
  409.500    5.579    0.258    0.430   99.127
  409.750    5.361    0.275    0.447   78.417
  410.000    5.064    0.308    0.445   67.481
  410.250    4.765    0.344    0.431   63.872
  410.500    4.544    0.343    0.424   63.745
  410.750    4.357    0.342    0.419   64.473
  411.000    4.210    0.342    0.425   65.324
  411.250    4.129    0.346    0.433   67.150
  411.500    4.134    0.351    0.440   69.894
  411.750    4.170    0.342    0.436   73.187
  412.000    4.222    0.332    0.428   75.380
  412.250    4.299    0.327    0.432   74.949
  412.500    4.428    0.335    0.442   70.119
  412.750    4.628    0.342    0.446   72.740
  413.000    4.793    0.329    0.446   75.972
  413.250    4.917    0.316    0.446   78.532
  413.500    5.016    0.306    0.449   78.528
  413.750    5.042    0.307    0.454   77.241
  414.000    5.076    0.299    0.444   84.076
  414.250    5.035    0.276    0.417   94.514
  414.500    4.883    0.252    0.434  101.472
  414.750    4.780    0.231    0.459  106.598
  415.000    4.768    0.230    0.475  104.149
  415.250    4.818    0.237    0.486  101.763
  415.500    4.833    0.242    0.483  100.903
  415.750    4.885    0.235    0.466  101.508
  416.000    4.909    0.229    0.480  102.114
  416.250    4.961    0.222    0.472  102.354
  416.500    5.024    0.217    0.463  102.166
  416.750    5.154    0.231    0.472  101.001
  417.000    5.307    0.243    0.487  102.645
  417.250    5.414    0.254    0.478  103.618
  417.500    5.462    0.264    0.459   99.704
  417.750    5.347    0.274    0.445   93.469
  418.000    5.195    0.283    0.449   90.839
  418.250    5.019    0.292    0.455   88.268
  418.500    4.839    0.300    0.459   86.493
  418.750    4.773    0.312    0.463   85.449
  419.000    4.962    0.321    0.469   85.261
  419.250    5.139    0.322    0.474   87.516
  419.500    5.331    0.309    0.476   90.932
  419.750    5.449    0.278    0.461   94.469
  420.000    5.487    0.253    0.448   97.456
  420.250    5.524    0.251    0.459   99.037
  420.500    5.521    0.259    0.466   98.851
  420.750    5.414    0.269    0.453   93.534
  421.000    5.310    0.294    0.460   76.427
  421.250    5.159    0.317    0.465   70.620
  421.500    5.041    0.328    0.448   65.180
  421.750    4.926    0.329    0.437   61.572
  422.000    4.821    0.327    0.433   59.674
  422.250    4.773    0.327    0.429   62.296
  422.500    4.726    0.326    0.438   64.550
  422.750    4.794    0.325    0.448   64.240
  423.000    4.799    0.327    0.440   60.632
  423.250    4.787    0.335    0.424   59.466
  423.500    4.766    0.342    0.415   59.278
  423.750    4.728    0.348    0.425   60.068
  424.000    4.698    0.346    0.422   61.650
  424.250    4.686    0.339    0.402   62.318
  424.500    4.621    0.332    0.403   63.473
  424.750    4.610    0.341    0.414   67.499
  425.000    4.590    0.336    0.415   70.976
  425.250    4.638    0.335    0.419   68.283
  425.500    4.661    0.339    0.427   64.920
  425.750    4.632    0.343    0.432   61.311
  426.000    4.594    0.346    0.421   60.452
  426.250    4.548    0.344    0.412   61.668
  426.500    4.528    0.342    0.407   64.717
  426.750    4.534    0.335    0.419   67.277
  427.000    4.556    0.330    0.437   68.799
  427.250    4.579    0.326    0.445   65.313
  427.500    4.592    0.338    0.458   56.452
  427.750    4.590    0.355    0.470   53.089
  428.000    4.604    0.372    0.460   54.611
  428.250    4.653    0.358    0.443   58.573
  428.500    4.694    0.344    0.432   60.829
  428.750    4.806    0.331    0.429   63.085
  429.000    5.063    0.322    0.431   65.644
  429.250    5.464    0.334    0.437   66.679
  429.500    5.964    0.322    0.452   66.980
  429.750    6.559    0.292    0.465   67.096
  430.000    7.079    0.254    0.230   67.580
  430.250    7.386    0.107    0.212   59.636
  430.500    7.353    0.232    0.387   66.166
  430.750    6.999    0.294    0.410   70.681
  431.000    6.226    0.318    0.436   73.301
  431.250    5.517    0.310    0.447   76.106
  431.500    5.066    0.301    0.456   77.384
  431.750    4.822    0.312    0.443   76.219
  432.000    4.702    0.325    0.432   73.038
  432.250    4.709    0.337    0.427   70.346
  432.500    4.714    0.332    0.429   70.097
  432.750    4.702    0.329    0.432   72.169
  433.000    4.699    0.334    0.434   76.255
  433.250    4.670    0.348    0.449   78.022
  433.500    4.597    0.342    0.462   78.689
  433.750    4.517    0.318    0.472   86.073
  434.000    4.356    0.290    0.479   90.833
  434.250    4.084    0.268    0.465   94.676
  434.500    3.779    0.245    0.455   97.969
  434.750    3.549    0.231    0.460  100.956
  435.000    3.284    0.241    0.458  103.089
  435.250    3.245    0.241    0.446  104.978
  435.500    3.268    0.227    0.452  105.950
  435.750    3.390    0.230    0.484  104.357
  436.000    3.645    0.231    0.473  101.238
  436.250    3.869    0.229    0.460   98.301
  436.500    4.152    0.241    0.449   99.090
  436.750    4.463    0.257    0.455   99.635
