~VERSION INFORMATION
 VERS.                 2.0:   CWLS LOG ASCII STANDARD -VERSION 2.0
 WRAP.                  NO:   ONE LINE PER DEPTH STEP
~WELL INFORMATION BLOCK
#MNEM.UNIT           DATA                    DESCRIPTION OF MNEMONIC
#---------    -------------------            -------------------------------
# Generated from Intellog Unique Number	CS_73_76/WELL/3266
WELL.         BOW VALLEY EXPLORATION         : Well_name    - WELL
LOC .         00/11-21-075-15W4/0            : Location     - LOCATION
UWI .         00/11-21-075-15W4/0            : Uwi          - UNIQUE WELL ID
ENTR.         SP                             : Entered      - ENTERED BY
SRVC.         SCHLUMBERGER                   : Scn          - SERVICE COMPANY
STRT.M        425                            : top_depth    - START DEPTH
STOP.M        610                            : bot_depth    - STOP DEPTH
STEP.M        0.25                           : increment    - STEP LENGTH
 NULL. -999.2500:NULL Value
~CURVE INFORMATION BLOCK
#MNEM UNIT       ERCB CURVE CODE    CURVE DESCRIPTION
#-----------   ------------------   ----------------------------------
DEPT.M        00 001 00 00         : DEPTH        - DEPTH
ILD .OHMM     00 120 00 00         : RESD         - DEEP RESISTIVITY (DIL)
DPHI.V/V      00 890 00 00         : PHID         - DENSITY POROSITY (LIMESTONE)
NPHI.V/V      00 330 00 00         : PHIN         - NEUTRON POROSITY (LIMESTONE)
GR  .API      00 310 00 00         : GR           - GAMMA RAY
~PARAMETER INFORMATION
#MNEM.UNIT           DATA             DESCRIPTION OF MNEMONIC
#---------         -----------     ------------------------------
GL  .M        790.66               : gl           - GROUND LEVEL ELEVATION
EREF.M        793.69               : kb           - ELEVATION OF DEPTH REFERENCE
DATM.M        790.66               : datum        - DATUM ELEVATION
TDD .M        619                  : tdd          - TOTAL DEPTH DRILLER
RUN .         ONE                  : Run          - RUN NUMBER
ENG .         BILL                 : Engineer     - RECORDING ENGINEER
WIT .         JIM                  : Witness      - WITNESSED BY
MUD .         GEL                  : Mud_type     - MUD TYPE
MATR.         LIMESTONE            : Logunit      - NEUTRON MATRIX
TMAX.C        12.2                 : BHT          - MAXIMUM RECORDED TEMPERATURE
BHTD.M        619                  : BHTDEP       - MAXIMUM RECORDED TEMPERATURE
MATR.         1                    : LOGUNIT      - NEUTRON MATRIX
RMT .C        25                   : MDTP         - TEMPERATURE OF MUD
NEUT.         1                    : NEUTRON      - NEUTRON TYPE
RESI.         0                    : RESIST       - RESISTIVITY TYPE
RMC .OHMM     0.25                 : RMC          - RESISTIVITY OF MUD CAKE
RMF .OHMM     0.25                 : RMF          - RESISTIVITY OF MUD FILTRATE
SUFT.C        15                   : SUFT         - SURFACE TEMPERATURE
~A  DEPTH     RESD     PHID     PHIN       GR
# ...
  555.500    5.986    0.200    0.406   69.327
  555.750    5.985    0.228    0.407   67.514
  556.000    6.094    0.272    0.415   65.098
  556.250    5.979    0.309    0.418   62.074
  556.500    5.977    0.315    0.425   60.260
  556.750    5.975    0.304    0.427   57.841
  557.000    6.085    0.304    0.431   57.246
  557.250    6.548    0.302    0.419   58.471
  557.500    7.870    0.284    0.376   59.090
  557.750   11.372    0.241    0.248   57.277
  558.000   16.431    0.186    0.176   54.860
  558.250   22.882    0.069    0.160   54.261
  558.500   24.623    0.042    0.176   54.272
  558.750   20.855    0.056    0.206   56.713
  559.000   16.108    0.080    0.288   58.544
  559.250   11.348    0.134    0.343   60.987
  559.500    8.143    0.184    0.379   61.602
  559.750    7.025    0.233    0.401   62.222
  560.000    6.404    0.290    0.413   62.838
  560.250    5.947    0.312    0.417   64.065
  560.500    5.522    0.306    0.422   66.506
  560.750    5.322    0.311    0.423   68.946
  561.000    5.222    0.313    0.421   70.168
  561.250    5.125    0.310    0.426   72.002
  561.500    5.124    0.300    0.420   73.838
  561.750    5.028    0.297    0.420   74.452
  562.000    5.026    0.294    0.428   75.070
  562.250    5.024    0.295    0.427   74.472
  562.500    5.022    0.297    0.432   73.270
  562.750    4.929    0.298    0.435   72.672
  563.000    4.927    0.279    0.434   75.721
  563.250    4.926    0.258    0.423   76.945
  563.500    4.924    0.219    0.417   72.704
  563.750    5.202    0.205    0.404   66.644
  564.000    5.599    0.193    0.384   66.044
  564.250    5.806    0.187    0.397   69.698
  564.500    5.805    0.233    0.423   71.533
  564.750    5.592    0.287    0.441   71.542
  565.000    5.289    0.281    0.440   73.983
  565.250    5.096    0.274    0.436   75.207
  565.500    5.002    0.259    0.428   75.218
  565.750    4.909    0.263    0.428   76.444
  566.000    4.818    0.281    0.434   77.668
  566.250    4.815    0.289    0.438   76.465
  566.500    4.814    0.281    0.449   75.261
  566.750    4.813    0.281    0.458   74.668
  567.000    4.810    0.277    0.455   74.674
  567.250    4.809    0.273    0.443   74.082
  567.500    4.807    0.279    0.441   74.089
  567.750    4.895    0.286    0.447   72.885
  568.000    4.894    0.288    0.448   74.113
  568.250    4.892    0.290    0.450   75.943
  568.500    4.981    0.294    0.444   75.953
  568.750    4.979    0.296    0.441   75.967
  569.000    4.978    0.298    0.435   75.368
  569.250    5.068    0.297    0.433   71.736
  569.500    5.067    0.288    0.436   69.922
  569.750    5.452    0.268    0.445   65.688
  570.000    6.315    0.237    0.432   63.875
  570.250    6.923    0.169    0.394   62.667
  570.500    7.450    0.092    0.284   63.894
  570.750    7.870    0.127    0.337   67.552
  571.000    7.582    0.168    0.379   68.773
  571.250    6.913    0.233    0.409   70.607
  571.500    6.420    0.266    0.425   71.832
  571.750    5.746    0.260    0.425   72.450
  572.000    5.639    0.260    0.420   73.672
  572.250    5.434    0.265    0.415   76.114
  572.500    5.333    0.268    0.421   76.123
  572.750    5.330    0.275    0.422   76.742
  573.000    5.328    0.269    0.423   77.358
  573.250    5.326    0.256    0.428   79.193
  573.500    5.424    0.248    0.427   81.028
  573.750    5.422    0.246    0.428   81.040
  574.000    5.420    0.255    0.431   80.443
  574.250    5.519    0.246    0.426   80.449
  574.500    5.518    0.249    0.422   79.245
  574.750    5.617    0.250    0.427   77.435
  575.000    5.615    0.243    0.428   76.837
  575.250    5.613    0.244    0.419   78.063
  575.500    5.716    0.244    0.415   81.112
  575.750    5.715    0.244    0.422   82.337
  576.000    5.608    0.241    0.426   82.955
  576.250    5.606    0.240    0.418   83.572
  576.500    5.605    0.239    0.412   86.621
  576.750    5.500    0.234    0.405   87.845
  577.000    5.203    0.226    0.412   89.676
  577.250    4.743    0.220    0.418   90.901
  577.500    4.486    0.227    0.423   90.912
  577.750    4.166    0.239    0.429   90.926
  578.000    4.014    0.245    0.431   89.112
  578.250    3.940    0.236    0.429   81.834
  578.500    3.938    0.222    0.419   75.772
  578.750    4.317    0.234    0.418   73.960
  579.000    4.820    0.253    0.430   77.013
  579.250    5.687    0.248    0.433   76.410
  579.500    6.962    0.236    0.435   71.566
  579.750    7.917    0.209    0.434   69.752
  580.000    8.364    0.072    0.397   67.335
  580.250    8.361    0.107    0.256   69.775
  580.500    7.621    0.137    0.249   77.075
  580.750    7.343    0.167    0.316   82.549
  581.000    6.947    0.193    0.371   89.847
  581.250    6.572    0.219    0.396   93.503
  581.500    6.215    0.181    0.408   92.908
  581.750    6.100    0.145    0.413   92.914
  582.000    6.098    0.135    0.377  100.820
  582.250    5.985    0.151    0.356  148.809
  582.500    5.765    0.171    0.381  158.535
  582.750    5.764    0.185    0.402  171.304
  583.000    5.657    0.188    0.425  159.773
  583.250    5.654    0.198    0.415  137.919
  583.500    5.653    0.204    0.409  125.176
  583.750    5.756    0.194    0.414  108.183
  584.000    5.969    0.193    0.425  102.727
  584.250    6.079    0.192    0.423  103.955
  584.500    6.305    0.196    0.419  103.963
  584.750    6.660    0.202    0.411   99.116
  585.000    6.909    0.199    0.402  100.342
  585.250    7.165    0.185    0.402  101.567
  585.500    7.568    0.177    0.406   98.543
  585.750    7.850    0.188    0.416   94.908
  586.000    8.143    0.185    0.424   90.061
  586.250    8.762    0.169    0.397   86.428
  586.500   10.338    0.147    0.366   84.007
  586.750   11.126    0.096    0.343   85.233
  587.000   12.195    0.085    0.333   88.889
  587.250   12.648    0.082    0.335   93.152
  587.500   10.910    0.082    0.330   96.199
  587.750    9.072    0.099    0.344   98.028
  588.000    7.684    0.139    0.373  101.081
  588.250    6.629    0.178    0.391  101.087
  588.500    6.043    0.192    0.413  100.489
  588.750    5.931    0.192    0.423  103.537
  589.000    5.929    0.192    0.415  107.195
  589.250    5.926    0.183    0.402  109.028
  589.500    5.924    0.184    0.391  109.647
  589.750    5.922    0.209    0.392  110.261
  590.000    5.921    0.195    0.396  107.842
  590.250    5.704    0.190    0.396  102.994
  590.500    5.396    0.192    0.396   98.756
  590.750    5.011    0.189    0.399   95.126
  591.000    4.918    0.181    0.409   93.917
  591.250    4.916    0.163    0.421   91.499
  591.500    4.736    0.143    0.424   95.156
  591.750    4.648    0.102    0.387   96.984
  592.000    4.562    0.145    0.404   96.994
  592.250    4.159    0.179    0.415   94.578
  592.500    3.154    0.214    0.413   93.983
  592.750    2.436    0.212    0.427   93.994
  593.000    2.102    0.206    0.448   94.610
  593.250    1.813    0.253    0.467   91.582
  593.500    1.747    0.263    0.490   89.166
  593.750    1.683    0.270    0.504   89.782
  594.000    1.683    0.273    0.518   91.007
  594.250    1.713    0.284    0.521   94.666
  594.500    1.745    0.260    0.525   96.493
  594.750    1.843    0.240    0.520   98.936
  595.000    2.020    0.248    0.507   98.947
  595.250    2.473    0.225    0.508   98.955
  595.500    2.711    0.213    0.495   95.322
  595.750    3.199    0.204    0.481   93.514
  596.000    3.774    0.188    0.424   98.385
  596.250    4.291    0.176    0.381  100.214
  596.500    4.791    0.186    0.400  102.652
  596.750    4.969    0.189    0.419  100.841
  597.000    5.347    0.189    0.430   98.422
  597.250    5.346    0.187    0.405   97.219
  597.500    5.443    0.192    0.392   99.659
  597.750    5.442    0.207    0.412  100.885
  598.000    5.439    0.198    0.429   97.861
  598.250    5.437    0.182    0.441   91.796
  598.500    5.436    0.164    0.424   89.380
  598.750    5.535    0.141    0.406   89.995
