~VERSION INFORMATION
 VERS.                 2.0:   CWLS LOG ASCII STANDARD -VERSION 2.0
 WRAP.                  NO:   ONE LINE PER DEPTH STEP
~WELL INFORMATION BLOCK
#MNEM.UNIT           DATA                    DESCRIPTION OF MNEMONIC
#---------    -------------------            -------------------------------
# Generated from Intellog Unique Number	CS_71_72/WELL/919
WELL.         AMOCO AEC IPIATIK              : Well_name    - WELL
LOC .         00/12-26-072-05W4/0            : Location     - LOCATION
UWI .         00/12-26-072-05W4/0            : Uwi          - UNIQUE WELL ID
ENTR.         SP                             : Entered      - ENTERED BY
SRVC.         SCHLUMBERGER                   : Scn          - SERVICE COMPANY
STRT.M        315                            : top_depth    - START DEPTH
STOP.M        525                            : bot_depth    - STOP DEPTH
STEP.M        0.25                           : increment    - STEP LENGTH
 NULL. -999.2500:NULL Value
~CURVE INFORMATION BLOCK
#MNEM UNIT       ERCB CURVE CODE    CURVE DESCRIPTION
#-----------   ------------------   ----------------------------------
DEPT.M        00 001 00 00         : DEPTH        - DEPTH
ILD .OHMM     00 120 00 00         : RESD         - DEEP RESISTIVITY (DIL)
DPHI.V/V      00 890 00 00         : PHID         - DENSITY POROSITY (LIMESTONE)
NPHI.V/V      00 330 00 00         : PHIN         - NEUTRON POROSITY (LIMESTONE)
GR  .API      00 310 00 00         : GR           - GAMMA RAY
~PARAMETER INFORMATION
#MNEM.UNIT           DATA             DESCRIPTION OF MNEMONIC
#---------         -----------     ------------------------------
GL  .M        693.7                : gl           - GROUND LEVEL ELEVATION
EREF.M        697.8                : kb           - ELEVATION OF DEPTH REFERENCE
DATM.M        693.7                : datum        - DATUM ELEVATION
TDD .M        628                  : tdd          - TOTAL DEPTH DRILLER
RUN .         ONE                  : Run          - RUN NUMBER
ENG .         BILL                 : Engineer     - RECORDING ENGINEER
WIT .         JIM                  : Witness      - WITNESSED BY
MUD .         GEL                  : Mud_type     - MUD TYPE
MATR.         LIMESTONE            : Logunit      - NEUTRON MATRIX
TMAX.C        15                   : BHT          - MAXIMUM RECORDED TEMPERATURE
BHTD.M        628                  : BHTDEP       - MAXIMUM RECORDED TEMPERATURE
MATR.         1                    : LOGUNIT      - NEUTRON MATRIX
RMT .C        25                   : MDTP         - TEMPERATURE OF MUD
NEUT.         1                    : NEUTRON      - NEUTRON TYPE
RESI.         0                    : RESIST       - RESISTIVITY TYPE
RMC .OHMM     0.25                 : RMC          - RESISTIVITY OF MUD CAKE
RMF .OHMM     0.25                 : RMF          - RESISTIVITY OF MUD FILTRATE
SUFT.C        15                   : SUFT         - SURFACE TEMPERATURE
~A  DEPTH     RESD     PHID     PHIN       GR
  315.000    4.101    0.261    0.527   95.566
  315.250    4.027    0.266    0.540   94.965
  315.500    4.103    0.260    0.544   94.968
  315.750    4.180    0.243    0.527   93.762
  316.000    4.339    0.232    0.525   97.394
  316.250    4.503    0.226    0.529   99.817
  316.500    4.762    0.217    0.518   99.216
  316.750    4.763    0.204    0.501   96.801
  317.000    4.944    0.218    0.496   95.594
  317.250    4.944    0.226    0.515   94.993
  317.500    5.038    0.215    0.530   96.206
  317.750    5.038    0.224    0.537  100.444
  318.000    4.946    0.227    0.536  101.052
  318.250    4.947    0.235    0.533   99.846
  318.500    4.856    0.244    0.526   98.036
  318.750    4.948    0.239    0.519   95.016
  319.000    5.042    0.235    0.513   93.808
  319.250    5.042    0.229    0.504   96.231
  319.500    5.043    0.223    0.503   98.049
  319.750    5.043    0.218    0.513   98.660
  320.000    4.951    0.212    0.509   98.661
  320.250    4.861    0.220    0.486   95.641
  320.500    4.772    0.223    0.484   93.225
  320.750    4.685    0.229    0.502   93.229
  321.000    4.686    0.233    0.513   93.837
  321.250    4.686    0.241    0.507   93.840
  321.500    4.687    0.237    0.492   92.635
  321.750    4.602    0.225    0.476   91.428
  322.000    4.434    0.230    0.481   93.247
  322.250    4.353    0.236    0.496   95.670
  322.500    4.273    0.230    0.502   94.464
  322.750    4.042    0.224    0.509   91.443
  323.000    4.275    0.227    0.486   84.794
  323.250    5.862    0.244    0.455   81.169
  323.500    7.603    0.261    0.440   78.753
  323.750   11.231    0.270    0.423   78.150
  324.000   14.300    0.276    0.428   78.155
  324.250   15.121    0.287    0.463   76.950
  324.500   15.695    0.304    0.491   76.347
  324.750   15.409    0.317    0.522   74.536
  325.000   15.127    0.266    0.544   73.331
  325.250   14.578    0.253    0.411   72.124
  325.500   14.311    0.242    0.384   72.733
  325.750   14.313    0.230    0.380   74.551
  326.000   14.315    0.247    0.393   76.369
  326.250   14.859    0.255    0.401   76.373
  326.500   15.423    0.251    0.398   75.166
  326.750   16.615    0.238    0.406   77.590
  327.000   17.246    0.266    0.407   79.407
  327.250   17.571    0.276    0.399   80.621
  327.500   17.902    0.256    0.393   70.947
  327.750   17.905    0.228    0.398   72.766
  328.000   17.578    0.208    0.407   76.397
  328.250   17.256    0.233    0.412   80.635
  328.500   16.630    0.251    0.418   83.058
  328.750   16.025    0.256    0.409   84.877
  329.000   16.028    0.265    0.400   84.880
  329.250   15.735    0.248    0.410   86.699
  329.500   15.449    0.237    0.424   87.306
  329.750   15.166    0.266    0.432   85.496
  330.000   14.888    0.270    0.422   84.894
  330.250   14.617    0.273    0.423   84.899
  330.500   14.349    0.277    0.427   85.506
  330.750   14.351    0.278    0.428   87.324
  331.000   14.353    0.270    0.435   90.352
  331.250   14.090    0.247    0.442   92.775
  331.500   11.924    0.222    0.450   95.802
  331.750   10.868    0.208    0.453   97.621
  332.000    9.905    0.211    0.433   89.761
  332.250    9.198    0.178    0.423   86.740
  332.500    8.700    0.175    0.429   89.769
  332.750    8.385    0.209    0.446   94.008
  333.000    8.543    0.233    0.442   94.615
  333.250    8.867    0.259    0.431   93.410
  333.500    9.552    0.277    0.435   94.018
  333.750    9.915    0.260    0.430   95.835
  334.000   10.292    0.257    0.439   98.864
  334.250   10.104    0.251    0.459  101.286
  334.500   10.104    0.260    0.464  104.918
  334.750    9.383    0.204    0.451  107.947
  335.000    8.875    0.174    0.452  104.925
  335.250    8.241    0.139    0.464   99.486
  335.500    7.373    0.124    0.460   95.860
  335.750    7.105    0.134    0.454   97.678
  336.000    6.357    0.168    0.474  104.941
  336.250    5.903    0.193    0.497  109.177
  336.500    5.184    0.211    0.498  113.416
  336.750    4.814    0.216    0.500  115.233
  337.000    4.553    0.215    0.515  117.657
  337.250    4.307    0.209    0.526  116.450
  337.500    3.999    0.197    0.532  114.639
  337.750    3.783    0.203    0.529  112.225
  338.000    3.646    0.209    0.522  112.227
  338.250    3.449    0.220    0.531  111.626
  338.500    3.385    0.238    0.537  111.629
  338.750    3.262    0.249    0.537  108.608
  339.000    3.514    0.249    0.539  102.564
  339.250    4.003    0.242    0.451   98.334
  339.500    4.732    0.251    0.420   94.708
  339.750    5.698    0.276    0.406   83.825
  340.000    6.990    0.319    0.389   77.175
  340.250    8.575    0.336    0.372   71.735
  340.500    9.587    0.342    0.361   68.715
  340.750    9.769    0.344    0.356   70.532
  341.000    9.770    0.347    0.360   73.560
  341.250    9.591    0.347    0.371   75.378
  341.500    9.073    0.344    0.374   75.382
  341.750    8.907    0.336    0.357   74.782
  342.000    8.584    0.331    0.355   74.785
  342.250    8.427    0.328    0.371   74.183
  342.500    8.273    0.331    0.368   74.902
  342.750    7.972    0.338    0.369   75.401
  343.000    7.683    0.337    0.372   76.008
  343.250    7.403    0.327    0.385   79.641
  343.500    7.135    0.318    0.397   82.064
  343.750    7.135    0.303    0.405   80.857
  344.000    7.136    0.290    0.407   78.443
  344.250    7.137    0.280    0.391   75.421
  344.500    7.138    0.271    0.382   72.402
  344.750    6.879    0.262    0.377   70.591
  345.000    6.507    0.267    0.390   69.383
  345.250    6.271    0.292    0.396   67.573
  345.500    6.156    0.302    0.407   64.553
  345.750    6.043    0.289    0.413   62.137
  346.000    6.045    0.288    0.409   59.721
  346.250    6.159    0.274    0.395   59.120
  346.500    6.275    0.259    0.389   62.753
  346.750    6.393    0.254    0.382   64.570
  347.000    6.394    0.262    0.377   63.969
  347.250    6.277    0.272    0.374   63.369
  347.500    6.278    0.274    0.384   63.976
  347.750    5.939    0.260    0.400   68.818
  348.000    5.723    0.255    0.417   70.032
  348.250    5.724    0.257    0.435   68.826
  348.500    5.619    0.258    0.420   68.225
  348.750    5.620    0.257    0.413   69.439
  349.000    5.621    0.268    0.407   70.046
  349.250    5.518    0.269    0.403   68.840
  349.500    5.519    0.262    0.409   66.425
  349.750    5.519    0.260    0.409   65.218
  350.000    5.624    0.256    0.410   71.271
  350.250    5.624    0.252    0.424   74.903
  350.500    5.521    0.244    0.413   73.092
  350.750    5.421    0.242    0.408   70.071
  351.000    5.421    0.239    0.406   65.842
  351.250    5.322    0.251    0.401   63.426
  351.500    5.225    0.267    0.394   62.219
  351.750    5.130    0.269    0.389   61.013
  352.000    5.036    0.255    0.386   61.017
  352.250    4.676    0.244    0.387   61.020
  352.500    4.591    0.250    0.398   58.000
  352.750    4.424    0.279    0.408   51.956
  353.000    4.185    0.306    0.423   47.121
  353.250    4.033    0.316    0.413   42.890
  353.500    3.959    0.308    0.403   41.078
  353.750    3.887    0.304    0.397   39.873
  354.000    3.887    0.301    0.406   38.062
  354.250    3.816    0.304    0.402   35.646
  354.500    3.817    0.302    0.393   33.835
  354.750    3.747    0.312    0.403   32.629
  355.000    3.747    0.312    0.408   35.658
  355.250    3.748    0.308    0.398   37.476
  355.500    3.748    0.318    0.392   39.898
  355.750    3.819    0.303    0.397   45.950
  356.000    3.891    0.261    0.398   52.002
  356.250    4.271    0.238    0.407   58.658
  356.500    4.516    0.227    0.422   73.178
  356.750    4.775    0.248    0.439   98.585
  357.000    5.049    0.255    0.431   97.984
  357.250    5.440    0.239    0.426   93.754
  357.500    5.542    0.239    0.427   90.128
  357.750    5.543    0.225    0.438   91.947
  358.000    5.441    0.220    0.451   93.159
  358.250    5.147    0.226    0.456   97.397
