~VERSION INFORMATION
 VERS.                 2.0:   CWLS LOG ASCII STANDARD -VERSION 2.0
 WRAP.                  NO:   ONE LINE PER DEPTH STEP
~WELL INFORMATION BLOCK
#MNEM.UNIT           DATA                    DESCRIPTION OF MNEMONIC
#---------    -------------------            -------------------------------
# Generated from Intellog Unique Number	CS_71_72/WELL/2055
WELL.         ACL BVX UNIGAS CALL            : Well_name    - WELL
LOC .         00/11-08-072-17W4/0            : Location     - LOCATION
UWI .         00/11-08-072-17W4/0            : Uwi          - UNIQUE WELL ID
ENTR.         TIM                            : Entered      - ENTERED BY
SRVC.         SCHLUMBERGER                   : Scn          - SERVICE COMPANY
DATE.         04/09/92                       : Date         - LOG DATE
STRT.M        274.32                         : top_depth    - START DEPTH
STOP.M        466.32                         : bot_depth    - STOP DEPTH
STEP.M        0.25                           : increment    - STEP LENGTH
 NULL. -999.2500:NULL Value
~CURVE INFORMATION BLOCK
#MNEM UNIT       ERCB CURVE CODE    CURVE DESCRIPTION
#-----------   ------------------   ----------------------------------
DEPT.M        00 001 00 00         : DEPTH        - DEPTH
ILD .OHMM     00 120 00 00         : RESD         - DEEP RESISTIVITY (DIL)
NPHI.V/V      00 330 00 00         : PHIN         - NEUTRON POROSITY (SANDSTONE)
GR  .API      00 310 00 00         : GR           - GAMMA RAY
~PARAMETER INFORMATION
#MNEM.UNIT           DATA             DESCRIPTION OF MNEMONIC
#---------         -----------     ------------------------------
GL  .M        590.398              : gl           - GROUND LEVEL ELEVATION
EREF.M        593.446              : kb           - ELEVATION OF DEPTH REFERENCE
DATM.M        593.446              : datum        - DATUM ELEVATION
TDD .M        473.05               : tdd          - TOTAL DEPTH DRILLER
RUN .         ONE                  : Run          - RUN NUMBER
ENG .         BILL                 : Engineer     - RECORDING ENGINEER
WIT .         JIM                  : Witness      - WITNESSED BY
MUD .         GEL                  : Mud_type     - MUD TYPE
MATR.         SANDSTONE            : Logunit      - NEUTRON MATRIX
TMAX.C        21.6667              : BHT          - MAXIMUM RECORDED TEMPERATURE
BHTD.M        471.221              : BHTDEP       - MAXIMUM RECORDED TEMPERATURE
RMT .C        21.1111              : MDTP         - TEMPERATURE OF MUD
MUDD.KG/M     9250                 : MWT          - MUD DENSITY
NEUT.         1                    : NEUTRON      - NEUTRON TYPE
RESI.         0                    : RESIST       - RESISTIVITY TYPE
RM  .OHMM     2.06                 : RM           - RESISTIVITY OF MUD
RMC .OHMM     2.06                 : RMC          - RESISTIVITY OF MUD CAKE
RMF .OHMM     2.06                 : RMF          - RESISTIVITY OF MUD FILTRATE
SUFT.C        4                    : SUFT         - SURFACE TEMPERATURE
~A  DEPTH     RESD     PHIN       GR
  274.320    3.064    0.411   84.677
  274.570    3.066    0.432   90.121
  274.820    3.068    0.437   91.331
  275.070    3.070    0.435   90.121
  275.320    3.072    0.440   88.911
  275.570    3.130    0.446   88.911
  275.820    3.190    0.442   90.726
  276.070    3.251    0.440   91.936
  276.320    3.375    0.445   91.936
  276.570    3.440    0.443   92.540
  276.820    3.441    0.429   93.145
  277.070    3.507    0.421   93.750
  277.320    3.509    0.420   95.564
  277.570    3.576    0.416   97.379
  277.820    3.578    0.408   99.798
  278.070    3.646    0.404  102.823
  278.320    3.649    0.406   98.589
  278.570    3.718    0.409   92.540
  278.820    3.790    0.403   91.331
  279.070    3.862    0.398   93.145
  279.320    3.794    0.398   93.145
  279.570    3.660    0.406   91.936
  279.820    3.530    0.420   91.331
  280.070    3.404    0.437   90.726
  280.320    3.344    0.441   90.121
  280.570    3.346    0.424   89.516
  280.820    3.411    0.422   90.726
  281.070    3.475    0.418   98.589
  281.320    3.543    0.422  102.823
  281.570    3.610    0.437  104.032
  281.820    3.611    0.439  105.847
  282.070    3.614    0.421  103.427
  282.320    3.682    0.424  102.823
  282.570    3.684    0.426  102.823
  282.820    3.825    0.449  102.823
  283.070    3.898    0.465  102.823
  283.320    3.972    0.480  102.823
  283.570    3.831    0.507   87.097
  283.820    3.629    0.515   86.492
  284.070    3.500    0.541   84.073
  284.320    3.502    0.533   74.395
  284.570    3.771    0.523   61.694
  284.820    4.135    0.468   58.669
  285.070    4.792    0.466   66.532
  285.320    5.867    0.469   71.976
  285.570    5.765    0.477   74.395
  285.820    5.360    0.486   75.000
  286.070    5.169    0.494   73.186
  286.320    4.634    0.504   70.766
  286.570    4.552    0.517   68.347
  286.820    4.390    0.519   65.323
  287.070    4.312    0.516   65.323
  287.320    4.160    0.512   65.927
  287.570    4.162    0.507   68.347
  287.820    4.242    0.500   70.766
  288.070    4.322    0.482   74.395
  288.320    4.656    0.451   81.048
  288.570    4.744    0.454   85.282
  288.820    5.109    0.460   90.726
  289.070    5.604    0.477   92.540
  289.320    5.816    0.484   89.516
  289.570    6.036    0.485   85.887
  289.820    6.383    0.476   84.073
  290.070    6.503    0.433   85.887
  290.320    6.627    0.418   89.516
  290.570    6.632    0.417   92.540
  290.820    6.515    0.426  101.613
  291.070    6.169    0.437  103.427
  291.320    5.950    0.448   99.194
  291.570    5.954    0.450   91.936
  291.820    6.068    0.442   87.097
  292.070    6.071    0.427   88.911
  292.320    6.074    0.403   91.331
  292.570    6.079    0.382   93.145
  292.820    6.082    0.365   91.936
  293.070    6.198    0.378   89.516
  293.320    6.317    0.393   87.097
  293.570    6.205    0.399   87.097
  293.820    6.209    0.408   87.702
  294.070    6.213    0.448   85.887
  294.320    6.104    0.455   84.677
  294.570    5.888    0.409   82.863
  294.820    5.783    0.379   82.258
  295.070    5.577    0.401   80.444
  295.320    5.380    0.431   82.258
  295.570    5.190    0.457   85.887
  295.820    5.192    0.426   91.936
  296.070    5.102    0.439   96.169
  296.320    5.011    0.454  101.613
  296.570    4.922    0.439  107.056
  296.820    4.749    0.452  105.847
  297.070    4.664    0.427  105.242
  297.320    4.582    0.450  105.847
  297.570    4.419    0.439  106.452
  297.820    4.110    0.423  108.871
  298.070    3.963    0.422  111.290
  298.320    3.753    0.427  110.685
  298.570    3.490    0.438  110.685
  298.820    3.428    0.463  111.895
  299.070    3.246    0.472  113.710
  299.320    3.189    0.483  113.710
  299.570    3.132    0.488  112.500
  299.820    3.192    0.483  111.895
  300.070    3.438    0.477  111.895
  300.320    3.840    0.463  110.685
  300.570    4.289    0.432  108.266
  300.820    4.791    0.416  104.637
  301.070    5.553    0.424  102.218
  301.320    5.871    0.445   99.194
  301.570    5.983    0.449   96.774
  301.820    6.210    0.446   93.750
  302.070    6.215    0.444   88.911
  302.320    6.104    0.457   83.468
  302.570    5.997    0.475   78.024
  302.820    5.785    0.481   71.976
  303.070    5.682    0.490   67.137
  303.320    5.480    0.500   63.508
  303.570    5.383    0.497   68.347
  303.820    5.388    0.494   72.581
  304.070    5.391    0.486   71.976
  304.320    5.393    0.479   65.927
  304.570    5.497    0.472   65.323
  304.820    5.501    0.470   66.532
  305.070    5.503    0.477   67.742
  305.320    5.506    0.479   68.347
  305.570    5.510    0.479   68.952
  305.820    5.513    0.480   68.952
  306.070    5.515    0.485   71.976
  306.320    5.521    0.494   74.395
  306.570    5.523    0.495   76.814
  306.820    5.527    0.494   76.814
  307.070    5.529    0.490   76.210
  307.320    5.431    0.487   75.605
  307.570    5.436    0.481   75.605
  307.820    5.438    0.475   78.024
  308.070    5.441    0.458   79.839
  308.320    5.443    0.423   81.653
  308.570    5.446    0.410   84.073
  308.820    5.552    0.427   87.097
  309.070    5.554    0.417   89.516
  309.320    5.558    0.406   91.331
  309.570    5.460    0.407   93.750
  309.820    5.463    0.417   97.984
  310.070    5.173    0.426  104.637
  310.320    4.989    0.436  108.266
  310.570    4.992    0.430  110.685
  310.820    5.182    0.420  115.524
  311.070    5.281    0.420  119.758
  311.320    5.285    0.427  118.548
  311.570    5.192    0.440  115.524
  311.820    5.195    0.437  110.685
  312.070    5.103    0.420   99.194
  312.320    5.106    0.402   94.355
  312.570    5.203    0.392   94.960
  312.820    5.402    0.384   99.194
  313.070    5.711    0.383  101.008
  313.320    5.927    0.381  102.823
  313.570    5.931    0.381  104.637
  313.820    5.219    0.390  107.056
  314.070    4.678    0.405  110.081
  314.320    4.349    0.421  111.895
  314.570    4.119    0.437  108.871
  314.820    4.121    0.458  100.403
  315.070    4.123    0.467   92.540
  315.320    4.439    0.467   88.911
  315.570    4.869    0.468   83.468
  315.820    5.243    0.469   78.629
  316.070    5.442    0.474   76.814
  316.320    5.649    0.479   79.234
  316.570    5.653    0.483   81.653
  316.820    5.656    0.488   82.258
  317.070    5.660    0.486   79.839
  317.320    5.663    0.472   81.048
  317.570    5.667    0.454   85.282
  317.820    5.668    0.452   90.121
  318.070    5.568    0.463   90.726
  318.320    5.572    0.472   88.911
  318.570    5.575    0.486   82.863
  318.820    5.787    0.494   75.605
  319.070    5.791    0.482   75.000
  319.320    6.122    0.471   77.419
  319.570    6.472    0.457   79.839
  319.820    6.596    0.462   79.839
  320.070    6.599    0.459   79.839
  320.320    6.603    0.451   81.048
  320.570    6.488    0.445   85.282
  320.820    6.372    0.441   88.911
  321.070    6.260    0.431   90.121
  321.320    6.039    0.401   86.492
  321.570    6.042    0.366   81.653
  321.820    6.046    0.387   76.814
  322.070    6.051    0.397   73.790
  322.320    6.165    0.426   73.790
  322.570    6.168    0.459   75.000
  322.820    6.286    0.470   76.814
  323.070    6.407    0.452   79.234
  323.320    6.410    0.447   81.048
  323.570    6.413    0.451   81.653
  323.820    6.187    0.452   83.468
  324.070    5.752    0.433   86.492
  324.320    5.448    0.446   91.331
  324.570    5.351    0.461   89.516
  324.820    5.256    0.472   86.492
  325.070    5.261    0.457   81.048
  325.320    5.361    0.444   75.000
  325.570    5.564    0.435   77.419
  325.820    5.776    0.436   82.258
  326.070    5.995    0.431   87.702
  326.320    6.109    0.418   85.282
  326.570    6.341    0.414   83.468
  326.820    6.116    0.408   84.677
  327.070    5.793    0.406   86.492
  327.320    5.486    0.440   88.911
  327.570    5.388    0.459   89.516
  327.820    5.102    0.477   90.121
  328.070    5.106    0.509   87.097
  328.320    5.499    0.539   82.863
