~VERSION INFORMATION
 VERS.                 2.0:   CWLS LOG ASCII STANDARD -VERSION 2.0
 WRAP.                  NO:   ONE LINE PER DEPTH STEP
~WELL INFORMATION BLOCK
#MNEM.UNIT           DATA                    DESCRIPTION OF MNEMONIC
#---------    -------------------            -------------------------------
# Generated from Intellog Unique Number	CS_77_79/WELL/1005
WELL.         HUDSONS BAY OIL AND GAS        : Well_name    - WELL
LOC .         00/11-32-077-11W4/0            : Location     - LOCATION
UWI .         00/11-32-077-11W4/0            : Uwi          - UNIQUE WELL ID
ENTR.         SP                             : Entered      - ENTERED BY
SRVC.         SCHLUMBERGER                   : Scn          - SERVICE COMPANY
STRT.M        274.32                         : top_depth    - START DEPTH
STOP.M        505.82                         : bot_depth    - STOP DEPTH
STEP.M        0.25                           : increment    - STEP LENGTH
 NULL. -999.2500:NULL Value
~CURVE INFORMATION BLOCK
#MNEM UNIT       ERCB CURVE CODE    CURVE DESCRIPTION
#-----------   ------------------   ----------------------------------
DEPT.M        00 001 00 00         : DEPTH        - DEPTH
GR  .API      00 310 00 00         : GR           - GAMMA RAY
DPHI.V/V      00 890 00 00         : PHID         - DENSITY POROSITY (SANDSTONE)
NPHI.V/V      00 330 00 00         : PHIN         - NEUTRON POROSITY (SANDSTONE)
ILD .OHMM     00 120 00 00         : RESD         - DEEP RESISTIVITY (DIL)
~PARAMETER INFORMATION
#MNEM.UNIT           DATA             DESCRIPTION OF MNEMONIC
#---------         -----------     ------------------------------
GL  .M        689.549              : gl           - GROUND LEVEL ELEVATION
EREF.M        10                   : kb           - ELEVATION OF DEPTH REFERENCE
DATM.M        689.549              : datum        - DATUM ELEVATION
TDD .M        504.139              : tdd          - TOTAL DEPTH DRILLER
RUN .         ONE                  : Run          - RUN NUMBER
ENG .         BILL                 : Engineer     - RECORDING ENGINEER
WIT .         JIM                  : Witness      - WITNESSED BY
MUD .         GEL                  : Mud_type     - MUD TYPE
MATR.         SANDSTONE            : Logunit      - NEUTRON MATRIX
TMAX.C        21.1111              : BHT          - MAXIMUM RECORDED TEMPERATURE
BHTD.M        504.139              : BHTDEP       - MAXIMUM RECORDED TEMPERATURE
MATR.         1                    : LOGUNIT      - NEUTRON MATRIX
RMT .C        25                   : MDTP         - TEMPERATURE OF MUD
NEUT.         1                    : NEUTRON      - NEUTRON TYPE
RESI.         0                    : RESIST       - RESISTIVITY TYPE
RMC .OHMM     0.25                 : RMC          - RESISTIVITY OF MUD CAKE
RMF .OHMM     0.25                 : RMF          - RESISTIVITY OF MUD FILTRATE
SUFT.C        15                   : SUFT         - SURFACE TEMPERATURE
~A  DEPTH       GR     PHID     PHIN     RESD
# ...
  448.320   92.419    0.239    0.476    4.186
  448.570   90.288    0.234    0.489    4.783
  448.820   85.617    0.224    0.502    5.422
  449.070   80.521    0.220    0.488    6.373
  449.320   77.862    0.150    0.426    7.432
  449.570   73.809    0.123    0.395    7.467
  449.820   70.658    0.059    0.376    6.445
  450.070   75.389    0.067    0.358    5.590
  450.320   87.561    0.168    0.370    4.785
  450.570   94.482    0.212    0.396    4.465
  450.820   96.889    0.236    0.432    4.287
  451.070   95.182    0.227    0.445    4.081
  451.320   95.114    0.213    0.457    4.071
  451.570   95.110    0.217    0.447    4.153
  451.820   94.478    0.240    0.449    4.425
  452.070   94.579    0.242    0.468    4.617
  452.320   93.365    0.244    0.483    5.058
  452.570   91.823    0.239    0.477    5.707
  452.820   89.142    0.222    0.457    6.197
  453.070   91.430    0.202    0.442    7.117
  453.320   91.781    0.180    0.426    8.041
  453.570   83.590    0.168    0.424    9.080
  453.820   78.410    0.208    0.438    9.948
  454.070   75.257    0.194    0.443   10.952
  454.320   71.603    0.201    0.413   11.860
  454.570   71.661    0.234    0.389   12.779
  454.820   72.538    0.238    0.388   14.123
  455.070   72.286    0.259    0.394   15.844
  455.320   68.237    0.244    0.400   17.548
  455.570   66.037    0.249    0.401   22.453
  455.820   65.668    0.270    0.413   27.781
  456.070   64.677    0.293    0.417   32.258
  456.320   64.564    0.312    0.400   40.873
  456.570   67.272    0.310    0.381   38.803
  456.820   66.546    0.298    0.390   33.088
  457.070   71.156    0.299    0.408   26.526
  457.320   85.985    0.325    0.392   19.868
  457.570   92.308    0.284    0.378   16.373
  457.820   96.273    0.275    0.386   15.990
  458.070   94.442    0.261    0.395   17.140
  458.320   89.039    0.255    0.409   19.177
  458.570   81.406    0.261    0.417   24.188
  458.820   76.945    0.271    0.406   26.378
  459.070   73.928    0.289    0.402   28.243
  459.320   75.532    0.295    0.414   22.468
  459.570   78.201    0.292    0.419   19.425
  459.820   81.782    0.277    0.406   16.024
  460.070   87.451    0.261    0.398   13.773
  460.320   89.363    0.247    0.403   12.432
  460.570   88.920    0.234    0.398   11.290
  460.820   88.650    0.236    0.397   10.564
  461.070   91.318    0.250    0.403    9.861
  461.320   93.153    0.241    0.410    9.274
  461.570  100.306    0.210    0.420    9.381
  461.820  108.299    0.188    0.413    9.679
  462.070  111.623    0.216    0.410   10.868
  462.320  109.533    0.216    0.413   13.222
  462.570   99.434    0.212    0.401   16.021
  462.820   84.353    0.234    0.406   21.605
  463.070   76.684    0.254    0.400   22.689
  463.320   75.693    0.246    0.389   21.537
  463.570   74.016    0.237    0.399   19.761
  463.820   76.472    0.255    0.382   18.327
  464.070   83.043    0.294    0.365   16.360
  464.320   83.835    0.256    0.354   13.899
  464.570   84.683    0.207    0.359   13.837
  464.820   88.830    0.189    0.393   14.473
  465.070   87.191    0.225    0.384   14.157
  465.320   85.175    0.212    0.388   14.486
  465.570   83.570    0.217    0.386   14.948
  465.820   84.348    0.231    0.374   16.656
  466.070   84.880    0.249    0.362   18.991
  466.320   78.543    0.228    0.367   23.598
  466.570   74.173    0.246    0.388   27.627
  466.820   69.672    0.298    0.389   31.444
  467.070   71.787    0.320    0.391   29.461
  467.320   73.682    0.316    0.382   21.877
  467.570   76.287    0.294    0.385   20.205
  467.820   77.546    0.270    0.387   19.836
  468.070   77.611    0.244    0.377   19.871
  468.320   77.635    0.222    0.371   19.843
  468.570   70.800    0.205    0.370   19.715
  468.820   64.900    0.187    0.376   23.170
  469.070   60.983    0.190    0.386   21.610
  469.320   59.655    0.236    0.391   17.974
  469.570   59.983    0.266    0.376   14.937
  469.820   79.482    0.288    0.351   13.673
  470.070   90.211    0.264    0.332   12.790
  470.320   89.948    0.198    0.364   12.164
  470.570   86.828    0.177    0.392   12.243
  470.820   82.667    0.215    0.399   13.161
  471.070   82.748    0.229    0.404   14.614
  471.320   79.768    0.227    0.398   15.971
  471.570   70.476    0.229    0.391   17.895
  471.820   65.322    0.262    0.395   20.559
  472.070   70.568    0.276    0.399   22.386
  472.320   72.055    0.269    0.387   23.161
  472.570   70.450    0.265    0.389   23.230
  472.820   68.114    0.254    0.387   26.157
  473.070   62.650    0.260    0.410   28.238
  473.320   57.210    0.313    0.423   30.215
  473.570   51.059    0.326    0.418   29.108
  473.820   56.040    0.298    0.402   28.147
  474.070   61.729    0.277    0.393   29.523
  474.320   59.358    0.276    0.393   31.098
  474.570   57.654    0.295    0.397   31.412
  474.820   61.781    0.293    0.401   31.135
  475.070   67.066    0.302    0.408   29.199
  475.320   78.269    0.292    0.386   24.657
  475.570   82.336    0.271    0.360   21.313
  475.820   82.259    0.260    0.388   20.234
  476.070   83.276    0.258    0.394   19.300
  476.320   84.320    0.246    0.373   18.858
  476.570   84.644    0.233    0.375   18.893
  476.820   83.077    0.244    0.387   19.117
  477.070   74.512    0.288    0.374   19.611
  477.320   79.120    0.299    0.354   19.969
  477.570   83.571    0.270    0.367   19.824
  477.820   84.215    0.198    0.373   18.242
  478.070   88.395    0.137    0.346   16.181
  478.320   93.815    0.178    0.338   13.626
  478.570   97.075    0.249    0.362   12.327
  478.820  105.656    0.246    0.369   11.233
  479.070  112.032    0.231    0.381   10.359
  479.320  115.869    0.217    0.387    9.991
  479.570  118.971    0.204    0.378    9.952
  479.820  118.572    0.193    0.381   10.221
  480.070  112.526    0.204    0.367   10.210
  480.320  107.658    0.222    0.363   10.416
  480.570  106.168    0.216    0.367   10.449
  480.820  104.399    0.192    0.359   10.771
  481.070   98.207    0.178    0.362   11.184
  481.320   93.102    0.160    0.356   11.677
  481.570   88.174    0.143    0.351   12.195
  481.820   82.327    0.127    0.325   12.861
  482.070   85.873    0.164    0.341   13.238
  482.320   89.305    0.227    0.358   13.637
  482.570   88.894    0.247    0.359   13.973
  482.820   85.185    0.238    0.351   13.955
  483.070   81.079    0.227    0.357   13.979
  483.320   76.292    0.215    0.364   13.605
  483.570   73.430    0.206    0.371   13.465
  483.820   71.094    0.204    0.361   13.312
  484.070   70.063    0.232    0.347   13.236
  484.320   72.117    0.221    0.346   13.237
  484.570   73.498    0.215    0.362   13.372
  484.820   73.312    0.230    0.375   13.469
  485.070   71.099    0.243    0.371   13.708
  485.320   72.754    0.243    0.371   13.831
  485.570   71.462    0.219    0.379   14.281
  485.820   68.916    0.217    0.370   14.749
  486.070   67.965    0.209    0.355   14.887
  486.320   69.326    0.215    0.354   15.067
  486.570   70.433    0.245    0.367   14.925
  486.820   68.901    0.210    0.365   14.094
  487.070   66.962    0.189    0.373   13.528
  487.320   67.612    0.207    0.387   13.177
  487.570   74.480    0.180    0.371   12.211
  487.820   79.307    0.175    0.362   11.549
  488.070   78.697    0.213    0.367   10.675
  488.320   79.551    0.226    0.355    9.875
  488.570   80.455    0.211    0.352    9.616
  488.820   78.701    0.226    0.357    9.337
  489.070   75.383    0.216    0.351    9.068
  489.320   76.966    0.206    0.345    8.949
  489.570   76.707    0.191    0.341    8.862
  489.820   75.308    0.190    0.347    8.754
  490.070   74.038    0.210    0.348    8.581
  490.320   74.136    0.222    0.346    8.562
  490.570   74.082    0.232    0.340    8.443
  490.820   75.507    0.234    0.333    8.357
  491.070   73.748    0.218    0.342    8.278
  491.320   72.362    0.224    0.350    8.145
  491.570   73.640    0.209    0.347    8.111
