~VERSION INFORMATION
 VERS.                 2.0:   CWLS LOG ASCII STANDARD -VERSION 2.0
 WRAP.                  NO:   ONE LINE PER DEPTH STEP
~WELL INFORMATION BLOCK
#MNEM.UNIT           DATA                    DESCRIPTION OF MNEMONIC
#---------    -------------------            -------------------------------
# Generated from Intellog Unique Number	CW_73_75/WELL/903
WELL.         CDN SUP ET AL FRANCIS 10-01    : Well_name    - WELL
LOC .         00/10-01-074-21W4/0            : Location     - LOCATION
UWI .         00/10-01-074-21W4/0            : Uwi          - UNIQUE WELL ID
ENTR.         JAYE                           : Entered      - ENTERED BY
SRVC.         SCHLUMBERGER                   : Scn          - SERVICE COMPANY
DATE.         16 FEB 75                      : Date         - LOG DATE
STRT.M        396.24                         : top_depth    - START DEPTH
STOP.M        636.99                         : bot_depth    - STOP DEPTH
STEP.M        0.25                           : increment    - STEP LENGTH
 NULL. -999.2500:NULL Value
~CURVE INFORMATION BLOCK
#MNEM UNIT       ERCB CURVE CODE    CURVE DESCRIPTION
#-----------   ------------------   ----------------------------------
DEPT.M        00 001 00 00         : DEPTH        - DEPTH
DPHI.V/V      00 890 00 00         : PHID         - DENSITY POROSITY (SANDSTONE)
NPHI.V/V      00 330 00 00         : PHIN         - NEUTRON POROSITY (SANDSTONE)
GR  .API      00 310 00 00         : GR           - GAMMA RAY
CALI.MM       00 280 01 00         : CAL          - CALIPER
ILD .OHMM     00 120 00 00         : RESD         - DEEP RESISTIVITY (DIL)
~PARAMETER INFORMATION
#MNEM.UNIT           DATA             DESCRIPTION OF MNEMONIC
#---------         -----------     ------------------------------
GL  .M        708.05               : gl           - GROUND LEVEL ELEVATION
EREF.M        710.489              : kb           - ELEVATION OF DEPTH REFERENCE
DATM.M        708.05               : datum        - DATUM ELEVATION
TDD .M        694.944              : tdd          - TOTAL DEPTH DRILLER
RUN .         ONE                  : Run          - RUN NUMBER
ENG .         LLOYD                : Engineer     - RECORDING ENGINEER
WIT .         NESSIER              : Witness      - WITNESSED BY
BASE.         EDMONTON             : Branch       - HOME BASE OF LOGGING UNIT
MUD .         GEL                  : Mud_type     - MUD TYPE
MATR.         SANDSTONE            : Logunit      - NEUTRON MATRIX
TMAX.C        26.1111              : BHT          - MAXIMUM RECORDED TEMPERATURE
BHTD.M        695.249              : BHTDEP       - MAXIMUM RECORDED TEMPERATURE
RMT .C        4.44444              : MDTP         - TEMPERATURE OF MUD
MUDD.KG/M     1104                 : MWT          - MUD DENSITY
NEUT.         1                    : NEUTRON      - NEUTRON TYPE
RESI.         0                    : RESIST       - RESISTIVITY TYPE
RM  .OHMM     5.12                 : RM           - RESISTIVITY OF MUD
RMC .OHMM     0                    : RMC          - RESISTIVITY OF MUD CAKE
RMF .OHMM     3.6                  : RMF          - RESISTIVITY OF MUD FILTRATE
SUFT.C        -17.7778             : SUFT         - SURFACE TEMPERATURE
~A  DEPTH     PHID     PHIN       GR      CAL     RESD
# ...
  615.240    0.202    0.302   63.791  161.425    7.079
  615.490    0.199    0.286   64.913  160.946    7.090
  615.740    0.190    0.290   64.875  160.683    6.769
  615.990    0.179    0.299   60.680  160.406    6.380
  616.240    0.177    0.314   60.398  160.552    5.936
  616.490    0.187    0.320   64.334  160.479    5.574
  616.740    0.202    0.316   65.824  160.622    5.361
  616.990    0.214    0.329   64.071  160.981    5.281
  617.240    0.200    0.342   56.942  161.114    5.309
  617.490    0.203    0.354   57.760  161.152    5.598
  617.740    0.199    0.367   61.145  161.087    5.860
  617.990    0.206    0.357   55.056  161.434    6.435
  618.240    0.216    0.337   48.231  161.475    7.251
  618.490    0.232    0.354   44.221  161.619    7.618
  618.740    0.231    0.333   46.628  161.557    7.463
  618.990    0.237    0.315   52.029  161.279    7.138
  619.240    0.264    0.334   60.914  161.318    6.715
  619.490    0.290    0.350   63.751  161.360    6.506
  619.740    0.253    0.357   54.359  161.190    6.540
  619.990    0.218    0.346   46.253  161.020    6.884
  620.240    0.196    0.355   39.307  160.850    7.800
  620.490    0.184    0.344   32.360  160.892    8.903
  620.740    0.146    0.308   25.598  161.135   10.031
  620.990    0.167    0.299   24.338  161.281   10.774
  621.240    0.202    0.305   25.460  161.210   10.555
  621.490    0.165    0.320   26.709  161.255   10.133
  621.740    0.137    0.302   28.134  160.980    9.290
  621.990    0.140    0.277   31.825  160.915    8.363
  622.240    0.146    0.296   36.310  160.642    8.088
  622.490    0.180    0.319   38.777  160.473    9.113
  622.740    0.189    0.337   34.277  159.992   10.249
  622.990    0.179    0.352   30.204  157.445   10.669
  623.240    0.197    0.335   29.372  156.656   10.765
  623.490    0.212    0.307   34.101  159.074   10.035
  623.740    0.153    0.302   40.725  162.014    8.642
  623.990    0.147    0.315   47.717  162.359    6.978
  624.240    0.139    0.335   53.667  161.569    5.698
  624.490    0.191    0.353   62.553  161.297    4.998
  624.740    0.227    0.383   68.139  161.035    4.195
  624.990    0.238    0.408   62.172  161.068    3.755
  625.240    0.247    0.422   55.103  160.793    3.507
  625.490    0.237    0.370   54.211  160.942    3.257
  625.740    0.228    0.361   61.263  161.184    3.110
  625.990    0.246    0.367   70.271  161.321    2.991
  626.240    0.253    0.358   80.073  161.567    2.861
  626.490    0.290    0.349   95.805  161.607    2.813
  626.740    0.303    0.341  110.986  161.437    2.751
  626.990    0.300    0.343  106.792  161.375    2.735
  627.240    0.303    0.346   93.918  161.413    2.724
  627.490    0.315    0.338   85.382  161.144    2.738
  627.740    0.310    0.345   86.325  160.771    2.747
  627.990    0.299    0.356   89.098  160.806    2.756
  628.240    0.288    0.352   92.848  160.843    2.766
  628.490    0.286    0.344   96.475  160.986    2.775
  628.740    0.304    0.336   99.678  161.126    2.810
  628.990    0.323    0.345  101.473  161.374    2.851
  629.240    0.309    0.359  100.946  161.413    2.871
  629.490    0.288    0.356   99.562  161.242    2.897
  629.740    0.292    0.349   99.160  160.974    2.944
  629.990    0.295    0.350  101.809  160.804    2.971
  630.240    0.282    0.359  101.037  161.054    3.003
  630.490    0.282    0.386   94.214  161.084    2.991
  630.740    0.285    0.374   89.653  161.020    2.968
  630.990    0.274    0.356   93.281  160.956    2.973
  631.240    0.258    0.358   98.866  160.685    2.988
  631.490    0.258    0.359  102.005  160.622    2.976
  631.740    0.268    0.350  103.800  160.657    2.954
  631.990    0.283    0.351  104.985  160.903    2.937
  632.240    0.305    0.351  102.688  161.149    2.914
  632.490    0.319    0.354   99.774  161.190    2.902
  632.740    0.312    0.359   96.862  161.120    2.875
  632.990    0.298    0.361   96.520  161.160    2.848
  633.240    0.284    0.356   98.802  160.992    2.837
  633.490    0.286    0.360   99.438  160.924    2.825
  633.740    0.302    0.374   95.486  160.859    2.830
  633.990    0.312    0.381   88.357  160.798    2.850
  634.240    0.291    0.397   77.561  160.938    2.918
  634.490    0.280    0.421   67.436  160.668    3.010
  634.740    0.256    0.436   53.340  160.806    3.251
  634.990    0.240    0.404   35.024  160.741    3.583
  635.240    0.217    0.340   22.149  160.576    4.089
  635.490    0.137    0.318   18.198  160.510    4.693
  635.740    0.089    0.297   17.611  160.240    5.115
  635.990    0.112    0.306   17.634  159.965    5.296
  636.240    0.136    0.319   17.901  159.796    5.294
  636.490    0.167    0.334   18.228  159.523    5.312
  636.740    0.187    0.340   18.558  158.011    5.243
  636.990    0.179    0.335   18.580  156.187    5.289
