~VERSION INFORMATION
 VERS.                 2.0:   CWLS LOG ASCII STANDARD -VERSION 2.0
 WRAP.                  NO:   ONE LINE PER DEPTH STEP
~WELL INFORMATION BLOCK
#MNEM.UNIT           DATA                    DESCRIPTION OF MNEMONIC
#---------    -------------------            -------------------------------
# Generated from Intellog Unique Number	CS_69_70/WELL/857
NULL.         -999.25                        : NULL_VALUE
WELL.         BVX HART LAKE                  : Well_name    - WELL              
LOC .         00/10-02-070-11W4/0            : Location     - LOCATION          
UWI .         00/10-02-070-11W4/0            : Uwi          - UNIQUE WELL ID    
ENTR.         SP                             : Entered      - ENTERED BY        
SRVC.         SCHLUMBERGER                   : Scn          - SERVICE COMPANY   
STRT.M        275                            : top_depth    - START DEPTH       
STOP.M        480                            : bot_depth    - STOP DEPTH        
STEP.M        0.25                           : increment    - STEP LENGTH       
~CURVE INFORMATION BLOCK
#MNEM UNIT       ERCB CURVE CODE    CURVE DESCRIPTION
#-----------   ------------------   ----------------------------------
DEPT.M        00 001 00 00         : DEPTH        - DEPTH                       
ILD .OHMM     00 120 00 00         : RESD         - DEEP RESISTIVITY (DIL)      
GR  .API      00 310 00 00         : GR           - GAMMA RAY                   
NPHI.V/V      00 330 00 00         : PHIN         - NEUTRON POROSITY (LIMESTONE)
DPHI.V/V      00 890 00 00         : PHID         - DENSITY POROSITY (LIMESTONE)
~PARAMETER INFORMATION       
#MNEM.UNIT           DATA             DESCRIPTION OF MNEMONIC
#---------         -----------     ------------------------------
GL  .M        604.1                : gl           - GROUND LEVEL ELEVATION      
EREF.M        606.85               : kb           - ELEVATION OF DEPTH REFERENCE
DATM.M        604.1                : datum        - DATUM ELEVATION             
TDD .M        481.2                : tdd          - TOTAL DEPTH DRILLER         
RUN .         ONE                  : Run          - RUN NUMBER                  
ENG .         BILL                 : Engineer     - RECORDING ENGINEER          
WIT .         JIM                  : Witness      - WITNESSED BY                
MUD .         GEL                  : Mud_type     - MUD TYPE                    
MATR.         LIMESTONE            : Logunit      - NEUTRON MATRIX              
TMAX.C        21                   : BHT          - MAXIMUM RECORDED TEMPERATURE
BHTD.M        481.2                : BHTDEP       - MAXIMUM RECORDED TEMPERATURE
MATR.         1                    : LOGUNIT      - NEUTRON MATRIX              
RMT .C        25                   : MDTP         - TEMPERATURE OF MUD          
NEUT.         1                    : NEUTRON      - NEUTRON TYPE                
RESI.         0                    : RESIST       - RESISTIVITY TYPE            
RMC .OHMM     0.25                 : RMC          - RESISTIVITY OF MUD CAKE     
RMF .OHMM     0.25                 : RMF          - RESISTIVITY OF MUD FILTRATE 
SUFT.C        15                   : SUFT         - SURFACE TEMPERATURE         
~A  DEPTH     RESD       GR     PHIN     PHID
# ...
  318.500    5.701   77.810    0.431    0.253
  318.750    5.658   78.060    0.448    0.269
  319.000    5.667   78.429    0.461    0.274
  319.250    5.772   79.527    0.475    0.271
  319.500    5.923   79.351    0.464    0.284
  319.750    6.180   75.793    0.447    0.300
  320.000    6.318   71.329    0.438    0.312
  320.250    6.411   68.558    0.434    0.280
  320.500    6.351   67.477    0.437    0.283
  320.750    6.256   69.357    0.438    0.310
  321.000    6.175   72.265    0.441    0.323
  321.250    6.027   74.628    0.442    0.302
  321.500    5.828   76.810    0.444    0.288
  321.750    5.816   78.328    0.451    0.298
  322.000    5.902   77.489    0.472    0.285
  322.250    5.934   76.228    0.488    0.285
  322.500    5.900   76.114    0.509    0.287
  322.750    5.716   82.829    0.492    0.296
  323.000    5.517   87.366    0.476    0.291
  323.250    5.237   90.635    0.469    0.287
  323.500    5.102   95.898    0.466    0.258
  323.750    4.906  101.584    0.474    0.217
  324.000    4.878  105.398    0.490    0.226
  324.250    4.851  100.813    0.489    0.245
  324.500    5.061   96.592    0.481    0.242
  324.750    5.203   92.191    0.477    0.254
  325.000    5.408   88.573    0.479    0.267
  325.250    5.529   87.672    0.473    0.263
  325.500    5.487   91.608    0.456    0.249
  325.750    5.336   93.185    0.466    0.235
  326.000    5.189   94.279    0.473    0.212
  326.250    5.169   90.119    0.460    0.245
  326.500    5.265   86.139    0.463    0.256
  326.750    5.483   82.279    0.459    0.268
  327.000    5.636   77.393    0.441    0.287
  327.250    5.827   77.219    0.427    0.315
  327.500    5.902   79.280    0.421    0.311
  327.750    5.967   81.221    0.418    0.309
  328.000    5.944   80.444    0.418    0.303
  328.250    5.888   78.759    0.425    0.298
  328.500    5.887   75.322    0.442    0.303
  328.750    5.918   73.698    0.463    0.307
  329.000    5.917   72.618    0.483    0.299
  329.250    5.916   68.336    0.476    0.307
  329.500    5.959   67.679    0.453    0.303
  329.750    6.081   71.855    0.443    0.284
  330.000    6.240   76.998    0.439    0.257
  330.250    6.415   79.843    0.436    0.254
  330.500    6.485   78.643    0.433    0.269
  330.750    6.484   78.711    0.431    0.283
  331.000    6.471   81.256    0.429    0.294
  331.250    6.363   84.585    0.426    0.305
  331.500    6.315   88.399    0.422    0.303
  331.750    6.361   91.489    0.429    0.274
  332.000    6.539   92.522    0.427    0.250
  332.250    6.911   92.105    0.419    0.249
  332.500    6.975   87.763    0.430    0.251
  332.750    7.065   85.233    0.443    0.251
  333.000    7.077   86.392    0.449    0.252
  333.250    7.063   87.425    0.434    0.245
  333.500    7.061   89.003    0.443    0.237
  333.750    7.034   91.246    0.451    0.239
  334.000    6.955   93.368    0.449    0.250
  334.250    6.826   95.854    0.437    0.241
  334.500    6.724   96.401    0.436    0.230
  334.750    6.612   96.528    0.435    0.227
  335.000    6.526  101.066    0.441    0.219
  335.250    6.428  103.309    0.453    0.207
  335.500    6.367   90.992    0.454    0.213
  335.750    6.343   81.816    0.462    0.253
  336.000    6.377   75.782    0.463    0.302
  336.250    6.424   69.386    0.445    0.311
  336.500    6.471   64.802    0.432    0.319
  336.750    6.470   67.105    0.425    0.325
  337.000    6.516   69.528    0.423    0.314
  337.250    6.528   68.388    0.417    0.304
  337.500    6.698   68.636    0.428    0.300
  337.750    6.784   70.639    0.422    0.294
  338.000    6.796   71.853    0.417    0.286
  338.250    6.683   70.652    0.428    0.280
  338.500    6.534   68.122    0.439    0.305
  338.750    6.497   68.251    0.440    0.323
  339.000    6.508   71.703    0.431    0.328
  339.250    6.542   74.487    0.421    0.298
  339.500    6.566   77.939    0.413    0.272
  339.750    6.602   79.516    0.415    0.248
  340.000    6.612   80.248    0.427    0.236
  340.250    6.611   79.290    0.435    0.233
  340.500    6.598   79.417    0.431    0.254
  340.750    6.573   84.862    0.423    0.248
  341.000    6.608   88.796    0.422    0.265
  341.250    6.619   89.045    0.429    0.289
  341.500    6.643   82.107    0.432    0.304
  341.750    6.716   78.489    0.434    0.302
  342.000    6.739   74.812    0.433    0.273
  342.250    6.739   72.944    0.432    0.259
  342.500    6.725   72.226    0.433    0.259
  342.750    6.699   71.328    0.443    0.255
  343.000    6.648   70.428    0.445    0.265
  343.250    6.611   77.506    0.438    0.294
  343.500    6.560   82.103    0.432    0.320
  343.750    6.523   86.460    0.435    0.315
  344.000    6.461   88.218    0.425    0.292
  344.250    6.401   86.414    0.417    0.268
  344.500    6.364   82.496    0.422    0.245
  344.750    6.363   79.180    0.429    0.228
  345.000    6.397   76.165    0.432    0.243
  345.250    6.420   73.877    0.431    0.267
  345.500    6.419   76.120    0.439    0.291
  345.750    6.370   73.347    0.459    0.308
  346.000    6.322   69.065    0.487    0.327
  346.250    6.274   68.046    0.477    0.309
  346.500    6.216   71.436    0.469    0.299
  346.750    6.078   75.975    0.471    0.293
  347.000    5.910   78.277    0.463    0.276
  347.250    5.406   79.856    0.474    0.255
  347.500    4.954   82.098    0.492    0.239
  347.750    4.890   82.106    0.486    0.244
  348.000    5.073   76.978    0.470    0.256
  348.250    5.353   71.487    0.476    0.287
  348.500    5.679   66.178    0.482    0.322
  348.750    6.058   61.594    0.470    0.336
  349.000    6.560   65.649    0.457    0.330
  349.250    6.857   69.282    0.447    0.334
  349.500    7.102   70.496    0.443    0.331
  349.750    7.048   71.773    0.450    0.319
  350.000    7.021   72.203    0.457    0.304
  350.250    7.020   71.909    0.464    0.302
  350.500    7.032   71.129    0.469    0.315
  350.750    7.069   68.359    0.474    0.331
  351.000    7.268   65.166    0.476    0.330
  351.250    7.266   62.696    0.475    0.324
  351.500    7.252   61.674    0.470    0.328
  351.750    7.237   61.078    0.461    0.340
  352.000    7.209   64.468    0.453    0.328
  352.250    7.234   66.408    0.452    0.330
  352.500    7.287   66.174    0.456    0.327
  352.750    7.408   64.127    0.463    0.338
  353.000    7.449   62.987    0.482    0.320
  353.250    7.643   62.510    0.494    0.308
  353.500    8.079   62.396    0.493    0.324
  353.750    9.146   62.343    0.478    0.325
  354.000   10.606   61.988    0.448    0.228
  354.250   11.786   61.210    0.234    0.092
  354.500   12.621   59.224    0.216    0.041
  354.750   11.892   57.057    0.208    0.052
  355.000   10.482   57.003    0.340    0.149
  355.250    9.377   61.180    0.426    0.277
  355.500    8.357   63.784    0.453    0.307
  355.750    7.588   65.483    0.469    0.319
  356.000    7.283   64.644    0.479    0.329
  356.250    7.148   63.443    0.472    0.327
  356.500    7.094   64.780    0.457    0.313
  356.750    7.067   64.969    0.452    0.305
  357.000    7.052   62.499    0.450    0.304
  357.250    7.064   60.332    0.459    0.310
  357.500    7.063   61.426    0.467    0.319
  357.750    7.074   64.031    0.460    0.308
  358.000    7.073   64.702    0.443    0.309
  358.250    7.086   63.743    0.429    0.310
  358.500    7.110   63.026    0.437    0.308
  358.750    7.122   62.852    0.450    0.317
  359.000    7.161   62.980    0.453    0.300
  359.250    7.146   63.531    0.453    0.292
  359.500    7.066   63.961    0.456    0.303
  359.750    7.026   63.485    0.460    0.314
  360.000    7.012   64.157    0.454    0.310
  360.250    6.985   65.131    0.447    0.301
  360.500    6.931   65.862    0.443    0.300
  360.750    6.905   66.172    0.450    0.287
  361.000    6.865   65.696    0.460    0.275
  361.250    7.084   66.247    0.462    0.274
  361.500    6.978   67.524    0.454    0.276
  361.750    6.926   68.497    0.449    0.270
