~VERSION INFORMATION
 VERS.                 2.0:   CWLS LOG ASCII STANDARD -VERSION 2.0
 WRAP.                  NO:   ONE LINE PER DEPTH STEP
~WELL INFORMATION BLOCK
#MNEM.UNIT           DATA                    DESCRIPTION OF MNEMONIC
#---------    -------------------            -------------------------------
# Generated from Intellog Unique Number	CC_84_87/WELL/2353
NULL.         -999.25                        : NULL_VALUE
WELL.         PETROREP ET AL HOUSE            : Well_name    - WELL              
LOC .         15-31-084-14W4                 : Location     - LOCATION          
UWI .         00/15-31-084-14W400            : Uwi          - UNIQUE WELL ID    
ENTR.         JHS                            : Entered      - ENTERED BY        
SRVC.         COMPUTALOG                     : Scn          - SERVICE COMPANY   
DATE.         07 JAN 85                      : Date         - LOG DATE
STRT.M        96                             : top_depth    - START DEPTH       
STOP.M        251.102                        : bot_depth    - STOP DEPTH        
STEP.M        0.3                            : increment    - STEP LENGTH       
~CURVE INFORMATION BLOCK
#MNEM UNIT       ERCB CURVE CODE    CURVE DESCRIPTION
#-----------   ------------------   ----------------------------------
DEPT.M        00 001 00 00         : DEPTH        - DEPTH                       
DPHI.V/V      00 890 00 00         : PHID         - DENSITY POROSITY (LIMESTONE)
NPHI.V/V      00 330 00 00         : PHIN         - NEUTRON POROSITY (LIMESTONE)
GR  .API      00 310 00 00         : GR           - GAMMA RAY                   
ILD .OHMM     00 120 00 00         : RESD         - DEEP RESISTIVITY (DIL)      
~PARAMETER INFORMATION       
#MNEM.UNIT           DATA             DESCRIPTION OF MNEMONIC
#---------         -----------     ------------------------------
GL  .M        531.17               : gl           - GROUND LEVEL ELEVATION      
EREF.M        534.67               : kb           - ELEVATION OF DEPTH REFERENCE
DATM.M        534.67               : datum        - DATUM ELEVATION             
TDD .M        254                  : tdd          - TOTAL DEPTH DRILLER         
RUN .         ONE                  : Run          - RUN NUMBER                  
ENG .         BILL                 : Engineer     - RECORDING ENGINEER          
WIT .         JIM                  : Witness      - WITNESSED BY                
MUD .         GEL                  : Mud_type     - MUD TYPE                    
MATR.         LIMESTONE            : Logunit      - NEUTRON MATRIX              
TMAX.C        22                   : BHT          - MAXIMUM RECORDED TEMPERATURE
BHTD.M        254                  : BHTDEP       - MAXIMUM RECORDED TEMPERATURE
MATR.         1                    : LOGUNIT      - NEUTRON MATRIX              
RMT .C        25                   : MDTP         - TEMPERATURE OF MUD          
NEUT.         1                    : NEUTRON      - NEUTRON TYPE                
RESI.         0                    : RESIST       - RESISTIVITY TYPE            
RMC .OHMM     0.25                 : RMC          - RESISTIVITY OF MUD CAKE     
RMF .OHMM     0.25                 : RMF          - RESISTIVITY OF MUD FILTRATE 
SUFT.C        15                   : SUFT         - SURFACE TEMPERATURE         
~A  DEPTH     PHID     PHIN       GR     RESD
# ...
  148.201    0.349    0.405   59.435   13.196
  148.501    0.341    0.400   55.137   14.505
  148.801    0.320    0.370   52.685   15.647
  149.101    0.279    0.373   52.690   16.253
  149.401    0.289    0.405   52.081   17.534
  149.701    0.287    0.360   50.858   20.015
  150.001    0.104    0.242   47.175   24.180
  150.301    0.011    0.119   40.419   27.603
  150.601    0.113    0.216   41.039   28.672
  150.901    0.177    0.380   45.963   24.201
  151.201    0.346    0.415   52.732   18.239
  151.501    0.378    0.415   53.353   16.920
  151.801    0.380    0.438   52.743   16.923
  152.101    0.374    0.432   53.979   16.928
  152.401    0.371    0.419   53.984   17.255
  152.701    0.354    0.412   53.376   17.589
  153.001    0.344    0.396   52.153   17.930
  153.301    0.337    0.401   52.773   17.600
  153.601    0.349    0.437   54.008   16.635
  153.901    0.360    0.433   58.318   15.142
  154.201    0.357    0.403   59.553   14.585
  154.501    0.354    0.375   54.641   14.317
  154.801    0.350    0.376   53.418   14.321
  155.101    0.342    0.418   62.030   14.058
  155.401    0.337    0.428   68.184   13.288
  155.701    0.339    0.441   70.034   13.291
  156.001    0.335    0.454   70.654   13.808
  156.301    0.329    0.441   65.742   14.341
  156.601    0.305    0.314   62.674   15.766
  156.901    0.114    0.280   58.992   17.661
  157.201    0.098    0.312   59.613   16.076
  157.501    0.159    0.324   65.152   12.821
  157.801    0.215    0.398   71.305   10.226
  158.101    0.260    0.459   78.688    9.134
  158.401    0.293    0.445   80.539    8.965
  158.701    0.285    0.441   82.388    8.636
  159.001    0.274    0.441   87.312    8.478
  159.301    0.260    0.433   88.547    8.480
  159.601    0.264    0.435   88.554    8.324
  159.901    0.271    0.442   95.322    8.018
  160.201    0.264    0.442   98.401    7.870
  160.501    0.261    0.441   95.948    7.580
  160.801    0.266    0.444   90.422    7.441
  161.101    0.279    0.440   89.198    7.034
  161.401    0.277    0.418   91.049    6.524
  161.701    0.266    0.418   94.743    6.284
  162.001    0.249    0.447   94.134    6.406
  162.301    0.245    0.439   93.526    6.170
  162.601    0.246    0.431   94.146    5.723
  162.901    0.255    0.444   94.152    5.513
  163.201    0.287    0.436   89.854    5.619
  163.501    0.291    0.420   78.795    6.295
  163.801    0.283    0.411   78.800    6.920
  164.101    0.251    0.429   76.348    7.188
  164.401    0.190    0.429   76.353    6.421
  164.701    0.229    0.438   84.351    5.025
  165.001    0.288    0.463   95.424    4.405
  165.301    0.288    0.484   95.428    4.490
  165.601    0.294    0.472   91.746    4.935
  165.901    0.299    0.447   91.753    5.529
  166.201    0.304    0.446   89.913    6.194
  166.501    0.315    0.430   87.460    6.196
  166.801    0.315    0.422   85.008    6.081
  167.101    0.310    0.457   85.013    6.438
  167.401    0.302    0.461   82.561    6.814
  167.701    0.300    0.449   77.648    7.634
  168.001    0.308    0.427   74.581    8.235
  168.301    0.315    0.416   75.201    8.554
  168.601    0.318    0.409   79.511    8.557
  168.901    0.314    0.421   81.975    8.399
  169.201    0.308    0.425   81.366    7.939
  169.501    0.289    0.417   81.373    7.504
  169.801    0.262    0.432   78.305    7.093
  170.101    0.231    0.452   79.540    6.705
  170.401    0.268    0.457   84.463    6.707
  170.701    0.277    0.449   85.700    6.583
  171.001    0.268    0.468   86.934    6.462
  171.301    0.264    0.486   89.400    6.225
  171.601    0.269    0.465   90.020    6.110
  171.901    0.268    0.450   90.641    5.997
  172.201    0.256    0.449   88.188    6.114
  172.501    0.268    0.450   88.195    6.231
  172.801    0.275    0.453   85.126    7.114
  173.101    0.270    0.449   83.903    7.820
  173.401    0.298    0.416   84.524    9.097
  173.701    0.323    0.397   86.989    9.100
  174.001    0.315    0.412   90.068    7.681
  174.301    0.281    0.428   87.000    7.125
  174.601    0.277    0.439   87.007    7.263
  174.901    0.272    0.439   85.168    7.402
  175.201    0.301    0.432   81.486    7.986
  175.501    0.342    0.430   83.335    8.614
  175.801    0.341    0.426   79.038   10.212
  176.101    0.329    0.449   71.666   11.658
  176.401    0.302    0.424   66.141   14.083
  176.701    0.271    0.274   61.842   14.088
  177.001    0.099    0.226   56.316   13.068
  177.301    0.246    0.290   60.624   12.120
  177.601    0.301    0.412   68.008   11.242
  177.901    0.328    0.407   67.399   10.626
  178.201    0.331    0.401   69.250   10.236
  178.501    0.327    0.409   69.870    9.860
  178.801    0.329    0.418   69.262   10.242
  179.101    0.335    0.416   70.497    9.681
  179.401    0.334    0.429   68.658    9.151
  179.701    0.329    0.446   71.123    9.871
  180.001    0.306    0.430   71.744   11.702
  180.301    0.136    0.263   67.446   14.137
  180.601    0.197    0.248   65.608   15.250
  180.901    0.290    0.281   65.000   12.630
  181.201    0.332    0.396   65.620   10.265
  181.501    0.333    0.424   69.314    8.998
  181.801    0.332    0.439   72.394    9.000
  182.101    0.322    0.430   68.712    9.003
  182.401    0.309    0.417   69.947    8.838
  182.701    0.296    0.418   73.642    8.675
  183.001    0.285    0.445   76.722    8.515
  183.301    0.276    0.439   78.572    8.358
  183.601    0.272    0.413   79.807    8.520
  183.901    0.270    0.399   77.969    8.522
  184.201    0.274    0.398   76.745    8.688
  184.501    0.272    0.405   87.202    8.856
  184.801    0.274    0.414   91.511    9.199
  185.101    0.276    0.432   74.304    9.377
  185.401    0.278    0.452   72.465    9.204
  185.701    0.277    0.431   74.316    8.866
  186.001    0.269    0.437   82.313    8.702
  186.301    0.261    0.437   86.008    8.226
  186.601    0.262    0.429   84.784    7.776
  186.901    0.251    0.448   86.634    7.350
  187.201    0.254    0.462   89.100    6.947
  187.501    0.251    0.450   89.105    6.566
  187.801    0.246    0.450   90.341    6.325
  188.101    0.247    0.459   94.650    6.093
  188.401    0.246    0.457   98.959    6.094
  188.701    0.242    0.454   98.966    6.331
  189.001    0.242    0.459   94.053    6.453
  189.301    0.251    0.458   90.371    6.703
  189.601    0.257    0.459   89.762    7.369
  189.901    0.249    0.462   89.154    7.800
  190.201    0.239    0.447   87.929    8.257
  190.501    0.268    0.448   84.861    8.740
  190.801    0.285    0.438   79.335    9.429
  191.101    0.298    0.414   78.726    9.794
  191.401    0.315    0.403   76.888    9.797
  191.701    0.315    0.409   73.205    9.617
  192.001    0.305    0.430   76.284    9.803
  192.301    0.295    0.463   78.750   10.575
  192.601    0.288    0.457   75.681   12.536
  192.901    0.258    0.399   70.155   12.778
  193.201    0.177    0.279   62.784   12.079
  193.501    0.227    0.310   65.248   10.994
  193.801    0.243    0.346   76.320   10.198
  194.101    0.251    0.409   86.162    9.282
  194.401    0.266    0.402   86.783    8.941
  194.701    0.257    0.401   85.559    8.777
  195.001    0.250    0.404   83.721    8.779
  195.301    0.286    0.397   80.653    8.782
  195.601    0.294    0.400   77.586    8.952
  195.901    0.273    0.412   81.894    8.786
  196.201    0.272    0.410   84.359    8.957
  196.501    0.262    0.408   83.751    8.960
  196.801    0.254    0.427   91.134    9.133
  197.101    0.257    0.435  107.738    9.310
  197.401    0.259    0.427  113.891    9.312
  197.701    0.273    0.427   94.225    9.492
  198.001    0.270    0.432   83.781    9.676
  198.301    0.270    0.430   80.098    9.679
  198.601    0.276    0.424   81.949    9.323
  198.901    0.258    0.419   83.798    8.486
  199.201    0.237    0.428   88.722    7.299
  199.501    0.242    0.427   95.490    6.397
  199.801    0.244    0.444  101.644    5.823
  200.101    0.246    0.481  101.650    5.936
