~VERSION INFORMATION
 VERS.                 2.0:   CWLS LOG ASCII STANDARD -VERSION 2.0
 WRAP.                  NO:   ONE LINE PER DEPTH STEP
~WELL INFORMATION BLOCK
#MNEM.UNIT           DATA                    DESCRIPTION OF MNEMONIC
#---------    -------------------            -------------------------------
# Generated from Intellog Unique Number	CC_80_83/WELL/2431
NULL.         -999.25                        : NULL_VALUE
WELL.         PARA ET AL HOUSE               : Well_name    - WELL
LOC .         12-24-080-18W4                 : Location     - LOCATION          
UWI .         00/12-24-080-18W4/0            : Uwi          - UNIQUE WELL ID    
ENTR.         DW                             : Entered      - ENTERED BY        
SRVC.         SCHLUMBERGER                   : Scn          - SERVICE COMPANY   
DATE.         28 FEB 79                      : Date         - LOG DATE
STRT.M        185                            : top_depth    - START DEPTH       
STOP.M        322.998                        : bot_depth    - STOP DEPTH        
STEP.M        0.3                            : increment    - STEP LENGTH       
~CURVE INFORMATION BLOCK
#MNEM UNIT       ERCB CURVE CODE    CURVE DESCRIPTION
#-----------   ------------------   ----------------------------------
DEPT.M        00 001 00 00         : DEPTH        - DEPTH                       
DPHI.V/V      00 890 00 00         : PHID         - DENSITY POROSITY (LIMESTONE)
NPHI.V/V      00 330 00 00         : PHIN         - NEUTRON POROSITY (LIMESTONE)
GR  .API      00 310 00 00         : GR           - GAMMA RAY                   
ILD .OHMM     00 120 00 00         : RESD         - DEEP RESISTIVITY (DIL)      
~PARAMETER INFORMATION       
#MNEM.UNIT           DATA             DESCRIPTION OF MNEMONIC
#---------         -----------     ------------------------------
GL  .M        545                  : gl           - GROUND LEVEL ELEVATION      
EREF.M        548                  : kb           - ELEVATION OF DEPTH REFERENCE
DATM.M        548                  : datum        - DATUM ELEVATION             
TDD .M        322                  : tdd          - TOTAL DEPTH DRILLER         
RUN .         ONE                  : Run          - RUN NUMBER                  
ENG .         BILL                 : Engineer     - RECORDING ENGINEER          
WIT .         JIM                  : Witness      - WITNESSED BY                
MUD .         GEL                  : Mud_type     - MUD TYPE                    
MATR.         LIMESTONE            : Logunit      - NEUTRON MATRIX              
TMAX.C        18                   : BHT          - MAXIMUM RECORDED TEMPERATURE
BHTD.M        322                  : BHTDEP       - MAXIMUM RECORDED TEMPERATURE
MATR.         1                    : LOGUNIT      - NEUTRON MATRIX              
RMT .C        25                   : MDTP         - TEMPERATURE OF MUD          
NEUT.         1                    : NEUTRON      - NEUTRON TYPE                
RESI.         0                    : RESIST       - RESISTIVITY TYPE            
RMC .OHMM     0.25                 : RMC          - RESISTIVITY OF MUD CAKE     
RMF .OHMM     0.25                 : RMF          - RESISTIVITY OF MUD FILTRATE 
SUFT.C        15                   : SUFT         - SURFACE TEMPERATURE         
~A  DEPTH     PHID     PHIN       GR     RESD
# ...
  289.399    0.182    0.402   89.820   11.902
  289.699    0.162    0.414   83.120   12.142
  289.999    0.173    0.438   92.838   12.701
  290.299    0.148    0.379   86.138   13.021
  290.599    0.125    0.359   73.355   13.262
  290.899    0.170    0.366   70.911   13.662
  291.199    0.177    0.349   80.024   14.459
  291.499    0.079    0.326   83.054   15.575
  291.799    0.040    0.177   48.986   15.338
  292.099    0.144    0.202   45.934   16.534
  292.399    0.154    0.299   65.384   15.899
  292.699    0.093    0.344   72.671   14.947
  292.999    0.114    0.341   60.496   16.142
  293.299    0.107    0.336   57.445   17.178
  293.599    0.063    0.198   57.434   17.021
  293.899    0.146    0.201   64.112   15.273
  294.199    0.184    0.280   75.046   14.479
  294.499    0.208    0.376   74.430   13.606
  294.799    0.183    0.414   67.725   11.380
  295.099    0.176    0.406   75.015   11.302
  295.399    0.186    0.378   73.178   12.657
  295.699    0.132    0.344   67.695   14.012
  295.999    0.077    0.216   65.859   13.616
  296.299    0.131    0.276   64.633   12.901
  296.599    0.176    0.325   64.619   11.471
  296.899    0.189    0.354   71.300   10.598
  297.199    0.194    0.398   77.371    9.963
  297.499    0.188    0.439   63.979    9.568
  297.799    0.181    0.426   68.832    9.093
  298.099    0.200    0.421   72.472    9.014
  298.399    0.199    0.413   76.109    9.016
  298.699    0.184    0.390   77.315    9.178
  298.999    0.183    0.372   81.560    9.180
  299.299    0.191    0.409   82.766    9.102
  299.599    0.185    0.391   83.363    8.786
  299.899    0.172    0.389   84.570    8.390
  300.199    0.134    0.417   91.857    7.835
  300.499    0.134    0.395   84.548    7.121
  300.799    0.174    0.430   94.874    6.725
  301.099    0.181    0.481  103.379    6.568
  301.399    0.183    0.472  113.706    6.490
  301.699    0.172    0.450  110.654    7.128
  301.999    0.156    0.434  103.954    8.085
  302.299    0.164    0.420   92.387    9.758
  302.599    0.032    0.390   80.214   12.704
  302.899    0.087    0.332   69.256   13.661
  303.199    0.143    0.297   80.192   15.652
  303.499    0.200    0.353   95.991   15.654
  303.799    0.188    0.395   91.725   14.780
  304.099    0.182    0.414   75.293   13.748
  304.399    0.173    0.404   81.364   13.193
  304.699    0.174    0.392   95.340   11.604
  304.999    0.173    0.428   88.639   11.685
  305.299    0.031    0.406   64.910   13.597
  305.599    0.058    0.185   59.424   15.508
  305.899    0.140    0.288   77.660   17.499
  306.199    0.206    0.339   83.729   19.809
  306.499    0.204    0.406   94.058   19.174
  306.799    0.155    0.354   93.439   17.744
  307.099    0.098    0.310   71.533   16.553
  307.399    0.161    0.294   91.592   16.316
  307.699    0.166    0.337   88.538   16.636
  307.999    0.138    0.360   83.055   16.399
  308.299    0.139    0.319   91.557   15.764
  308.599    0.144    0.337   86.075   14.732
  308.899    0.109    0.341   89.105   13.382
  309.199    0.144    0.325  100.039   11.633
  309.499    0.170    0.370  102.460    9.168
  309.799    0.160    0.403  101.232    8.216
  310.099    0.151    0.372   93.923    6.944
  310.398    0.167    0.405   89.654    3.764
  310.698    0.227    0.445   87.212    3.368
  310.998    0.247    0.480   81.120    3.290
  311.298    0.239    0.519   70.772    4.884
  311.598    0.227    0.513   65.283    6.954
  311.898    0.214    0.361   65.274    9.264
  312.198    0.205    0.381   64.655   12.369
  312.498    0.216    0.409   60.995   12.212
  312.798    0.219    0.392   62.810   11.259
  313.098    0.171    0.377   75.570    9.590
  313.398    0.167    0.377   80.425    7.523
  313.698    0.178    0.406   85.277    6.093
  313.998    0.188    0.427   88.917    5.379
  314.298    0.190    0.457   90.730    4.983
  314.598    0.178    0.449   90.110    4.826
  314.898    0.170    0.403   91.922    4.828
  315.198    0.176    0.406   94.344    5.069
  315.498    0.176    0.416   96.159    5.548
  315.798    0.168    0.410   94.324    5.868
  316.098    0.116    0.382   82.150    6.109
  316.398    0.131    0.366   98.559    6.111
  316.698    0.149    0.378  101.590    5.954
  316.998    0.159    0.414   95.497    5.399
  317.298    0.175    0.413  104.000    5.003
  317.598    0.191    0.434  105.811    5.084
  317.898    0.191    0.444  100.936    5.722
  318.198    0.171    0.393   94.844    7.952
  318.498    0.146    0.340  102.130    9.864
  318.798    0.116    0.324  106.981   10.264
  319.098    0.133    0.304  105.756   10.107
  319.398    0.129    0.303   99.057    9.950
  319.698    0.134    0.311  103.300    9.873
  319.998    0.150    0.302  101.466    9.795
  320.298    0.144    0.308   92.941    9.796
  320.598    0.170    0.068   13.262    9.798
  320.898    0.186    0.050   12.638    9.721
  321.198    0.184    0.047   12.632    9.722
  321.498    0.156    0.031   13.837    9.645
  321.798    0.135    0.030   13.822    9.727
  322.098    0.109    0.038   14.418    9.729
  322.398    0.099    0.049   14.410    9.652
  322.698    0.098    0.059   14.400    9.653
  322.998    0.093    0.055   14.388    9.655
