~VERSION INFORMATION
 VERS.                 2.0:   CWLS LOG ASCII STANDARD -VERSION 2.0
 WRAP.                  NO:   ONE LINE PER DEPTH STEP
~WELL INFORMATION BLOCK
#MNEM.UNIT           DATA                    DESCRIPTION OF MNEMONIC
#---------    -------------------            -------------------------------
# Generated from Intellog Unique Number	CW_79_81/WELL/2475
WELL.         GULF AMOCO HOOLE               : Well_name    - WELL
LOC .         00/10-26-081-25W4/0            : Location     - LOCATION
UWI .         00/10-26-081-25W4/0            : Uwi          - UNIQUE WELL ID
ENTR.         MAX                            : Entered      - ENTERED BY
SRVC.         SCHLUMBERGER                   : Scn          - SERVICE COMPANY
STRT.M        195.072                        : top_depth    - START DEPTH
STOP.M        457.072                        : bot_depth    - STOP DEPTH
STEP.M        0.25                           : increment    - STEP LENGTH
 NULL. -999.2500:NULL Value
~CURVE INFORMATION BLOCK
#MNEM UNIT       ERCB CURVE CODE    CURVE DESCRIPTION
#-----------   ------------------   ----------------------------------
DEPT.M        00 001 00 00         : DEPTH        - DEPTH
ILD .OHMM     00 120 00 00         : RESD         - DEEP RESISTIVITY (DIL)
NPHI.V/V      00 330 00 00         : PHIN         - NEUTRON POROSITY (SANDSTONE)
DPHI.V/V      00 890 00 00         : PHID         - DENSITY POROSITY (SANDSTONE)
GR  .API      00 310 00 00         : GR           - GAMMA RAY
CALI.MM       00 280 01 00         : CAL          - CALIPER
~PARAMETER INFORMATION
#MNEM.UNIT           DATA             DESCRIPTION OF MNEMONIC
#---------         -----------     ------------------------------
GL  .M        579.76               : gl           - GROUND LEVEL ELEVATION
EREF.M        583.021              : kb           - ELEVATION OF DEPTH REFERENCE
DATM.M        579.76               : datum        - DATUM ELEVATION
TDD .M        466.344              : tdd          - TOTAL DEPTH DRILLER
RUN .         ONE                  : Run          - RUN NUMBER
ENG .         BILL                 : Engineer     - RECORDING ENGINEER
WIT .         JIM                  : Witness      - WITNESSED BY
MUD .         GEL                  : Mud_type     - MUD TYPE
MATR.         SANDSTONE            : Logunit      - NEUTRON MATRIX
TMAX.C        27.2222              : BHT          - MAXIMUM RECORDED TEMPERATURE
BHTD.M        466.344              : BHTDEP       - MAXIMUM RECORDED TEMPERATURE
MATR.         1                    : LOGUNIT      - NEUTRON MATRIX
RMT .C        11.1111              : MDTP         - TEMPERATURE OF MUD
NEUT.         1                    : NEUTRON      - NEUTRON TYPE
RESI.         0                    : RESIST       - RESISTIVITY TYPE
RMC .OHMM     5.73                 : RMC          - RESISTIVITY OF MUD CAKE
RMF .OHMM     5.46                 : RMF          - RESISTIVITY OF MUD FILTRATE
SUFT.C        -20.5556             : SUFT         - SURFACE TEMPERATURE
~A  DEPTH     RESD     PHIN     PHID       GR      CAL
# ...
  377.572   10.042    0.473    0.179   91.771  162.907
  377.822   10.144    0.471    0.191   92.581  162.494
  378.072   10.297    0.465    0.209   93.073  162.485
  378.322   10.371    0.468    0.210   92.830  162.479
  378.572   10.501    0.463    0.208   91.692  162.170
  378.822   10.691    0.453    0.204   90.138  161.758
  379.072   10.982    0.439    0.194   88.227  161.446
  379.322   11.471    0.422    0.166   85.600  161.438
  379.572   12.219    0.398    0.138   83.807  161.430
  379.822   13.068    0.416    0.193   88.768  161.423
  380.072   13.323    0.435    0.209   91.367  161.718
  380.322   13.225    0.449    0.211   92.077  162.113
  380.572   12.868    0.452    0.211   91.655  162.509
  380.822   12.323    0.448    0.215   92.128  162.904
  381.072   11.566    0.450    0.217   94.803  162.897
  381.322   11.221    0.455    0.218   95.792  163.310
  381.572   11.153    0.458    0.217   95.272  163.084
  381.822   11.192    0.456    0.216   94.314  162.268
  382.072   11.293    0.450    0.214   93.594  161.352
  382.322   11.456    0.443    0.215   93.589  161.346
  382.572   11.559    0.449    0.218   92.690  162.345
  382.822   11.645    0.453    0.222   93.183  161.916
  383.072   11.535    0.459    0.221   94.171  161.219
  383.322   11.327    0.465    0.214   94.047  160.607
  383.572   11.104    0.468    0.204   92.851  160.499
  383.822   10.943    0.461    0.199   92.369  161.298
  384.072   10.843    0.452    0.202   89.682  161.287
  384.322   11.007    0.453    0.201   89.677  161.280
  384.572   11.279    0.453    0.203   90.567  161.878
  384.822   11.485    0.457    0.196   91.874  162.476
  385.072   11.505    0.463    0.186   93.359  162.771
  385.322   11.339    0.453    0.192   95.024  162.764
  385.572   11.236    0.462    0.205   97.700  163.259
  385.822   11.234    0.460    0.208   95.212  163.251
  386.072   11.355    0.453    0.205   92.743  163.244
  386.322   11.561    0.446    0.196   91.667  163.236
  386.572   11.771    0.443    0.186   92.497  163.228
  386.822   11.855    0.435    0.182   94.400  163.221
  387.072   11.854    0.441    0.190   99.162  163.211
  387.322   11.675    0.443    0.203  103.876  163.624
  387.572   11.388    0.451    0.204  106.246  164.003
  387.822   11.062    0.460    0.204  107.433  164.399
  388.072   10.726    0.462    0.208  107.965  164.796
  388.322   10.346    0.449    0.214  108.675  165.192
  388.572    9.977    0.449    0.199  104.795  166.696
  388.822    9.606    0.459    0.206   99.328  167.109
  389.072    9.329    0.461    0.201   95.370  166.883
  389.322    9.195    0.461    0.196   91.670  166.472
  389.572    9.292    0.453    0.191   88.328  166.162
  389.822    9.706    0.427    0.179   85.701  166.154
  390.072   11.114    0.401    0.164   80.630  165.134
  390.322   13.077    0.382    0.204   78.639  164.287
  390.572   15.808    0.373    0.218   76.091  164.111
  390.822   18.973    0.375    0.229   73.226  163.901
  391.072   21.179    0.385    0.243   70.599  163.186
  391.322   21.485    0.389    0.260   68.688  161.564
  391.572   20.720    0.393    0.271   68.385  161.051
  391.822   19.950    0.390    0.270   70.366  161.884
  392.072   19.054    0.388    0.268   72.905  162.045
  392.322   18.044    0.388    0.266   74.569  162.037
  392.572   17.129    0.393    0.263   74.982  161.928
  392.822   16.369    0.410    0.252   75.413  161.347
  393.072   15.648    0.421    0.240   76.402  160.498
  393.322   15.088    0.440    0.239   74.729  160.491
  393.572   14.550    0.449    0.245   69.658  160.785
  393.822   14.084    0.446    0.259   67.389  161.181
  394.072   13.707    0.434    0.277   69.769  161.275
  394.322   13.392    0.422    0.294   74.989  160.544
  394.572   13.290    0.428    0.294   78.460  160.956
  394.822   13.289    0.450    0.281   77.979  161.352
  395.072   13.359    0.458    0.270   78.034  161.143
  395.322   13.309    0.453    0.262   78.148  160.932
  395.572   13.093    0.442    0.257   78.144  161.125
  395.822   12.733    0.444    0.248   77.989  162.092
  396.072   12.355    0.458    0.232   77.239  162.926
  396.322   12.176    0.451    0.224   73.421  162.516
  396.572   12.329    0.445    0.212   68.886  162.104
  396.822   12.910    0.440    0.193   66.141  161.895
  397.072   13.810    0.435    0.172   65.540  161.887
  397.322   14.680    0.420    0.169   65.148  161.878
  397.572   15.477    0.412    0.187   64.398  161.871
  397.822   16.390    0.404    0.188   62.248  161.458
  398.072   17.361    0.384    0.174   60.277  161.350
  398.322   18.710    0.358    0.160   58.842  161.544
  398.572   20.631    0.337    0.151   57.884  161.839
  398.822   23.552    0.331    0.151   56.726  161.999
  399.072   26.602    0.334    0.155   55.728  162.831
  399.322   30.021    0.353    0.166   57.393  162.823
  399.572   31.859    0.375    0.188   60.309  162.513
  399.822   31.381    0.390    0.204   63.641  162.103
  400.072   29.063    0.400    0.209   66.557  161.692
  400.322   25.452    0.417    0.213   68.518  161.279
  400.572   22.595    0.441    0.220   70.004  161.271
  400.822   20.391    0.452    0.181   70.477  161.264
  401.072   19.582    0.430    0.161   69.876  160.953
  401.322   19.650    0.405    0.162   70.705  160.541
  401.572   20.154    0.393    0.177   73.025  160.129
  401.822   20.384    0.398    0.186   75.047  159.716
  402.072   20.077    0.421    0.199   78.022  159.708
  402.322   19.218    0.427    0.208   80.879  160.106
  402.572   17.590    0.434    0.216   82.483  160.804
  402.822   15.771    0.445    0.209   83.074  161.402
  403.072   14.114    0.455    0.192   83.069  161.697
  403.322   12.693    0.451    0.194   84.008  161.687
  403.572   12.316    0.452    0.208   88.722  161.680
  403.822   12.226    0.448    0.205   89.432  161.673
  404.072   12.203    0.449    0.202   88.891  161.666
  404.322   12.202    0.450    0.198   87.457  161.658
  404.572   12.178    0.446    0.190   86.081  161.549
  404.822   12.053    0.438    0.172   86.413  161.052
  405.072   11.871    0.437    0.160   86.905  160.622
  405.322   11.784    0.438    0.163   86.901  161.019
  405.572   11.698    0.438    0.176   87.791  161.416
  405.822   11.444    0.437    0.178   88.740  161.408
  406.072   11.058    0.436    0.169   89.152  161.198
  406.322   10.710    0.435    0.171   88.918  161.762
  406.572   10.549    0.430    0.194   90.156  162.594
  406.822   10.472    0.440    0.199   90.151  162.586
  407.072   10.395    0.443    0.200   89.968  162.579
  407.322   10.319    0.443    0.189   90.441  162.571
  407.572   10.244    0.442    0.172   91.747  162.463
  407.822   10.153    0.442    0.176   93.311  161.967
  408.072   10.076    0.446    0.183   92.810  161.537
  408.322   10.003    0.447    0.179   91.613  161.530
  408.572    9.930    0.446    0.171   92.562  161.220
  408.822    9.821    0.442    0.160   92.677  160.809
  409.072    9.715    0.437    0.160   91.778  160.499
  409.322    9.699    0.440    0.191   92.388  160.405
  409.572    9.625    0.446    0.178   91.887  159.976
  409.822    9.555    0.442    0.163   91.406  159.969
  410.072    9.485    0.438    0.161   91.997  159.961
  410.322    9.416    0.435    0.168   93.662  160.156
  410.572    9.347    0.435    0.176   96.637  160.451
  410.822    9.292    0.441    0.175  101.698  160.441
  411.072    9.362    0.439    0.177  103.184  160.434
  411.322    9.497    0.421    0.177  101.749  161.637
  411.572    9.634    0.413    0.171   96.738  162.538
  411.822    9.739    0.409    0.160   92.442  163.136
  412.072    9.791    0.408    0.151   91.365  163.532
  412.322    9.715    0.419    0.160   94.766  163.927
  412.572    9.356    0.445    0.175   97.493  163.919
  412.822    8.891    0.456    0.156   97.251  163.910
  413.072    8.591    0.460    0.140   97.365  164.205
  413.322    8.650    0.435    0.122   98.195  164.803
  413.572    9.018    0.398    0.113  100.038  166.310
  413.822    9.265    0.413    0.151  103.033  170.521
