~VERSION INFORMATION
 VERS.                 2.0:   CWLS LOG ASCII STANDARD -VERSION 2.0
 WRAP.                  NO:   ONE LINE PER DEPTH STEP
~WELL INFORMATION BLOCK
#MNEM.UNIT           DATA                    DESCRIPTION OF MNEMONIC
#---------    -------------------            -------------------------------
# Generated from Intellog Unique Number	CN_94_101/WELL/3801
WELL.         16-23-096-16W4                 : Well_name    - WELL
LOC .         00/16-23-096-16W4/0            : Location     - LOCATION
UWI .         00/16-23-096-16W400            : Uwi          - UNIQUE WELL ID
ENTR.         T                              : Entered      - ENTERED BY
SRVC.         SCHLUMBERGER                   : Scn          - SERVICE COMPANY
DATE.         07/20/92                       : Date         - LOG DATE
STRT.M        210                            : top_depth    - START DEPTH
STOP.M        399.75                         : bot_depth    - STOP DEPTH
STEP.M        0.25                           : increment    - STEP LENGTH
 NULL. -999.2500:NULL Value
~CURVE INFORMATION BLOCK
#MNEM UNIT       ERCB CURVE CODE    CURVE DESCRIPTION
#-----------   ------------------   ----------------------------------
DEPT.M        00 001 00 00         : DEPTH        - DEPTH
GR  .API      00 310 00 00         : GR           - GAMMA RAY
CALI.MM       00 280 01 00         : CAL          - CALIPER
NPHI.V/V      00 330 00 00         : PHIN         - NEUTRON POROSITY (SANDSTONE)
DPHI.V/V      00 890 00 00         : PHID         - DENSITY POROSITY (SANDSTONE)
ILD .OHMM     00 120 00 00         : RESD         - DEEP RESISTIVITY (DIL)
~PARAMETER INFORMATION
#MNEM.UNIT           DATA             DESCRIPTION OF MNEMONIC
#---------         -----------     ------------------------------
GL  .M        658                  : gl           - GROUND LEVEL ELEVATION
EREF.M        661.2                : kb           - ELEVATION OF DEPTH REFERENCE
DATM.M        661.2                : datum        - DATUM ELEVATION
TDD .M        400                  : tdd          - TOTAL DEPTH DRILLER
RUN .         0.000000             : Run          - RUN NUMBER
MUD .         GEL                  : Mud_type     - MUD TYPE
MATR.         SANDSTONE            : Logunit      - NEUTRON MATRIX
TMAX.C        0                    : BHT          - MAXIMUM RECORDED TEMPERATURE
BHTD.M        45                   : BHTDEP       - MAXIMUM RECORDED TEMPERATURE
RMT .C        5                    : MDTP         - TEMPERATURE OF MUD
MUDD.KG/M     1                    : MWT          - MUD DENSITY
NEUT.         1                    : NEUTRON      - NEUTRON TYPE
RESI.         0                    : RESIST       - RESISTIVITY TYPE
RM  .OHMM     7.8                  : RM           - RESISTIVITY OF MUD
RMC .OHMM     7.8                  : RMC          - RESISTIVITY OF MUD CAKE
RMF .OHMM     0                    : RMF          - RESISTIVITY OF MUD FILTRATE
SUFT.C        4                    : SUFT         - SURFACE TEMPERATURE
BTZC.MM       0                    : BITZC        - BIT SIZE CONSTANT
MDW .KG/M     0                    : MDW          - MUD WEIGHT
~A  DEPTH       GR      CAL     PHIN     PHID     RESD
# ...
  283.000   67.742  158.266    0.380    0.192   12.668
  283.250   73.185  148.185    0.416    0.237    9.397
  283.500   76.815  147.177    0.431    0.274    8.401
  283.750   79.234  157.258    0.424    0.279    7.652
  284.000   81.048  157.258    0.430    0.279    7.235
  284.250   84.677  156.250    0.446    0.263    6.715
  284.500   91.331  155.242    0.451    0.244    6.715
  284.750   91.935  155.242    0.463    0.244    6.970
  285.000   94.355  154.234    0.445    0.254    7.511
  285.250   98.589  155.242    0.434    0.261    6.232
  285.500  101.613  156.250    0.430    0.269    5.783
  285.750  101.613  157.258    0.426    0.261    5.468
  286.000  101.008  157.258    0.440    0.258    5.367
  286.250   99.194  158.266    0.444    0.258    5.571
  286.500   89.516  158.266    0.440    0.266    5.892
  286.750   84.073  158.266    0.466    0.286    6.970
  287.000   84.073  158.266    0.475    0.291    6.116
  287.250   79.234  158.266    0.443    0.293    6.715
  287.500   75.904  158.266    0.443    0.273    6.970
  287.750   74.699  159.274    0.423    0.254    7.511
  288.000   69.880  159.274    0.386    0.232    9.223
  288.250   66.265  159.274    0.386    0.202    8.245
  288.500   71.687  159.274    0.390    0.144    7.372
  288.750   80.723  159.274    0.410    0.147    7.102
  289.000   92.771  159.274    0.482    0.163    5.367
  289.250  101.205  159.274    0.512    0.198    4.056
  289.500  103.614  159.274    0.510    0.213    3.764
  289.750  106.627  160.282    0.506    0.214    3.626
  290.000  104.819  160.282    0.485    0.218    3.981
  290.250  100.602  160.282    0.481    0.222    4.537
  290.500   97.590  160.282    0.487    0.225    4.798
  290.750   97.590  160.282    0.505    0.233    5.075
  291.000  103.614  160.282    0.511    0.239    4.798
  291.250  110.241  160.282    0.485    0.237    5.367
  291.500  107.831  161.290    0.458    0.219    5.783
  291.750  104.217  161.290    0.475    0.207    6.003
  292.000  104.819  161.290    0.489    0.199    6.003
  292.250  109.639  161.290    0.506    0.199    4.981
  292.500  105.422  161.290    0.544    0.208    4.453
  292.750   85.542  161.290    0.529    0.222    4.798
  293.000   69.277  161.290    0.333    0.229    4.889
  293.250   75.301  162.298    0.378    0.222    4.622
  293.500   90.361  162.298    0.445    0.217    6.116
  293.750  109.036  162.298    0.506    0.216    4.133
  294.000  107.229  162.298    0.510    0.209    4.210
  294.250  106.024  162.298    0.512    0.202    4.622
  294.500  106.627  162.298    0.495    0.082    4.210
  294.750  103.012  161.290    0.472    0.072    4.537
  295.000  100.602  161.290    0.459    0.082    5.892
  295.250   95.783  161.290    0.464    0.143    6.349
  295.500   90.361  161.290    0.438    0.185    6.970
  295.750   88.554  161.290    0.414    0.199    6.841
  296.000   95.181  160.282    0.426    0.216    6.841
  296.250   98.795  160.282    0.461    0.216    6.116
  296.500   96.988  160.282    0.447    0.216    6.003
  296.750   93.976  160.282    0.417    0.215    6.715
  297.000   91.566  160.282    0.398    0.214    6.970
  297.250   95.783  159.274    0.399    0.212    5.783
  297.500   96.988  159.274    0.408    0.211    5.892
  297.750   89.759  159.274    0.436    0.211    6.003
  298.000   84.337  159.274    0.434    0.209    6.591
  298.250   84.940  159.274    0.433    0.207    7.235
  298.500   89.759  158.266    0.422    0.204    6.469
  298.750   95.783  158.266    0.446    0.205    5.676
  299.000  101.205  158.266    0.478    0.204    5.075
  299.250  103.614  158.266    0.474    0.202    4.133
  299.500   99.398  157.258    0.478    0.201    4.537
  299.750   95.783  157.258    0.486    0.184    4.798
  300.000   90.361  157.258    0.496    0.065    5.268
  300.250   75.904  157.258    0.465    0.063    6.715
  300.500   68.675  157.258    0.390    0.093    7.372
  300.750   65.663  156.250    0.392    0.130    7.796
  301.000   67.470  156.250    0.399    0.207    7.943
  301.250   71.687  156.250    0.406    0.242    7.652
  301.500   74.096  156.250    0.415    0.260    7.235
  301.750   79.518  155.242    0.423    0.259    6.841
  302.000   90.964  155.242    0.434    0.237    6.349
  302.250   94.578  155.242    0.448    0.234    5.892
  302.500   96.386  155.242    0.454    0.236    5.892
  302.750  100.602  155.242    0.463    0.255    5.468
  303.000  103.614  154.234    0.468    0.271    5.367
  303.250  100.602  154.234    0.475    0.288    5.268
  303.500   98.795  155.242    0.492    0.286    5.268
  303.750   98.795  153.226    0.494    0.264    5.170
  304.000   98.193  153.226    0.477    0.244    5.075
  304.250   95.181  154.234    0.468    0.239    5.075
  304.500  107.831  154.234    0.468    0.242    5.075
  304.750   96.386  154.234    0.484    0.250    5.268
  305.000   98.795  155.242    0.521    0.252    5.468
  305.250   92.169  155.242    0.498    0.223    5.676
  305.500   83.133  155.242    0.447    0.186    5.783
  305.750   82.530  156.250    0.358    0.130    6.116
  306.000   89.759  156.250    0.380    0.078    6.232
  306.250   96.988  156.250    0.410    0.077    6.232
  306.500  102.410  157.258    0.428    0.143    6.232
  306.750  103.614  157.258    0.424    0.206    5.892
  307.000  101.807  157.258    0.409    0.196    5.367
  307.250  103.614  157.258    0.423    0.161    4.981
  307.500  104.217  158.266    0.482    0.067    4.709
  307.750  111.446  158.266    0.465    0.019    4.371
  308.000  119.277  153.226    0.479    0.071    4.133
  308.250  120.482  153.226    0.519    0.110    3.835
  308.500  114.458  154.234    0.511    0.195    3.907
  308.750  112.651  154.234    0.508    0.208    3.981
  309.000  114.458  154.234    0.491    0.208    4.056
  309.250  106.627  157.258    0.492    0.205    4.210
  309.500   98.795  157.258    0.400    0.200    4.537
  309.750   87.952  157.258    0.475    0.202    4.622
  310.000  101.205  157.258    0.488    0.203    4.798
  310.250  112.651  157.258    0.507    0.210    4.798
  310.500  112.651  157.258    0.501    0.212    4.709
  310.750  116.867  157.258    0.545    0.203    4.709
  311.000  123.494  157.258    0.558    0.197    4.709
  311.250  123.494  158.266    0.548    0.198    4.798
  311.500  120.482  160.282    0.507    0.204    5.170
  311.750  112.651  163.306    0.440    0.210    5.676
  312.000  107.831  163.306    0.404    0.194    6.116
  312.250  116.867  163.306    0.387    0.159    6.841
  312.500  119.277  163.306    0.394    0.128    7.511
  312.750  108.434  162.298    0.360    0.137    8.093
  313.000  100.000  162.298    0.346    0.168    8.245
  313.250   95.181  162.298    0.357    0.209    8.559
  313.500   95.783  162.298    0.371    0.230    8.885
  313.750   96.988  162.298    0.361    0.230    9.052
  314.000   97.590  161.290    0.350    0.229    9.052
  314.250   98.795  161.290    0.381    0.233    8.559
  314.500  103.012  161.290    0.381    0.243    8.245
  314.750  104.217  161.290    0.409    0.248    7.943
  315.000  102.410  161.290    0.424    0.244    7.943
  315.250  103.614  161.290    0.455    0.241    7.943
  315.500  101.205  160.282    0.460    0.238    7.796
  315.750  100.602  160.282    0.428    0.218    7.796
  316.000   99.398  160.282    0.394    0.202    7.796
  316.250   96.386  160.282    0.381    0.179    7.796
  316.500   93.976  160.282    0.385    0.185    7.943
  316.750   92.771  159.274    0.381    0.203    7.943
  317.000   93.373  159.274    0.386    0.222    7.943
  317.250   98.193  159.274    0.397    0.224    7.796
  317.500  103.012  159.274    0.405    0.212    8.559
  317.750  101.205  159.274    0.409    0.204    9.052
  318.000   95.783  158.266    0.387    0.173    9.574
  318.250   89.157  158.266    0.346    0.156   13.398
  318.500   90.964  158.266    0.348    0.158   12.434
  318.750   96.988  158.266    0.362    0.176    9.223
  319.000  101.205  158.266    0.366    0.192    9.052
  319.250  103.012  158.266    0.372    0.202    9.052
