~VERSION INFORMATION
 VERS.                 2.0:   CWLS LOG ASCII STANDARD -VERSION 2.0
 WRAP.                  NO:   ONE LINE PER DEPTH STEP
~WELL INFORMATION BLOCK
#MNEM.UNIT           DATA                    DESCRIPTION OF MNEMONIC
#---------    -------------------            -------------------------------
# Generated from Intellog Unique Number	CS_69_70/WELL/899
WELL.         BOW VALLEY INDUSTRIES          : Well_name    - WELL
LOC .         00/11-26-069-12W4/0            : Location     - LOCATION
UWI .         00/11-26-069-12W4/0            : Uwi          - UNIQUE WELL ID
ENTR.         SP                             : Entered      - ENTERED BY
SRVC.         SCHLUMBERGER                   : Scn          - SERVICE COMPANY
STRT.M        265                            : top_depth    - START DEPTH
STOP.M        470                            : bot_depth    - STOP DEPTH
STEP.M        0.25                           : increment    - STEP LENGTH
 NULL. -999.2500:NULL Value
~CURVE INFORMATION BLOCK
#MNEM UNIT       ERCB CURVE CODE    CURVE DESCRIPTION
#-----------   ------------------   ----------------------------------
DEPT.M        00 001 00 00         : DEPTH        - DEPTH
ILD .OHMM     00 120 00 00         : RESD         - DEEP RESISTIVITY (DIL)
DPHI.V/V      00 890 00 00         : PHID         - DENSITY POROSITY (LIMESTONE)
NPHI.V/V      00 330 00 00         : PHIN         - NEUTRON POROSITY (LIMESTONE)
GR  .API      00 310 00 00         : GR           - GAMMA RAY
~PARAMETER INFORMATION
#MNEM.UNIT           DATA             DESCRIPTION OF MNEMONIC
#---------         -----------     ------------------------------
GL  .M        587.6                : gl           - GROUND LEVEL ELEVATION
EREF.M        590.3                : kb           - ELEVATION OF DEPTH REFERENCE
DATM.M        587.6                : datum        - DATUM ELEVATION
TDD .M        475                  : tdd          - TOTAL DEPTH DRILLER
RUN .         ONE                  : Run          - RUN NUMBER
ENG .         BILL                 : Engineer     - RECORDING ENGINEER
WIT .         JIM                  : Witness      - WITNESSED BY
MUD .         GEL                  : Mud_type     - MUD TYPE
MATR.         LIMESTONE            : Logunit      - NEUTRON MATRIX
TMAX.C        14.4                 : BHT          - MAXIMUM RECORDED TEMPERATURE
BHTD.M        475                  : BHTDEP       - MAXIMUM RECORDED TEMPERATURE
MATR.         1                    : LOGUNIT      - NEUTRON MATRIX
RMT .C        25                   : MDTP         - TEMPERATURE OF MUD
NEUT.         1                    : NEUTRON      - NEUTRON TYPE
RESI.         0                    : RESIST       - RESISTIVITY TYPE
RMC .OHMM     0.25                 : RMC          - RESISTIVITY OF MUD CAKE
RMF .OHMM     0.25                 : RMF          - RESISTIVITY OF MUD FILTRATE
SUFT.C        15                   : SUFT         - SURFACE TEMPERATURE
~A  DEPTH     RESD     PHID     PHIN       GR
# ...
  352.000    4.834    0.271    0.457   85.331
  352.250    4.881    0.278    0.448   87.413
  352.500    4.920    0.263    0.463   89.195
  352.750    4.940    0.273    0.477   86.183
  353.000    4.952    0.297    0.479   84.080
  353.250    4.908    0.319    0.476   80.886
  353.500    4.856    0.317    0.476   84.250
  353.750    4.831    0.283    0.466   86.694
  354.000    4.851    0.227    0.452   84.714
  354.250    4.889    0.172    0.424   80.730
  354.500    5.106    0.218    0.389   84.696
  354.750    5.262    0.284    0.398   88.541
  355.000    5.305    0.303    0.439   91.414
  355.250    5.141    0.316    0.479   90.162
  355.500    4.801    0.326    0.470   88.302
  355.750    4.559    0.334    0.458   85.350
  356.000    4.402    0.319    0.455   81.549
  356.250    4.322    0.306    0.470   80.964
  356.500    4.381    0.293    0.483   80.926
  356.750    4.516    0.279    0.465   80.947
  357.000    4.671    0.279    0.455   81.817
  357.250    4.971    0.260    0.467   82.628
  357.500    5.248    0.153    0.479   78.828
  357.750    5.763    0.033    0.352   72.416
  358.000    6.985    0.017    0.229   69.585
  358.250    9.809    0.009    0.177   68.273
  358.500   13.878    0.005    0.152   66.353
  358.750   18.395   -0.002    0.141   63.038
  359.000   23.056   -0.007    0.149   57.719
  359.250   27.997   -0.008    0.156   52.157
  359.500   31.674   -0.008    0.166   51.331
  359.750   34.460    0.003    0.182   54.629
  360.000   35.189    0.020    0.198   60.416
  360.250   32.074    0.047    0.203   66.510
  360.500   25.138    0.090    0.218   69.377
  360.750   15.379    0.178    0.249   74.257
  361.000   11.634    0.310    0.307   77.978
  361.250    8.950    0.333    0.480   80.730
  361.500    7.107    0.313    0.493   82.695
  361.750    5.307    0.299    0.493   84.658
  362.000    4.608    0.289    0.479   85.770
  362.250    4.568    0.285    0.459   81.544
  362.500    4.578    0.295    0.435   83.993
  362.750    4.597    0.288    0.448   88.386
  363.000    4.608    0.279    0.445   90.408
  363.250    4.636    0.271    0.443   91.886
  363.500    4.638    0.266    0.462   91.664
  363.750    4.666    0.262    0.466   90.900
  364.000    4.729    0.262    0.470   93.287
  364.250    4.793    0.264    0.476   95.068
  364.500    4.914    0.262    0.458   95.150
  364.750    4.980    0.257    0.444   90.741
  365.000    5.048    0.254    0.434   86.335
  365.250    5.145    0.273    0.453   83.624
  365.500    5.263    0.271    0.471   86.683
  365.750    5.374    0.264    0.436   84.942
  366.000    5.509    0.261    0.431   84.660
  366.250    5.636    0.259    0.458   84.621
  366.500    5.798    0.256    0.459   85.070
  366.750    5.898    0.255    0.446   87.700
  367.000    5.945    0.258    0.428   89.783
  367.250    6.003    0.244    0.414   91.629
  367.500    6.040    0.237    0.442   91.647
  367.750    5.998    0.247    0.441   91.729
  368.000    5.933    0.253    0.441   91.935
  368.250    5.614    0.246    0.458   92.078
  368.500    5.461    0.259    0.499   92.159
  368.750    5.352    0.257    0.478   91.876
  369.000    5.246    0.247    0.448   92.384
  369.250    5.190    0.239    0.426   90.102
  369.500    5.222    0.232    0.430   89.455
  369.750    5.322    0.227    0.450   91.781
  370.000    5.445    0.229    0.461   93.748
  370.250    5.560    0.232    0.463   95.162
  370.500    5.646    0.226    0.460   95.672
  370.750    5.755    0.218    0.456   94.841
  371.000    5.790    0.212    0.462   92.802
  371.250    5.824    0.214    0.468   89.302
  371.500    5.849    0.220    0.446   87.685
  371.750    5.829    0.224    0.432   90.927
  372.000    5.843    0.231    0.422   90.459
  372.250    5.835    0.236    0.445   90.725
  372.500    5.805    0.239    0.467   93.418
  372.750    5.700    0.232    0.483   95.562
  373.000    5.525    0.223    0.498   96.735
  373.250    5.188    0.238    0.484   97.243
  373.500    4.908    0.253    0.460   96.475
  373.750    4.661    0.269    0.482   95.951
  374.000    4.352    0.287    0.594   94.334
  374.250    3.829    0.320    0.621   91.990
  374.500    2.817    0.337    0.607   90.434
  374.750    2.410    0.325    0.588   90.333
  375.000    2.035    0.317    0.591   92.362
  375.250    1.958    0.319    0.589   93.897
  375.500    2.014    0.304    0.569   95.801
  375.750    2.183    0.288    0.544   98.004
  376.000    2.362    0.271    0.521  100.211
  376.250    2.702    0.278    0.492   94.108
  376.500    3.149    0.290    0.460   89.210
  376.750    3.477    0.294    0.458   84.135
  377.000    3.819    0.282    0.476   87.494
  377.250    4.040    0.265    0.487   92.312
  377.500    4.211    0.251    0.470   94.153
  377.750    4.308    0.243    0.480   94.537
  378.000    4.302    0.253    0.499   92.556
  378.250    4.240    0.263    0.492   91.910
  378.500    4.218    0.271    0.488   91.265
  378.750    4.292    0.284    0.504   88.374
  379.000    4.366    0.283    0.512   82.149
  379.250    4.458    0.290    0.486   78.100
  379.500    4.502    0.301    0.477   73.817
  379.750    4.504    0.311    0.485   71.290
  380.000    4.481    0.318    0.480   70.702
  380.250    4.466    0.321    0.463   71.028
  380.500    4.451    0.288    0.444   70.685
  380.750    4.446    0.278    0.428   67.976
  381.000    4.422    0.305    0.416   68.361
  381.250    4.359    0.325    0.435   67.654
  381.500    4.272    0.334    0.442   64.645
  381.750    4.118    0.346    0.432   62.298
  382.000    3.947    0.348    0.423   60.620
  382.250    3.883    0.335    0.416   59.128
  382.500    3.806    0.332    0.433   58.478
  382.750    3.730    0.337    0.435   57.044
  383.000    3.691    0.333    0.423   54.640
  383.250    3.665    0.341    0.417   56.970
  383.500    3.660    0.343    0.412   60.325
  383.750    3.655    0.339    0.412   67.149
  384.000    3.663    0.343    0.425   70.866
  384.250    3.685    0.332    0.445   74.894
  384.500    3.700    0.313    0.461   77.343
  384.750    3.715    0.299    0.467   77.850
  385.000    3.745    0.257    0.445   77.810
  385.250    3.824    0.155    0.427   75.830
  385.500    3.949    0.114    0.435   67.966
  385.750    4.146    0.075    0.284   61.673
  386.000    4.562    0.064    0.259   63.155
  386.250    5.066    0.150    0.354   68.755
  386.500    5.573    0.209    0.401   72.783
  386.750    5.830    0.175    0.364   70.134
  387.000    6.032    0.139    0.342   71.551
  387.250    5.901    0.207    0.383   75.761
  387.500    5.134    0.263    0.431   79.729
  387.750    4.601    0.293    0.459   82.357
  388.000    4.132    0.306    0.475   83.774
  388.250    3.690    0.287    0.459   84.829
  388.500    3.413    0.277    0.455   84.790
  388.750    3.235    0.293    0.463   86.632
  389.000    3.153    0.293    0.454   87.501
  389.250    3.167    0.279    0.432   83.761
  389.500    3.217    0.268    0.417   85.907
  389.750    3.272    0.266    0.410   87.627
  390.000    3.391    0.257    0.413   87.710
  390.250    3.515    0.247    0.425   88.217
  390.500    3.656    0.238    0.439   89.641
  390.750    3.797    0.244    0.451   90.631
  391.000    3.913    0.254    0.461   91.743
  391.250    3.996    0.258    0.470   92.980
  391.500    4.013    0.260    0.477   93.180
  391.750    3.918    0.273    0.459   91.079
  392.000    3.693    0.256    0.445   88.551
  392.250    3.455    0.249    0.442   89.486
  392.500    3.263    0.261    0.460   90.415
  392.750    3.058    0.254    0.471   91.590
  393.000    2.877    0.221    0.465   91.670
  393.250    2.836    0.213    0.473   89.569
  393.500    2.912    0.236    0.479   90.320
  393.750    3.002    0.250    0.482   94.166
  394.000    3.140    0.250    0.472   96.734
  394.250    3.359    0.252    0.472   95.360
  394.500    3.567    0.253    0.478   91.193
  394.750    3.753    0.247    0.482   92.308
  395.000    3.861    0.249    0.492   96.152
  395.250    3.928    0.260    0.524   99.816
