~VERSION INFORMATION
 VERS.                 2.0:   CWLS LOG ASCII STANDARD -VERSION 2.0
 WRAP.                  NO:   ONE LINE PER DEPTH STEP
~WELL INFORMATION BLOCK
#MNEM.UNIT           DATA                    DESCRIPTION OF MNEMONIC
#---------    -------------------            -------------------------------
# Generated from Intellog Unique Number	CS_73_76/WELL/845
WELL.         BOW VALLEY INDUSTRIES LTD.     : Well_name    - WELL
LOC .         00/11-19-073-16W4/0            : Location     - LOCATION
UWI .         00/11-19-073-16W4/0            : Uwi          - UNIQUE WELL ID
ENTR.         SP                             : Entered      - ENTERED BY
SRVC.         SCHLUMBERGER                   : Scn          - SERVICE COMPANY
STRT.M        237.744                        : top_depth    - START DEPTH
STOP.M        445.994                        : bot_depth    - STOP DEPTH
STEP.M        0.25                           : increment    - STEP LENGTH
 NULL. -999.2500:NULL Value
~CURVE INFORMATION BLOCK
#MNEM UNIT       ERCB CURVE CODE    CURVE DESCRIPTION
#-----------   ------------------   ----------------------------------
DEPT.M        00 001 00 00         : DEPTH        - DEPTH
GR  .API      00 310 00 00         : GR           - GAMMA RAY
DPHI.V/V      00 890 00 00         : PHID         - DENSITY POROSITY (SANDSTONE)
NPHI.V/V      00 330 00 00         : PHIN         - NEUTRON POROSITY (SANDSTONE)
ILD .OHMM     00 120 00 00         : RESD         - DEEP RESISTIVITY (DIL)
~PARAMETER INFORMATION
#MNEM.UNIT           DATA             DESCRIPTION OF MNEMONIC
#---------         -----------     ------------------------------
GL  .M        574.639              : gl           - GROUND LEVEL ELEVATION
EREF.M        577.596              : kb           - ELEVATION OF DEPTH REFERENCE
DATM.M        574.639              : datum        - DATUM ELEVATION
TDD .M        445.922              : tdd          - TOTAL DEPTH DRILLER
RUN .         ONE                  : Run          - RUN NUMBER
ENG .         BILL                 : Engineer     - RECORDING ENGINEER
WIT .         JIM                  : Witness      - WITNESSED BY
MUD .         GEL                  : Mud_type     - MUD TYPE
MATR.         SANDSTONE            : Logunit      - NEUTRON MATRIX
TMAX.C        23                   : BHT          - MAXIMUM RECORDED TEMPERATURE
BHTD.M        538                  : BHTDEP       - MAXIMUM RECORDED TEMPERATURE
MATR.         1                    : LOGUNIT      - NEUTRON MATRIX
RMT .C        25                   : MDTP         - TEMPERATURE OF MUD
NEUT.         1                    : NEUTRON      - NEUTRON TYPE
RESI.         0                    : RESIST       - RESISTIVITY TYPE
RMC .OHMM     0.25                 : RMC          - RESISTIVITY OF MUD CAKE
RMF .OHMM     0.25                 : RMF          - RESISTIVITY OF MUD FILTRATE
SUFT.C        15                   : SUFT         - SURFACE TEMPERATURE
~A  DEPTH       GR     PHID     PHIN     RESD
# ...
  368.244   63.394    0.318    0.446    6.652
  368.494   63.300    0.316    0.450    6.652
  368.744   65.017    0.310    0.456    6.721
  368.994   65.839    0.306    0.468    6.771
  369.244   63.660    0.299    0.449    6.879
  369.494   63.788    0.277    0.419    7.032
  369.744   65.538    0.268    0.405    7.175
  369.994   66.197    0.268    0.445    7.275
  370.244   64.613    0.298    0.461    7.304
  370.494   63.062    0.316    0.449    7.309
  370.744   61.923    0.306    0.448    7.117
  370.994   61.261    0.322    0.451    7.022
  371.244   61.970    0.307    0.462    6.788
  371.494   63.326    0.321    0.474    6.712
  371.744   65.380    0.330    0.476    6.673
  371.994   67.448    0.328    0.464    6.544
  372.244   68.609    0.326    0.460    6.678
  372.494   68.133    0.325    0.473    6.662
  372.744   67.152    0.321    0.465    6.770
  372.994   67.114    0.314    0.451    6.792
  373.244   67.153    0.326    0.444    6.800
  373.494   68.270    0.328    0.436    6.929
  373.744   68.359    0.315    0.435    6.923
  373.994   69.052    0.306    0.443    6.923
  374.244   69.004    0.304    0.457    6.925
  374.494   69.730    0.298    0.458    6.933
  374.744   67.466    0.301    0.450    6.806
  374.994   65.451    0.312    0.444    6.817
  375.244   64.334    0.314    0.439    6.669
  375.494   64.422    0.315    0.448    6.570
  375.744   64.739    0.321    0.444    6.569
  375.994   65.124    0.316    0.440    6.426
  376.244   65.740    0.309    0.449    6.433
  376.494   65.530    0.307    0.455    6.388
  376.744   65.196    0.313    0.467    6.317
  376.994   66.244    0.309    0.476    6.402
  377.244   67.226    0.299    0.490    6.433
  377.494   68.895    0.295    0.496    6.439
  377.744   69.957    0.291    0.477    6.522
  377.994   70.103    0.296    0.462    6.611
  378.244   69.042    0.305    0.469    6.817
  378.494   70.017    0.308    0.469    6.825
  378.744   74.900    0.283    0.470    6.667
  378.994   80.925    0.266    0.473    6.373
  379.244   85.564    0.247    0.472    5.984
  379.494   90.737    0.227    0.486    5.748
  379.744   97.404    0.224    0.495    5.475
  379.994  100.828    0.225    0.500    5.350
  380.244  100.248    0.238    0.510    5.253
  380.494   98.247    0.235    0.524    5.270
  380.744   97.078    0.215    0.528    5.175
  380.994   97.283    0.203    0.518    5.255
  381.244   98.238    0.227    0.500    5.424
  381.494   99.899    0.225    0.486    5.453
  381.744  100.402    0.233    0.486    5.471
  381.994  100.394    0.236    0.483    5.200
  382.244   97.226    0.231    0.501    5.062
  382.494   96.749    0.230    0.516    5.069
  382.744   97.823    0.231    0.524    5.064
  382.994   98.861    0.242    0.511    5.173
  383.244   99.868    0.247    0.492    5.508
  383.494  100.761    0.239    0.480    5.668
  383.744  100.752    0.238    0.473    5.776
  383.994  100.660    0.243    0.490    5.844
  384.244  102.255    0.235    0.502    5.884
  384.494  103.221    0.226    0.510    5.890
  384.744  102.454    0.218    0.498    5.952
  384.994   99.351    0.209    0.490    6.014
  385.244   97.431    0.208    0.477    6.121
  385.494   95.798    0.197    0.469    6.168
  385.744   94.925    0.172    0.468    6.231
  385.994   94.982    0.180    0.472    6.149
  386.244   94.921    0.204    0.476    5.922
  386.494   96.289    0.229    0.480    5.676
  386.744   98.585    0.226    0.482    5.329
  386.994  100.436    0.206    0.480    5.148
  387.244  102.419    0.182    0.476    4.993
  387.494  103.228    0.195    0.467    4.883
  387.744  101.525    0.201    0.459    5.019
  387.994   98.130    0.212    0.452    5.440
  388.244   93.338    0.246    0.442    5.843
  388.494   90.003    0.250    0.438    6.270
  388.744   85.995    0.240    0.438    6.680
  388.994   83.127    0.227    0.441    6.929
  389.244   78.739    0.189    0.444    7.536
  389.494   70.272    0.124    0.438    7.866
  389.744   74.412    0.166    0.399    8.148
  389.994   79.113    0.134    0.351    8.411
  390.244   82.581    0.157    0.388    8.411
  390.494   86.030    0.204    0.423    8.415
  390.744   88.771    0.209    0.457    8.411
  390.994   74.454    0.149    0.461    8.742
  391.244   68.466    0.097    0.415    9.302
  391.494   68.624    0.057    0.317    9.889
  391.744   74.442    0.104    0.314   10.454
  391.994   83.412    0.147    0.371   10.527
  392.244   85.562    0.150    0.403   10.550
  392.494   88.432    0.148    0.420   10.317
  392.744   91.089    0.151    0.415   10.339
  392.994   93.992    0.167    0.440   10.342
  393.244   95.394    0.152    0.450   10.354
  393.494   94.839    0.156    0.453   10.160
  393.744   94.176    0.168    0.461   10.158
  393.994   94.225    0.160    0.453   10.155
  394.244   94.850    0.174    0.456   10.157
  394.494   95.013    0.156    0.457   10.153
  394.744   93.535    0.164    0.440   10.137
  394.994   92.028    0.166    0.434    9.966
  395.244   92.003    0.158    0.424    9.990
  395.494   91.257    0.163    0.417    9.785
  395.744   84.983    0.136    0.417    9.772
  395.994   81.129    0.117    0.390   10.376
  396.244   77.567    0.092    0.328   11.156
  396.494   81.636    0.122    0.392   11.607
  396.744   92.107    0.156    0.425   11.547
  396.994   96.741    0.156    0.437   11.179
  397.244   97.243    0.145    0.436   10.761
  397.494   98.987    0.161    0.434   10.165
  397.744   99.023    0.169    0.444    9.853
  397.994   98.891    0.178    0.461    9.764
  398.244   96.387    0.179    0.454    9.254
  398.494   97.768    0.165    0.439    9.300
  398.744  100.324    0.157    0.430    9.151
  398.994  104.136    0.150    0.434    9.275
  399.244  106.783    0.157    0.418    9.403
  399.494  107.771    0.163    0.401    9.449
  399.744  104.845    0.167    0.403    9.455
  399.994  103.219    0.171    0.411    9.452
  400.244  102.381    0.176    0.403    9.422
  400.494  101.917    0.188    0.399    9.279
  400.744  101.021    0.164    0.390    9.214
  400.994   98.471    0.154    0.406    8.946
  401.244   94.993    0.147    0.417    8.704
  401.494   92.413    0.132    0.409    8.296
  401.744   92.993    0.121    0.392    8.144
  401.994   96.579    0.123    0.384    8.383
  402.244   98.671    0.148    0.411    8.703
  402.494   99.064    0.171    0.419    8.628
  402.744   97.809    0.179    0.424    8.554
  402.994   98.054    0.174    0.429    7.784
  403.244   98.581    0.194    0.435    6.582
  403.494   99.032    0.216    0.513    5.374
  403.744   99.694    0.238    0.532    4.390
  403.994  103.738    0.231    0.538    3.661
  404.244  108.431    0.206    0.525    3.159
  404.494  109.259    0.206    0.511    2.798
  404.744  111.480    0.207    0.514    2.542
  404.994  109.981    0.203    0.520    2.467
  405.244  104.205    0.198    0.530    2.629
  405.494   99.164    0.177    0.550    2.720
  405.744   94.536    0.163    0.475    3.212
  405.994   90.508    0.145    0.419    3.725
  406.244   88.199    0.114    0.394    4.762
  406.494   88.406    0.085    0.373    5.910
  406.744   94.390    0.082    0.368    6.994
  406.994   98.711    0.136    0.396    7.477
  407.244  102.612    0.155    0.417    7.590
  407.494   96.137    0.121    0.429    7.497
  407.744   89.448    0.063    0.425    7.136
  407.994   82.335    0.024    0.380    7.480
  408.244   81.617   -0.002    0.290    8.139
  408.494   88.282    0.051    0.314    9.392
  408.744   93.304    0.114    0.348   10.054
  408.994  101.127    0.143    0.374   10.684
  409.244  105.669    0.162    0.407    9.220
  409.494  109.036    0.175    0.448    6.359
  409.744  109.421    0.164    0.475    5.128
  409.994  109.103    0.178    0.498    4.366
  410.244  108.650    0.172    0.494    4.059
  410.494  104.427    0.155    0.479    3.843
  410.744   99.196    0.129    0.458    3.817
  410.994   95.634    0.075    0.429    4.283
  411.244   93.443    0.053    0.402    5.432
  411.494   97.474    0.121    0.406    6.113
