~VERSION INFORMATION
 VERS.                 2.0:   CWLS LOG ASCII STANDARD -VERSION 2.0
 WRAP.                  NO:   ONE LINE PER DEPTH STEP
~WELL INFORMATION BLOCK
#MNEM.UNIT           DATA                    DESCRIPTION OF MNEMONIC
#---------    -------------------            -------------------------------
# Generated from Intellog Unique Number	CW_70_72/WELL/1066
NULL.         -999.25                        : NULL_VALUE
WELL.         LARIO ET AL MITSUE 12-20       : Well_name    - WELL              
LOC .         12-20-071-03W5                 : Location     - LOCATION          
UWI .         00/12-20-071-03W5/0            : Uwi          - UNIQUE WELL ID    
ENTR.         JAYE                           : Entered      - ENTERED BY        
SRVC.         SCHLUMBERGER                   : Scn          - SERVICE COMPANY   
DATE.         9 JAN 82                       : Date         - LOG DATE          
STRT.M        475                            : top_depth    - START DEPTH       
STOP.M        740                            : bot_depth    - STOP DEPTH        
STEP.M        0.25                           : increment    - STEP LENGTH       
~CURVE INFORMATION BLOCK
#MNEM UNIT       ERCB CURVE CODE    CURVE DESCRIPTION
#-----------   ------------------   ----------------------------------
DEPT.M        00 001 00 00         : DEPTH        - DEPTH                       
DPHI.V/V      00 890 00 00         : PHID         - DENSITY POROSITY (SANDSTONE)
NPHI.V/V      00 330 00 00         : PHIN         - NEUTRON POROSITY (SANDSTONE)
GR  .API      00 310 00 00         : GR           - GAMMA RAY                   
CALI.MM       00 280 01 00         : CAL          - CALIPER                     
ILD .OHMM     00 120 00 00         : RESD         - DEEP RESISTIVITY (DIL)      
~PARAMETER INFORMATION       
#MNEM.UNIT           DATA             DESCRIPTION OF MNEMONIC
#---------         -----------     ------------------------------
GL  .M        676                  : gl           - GROUND LEVEL ELEVATION      
EREF.M        679.9                : kb           - ELEVATION OF DEPTH REFERENCE
DATM.M        676                  : datum        - DATUM ELEVATION             
TDD .M        750                  : tdd          - TOTAL DEPTH DRILLER         
RUN .         ONE                  : Run          - RUN NUMBER                  
ENG .         BOHN                 : Engineer     - RECORDING ENGINEER          
WIT .         MYERS                : Witness      - WITNESSED BY                
BASE.         EDSON                : Branch       - HOME BASE OF LOGGING UNIT   
MUD .         GEL CHEM             : Mud_type     - MUD TYPE                    
MATR.         SANDSTONE            : Logunit      - NEUTRON MATRIX              
TMAX.C        31.1                 : BHT          - MAXIMUM RECORDED TEMPERATURE
BHTD.M        749                  : BHTDEP       - MAXIMUM RECORDED TEMPERATURE
RMT .C        30.5                 : MDTP         - TEMPERATURE OF MUD          
MUDD.KG/M     1200                 : MWT          - MUD DENSITY                 
NEUT.         1                    : NEUTRON      - NEUTRON TYPE                
RESI.         0                    : RESIST       - RESISTIVITY TYPE            
RM  .OHMM     3.19                 : RM           - RESISTIVITY OF MUD          
RMC .OHMM     0                    : RMC          - RESISTIVITY OF MUD CAKE     
RMF .OHMM     2.52                 : RMF          - RESISTIVITY OF MUD FILTRATE 
SUFT.C        0                    : SUFT         - SURFACE TEMPERATURE         
~A  DEPTH     PHID     PHIN       GR      CAL     RESD
# ...
  657.500    0.067    0.187   48.898  190.482   12.039
  657.750    0.066    0.205   49.735  190.328   11.137
  658.000    0.046    0.174   49.769  190.286   10.477
  658.250    0.032    0.151   48.929  190.436    9.674
  658.500    0.039    0.166   49.893  190.489    9.033
  658.750    0.112    0.191   52.276  190.546    8.232
  659.000    0.149    0.230   55.903  190.502    7.420
  659.250    0.223    0.291   58.850  190.342    6.737
  659.500    0.240    0.293   60.802  190.384    5.959
  659.750    0.253    0.320   63.001  190.240    5.420
  660.000    0.256    0.362   64.833  190.182    4.619
  660.250    0.257    0.391   66.413  189.932    4.063
  660.500    0.261    0.417   67.995  189.983    3.621
  660.750    0.265    0.438   67.716  190.034    3.179
  661.000    0.270    0.418   65.391  190.081    2.920
  661.250    0.271    0.413   62.509  189.837    2.840
  661.500    0.265    0.424   62.358  189.874    2.842
  661.750    0.254    0.426   62.075  189.820    2.880
  662.000    0.246    0.389   62.976  189.783    2.919
  662.250    0.245    0.379   64.867  189.826    2.998
  662.500    0.247    0.395   64.648  189.680    3.154
  662.750    0.244    0.403   64.370  189.724    3.362
  663.000    0.234    0.408   65.212  189.789    3.564
  663.250    0.232    0.411   65.238  190.031    3.681
  663.500    0.234    0.391   64.340  190.199    3.752
  663.750    0.230    0.384   63.753  190.347    3.747
  664.000    0.236    0.405   65.953  190.395    3.545
  664.250    0.257    0.435   69.271  190.461    3.310
  664.500    0.270    0.448   66.640  190.507    3.033
  664.750    0.262    0.406   64.003  190.666    2.827
  665.000    0.244    0.423   63.041  190.717    2.975
  665.250    0.157    0.422   58.984  190.975    3.468
  665.500    0.090    0.302   56.720  191.127    4.189
  665.750    0.057    0.251   53.280  191.391    4.994
  666.000    0.045    0.176   55.605  191.130    5.822
  666.250    0.033    0.191   57.434  189.836    6.478
  666.500    0.047    0.208   57.217  188.232    7.330
  666.750    0.061    0.235   56.008  187.666    7.873
  667.000    0.076    0.252   57.094  187.722    7.296
  667.250    0.097    0.278   58.488  187.778    6.395
  667.500    0.127    0.309   58.272  187.937    5.667
  667.750    0.184    0.331   59.423  187.874    4.938
  668.000    0.213    0.379   60.876  187.823    4.185
  668.250    0.226    0.388   62.088  187.671    3.737
  668.500    0.236    0.378   63.233  187.722    3.425
  668.750    0.246    0.387   64.134  187.670    3.246
  669.000    0.252    0.396   64.784  187.834    3.122
  669.250    0.257    0.405   65.438  187.985    3.038
  669.500    0.260    0.413   65.962  188.141    3.016
  669.750    0.258    0.404   66.739  188.399    3.024
  670.000    0.255    0.399   67.450  188.345    3.076
  670.250    0.251    0.417   68.844  188.090    3.148
  670.500    0.243    0.421   70.679  187.935    3.214
  670.750    0.240    0.408   72.505  188.097    3.258
  671.000    0.246    0.402   72.534  188.148    3.290
  671.250    0.260    0.408   69.715  188.198    3.285
  671.500    0.268    0.416   65.594  188.349    3.263
  671.750    0.265    0.420   64.637  188.303    3.252
  672.000    0.256    0.434   66.338  188.349    3.266
  672.250    0.247    0.422   70.151  189.131    3.316
  672.500    0.237    0.408   72.973  190.213    3.355
  672.750    0.244    0.388   74.117  191.717    3.439
  673.000    0.248    0.387   74.647  192.079    3.512
  673.250    0.250    0.405   74.615  191.918    3.553
  673.500    0.247    0.435   74.151  191.868    3.602
  673.750    0.246    0.457   73.565  191.615    3.671
  674.000    0.247    0.437   73.284  191.668    3.771
  674.250    0.241    0.432   73.811  191.719    3.850
  674.500    0.228    0.432   74.709  191.767    3.954
  674.750    0.208    0.423   73.256  191.833    4.075
  675.000    0.182    0.381   74.216  191.565    4.177
  675.250    0.179    0.356   75.177  191.410    4.298
  675.500    0.193    0.374   75.456  191.148    4.381
  675.750    0.205    0.400   76.046  191.100    4.466
  676.000    0.193    0.410   77.749  190.945    4.595
  676.250    0.159    0.407   78.152  190.688    4.745
  676.500    0.118    0.388   75.457  190.021    5.020
  676.750    0.114    0.318   70.221  188.211    5.392
  677.000    0.117    0.305   67.026  186.815    5.694
  677.250    0.110    0.295   68.299  189.654    5.783
  677.500    0.108    0.294   71.430  194.252    5.732
  677.750    0.129    0.318   73.694  195.755    5.692
  678.000    0.150    0.343   74.405  195.916    5.705
  678.250    0.148    0.347   75.551  196.169    5.804
  678.500    0.141    0.336   77.755  196.226    6.017
  678.750    0.132    0.315   80.265  196.272    6.272
  679.000    0.116    0.304   86.927  196.632    6.525
  679.250    0.121    0.306   91.486  196.694    6.739
  679.500    0.129    0.326   95.853  197.051    6.411
  679.750    0.127    0.350  100.721  197.109    5.919
  680.000    0.134    0.371  106.331  197.161    5.726
  680.250    0.133    0.370  102.334  197.207    5.958
  680.500    0.125    0.341   93.750  196.855    6.245
  680.750    0.117    0.320   95.889  197.002    6.534
  681.000    0.103    0.325   93.067  197.050    6.862
  681.250    0.077    0.332   88.142  196.803    7.180
  681.500    0.059    0.318   88.730  196.539    7.442
  681.750    0.053    0.305   91.550  196.598    7.558
  682.000    0.079    0.321   88.607  196.953    7.548
  682.250    0.099    0.336   88.391  197.121    7.467
  682.500    0.113    0.363   91.273  197.064    7.318
  682.750    0.148    0.396   86.531  197.117    6.989
  683.000    0.173    0.379   81.233  196.762    6.761
  683.250    0.153    0.357   87.586  196.598    6.492
  683.500    0.121    0.342   97.721  196.449    6.130
  683.750    0.123    0.369   97.318  196.400    5.919
  684.000    0.129    0.397   94.623  196.559    5.695
  684.250    0.136    0.406   97.566  196.506    5.499
  684.500    0.142    0.413   94.003  196.658    5.626
  684.750    0.141    0.402   88.333  196.705    5.964
  685.000    0.115    0.383   82.228  196.547    7.124
  685.250    0.091    0.346   72.526  196.612    8.031
  685.500    0.071    0.332   69.586  197.074    8.689
  685.750    0.063    0.285   71.163  197.123    9.108
  686.000    0.095    0.314   78.697  197.588    8.395
  686.250    0.120    0.342   88.023  197.839    7.509
  686.500    0.125    0.380   87.621  198.211    6.471
  686.750    0.118    0.396   89.515  198.259    6.076
  687.000    0.102    0.405   91.096  198.318    5.967
  687.250    0.123    0.389   88.336  198.468    6.082
  687.500    0.127    0.342   90.043  198.421    6.234
  687.750    0.126    0.338   92.674  198.259    6.499
  688.000    0.128    0.347   92.210  198.215    6.761
  688.250    0.136    0.363   90.878  198.365    6.918
  688.500    0.142    0.359   89.613  198.430    6.921
  688.750    0.147    0.342   89.579  198.373    6.924
  689.000    0.151    0.356   92.028  198.420    6.927
  689.250    0.135    0.346   96.770  198.264    6.931
  689.500    0.116    0.339   97.916  198.317    6.844
  689.750    0.086    0.352   95.344  198.367    6.708
  690.000    0.057    0.364   94.883  198.626    6.563
  690.250    0.069    0.369   97.019  198.678    6.243
  690.500    0.091    0.342  101.325  198.748    5.797
  690.750    0.117    0.348  106.568  198.789    4.913
  691.000    0.136    0.368  108.457  198.939    4.101
  691.250    0.156    0.370  109.044  199.513    3.256
  691.500    0.191    0.388  103.126  200.805    2.663
  691.750    0.230    0.461   96.896  202.505    2.118
  692.000    0.256    0.505   95.196  204.211    1.742
  692.250    0.254    0.527   97.024  203.331    1.605
  692.500    0.236    0.562   98.106  200.698    1.588
  692.750    0.214    0.575   99.068  197.553    1.662
  693.000    0.201    0.543  103.502  196.051    1.749
  693.250    0.195    0.482  107.996  195.382    1.829
  693.500    0.204    0.496  108.274  195.950    1.969
  693.750    0.192    0.515  104.275  196.525    2.102
