~VERSION INFORMATION
 VERS.                 2.0:   CWLS LOG ASCII STANDARD -VERSION 2.0
 WRAP.                  NO:   ONE LINE PER DEPTH STEP
~WELL INFORMATION BLOCK
#MNEM.UNIT           DATA                    DESCRIPTION OF MNEMONIC
#---------    -------------------            -------------------------------
# Generated from Intellog Unique Number	CS_73_76/WELL/852
WELL.         WAINCO OIL & GAS LIMITED       : Well_name    - WELL
LOC .         00/11-31-073-12W4/0            : Location     - LOCATION
UWI .         00/11-31-073-12W4/0            : Uwi          - UNIQUE WELL ID
ENTR.         SP                             : Entered      - ENTERED BY
SRVC.         SCHLUMBERGER                   : Scn          - SERVICE COMPANY
STRT.M        295                            : top_depth    - START DEPTH
STOP.M        513                            : bot_depth    - STOP DEPTH
STEP.M        0.25                           : increment    - STEP LENGTH
 NULL. -999.2500:NULL Value
~CURVE INFORMATION BLOCK
#MNEM UNIT       ERCB CURVE CODE    CURVE DESCRIPTION
#-----------   ------------------   ----------------------------------
DEPT.M        00 001 00 00         : DEPTH        - DEPTH
ILD .OHMM     00 120 00 00         : RESD         - DEEP RESISTIVITY (DIL)
DPHI.V/V      00 890 00 00         : PHID         - DENSITY POROSITY (LIMESTONE)
NPHI.V/V      00 330 00 00         : PHIN         - NEUTRON POROSITY (LIMESTONE)
GR  .API      00 310 00 00         : GR           - GAMMA RAY
~PARAMETER INFORMATION
#MNEM.UNIT           DATA             DESCRIPTION OF MNEMONIC
#---------         -----------     ------------------------------
GL  .M        657                  : gl           - GROUND LEVEL ELEVATION
EREF.M        660                  : kb           - ELEVATION OF DEPTH REFERENCE
DATM.M        657                  : datum        - DATUM ELEVATION
TDD .M        524                  : tdd          - TOTAL DEPTH DRILLER
RUN .         ONE                  : Run          - RUN NUMBER
ENG .         BILL                 : Engineer     - RECORDING ENGINEER
WIT .         JIM                  : Witness      - WITNESSED BY
MUD .         GEL                  : Mud_type     - MUD TYPE
MATR.         LIMESTONE            : Logunit      - NEUTRON MATRIX
TMAX.C        13                   : BHT          - MAXIMUM RECORDED TEMPERATURE
BHTD.M        524                  : BHTDEP       - MAXIMUM RECORDED TEMPERATURE
MATR.         1                    : LOGUNIT      - NEUTRON MATRIX
RMT .C        25                   : MDTP         - TEMPERATURE OF MUD
NEUT.         1                    : NEUTRON      - NEUTRON TYPE
RESI.         0                    : RESIST       - RESISTIVITY TYPE
RMC .OHMM     0.25                 : RMC          - RESISTIVITY OF MUD CAKE
RMF .OHMM     0.25                 : RMF          - RESISTIVITY OF MUD FILTRATE
SUFT.C        15                   : SUFT         - SURFACE TEMPERATURE
~A  DEPTH     RESD     PHID     PHIN       GR
# ...
  425.500    5.372    0.269    0.493   76.073
  425.750    5.476    0.275    0.491   74.875
  426.000    5.378    0.272    0.485   74.882
  426.250    5.085    0.267    0.485   76.105
  426.500    5.088    0.270    0.488   76.113
  426.750    5.090    0.284    0.494   76.724
  427.000    5.092    0.293    0.493   76.733
  427.250    5.094    0.298    0.490   77.347
  427.500    5.097    0.303    0.488   77.961
  427.750    5.099    0.292    0.483   79.182
  428.000    5.199    0.288    0.482   79.796
  428.250    5.201    0.288    0.488   80.406
  428.500    5.203    0.293    0.495   78.601
  428.750    5.205    0.293    0.505   77.401
  429.000    5.208    0.287    0.496   75.599
  429.250    5.210    0.288    0.492   75.002
  429.500    5.211    0.284    0.489   75.010
  429.750    5.117    0.279    0.484   75.020
  430.000    5.120    0.275    0.477   75.638
  430.250    5.122    0.282    0.479   76.249
  430.500    5.030    0.287    0.483   76.861
  430.750    5.031    0.289    0.485   78.081
  431.000    5.034    0.290    0.487   79.297
  431.250    5.035    0.283    0.491   79.909
  431.500    5.038    0.273    0.487   76.291
  431.750    5.042    0.261    0.487   73.274
  432.000    5.043    0.256    0.489   73.285
  432.250    5.045    0.256    0.492   72.689
  432.500    5.047    0.249    0.496   72.094
  432.750    5.145    0.244    0.500   72.707
  433.000    5.052    0.263    0.513   73.926
  433.250    5.054    0.266    0.526   76.357
  433.500    4.962    0.273    0.537   77.572
  433.750    4.964    0.279    0.540   79.397
  434.000    4.875    0.273    0.530   80.009
  434.250    4.786    0.273    0.521   80.624
  434.500    4.788    0.280    0.515   81.240
  434.750    4.702    0.279    0.509   81.246
  435.000    4.703    0.274    0.502   82.469
  435.250    4.795    0.266    0.499   82.477
  435.500    4.797    0.258    0.501   83.089
  435.750    4.798    0.256    0.508   82.495
  436.000    4.712    0.260    0.510   82.500
  436.250    4.714    0.260    0.511   84.328
  436.500    4.629    0.259    0.514   85.546
  436.750    4.631    0.261    0.514   86.760
  437.000    4.546    0.262    0.511   87.979
  437.250    4.464    0.272    0.500   84.965
  437.500    4.466    0.278    0.488   80.740
  437.750    4.554    0.274    0.474   75.305
  438.000    4.642    0.264    0.464   71.685
  438.250    4.643    0.257    0.454   72.907
  438.500    4.823    0.247    0.427   74.728
  438.750    5.105    0.240    0.355   71.714
  439.000    5.203    0.233    0.297   68.699
  439.250    5.507    0.082    0.237   63.266
  439.500    6.284    0.051    0.224   60.853
  439.750    6.905    0.076    0.233   58.441
  440.000    7.447    0.119    0.273   65.712
  440.250    7.591    0.161    0.342   68.138
  440.500    7.314    0.181    0.432   72.985
  440.750    6.917    0.202    0.482   79.043
  441.000    6.300    0.211    0.476   83.286
  441.250    5.847    0.214    0.459   83.902
  441.500    5.229    0.212    0.451   84.513
  441.750    5.038    0.215    0.451   85.127
  442.000    4.946    0.215    0.465   87.556
  442.250    4.948    0.218    0.483   88.774
  442.500    4.858    0.226    0.504   89.997
  442.750    4.769    0.231    0.527   90.607
  443.000    4.683    0.241    0.541   89.407
  443.250    4.598    0.238    0.555   86.394
  443.500    4.515    0.236    0.529   84.585
  443.750    4.351    0.233    0.522   87.016
  444.000    4.352    0.227    0.517   88.232
  444.250    4.354    0.230    0.512   90.055
  444.500    4.523    0.236    0.518   90.669
  444.750    4.610    0.232    0.525   89.469
  445.000    4.790    0.221    0.511   87.059
  445.250    4.975    0.211    0.507   84.043
  445.500    5.072    0.200    0.505   82.843
  445.750    5.074    0.196    0.501   87.088
  446.000    5.172    0.207    0.508   90.119
  446.250    5.272    0.213    0.508   95.576
  446.500    5.275    0.221    0.508   98.001
  446.750    5.377    0.225    0.507   99.823
  447.000    5.280    0.231    0.500   99.228
  447.250    5.184    0.223    0.496   98.631
  447.500    5.186    0.220    0.499  101.059
  447.750    5.188    0.219    0.505  102.277
  448.000    5.192    0.216    0.495   99.871
  448.250    5.194    0.217    0.490   98.064
  448.500    5.195    0.226    0.486   95.654
  448.750    5.197    0.232    0.473   93.848
  449.000    5.200    0.236    0.468   91.439
  449.250    5.202    0.232    0.476   89.027
  449.500    5.205    0.223    0.478   86.617
  449.750    5.110    0.211    0.481   89.651
  450.000    5.018    0.205    0.493   92.078
  450.250    4.927    0.201    0.510   93.902
  450.500    4.837    0.203    0.525   93.910
  450.750    4.574    0.205    0.537   92.104
  451.000    4.407    0.212    0.548   89.088
  451.250    4.014    0.228    0.558   87.283
  451.500    3.522    0.244    0.568   89.713
  451.750    3.032    0.254    0.576   87.908
  452.000    2.814    0.266    0.588   86.100
  452.250    2.661    0.277    0.603   85.505
  452.500    2.470    0.275    0.622   85.517
  452.750    2.380    0.277    0.639   86.129
  453.000    2.251    0.269    0.654   86.744
  453.250    2.210    0.263    0.660   89.172
  453.500    2.211    0.255    0.656   90.390
  453.750    2.212    0.249    0.633   89.793
  454.000    2.255    0.246    0.612   90.408
  454.250    2.299    0.253    0.597   89.810
  454.500    2.526    0.260    0.576   88.006
  454.750    2.724    0.253    0.555   88.020
  455.000    2.938    0.242    0.533   87.421
  455.250    3.352    0.230    0.503   86.824
  455.500    3.547    0.219    0.487   85.626
  455.750    3.825    0.208    0.478   85.631
  456.000    4.049    0.203    0.486   85.642
  456.250    4.286    0.199    0.488   86.260
  456.500    4.451    0.194    0.497   86.267
  456.750    4.454    0.196    0.502   85.669
  457.000    4.455    0.205    0.487   84.466
  457.250    4.457    0.195    0.476   81.453
  457.500    4.631    0.177    0.464   80.251
  457.750    4.632    0.164    0.455   81.471
  458.000    4.812    0.161    0.454   85.107
  458.250    4.814    0.166    0.466   89.955
  458.500    4.816    0.185    0.484   92.383
  458.750    4.641    0.202    0.512   93.602
  459.000    4.389    0.214    0.535   93.612
  459.250    4.073    0.215    0.549   93.018
  459.500    3.709    0.209    0.556   92.419
  459.750    3.255    0.201    0.555   92.428
  460.000    3.136    0.195    0.563   91.838
  460.250    3.258    0.210    0.576   91.843
  460.500    3.383    0.212    0.576   91.246
  460.750    3.514    0.213    0.578   88.836
  461.000    3.720    0.216    0.562   85.820
  461.250    3.792    0.214    0.540   82.806
  461.500    3.654    0.209    0.519   80.999
  461.750    3.391    0.207    0.524   82.824
  462.000    3.207    0.207    0.532   86.462
  462.250    2.976    0.210    0.554   92.522
  462.500    2.868    0.210    0.586   94.948
  462.750    2.816    0.210    0.579   96.166
  463.000    2.817    0.209    0.562   96.176
  463.250    2.819    0.202    0.557   94.373
  463.500    2.820    0.193    0.557   93.169
  463.750    2.821    0.183    0.564   90.761
  464.000    2.822    0.170    0.579   88.955
  464.250    2.720    0.181    0.587   87.753
  464.500    2.721    0.196    0.592   86.551
  464.750    2.722    0.216    0.587   86.564
  465.000    2.827    0.224    0.575   86.569
  465.250    2.993    0.232    0.555   87.787
  465.500    3.228    0.234    0.529   89.611
  465.750    3.416    0.232    0.496   91.437
  466.000    3.972    0.219    0.462   92.048
  466.250    4.283    0.209    0.429   90.848
  466.500    4.887    0.194    0.368   85.416
  466.750    5.369    0.177    0.339   81.189
  467.000    6.012    0.154    0.318   74.545
  467.250    6.606    0.130    0.307   69.110
  467.500    7.260    0.116    0.296   63.676
  467.750    7.685    0.121    0.309   66.708
  468.000    7.834    0.125    0.338   68.532
  468.250    7.986    0.148    0.363   67.938
  468.500    8.141    0.226    0.388   67.345
  468.750    8.456    0.235    0.396   67.955
