~VERSION INFORMATION
 VERS.                 2.0:   CWLS LOG ASCII STANDARD -VERSION 2.0
 WRAP.                  NO:   ONE LINE PER DEPTH STEP
~WELL INFORMATION BLOCK
#MNEM.UNIT           DATA                    DESCRIPTION OF MNEMONIC
#---------    -------------------            -------------------------------
# Generated from Intellog Unique Number	CW_70_72/WELL/3025
NULL.         -999.25                        : NULL_VALUE
WELL.         BRASCAN AMOCO MEYER 11-02      : Well_name    - WELL              
LOC .         12-02-070-25W4                 : Location     - LOCATION          
UWI .         00/12-02-070-25W4/0            : Uwi          - UNIQUE WELL ID    
ENTR.         J                              : Entered      - ENTERED BY        
SRVC.         SCHLUMBERGER                   : Scn          - SERVICE COMPANY   
DATE.         30 JULY 73                     : Date         - LOG DATE          
STRT.M        466.344                        : top_depth    - START DEPTH       
STOP.M        682.844                        : bot_depth    - STOP DEPTH        
STEP.M        0.25                           : increment    - STEP LENGTH       
~CURVE INFORMATION BLOCK
#MNEM UNIT       ERCB CURVE CODE    CURVE DESCRIPTION
#-----------   ------------------   ----------------------------------
DEPT.M        00 001 00 00         : DEPTH        - DEPTH                       
ILD .OHMM     00 120 00 00         : RESD         - DEEP RESISTIVITY (DIL)      
CALI.MM       00 280 01 00         : CAL          - CALIPER                     
GR  .API      00 310 00 00         : GR           - GAMMA RAY                   
NPHI.V/V      00 330 00 00         : PHIN         - NEUTRON POROSITY (SANDSTONE)
DPHI.V/V      00 890 00 00         : PHID         - DENSITY POROSITY (SANDSTONE)
~PARAMETER INFORMATION       
#MNEM.UNIT           DATA             DESCRIPTION OF MNEMONIC
#---------         -----------     ------------------------------
GL  .M        656.844              : gl           - GROUND LEVEL ELEVATION      
EREF.M        659.587              : kb           - ELEVATION OF DEPTH REFERENCE
DATM.M        656.844              : datum        - DATUM ELEVATION             
TDD .M        684.581              : tdd          - TOTAL DEPTH DRILLER         
RUN .         ONE                  : Run          - RUN NUMBER                  
BASE.         EDM                  : Branch       - HOME BASE OF LOGGING UNIT   
MUD .         GEL CHEM             : Mud_type     - MUD TYPE                    
MATR.         SANDSTONE            : Logunit      - NEUTRON MATRIX              
TMAX.C        36.1111              : BHT          - MAXIMUM RECORDED TEMPERATURE
BHTD.M        684.581              : BHTDEP       - MAXIMUM RECORDED TEMPERATURE
RMT .C        24.4444              : MDTP         - TEMPERATURE OF MUD          
MUDD.KG/M     1140                 : MWT          - MUD DENSITY                 
NEUT.         1                    : NEUTRON      - NEUTRON TYPE                
RESI.         0                    : RESIST       - RESISTIVITY TYPE            
RM  .OHMM     2.46                 : RM           - RESISTIVITY OF MUD          
RMC .OHMM     0.25                 : RMC          - RESISTIVITY OF MUD CAKE     
RMF .OHMM     3.29                 : RMF          - RESISTIVITY OF MUD FILTRATE 
SUFT.C        10                   : SUFT         - SURFACE TEMPERATURE         
~A  DEPTH     RESD      CAL       GR     PHIN     PHID
  466.344    2.456  188.167  108.667    0.579    0.195
  466.594    2.520  188.808  103.287    0.565    0.187
  466.844    2.558  189.341  108.330    0.562    0.167
  467.094    2.601  189.571  108.526    0.582    0.159
  467.344    2.650  188.054  105.327    0.598    0.168
  467.594    2.646  187.872  104.677    0.606    0.172
  467.844    2.628  187.689  102.993    0.591    0.179
  468.094    2.586  186.272  100.521    0.602    0.188
  468.344    2.544  182.398  100.231    0.610    0.192
  468.594    2.490  180.160  102.547    0.594    0.192
  468.844    2.410  177.722  104.075    0.563    0.201
  469.094    2.358  175.895  104.331    0.587    0.195
  469.344    2.321  174.894  103.132    0.570    0.201
  469.594    2.343  174.404  101.206    0.552    0.202
  469.844    2.426  173.808   98.673    0.536    0.212
  470.094    2.504  173.009   91.838    0.545    0.205
  470.344    2.555  173.651   85.487    0.534    0.183
  470.594    2.666  176.448   85.745    0.510    0.209
  470.844    2.796  178.725   86.970    0.524    0.207
  471.094    3.053  177.310   79.771    0.443    0.218
  471.344    3.364  171.071   75.844    0.424    0.224
  471.594    3.660  166.481   74.645    0.409    0.206
  471.844    4.086  164.141   75.508    0.414    0.242
  472.094    4.610  162.209   73.460    0.385    0.268
  472.344    5.202  160.289   71.655    0.361    0.281
  472.594    5.754  159.593   75.246    0.347    0.299
  472.844    6.090  159.301   79.441    0.339    0.320
  473.094    6.307  159.122   82.543    0.363    0.306
  473.344    6.173  159.247   79.407    0.376    0.310
  473.594    5.878  159.989   75.967    0.382    0.322
  473.844    5.367  161.040   79.917    0.484    0.306
  474.094    5.091  162.396   81.628    0.525    0.288
  474.344    4.708  163.132   78.491    0.516    0.274
  474.594    4.418  155.048   73.654    0.450    0.274
  474.844    4.207  155.072   69.849    0.415    0.273
  475.094    4.139  156.327   68.893    0.402    0.275
  475.344    4.126  157.584   68.424    0.410    0.270
  475.594    4.089  158.016   64.859    0.406    0.274
  475.844    3.952  158.141   62.752    0.406    0.269
  476.094    3.846  158.166   64.340    0.430    0.267
  476.344    3.702  158.180   68.719    0.451    0.281
  476.594    3.577  158.718   70.973    0.459    0.271
  476.844    3.475  158.953   73.413    0.436    0.256
  477.094    3.370  158.967   74.152    0.467    0.238
  477.344    3.244  158.998   66.469    0.464    0.224
  477.594    3.163  158.296   64.543    0.455    0.255
  477.844    3.118  158.111   67.951    0.455    0.242
  478.094    3.069  158.652   73.723    0.457    0.230
  478.344    3.058  159.904   76.885    0.435    0.236
  478.594    3.133  160.539   80.660    0.454    0.227
  478.844    3.203  160.153   82.734    0.484    0.218
  479.094    3.311  158.431   84.138    0.462    0.221
  479.344    3.385  153.323   86.638    0.435    0.205
  479.594    3.474  160.118   86.589    0.442    0.181
  479.844    3.552  169.074   84.905    0.430    0.191
  480.094    3.599  171.247   86.131    0.408    0.203
  480.344    3.581  169.525   90.388    0.415    0.192
  480.594    3.523  163.702   90.460    0.428    0.170
  480.844    3.480  158.182   85.263    0.410    0.198
  481.094    3.474  154.506   85.759    0.399    0.200
  481.344    3.533  152.479   87.593    0.407    0.195
  481.594    3.796  152.807   88.819    0.378    0.200
  481.844    3.866  155.087   90.708    0.384    0.174
  482.094    3.960  157.882   94.965    0.401    0.162
  482.344    3.962  163.446   97.948    0.426    0.150
  482.594    3.870  170.344   98.688    0.454    0.145
  482.844    3.645  174.164   90.157    0.457    0.196
  483.094    3.346  174.186   78.109    0.404    0.236
  483.344    2.845  162.824   65.213    0.370    0.256
  483.594    2.500  154.938   67.773    0.362    0.248
  483.844    2.402  153.628   74.209    0.376    0.230
  484.094    2.421  154.375   70.952    0.384    0.207
  484.344    2.516  155.523   71.570    0.371    0.221
  484.594    2.644  158.220   80.251    0.364    0.210
  484.844    2.768  159.057   87.054    0.372    0.196
  485.094    2.914  159.077   89.672    0.378    0.196
  485.344    3.176  157.152   92.291    0.387    0.193
  485.594    3.369  155.734   94.181    0.399    0.179
  485.844    3.553  155.658   99.591    0.420    0.166
  486.094    3.734  159.786  102.329    0.432    0.168
  486.344    3.859  164.833  103.556    0.405    0.185
  486.594    3.818  168.864   97.391    0.388    0.177
  486.844    3.564  166.728   93.097    0.388    0.187
  487.094    3.052  161.521   93.232    0.405    0.205
  487.344    2.787  158.564  103.730    0.424    0.214
  487.594    2.480  155.818  109.926    0.505    0.215
  487.844    2.285  157.583  110.971    0.583    0.195
  488.094    2.049  163.970  111.771    0.622    0.165
  488.344    1.976  166.965  112.995    0.606    0.195
  488.594    2.039  159.602  115.615    0.614    0.192
  488.844    2.263  157.982  118.840    0.617    0.205
  489.094    2.582  161.285  112.673    0.413    0.194
  489.344    3.055  169.111  101.170    0.398    0.194
  489.594    3.556  170.566   89.184    0.400    0.211
  489.844    4.185  165.561   77.015    0.413    0.251
  490.094    4.646  158.607   64.483    0.375    0.333
  490.344    4.707  156.370   61.709    0.366    0.291
  490.594    4.417  157.217   69.236    0.370    0.263
  490.844    3.909  160.212   76.038    0.379    0.233
  491.094    3.550  164.648   85.507    0.397    0.206
  491.344    3.449  166.828   90.672    0.435    0.192
  491.594    3.604  162.746   81.171    0.475    0.232
  491.844    4.104  158.255   75.065    0.418    0.258
  492.094    4.813  156.634   71.985    0.384    0.271
  492.344    5.471  155.937   66.486    0.366    0.239
  492.594    5.855  156.684   62.861    0.350    0.204
  492.844    5.825  156.189   60.508    0.333    0.181
  493.094    5.516  156.004   68.219    0.322    0.177
  493.344    5.045  157.154   80.414    0.376    0.186
  493.594    4.353  157.698   83.701    0.449    0.212
  493.844    3.860  157.515   82.990    0.462    0.223
  494.094    3.583  157.844   83.182    0.441    0.220
  494.344    3.513  158.795   86.044    0.463    0.199
  494.594    3.419  159.328   86.908    0.478    0.192
  494.844    3.445  159.857   86.981    0.455    0.212
  495.094    3.516  161.523   86.692    0.461    0.201
  495.344    3.628  163.600   86.946    0.419    0.186
  495.594    3.750  164.336   87.383    0.418    0.207
  495.844    3.827  165.592   86.730    0.429    0.221
  496.094    3.780  167.463   83.958    0.448    0.222
  496.344    3.521  166.355   80.941    0.472    0.212
  496.594    3.163  161.045   78.590    0.479    0.217
  496.844    2.749  159.935   82.056    0.448    0.244
  497.094    2.446  165.500   91.220    0.497    0.217
  497.344    2.279  172.913   97.236    0.580    0.182
  497.594    2.382  173.138   92.462    0.594    0.208
  497.844    2.601  167.107   87.323    0.540    0.223
  498.094    2.972  161.593   81.942    0.442    0.245
  498.344    3.517  158.436   80.561    0.410    0.302
  498.594    3.813  157.120   83.604    0.400    0.282
  498.844    3.752  157.964   97.558    0.414    0.242
  499.094    3.585  160.242  103.449    0.433    0.212
  499.344    3.352  166.118  107.401    0.421    0.198
  499.594    3.263  170.754  106.387    0.424    0.190
  499.844    3.473  175.504  107.247    0.435    0.179
  500.094    4.087  177.268  104.836    0.443    0.174
  500.344    5.193  176.365   93.760    0.447    0.210
  500.594    6.574  170.027   82.864    0.317    0.279
  500.844    7.542  162.044   74.694    0.300    0.339
  501.094    8.205  158.474   67.739    0.305    0.349
  501.344    8.435  159.112   69.751    0.314    0.339
  501.594    8.106  158.722   73.401    0.327    0.324
  501.844    7.387  155.668   77.778    0.342    0.343
  502.094    6.869  152.819   83.429    0.332    0.357
  502.344    6.135  154.274   83.744    0.313    0.363
  502.594    5.480  159.226   76.549    0.312    0.328
