~VERSION INFORMATION
 VERS.                 2.0:   CWLS LOG ASCII STANDARD -VERSION 2.0
 WRAP.                  NO:   ONE LINE PER DEPTH STEP
~WELL INFORMATION BLOCK
#MNEM.UNIT           DATA                    DESCRIPTION OF MNEMONIC
#---------    -------------------            -------------------------------
# Generated from Intellog Unique Number	CW_73_75/WELL/2753
WELL.         COBRA ET AL MITSUE 16-29       : Well_name    - WELL
LOC .         00/16-29-073-05W5/0            : Location     - LOCATION
UWI .         00/16-29-073-05W5/0            : Uwi          - UNIQUE WELL ID
ENTR.         JAYE                           : Entered      - ENTERED BY
SRVC.         SCHLUMBERGER                   : Scn          - SERVICE COMPANY
DATE.         6 MAR 81                       : Date         - LOG DATE
STRT.M        360                            : top_depth    - START DEPTH
STOP.M        595                            : bot_depth    - STOP DEPTH
STEP.M        0.25                           : increment    - STEP LENGTH
 NULL. -999.2500:NULL Value
~CURVE INFORMATION BLOCK
#MNEM UNIT       ERCB CURVE CODE    CURVE DESCRIPTION
#-----------   ------------------   ----------------------------------
DEPT.M        00 001 00 00         : DEPTH        - DEPTH
DPHI.V/V      00 890 00 00         : PHID         - DENSITY POROSITY (SANDSTONE)
NPHI.V/V      00 330 00 00         : PHIN         - NEUTRON POROSITY (SANDSTONE)
GR  .API      00 310 00 00         : GR           - GAMMA RAY
CALI.MM       00 280 01 00         : CAL          - CALIPER
ILD .OHMM     00 120 00 00         : RESD         - DEEP RESISTIVITY (DIL)
~PARAMETER INFORMATION
#MNEM.UNIT           DATA             DESCRIPTION OF MNEMONIC
#---------         -----------     ------------------------------
GL  .M        581.61               : gl           - GROUND LEVEL ELEVATION
EREF.M        586.26               : kb           - ELEVATION OF DEPTH REFERENCE
DATM.M        581.61               : datum        - DATUM ELEVATION
TDD .M        1686                 : tdd          - TOTAL DEPTH DRILLER
RUN .         ONE                  : Run          - RUN NUMBER
ENG .         ADLAKHA              : Engineer     - RECORDING ENGINEER
WIT .         HEATHER              : Witness      - WITNESSED BY
BASE.         EDMONTON             : Branch       - HOME BASE OF LOGGING UNIT
MUD .         GEL CHEN             : Mud_type     - MUD TYPE
MATR.         SANDSTONE            : Logunit      - NEUTRON MATRIX
TMAX.C        54                   : BHT          - MAXIMUM RECORDED TEMPERATURE
BHTD.M        1686.3               : BHTDEP       - MAXIMUM RECORDED TEMPERATURE
RMT .C        15.5                 : MDTP         - TEMPERATURE OF MUD
MUDD.KG/M     1080                 : MWT          - MUD DENSITY
NEUT.         1                    : NEUTRON      - NEUTRON TYPE
RESI.         0                    : RESIST       - RESISTIVITY TYPE
RM  .OHMM     0.85                 : RM           - RESISTIVITY OF MUD
RMC .OHMM     0                    : RMC          - RESISTIVITY OF MUD CAKE
RMF .OHMM     0.77                 : RMF          - RESISTIVITY OF MUD FILTRATE
SUFT.C        0                    : SUFT         - SURFACE TEMPERATURE
~A  DEPTH     PHID     PHIN       GR      CAL     RESD
  360.000    0.725    0.661   65.920  433.040    1.875
  360.250    0.752    0.705   60.194  455.835    1.942
  360.500    0.635    0.683   60.438  477.387    2.125
  360.750    0.596    0.612   63.606  383.579    2.308
  361.000    0.571    0.594   70.878  361.391    2.455
  361.250    0.547    0.575   75.289  340.654    2.606
  361.500    0.408    0.551   79.887  335.465    2.655
  361.750    0.379    0.514   81.686  346.030    2.635
  362.000    0.343    0.478   78.883  338.561    2.590
  362.250    0.369    0.542   77.013  336.377    2.518
  362.500    0.410    0.577   76.822  344.248    2.551
  362.750    0.457    0.581   76.134  331.907    2.633
  363.000    0.516    0.575   73.021  376.157    2.692
  363.250    0.617    0.568   68.726  449.739    2.743
  363.500    0.714    0.558   64.181  420.297    2.837
  363.750    0.721    0.567   61.627  395.725    2.961
  364.000    0.641    0.578   60.317  381.000    3.156
  364.250    0.480    0.587   59.007  413.642    3.466
  364.500    0.444    0.521   57.386  457.271    3.914
  364.750    0.308    0.410   53.961  334.545    4.471
  365.000    0.228    0.367   48.920  268.514    5.303
  365.250    0.186    0.329   41.267  249.436    6.114
  365.500    0.268    0.346   33.489  240.412    6.431
  365.750    0.283    0.349   28.510  236.052    6.112
  366.000    0.285    0.335   28.318  234.075    5.461
  366.250    0.292    0.346   28.625  234.172    4.906
  366.500    0.306    0.353   30.736  235.615    4.474
  366.750    0.370    0.336   40.371  240.376    3.901
  367.000    0.487    0.426   50.503  254.984    3.440
  367.250    0.544    0.481   56.904  425.892    3.149
  367.500    0.654    0.619   62.684  462.783    2.684
  367.750    0.726    0.663   58.140  401.935    2.196
  368.000    0.767    0.646   50.300  392.393    1.958
  368.250    0.792    0.665   44.823  439.856    1.969
  368.500    0.838    0.686   49.794  479.961    2.078
  368.750    0.721    0.620   62.476  442.019    2.287
  369.000    0.657    0.538   69.188  352.771    2.602
  369.250    0.599    0.453   74.346  309.129    3.121
  369.500    0.330    0.508   76.704  274.710    3.829
  369.750    0.274    0.508   76.576  258.948    4.541
  370.000    0.264    0.428   64.880  252.827    5.024
  370.250    0.265    0.405   59.217  248.570    5.622
  370.500    0.257    0.408   52.931  244.314    5.738
  370.750    0.267    0.397   47.455  237.777    5.165
  371.000    0.270    0.410   47.140  227.612    4.666
  371.250    0.271    0.415   51.364  217.137    4.264
  371.500    0.265    0.398   58.449  226.562    4.114
  371.750    0.267    0.403   62.239  239.511    4.075
  372.000    0.306    0.436   61.861  237.431    4.143
  372.250    0.311    0.454   57.691  219.389    4.342
  372.500    0.269    0.411   52.214  219.900    4.566
  372.750    0.246    0.394   51.961  229.428    4.696
  373.000    0.266    0.381   52.888  239.061    4.660
  373.250    0.277    0.410   54.191  247.553    4.479
  373.500    0.282    0.426   56.301  240.395    4.170
  373.750    0.281    0.407   60.153  236.552    3.949
  374.000    0.258    0.420   65.497  239.447    3.831
  374.250    0.244    0.444   68.291  242.032    3.831
  374.500    0.263    0.489   67.727  244.512    3.910
  374.750    0.275    0.543   63.743  248.236    4.136
  375.000    0.284    0.489   60.069  241.803    4.542
  375.250    0.297    0.449   56.645  236.614    4.822
  375.500    0.308    0.433   52.661  232.668    5.081
  375.750    0.310    0.441   52.283  231.314    5.415
  376.000    0.284    0.451   52.466  229.337    5.836
  376.250    0.260    0.404   49.165  226.635    6.161
  376.500    0.086    0.347   45.119  225.488    6.300
  376.750    0.057    0.321   42.068  225.274    5.576
  377.000    0.087    0.400   45.919  227.857    4.418
  377.250    0.207    0.445   52.133  231.167    3.146
  377.500    0.380    0.500   58.597  237.069    2.951
  377.750    0.459    0.541   57.038  255.407    2.455
  378.000    0.682    0.613   51.312  460.519    2.148
  378.250    0.789    0.640   49.132  475.022    2.226
  378.500    0.755    0.625   54.911  480.301    2.491
  378.750    0.721    0.593   64.111  462.053    2.829
  379.000    0.637    0.550   71.632  454.479    3.336
  379.250    0.502    0.531   78.095  432.395    3.898
  379.500    0.493    0.522   73.675  337.758    4.248
  379.750    0.514    0.575   66.021  290.902    4.561
  380.000    0.582    0.622   60.980  295.870    4.962
  380.250    0.540    0.611   57.182  296.174    5.239
  380.500    0.325    0.433   55.002  278.236    5.327
  380.750    0.277    0.381   53.070  253.147    5.188
  381.000    0.262    0.388   48.276  235.934    4.858
  381.250    0.292    0.403   43.609  234.683    4.635
  381.500    0.313    0.408   42.485  234.365    4.513
  381.750    0.304    0.400   43.165  226.273    4.412
  382.000    0.302    0.386   42.601  228.029    4.362
  382.250    0.307    0.388   40.607  233.204    4.345
  382.500    0.310    0.406   41.038  233.093    4.344
  382.750    0.294    0.419   40.287  231.012    4.352
  383.000    0.303    0.420   34.873  230.177    4.359
  383.250    0.323    0.402   30.951  230.273    4.408
  383.500    0.326    0.396   34.490  230.680    4.491
  383.750    0.321    0.406   36.414  231.295    4.635
  384.000    0.315    0.412   37.281  231.911    4.776
  384.250    0.306    0.409   37.153  232.526    4.939
  384.500    0.302    0.399   39.387  233.451    4.994
  384.750    0.314    0.388   43.114  233.755    4.837
  385.000    0.303    0.383   51.505  234.578    4.658
  385.250    0.288    0.403   61.203  237.887    4.639
  385.500    0.252    0.420   70.900  247.105    4.718
  385.750    0.320    0.452   68.222  256.634    4.824
  386.000    0.422    0.506   62.309  258.284    4.961
  386.250    0.413    0.412   57.143  246.048    5.121
  386.500    0.235    0.369   61.679  238.370    5.437
  386.750    0.324    0.408   66.526  237.119    5.751
  387.000    0.371    0.440   69.631  251.002    5.881
  387.250    0.418    0.570   69.005  256.591    5.727
  387.500    0.422    0.607   67.507  243.214    5.609
  387.750    0.299    0.434   66.384  234.915    5.608
  388.000    0.281    0.400   64.203  229.622    5.639
  388.250    0.296    0.388   62.334  226.090    5.628
  388.500    0.307    0.382   59.718  225.462    5.564
  388.750    0.319    0.384   55.795  226.491    5.521
  389.000    0.328    0.392   53.366  227.727    5.479
  389.250    0.336    0.402   53.175  228.134    5.427
  389.500    0.323    0.402   54.663  228.440    5.436
  389.750    0.312    0.411   58.515  228.951    5.446
  390.000    0.302    0.413   62.241  229.151    5.496
  390.250    0.291    0.402   64.351  229.247    5.557
  390.500    0.284    0.382   66.151  228.826    5.588
  390.750    0.279    0.386   69.318  228.611    5.535
  391.000    0.279    0.427   72.175  229.641    5.400
  391.250    0.283    0.441   74.658  231.603    5.259
  391.500    0.279    0.450   75.027  233.980    5.093
  391.750    0.262    0.455   75.458  236.461    4.877
  392.000    0.253    0.440   76.760  240.392    4.636
  392.250    0.258    0.419   78.311  245.050    4.340
  392.500    0.264    0.421   78.493  247.427    4.188
  392.750    0.247    0.440   77.183  248.663    4.266
  393.000    0.220    0.453   72.017  250.831    4.479
  393.250    0.466    0.478   63.431  253.313    4.818
  393.500    0.582    0.544   51.051  258.178    5.251
  393.750    0.536    0.609   43.398  251.848    5.441
  394.000    0.367    0.554   46.876  243.964    5.440
  394.250    0.310    0.438   52.655  248.828    5.084
  394.500    0.268    0.420   56.942  250.168    4.760
  394.750    0.272    0.429   60.483  249.125    4.688
  395.000    0.281    0.419   57.182  246.941    4.653
  395.250    0.285    0.406   54.566  244.031    4.643
  395.500    0.284    0.399   54.749  242.056    4.651
  395.750    0.290    0.414   55.180  239.146    4.703
  396.000    0.299    0.432   55.175  237.274    4.764
  396.250    0.311    0.446   54.922  234.883    4.808
