~VERSION INFORMATION
 VERS.                 2.0:   CWLS LOG ASCII STANDARD -VERSION 2.0
 WRAP.                  NO:   ONE LINE PER DEPTH STEP
~WELL INFORMATION BLOCK
#MNEM.UNIT           DATA                    DESCRIPTION OF MNEMONIC
#---------    -------------------            -------------------------------
# Generated from Intellog Unique Number	CW_82_90/WELL/3446
WELL.         NUMAC LIEGE 11-4               : Well_name    - WELL
LOC .         00/11-04-088-21W4/0            : Location     - LOCATION
UWI .         00/11-04-088-21W4/0            : Uwi          - UNIQUE WELL ID
ENTR.         MAX                            : Entered      - ENTERED BY
SRVC.         WESTERN ATLAS                  : Scn          - SERVICE COMPANY
STRT.M        110                            : top_depth    - START DEPTH
STOP.M        321                            : bot_depth    - STOP DEPTH
STEP.M        0.25                           : increment    - STEP LENGTH
 NULL. -999.2500:NULL Value
~CURVE INFORMATION BLOCK
#MNEM UNIT       ERCB CURVE CODE    CURVE DESCRIPTION
#-----------   ------------------   ----------------------------------
DEPT.M        00 001 00 00         : DEPTH        - DEPTH
ILD .OHMM     00 120 00 00         : RESD         - DEEP RESISTIVITY (DIL)
NPHI.V/V      00 330 00 00         : PHIN         - NEUTRON POROSITY (SANDSTONE)
DPHI.V/V      00 890 00 00         : PHID         - DENSITY POROSITY (SANDSTONE)
CALI.MM       00 280 01 00         : CAL          - CALIPER
GR  .API      00 310 00 00         : GR           - GAMMA RAY
~PARAMETER INFORMATION
#MNEM.UNIT           DATA             DESCRIPTION OF MNEMONIC
#---------         -----------     ------------------------------
GL  .M        532.2                : gl           - GROUND LEVEL ELEVATION
EREF.M        535.2                : kb           - ELEVATION OF DEPTH REFERENCE
DATM.M        532.2                : datum        - DATUM ELEVATION
TDD .M        322.5                : tdd          - TOTAL DEPTH DRILLER
RUN .         ONE                  : Run          - RUN NUMBER
ENG .         BILL                 : Engineer     - RECORDING ENGINEER
WIT .         JIM                  : Witness      - WITNESSED BY
MUD .         GEL                  : Mud_type     - MUD TYPE
MATR.         SANDSTONE            : Logunit      - NEUTRON MATRIX
TMAX.C        18.8                 : BHT          - MAXIMUM RECORDED TEMPERATURE
BHTD.M        322.5                : BHTDEP       - MAXIMUM RECORDED TEMPERATURE
MATR.         1                    : LOGUNIT      - NEUTRON MATRIX
RMT .C        16                   : MDTP         - TEMPERATURE OF MUD
NEUT.         1                    : NEUTRON      - NEUTRON TYPE
RESI.         0                    : RESIST       - RESISTIVITY TYPE
RMC .OHMM     5                    : RMC          - RESISTIVITY OF MUD CAKE
RMF .OHMM     3                    : RMF          - RESISTIVITY OF MUD FILTRATE
SUFT.C        -5                   : SUFT         - SURFACE TEMPERATURE
~A  DEPTH     RESD     PHIN     PHID      CAL       GR
# ...
  292.500   11.074    0.343    0.132  218.790  149.399
  292.750   10.372    0.322    0.137  218.292  150.000
  293.000    9.896    0.311    0.133  217.795  141.283
  293.250    9.986    0.313    0.071  216.799   93.788
  293.500   11.160    0.303   -0.025  216.802   70.942
  293.750   14.338    0.273    0.130  216.305   57.415
  294.000   19.845    0.256    0.136  215.808   46.894
  294.250   29.043    0.265    0.157  215.811   41.182
  294.500   40.574    0.291    0.195  214.814   35.170
  294.750   45.768    0.297    0.212  214.317   30.661
  295.000   52.109    0.288    0.220  214.321   27.655
  295.250   62.733    0.286    0.195  214.823   27.355
  295.500   70.760    0.305    0.175  215.326   27.355
  295.750   76.909    0.325    0.160  215.328   25.852
  296.000   85.947    0.325    0.139  215.332   26.152
  296.250   93.415    0.294    0.129  214.835   22.244
  296.500  103.426    0.307    0.109  214.837   19.238
  296.750  113.463    0.300    0.130  215.340   17.134
  297.000  118.807    0.318    0.160  215.343   18.637
  297.250  120.986    0.339    0.153  215.845   31.864
  297.500  112.271    0.333    0.139  215.848   55.611
  297.750   94.050    0.334    0.117  216.351   74.249
  298.000   61.863    0.304    0.094  216.854   74.549
  298.250   50.397    0.282    0.095  216.856   70.942
  298.500   40.677    0.300    0.111  216.360   72.445
  298.750   36.706    0.312    0.131  215.862   76.653
  299.000   32.211    0.320    0.149  215.866   74.850
  299.250   28.798    0.322    0.144  215.868   67.635
  299.500   25.746    0.341    0.132  217.370   63.126
  299.750   23.891    0.373    0.132  218.872   62.826
  300.000   22.796    0.382    0.143  218.375   63.427
  300.250   23.650    0.358    0.178  215.380   54.108
  300.500   27.432    0.350    0.200  215.883   45.992
  300.750   34.596    0.372    0.214  216.385   43.287
  301.000   46.566    0.366    0.219  216.388   42.385
  301.250   65.053    0.355    0.225  215.892   40.882
  301.500   70.698    0.373    0.230  215.894   36.673
  301.750   72.668    0.395    0.227  215.397   36.673
  302.000   72.641    0.413    0.248  214.901   36.373
  302.250   71.273    0.396    0.264  214.903   37.275
  302.500   66.136    0.370    0.255  214.906   42.685
  302.750   58.039    0.332    0.240  214.910   50.501
  303.000   39.254    0.334    0.223  215.412   59.519
  303.250   35.755    0.319    0.194  215.415   60.721
  303.500   33.175    0.328    0.223  215.417   52.605
  303.750   30.787    0.375    0.233  215.421   46.593
  304.000   27.779    0.391    0.216  214.924   45.090
  304.250   26.755    0.386    0.176  213.928   48.397
  304.500   26.742    0.386    0.145  213.430   52.305
  304.750   27.490    0.387    0.177  212.433   45.090
  305.000   29.599    0.373    0.199  212.936   36.974
  305.250   32.773    0.345    0.183  214.438   32.164
  305.500   38.012    0.373    0.162  214.441   32.164
  305.750   41.315    0.391    0.177  212.445   27.355
  306.000   45.745    0.353    0.196  212.448   21.343
  306.250   53.061    0.340    0.192  213.450   27.956
  306.500   59.300    0.383    0.170  215.952   28.256
  306.750   65.659    0.379    0.183  216.454   24.349
  307.000   72.700    0.326    0.179  216.457   21.643
  307.250   76.835    0.333    0.168  216.460   25.551
  307.500   77.516    0.364    0.186  216.462   29.459
  307.750   76.064    0.382    0.197  216.465   30.962
  308.000   75.320    0.418    0.218  216.469   28.256
  308.250   78.146    0.431    0.262  216.471   27.956
  308.500   82.599    0.432    0.259  216.474   28.557
  308.750   87.297    0.431    0.237  215.978   27.355
  309.000   93.994    0.395    0.228  215.980   30.361
  309.250   99.356    0.366    0.283  214.984   33.667
  309.500  106.984    0.379    0.313  214.986   35.471
  309.750  114.131    0.401    0.267  214.490   34.569
  310.000  115.143    0.393    0.256  213.994   33.066
  310.250  110.893    0.396    0.259  213.996   31.262
  310.500   98.225    0.385    0.252  213.999   27.956
  310.750   83.052    0.360    0.237  214.001   22.846
  311.000   70.219    0.358    0.221  214.005   16.233
  311.250   62.198    0.387    0.206  214.008   11.723
  311.500   54.078    0.405    0.192  214.010   12.926
  311.750   46.152    0.395    0.221  214.013   14.128
  312.000   43.629    0.445    0.277  214.016   12.926
  312.250   47.860    0.433    0.234  214.019   12.024
  312.500   56.033    0.406    0.222  214.021   11.423
  312.750   64.393    0.405    0.220  214.025   12.024
  313.000   78.245    0.424    0.225  214.027   12.625
  313.250   89.914    0.408    0.227  214.030   12.625
  313.500   95.033    0.398    0.238  214.533   12.325
  313.750   96.777    0.402    0.275  215.535   11.122
  314.000   94.959    0.436    0.277  216.038   12.625
  314.250   92.308    0.430    0.273  216.041   15.331
  314.500   87.257    0.410    0.282  216.043   15.331
  314.750   84.826    0.400    0.298  216.046   13.828
  315.000   84.786    0.426    0.309  216.549   11.122
  315.250   87.962    0.446    0.299  216.551    9.920
  315.500   94.710    0.440    0.281  216.555   12.024
  315.750  102.945    0.398    0.279  216.558   12.325
  316.000  120.517    0.387    0.296  216.560    9.619
  316.250  132.206    0.401    0.303  216.563    8.116
  316.500  135.889    0.368    0.311  216.566    8.116
  316.750  139.674    0.371    0.299  216.569    9.018
  317.000  148.990    0.389    0.282  216.572    8.717
  317.250  156.031    0.388    0.298  216.575    8.717
  317.500  168.010    0.399    0.306  217.078    8.717
  317.750  182.599    0.397    0.292  217.080    8.116
  318.000  198.443    0.403    0.285  216.084    8.417
  318.250  211.712    0.418    0.304  213.588    8.417
  318.500  234.415    0.419    0.319  209.093    8.417
  318.750  223.672    0.428    0.315  198.603    8.717
  319.000  183.918    0.430    0.316  176.120   10.521
  319.250  110.234    0.416    0.320  165.630   10.220
  319.500   81.072    0.413    0.317  164.634    8.116
  319.750   71.807    0.402    0.313  165.136    7.515
  320.000   69.802    0.406    0.311  166.638    8.717
  320.250   70.428    0.412    0.313  166.641    9.018
  320.500   72.390    0.407    0.314  168.143    8.717
  320.750   72.356    0.400    0.314  171.144   11.423
  321.000   73.680    0.401    0.311  174.145   14.729
