~VERSION INFORMATION
 VERS.                 2.0:   CWLS LOG ASCII STANDARD -VERSION 2.0
 WRAP.                  NO:   ONE LINE PER DEPTH STEP
~WELL INFORMATION BLOCK
#MNEM.UNIT           DATA                    DESCRIPTION OF MNEMONIC
#---------    -------------------            -------------------------------
# Generated from Intellog Unique Number	CS_69_70/WELL/888
WELL.         ALGAS MINERAL ENTERPRISES      : Well_name    - WELL
LOC .         00/11-15-070-17W4/0            : Location     - LOCATION
UWI .         00/11-15-070-17W4/0            : Uwi          - UNIQUE WELL ID
ENTR.         SP                             : Entered      - ENTERED BY
SRVC.         SCHLUMBERGER                   : Scn          - SERVICE COMPANY
STRT.M        274.32                         : top_depth    - START DEPTH
STOP.M        472.07                         : bot_depth    - STOP DEPTH
STEP.M        0.25                           : increment    - STEP LENGTH
 NULL. -999.2500:NULL Value
~CURVE INFORMATION BLOCK
#MNEM UNIT       ERCB CURVE CODE    CURVE DESCRIPTION
#-----------   ------------------   ----------------------------------
DEPT.M        00 001 00 00         : DEPTH        - DEPTH
GR  .API      00 310 00 00         : GR           - GAMMA RAY
DPHI.V/V      00 890 00 00         : PHID         - DENSITY POROSITY (SANDSTONE)
NPHI.V/V      00 330 00 00         : PHIN         - NEUTRON POROSITY (SANDSTONE)
ILD .OHMM     00 120 00 00         : RESD         - DEEP RESISTIVITY (DIL)
~PARAMETER INFORMATION
#MNEM.UNIT           DATA             DESCRIPTION OF MNEMONIC
#---------         -----------     ------------------------------
GL  .M        556.108              : gl           - GROUND LEVEL ELEVATION
EREF.M        559.003              : kb           - ELEVATION OF DEPTH REFERENCE
DATM.M        556.108              : datum        - DATUM ELEVATION
TDD .M        484.632              : tdd          - TOTAL DEPTH DRILLER
RUN .         ONE                  : Run          - RUN NUMBER
ENG .         BILL                 : Engineer     - RECORDING ENGINEER
WIT .         JIM                  : Witness      - WITNESSED BY
MUD .         GEL                  : Mud_type     - MUD TYPE
MATR.         SANDSTONE            : Logunit      - NEUTRON MATRIX
TMAX.C        56                   : BHT          - MAXIMUM RECORDED TEMPERATURE
BHTD.M        1590                 : BHTDEP       - MAXIMUM RECORDED TEMPERATURE
MATR.         1                    : LOGUNIT      - NEUTRON MATRIX
RMT .C        25                   : MDTP         - TEMPERATURE OF MUD
NEUT.         1                    : NEUTRON      - NEUTRON TYPE
RESI.         0                    : RESIST       - RESISTIVITY TYPE
RMC .OHMM     0.25                 : RMC          - RESISTIVITY OF MUD CAKE
RMF .OHMM     0.25                 : RMF          - RESISTIVITY OF MUD FILTRATE
SUFT.C        15                   : SUFT         - SURFACE TEMPERATURE
~A  DEPTH       GR     PHID     PHIN     RESD
# ...
  404.820   94.250    0.202    0.340    4.738
  405.070   93.862    0.194    0.348    4.577
  405.320   93.505    0.205    0.360    4.394
  405.570   89.836    0.215    0.355    4.041
  405.820   86.697    0.225    0.351    3.737
  406.070   85.117    0.235    0.355    3.485
  406.320   87.689    0.240    0.371    3.205
  406.570   94.130    0.231    0.382    2.928
  406.820  100.873    0.216    0.395    2.766
  407.070  106.015    0.220    0.413    2.651
  407.320  111.066    0.236    0.433    2.607
  407.570  115.420    0.218    0.441    2.729
  407.820  119.473    0.219    0.423    2.889
  408.070  117.249    0.203    0.415    3.000
  408.320  115.036    0.196    0.428    3.055
  408.570  114.070    0.212    0.442    3.058
  408.820  113.292    0.236    0.441    3.021
  409.070  111.752    0.230    0.421    2.914
  409.320  111.920    0.222    0.407    2.800
  409.570  113.115    0.229    0.416    2.665
  409.820  114.975    0.211    0.430    2.627
  410.070  116.329    0.200    0.431    2.685
  410.320  114.891    0.193    0.415    2.788
  410.570  111.847    0.188    0.418    2.941
  410.820  111.343    0.202    0.401    3.134
  411.070  111.093    0.193    0.389    3.264
  411.320  111.439    0.183    0.382    3.419
  411.570  111.559    0.175    0.390    3.478
  411.820  111.065    0.184    0.388    3.577
  412.070  105.638    0.194    0.373    3.755
  412.320  100.383    0.205    0.367    4.264
  412.570   94.921    0.211    0.374    5.164
  412.820   90.983    0.219    0.381    6.009
  413.070   88.283    0.204    0.387    6.878
  413.320   85.518    0.208    0.384    7.472
  413.570   81.714    0.217    0.373    7.681
  413.820   79.249    0.193    0.355    7.463
  414.070   77.865    0.156    0.335    6.728
  414.320   79.180    0.144    0.321    5.769
  414.570   84.159    0.165    0.340    5.208
  414.820   89.834    0.198    0.352    4.798
  415.070   96.474    0.207    0.358    4.551
  415.320  100.979    0.191    0.366    4.346
  415.570  103.066    0.177    0.372    4.220
  415.820  104.737    0.181    0.365    4.189
  416.070  102.619    0.187    0.357    4.257
  416.320  100.617    0.192    0.351    4.371
  416.570   98.690    0.162    0.342    4.589
  416.820   97.347    0.172    0.332    4.880
  417.070   95.639    0.185    0.323    5.224
  417.320   94.499    0.162    0.309    5.435
  417.570   93.695    0.126    0.294    5.432
  417.820   94.321    0.115    0.271    5.341
  418.070   98.364    0.164    0.290    5.053
  418.320  101.147    0.189    0.321    4.820
  418.570  101.982    0.188    0.341    4.689
  418.820  102.010    0.166    0.348    4.623
  419.070  101.945    0.173    0.349    4.626
  419.320  101.948    0.177    0.349    4.653
  419.570  102.180    0.178    0.346    4.689
  419.820  102.493    0.172    0.338    4.744
  420.070  102.597    0.157    0.335    4.774
  420.320  102.557    0.158    0.339    4.868
  420.570  102.643    0.167    0.333    4.968
  420.820  102.803    0.159    0.333    5.446
  421.070  102.829    0.133    0.338    6.228
  421.320  102.830    0.119    0.340    7.125
  421.570  102.190    0.093    0.333    8.296
  421.820  100.437    0.114    0.332    9.006
  422.070   95.847    0.134    0.339    9.237
  422.320   82.396    0.149    0.321    9.980
  422.570   75.571    0.093    0.293   11.002
  422.820   79.753    0.066    0.264   12.257
  423.070   85.065    0.109    0.281   12.557
  423.320   86.460    0.138    0.302   11.211
  423.570   80.600    0.135    0.320    9.551
  423.820   75.862    0.100    0.275    8.330
  424.070   74.304    0.058    0.256    7.169
  424.320   79.309    0.067    0.267    6.410
  424.570   85.996    0.094    0.282    6.031
  424.820   90.192    0.122    0.301    5.664
  425.070   92.822    0.143    0.314    5.483
  425.320   93.537    0.116    0.303    5.306
  425.570   95.179    0.102    0.305    5.023
  425.820   95.843    0.166    0.318    4.904
  426.070   98.746    0.184    0.324    4.700
  426.320  100.097    0.168    0.325    4.341
  426.570  100.014    0.157    0.327    3.996
  426.820   99.317    0.169    0.334    3.388
  427.070  102.090    0.189    0.341    2.726
  427.320  107.426    0.173    0.358    2.344
  427.570  111.577    0.162    0.393    2.690
  427.820  113.791    0.170    0.421    3.160
  428.070  113.014    0.193    0.446    3.872
  428.320  113.687    0.212    0.448    4.611
  428.570  117.257    0.201    0.414    5.509
  428.820  111.127    0.183    0.363    6.268
  429.070   93.998    0.185    0.349    6.902
  429.320   88.986    0.181    0.348    7.067
  429.570   86.331    0.172    0.354    6.991
  429.820   82.996    0.158    0.353    6.798
  430.070   82.775    0.143    0.325    6.310
  430.320   86.846    0.124    0.301    5.900
  430.570   91.370    0.148    0.296    5.610
  430.820   96.711    0.181    0.307    5.498
  431.070   99.462    0.190    0.318    5.612
  431.320   99.919    0.181    0.329    6.100
  431.570   99.407    0.175    0.320    6.512
  431.820   97.701    0.160    0.312    6.708
  432.070   92.886    0.129    0.299    6.873
  432.320   94.319    0.128    0.297    6.920
  432.570  102.147    0.147    0.313    6.849
  432.820   99.556    0.156    0.329    6.597
  433.070   94.563    0.139    0.318    6.154
  433.320   91.469    0.115    0.285    5.746
  433.570   99.552    0.101    0.266    5.388
  433.820  106.789    0.104    0.286    5.129
  434.070  110.818    0.152    0.319    4.754
  434.320  113.927    0.175    0.332    4.476
  434.570  116.192    0.165    0.338    4.195
  434.820  118.758    0.163    0.345    4.049
  435.070  120.907    0.171    0.352    4.002
  435.320  121.377    0.160    0.358    4.086
  435.570  113.151    0.119    0.361    4.164
  435.820  105.230    0.100    0.357    4.041
  436.070  100.261    0.090    0.345    3.891
  436.320  105.093    0.116    0.343    3.755
  436.570  110.592    0.147    0.359    3.670
  436.820  113.746    0.141    0.366    3.595
  437.070  116.702    0.140    0.361    3.557
  437.320  117.775    0.155    0.358    3.551
  437.570  117.374    0.144    0.358    3.583
  437.820  116.507    0.145    0.358    3.660
  438.070  115.411    0.155    0.371    3.767
  438.320  114.622    0.150    0.387    3.747
  438.570  114.718    0.141    0.372    3.828
  438.820  115.743    0.133    0.360    3.933
  439.070  115.568    0.141    0.366    3.976
  439.320  112.551    0.145    0.376    3.886
  439.570  108.306    0.136    0.368    3.651
  439.820  109.728    0.123    0.360    3.400
  440.070  115.311    0.140    0.367    3.286
  440.320  120.138    0.156    0.371    3.396
  440.570  123.268    0.169    0.365    3.689
  440.820  123.603    0.167    0.377    3.918
  441.070  120.048    0.154    0.387    3.872
  441.320  113.981    0.136    0.373    3.743
  441.570  108.828    0.126    0.355    3.438
  441.820  113.239    0.122    0.342    3.173
  442.070  123.362    0.145    0.370    2.935
  442.320  128.008    0.161    0.390    2.822
  442.570  131.558    0.155    0.399    2.838
  442.820  132.876    0.148    0.398    2.971
  443.070  132.563    0.142    0.398    3.511
  443.320  131.814    0.145    0.399    4.042
  443.570  125.193    0.148    0.399    5.247
  443.820  116.559    0.130    0.370    8.363
  444.070  105.796    0.101    0.334    9.865
  444.320   93.460    0.101    0.302   10.789
  444.570   76.720    0.128    0.268   11.193
  444.820   71.878    0.161    0.263   11.377
  445.070   73.255    0.199    0.277   11.416
  445.320   74.158    0.216    0.292   11.440
  445.570   74.823    0.209    0.289   11.450
  445.820   75.163    0.203    0.280   11.445
  446.070   75.500    0.196    0.277   11.408
  446.320   75.879    0.208    0.278   11.271
  446.570   77.027    0.194    0.279   10.864
  446.820   79.129    0.183    0.279   10.110
  447.070   86.288    0.173    0.277    8.445
  447.320   97.642    0.162    0.269    7.552
  447.570  106.629    0.156    0.278    7.299
  447.820  109.398    0.163    0.300    7.540
  448.070  103.897    0.180    0.312    8.755
