~VERSION INFORMATION
 VERS.                 2.0:   CWLS LOG ASCII STANDARD -VERSION 2.0
 WRAP.                  NO:   ONE LINE PER DEPTH STEP
~WELL INFORMATION BLOCK
#MNEM.UNIT           DATA                    DESCRIPTION OF MNEMONIC
#---------    -------------------            -------------------------------
# Generated from Intellog Unique Number	CW_70_72/WELL/1036
NULL.         -999.25                        : NULL_VALUE
WELL.         JOFFRE ET AL CALLW 10-15       : Well_name    - WELL              
LOC .         10-15-071-20W4                 : Location     - LOCATION          
UWI .         00/10-15-071-20W4/0            : Uwi          - UNIQUE WELL ID    
ENTR.         JAYE                           : Entered      - ENTERED BY        
SRVC.         SCHLUMBERGER                   : Scn          - SERVICE COMPANY   
DATE.         13 JAN 79                      : Date         - LOG DATE          
STRT.M        315                            : top_depth    - START DEPTH       
STOP.M        500                            : bot_depth    - STOP DEPTH        
STEP.M        0.25                           : increment    - STEP LENGTH       
~CURVE INFORMATION BLOCK
#MNEM UNIT       ERCB CURVE CODE    CURVE DESCRIPTION
#-----------   ------------------   ----------------------------------
DEPT.M        00 001 00 00         : DEPTH        - DEPTH                       
DPHI.V/V      00 890 00 00         : PHID         - DENSITY POROSITY (SANDSTONE)
NPHI.V/V      00 330 00 00         : PHIN         - NEUTRON POROSITY (SANDSTONE)
GR  .API      00 310 00 00         : GR           - GAMMA RAY                   
CALI.MM       00 280 01 00         : CAL          - CALIPER                     
ILD .OHMM     00 120 00 00         : RESD         - DEEP RESISTIVITY (DIL)      
~PARAMETER INFORMATION       
#MNEM.UNIT           DATA             DESCRIPTION OF MNEMONIC
#---------         -----------     ------------------------------
GL  .M        584.3                : gl           - GROUND LEVEL ELEVATION      
EREF.M        587.6                : kb           - ELEVATION OF DEPTH REFERENCE
DATM.M        584.3                : datum        - DATUM ELEVATION             
TDD .M        530                  : tdd          - TOTAL DEPTH DRILLER         
RUN .         ONE                  : Run          - RUN NUMBER                  
ENG .         MOORE                : Engineer     - RECORDING ENGINEER          
WIT .         O'REILLY             : Witness      - WITNESSED BY                
BASE.         EDM                  : Branch       - HOME BASE OF LOGGING UNIT   
MUD .         FGM                  : Mud_type     - MUD TYPE                    
MATR.         SANDSTONE            : Logunit      - NEUTRON MATRIX              
TMAX.C        26                   : BHT          - MAXIMUM RECORDED TEMPERATURE
BHTD.M        531                  : BHTDEP       - MAXIMUM RECORDED TEMPERATURE
RMT .C        48.9                 : MDTP         - TEMPERATURE OF MUD          
MUDD.KG/M     1090                 : MWT          - MUD DENSITY                 
NEUT.         1                    : NEUTRON      - NEUTRON TYPE                
RESI.         0                    : RESIST       - RESISTIVITY TYPE            
RM  .OHMM     2.79                 : RM           - RESISTIVITY OF MUD          
RMC .OHMM     0                    : RMC          - RESISTIVITY OF MUD CAKE     
RMF .OHMM     4.18                 : RMF          - RESISTIVITY OF MUD FILTRATE 
SUFT.C        0                    : SUFT         - SURFACE TEMPERATURE         
~A  DEPTH     PHID     PHIN       GR      CAL     RESD
# ...
  351.500    0.219    0.429   82.671  173.229    4.997
  351.750    0.231    0.468   94.114  176.710    5.367
  352.000    0.249    0.487   90.602  174.856    5.885
  352.250    0.264    0.465   79.518  168.283    6.333
  352.500    0.268    0.421   70.097  166.326    6.764
  352.750    0.195    0.413   74.400  166.524    6.857
  353.000    0.121    0.398   79.320  166.413    6.202
  353.250    0.077    0.357   78.700  166.714    5.726
  353.500    0.085    0.345   82.265  167.936    5.268
  353.750    0.184    0.378   86.877  169.878    4.992
  354.000    0.219    0.419   92.904  170.486    4.679
  354.250    0.208    0.463   98.131  169.864    4.518
  354.500    0.189    0.450  102.373  170.369    4.404
  354.750    0.162    0.428   98.430  172.617    4.309
  355.000    0.187    0.446   80.391  176.611    4.247
  355.250    0.249    0.473   66.599  178.757    4.202
  355.500    0.261    0.442   56.008  172.493    4.196
  355.750    0.255    0.413   64.005  167.459    4.183
  356.000    0.242    0.399   75.141  168.989    4.185
  356.250    0.223    0.437   83.938  171.033    4.188
  356.500    0.246    0.458   86.088  173.281    4.190
  356.750    0.260    0.439   81.467  172.557    4.169
  357.000    0.250    0.434   78.016  171.421    4.194
  357.250    0.257    0.428   76.780  170.798    4.235
  357.500    0.274    0.419   81.084  169.662    4.270
  357.750    0.269    0.415   86.126  168.423    4.280
  358.000    0.261    0.425   87.353  168.108    4.290
  358.250    0.252    0.429   85.071  167.997    4.316
  358.500    0.239    0.431   86.050  168.708    4.433
  358.750    0.224    0.443   88.385  170.649    4.528
  359.000    0.210    0.460   92.012  173.412    4.581
  359.250    0.197    0.481   91.515  176.892    4.618
  359.500    0.228    0.508   82.401  177.602    4.569
  359.750    0.301    0.503   70.087  174.927    4.396
  360.000    0.259    0.433   63.742  170.611    4.229
  360.250    0.257    0.401   60.230  168.243    4.091
  360.500    0.270    0.402   59.117  167.313    3.929
  360.750    0.287    0.411   58.682  166.792    3.815
  361.000    0.293    0.423   59.601  166.168    3.711
  361.250    0.303    0.423   61.196  166.058    3.659
  361.500    0.306    0.415   61.746  166.153    3.633
  361.750    0.304    0.410   61.741  166.146    3.608
  362.000    0.298    0.415   61.860  166.447    3.590
  362.250    0.289    0.421   63.886  166.644    3.565
  362.500    0.277    0.430   66.713  167.355    3.560
  362.750    0.283    0.433   65.970  168.476    3.542
  363.000    0.297    0.427   67.134  168.776    3.590
  363.250    0.306    0.422   67.068  169.282    3.722
  363.500    0.319    0.428   66.818  169.888    3.823
  363.750    0.314    0.433   71.983  170.188    3.875
  364.000    0.303    0.442   75.179  170.387    3.928
  364.250    0.291    0.453   78.745  170.276    3.967
  364.500    0.286    0.458   79.171  170.474    3.984
  364.750    0.283    0.472   79.597  170.467    3.964
  365.000    0.274    0.500   80.701  173.024    3.885
  365.250    0.259    0.527   78.727  176.607    3.752
  365.500    0.299    0.454   70.659  170.854    3.603
  365.750    0.304    0.431   63.761  167.870    3.466
  366.000    0.315    0.412   58.709  167.145    3.372
  366.250    0.323    0.406   55.627  166.728    3.305
  366.500    0.309    0.412   53.222  167.336    3.258
  366.750    0.305    0.408   52.848  168.252    3.241
  367.000    0.311    0.412   53.643  168.654    3.237
  367.250    0.305    0.421   54.500  167.927    3.233
  367.500    0.312    0.430   55.296  167.305    3.229
  367.750    0.316    0.418   56.154  167.399    3.249
  368.000    0.301    0.413   56.764  168.009    3.268
  368.250    0.299    0.424   58.607  169.948    3.270
  368.500    0.308    0.432   61.864  170.866    3.272
  368.750    0.314    0.427   62.783  170.961    3.298
  369.000    0.318    0.424   61.609  171.465    3.319
  369.250    0.323    0.436   60.742  172.074    3.320
  369.500    0.331    0.433   61.600  172.987    3.328
  369.750    0.328    0.427   62.395  173.699    3.342
  370.000    0.329    0.425   62.390  174.921    3.332
  370.250    0.334    0.426   62.447  175.632    3.333
  370.500    0.331    0.429   60.781  176.240    3.329
  370.750    0.324    0.435   60.223  176.745    3.349
  371.000    0.322    0.441   61.203  177.045    3.389
  371.250    0.316    0.441   63.660  177.245    3.410
  371.500    0.310    0.436   64.210  177.337    3.431
  371.750    0.311    0.432   62.605  176.918    3.420
  372.000    0.308    0.441   60.138  176.192    3.422
  372.250    0.302    0.463   59.025  175.776    3.423
  372.500    0.309    0.448   59.637  175.565    3.451
  372.750    0.322    0.436   61.663  175.348    3.459
  373.000    0.314    0.437   63.074  175.139    3.474
  373.250    0.310    0.439   63.808  175.542    3.476
  373.500    0.318    0.442   65.465  176.455    3.464
  373.750    0.324    0.446   67.061  176.757    3.486
  374.000    0.323    0.447   65.456  176.852    3.668
  374.250    0.314    0.444   62.559  176.742    4.293
  374.500    0.305    0.440   61.508  176.735    5.246
  374.750    0.286    0.413   61.257  176.520    6.543
  375.000    0.209    0.313   60.022  176.616    8.826
  375.250    0.070    0.285   57.494  176.506   11.152
  375.500    0.053    0.272   58.904  177.423   12.622
  375.750    0.028    0.256   60.378  179.979   11.290
  376.000   -0.002    0.232   58.526  180.280    8.995
  376.250    0.002    0.220   59.815  179.759    7.480
  376.500    0.036    0.280   61.902  178.212    6.174
  376.750    0.114    0.306   63.929  176.667    5.144
  377.000    0.157    0.375   67.248  174.195    5.071
  377.250    0.210    0.423   66.936  172.753    5.518
  377.500    0.238    0.419   61.577  171.924    6.153
  377.750    0.149    0.377   54.309  172.224    6.438
  378.000    0.087    0.325   49.934  173.243    6.125
  378.250    0.027    0.257   49.683  174.057    5.730
  378.500    0.057    0.265   51.341  174.458    5.222
  378.750    0.191    0.391   55.091  174.452    4.724
  379.000    0.245    0.421   57.487  173.826    4.233
  379.250    0.278    0.411   59.328  173.513    3.779
  379.500    0.295    0.415   61.971  172.888    3.489
  379.750    0.300    0.428   62.828  172.677    3.485
  380.000    0.291    0.446   61.407  172.154    3.680
  380.250    0.280    0.458   59.679  171.328    4.013
  380.500    0.263    0.467   58.567  169.473    4.576
  380.750    0.242    0.472   57.516  169.055    5.266
  381.000    0.134    0.457   56.465  168.228    5.938
  381.250    0.092    0.283   55.722  168.631    6.087
  381.500    0.063    0.259   54.179  171.186    5.589
  381.750    0.102    0.277   59.283  172.821    5.151
  382.000    0.199    0.348   65.003  175.584    4.522
  382.250    0.256    0.384   71.830  172.498    4.060
  382.500    0.295    0.416   69.240  170.028    3.763
  382.750    0.284    0.461   64.619  169.199    3.654
  383.000    0.273    0.464   63.138  168.782    3.746
  383.250    0.281    0.443   65.287  169.287    3.811
  383.500    0.264    0.423   68.791  169.790    3.929
  383.750    0.222    0.416   73.957  170.193    4.127
  384.000    0.186    0.420   76.230  170.291    4.533
  384.250    0.163    0.430   67.300  170.694    4.779
  384.500    0.191    0.434   70.742  171.607    4.881
  384.750    0.224    0.437   78.062  172.113    4.920
  385.000    0.216    0.446   86.182  173.132    4.950
  385.250    0.207    0.437   87.593  174.560    4.981
  385.500    0.198    0.432   90.851  175.272    4.965
  385.750    0.197    0.438   93.554  175.264    4.967
  386.000    0.205    0.444   93.857  175.051    5.007
  386.250    0.222    0.437   93.484  174.941    5.104
  386.500    0.222    0.430   92.556  175.958    5.233
  386.750    0.210    0.435   91.936  176.567    5.324
  387.000    0.181    0.445   92.055  177.790    5.417
  387.250    0.202    0.457   91.065  177.373    5.481
  387.500    0.203    0.452   90.075  173.774    5.546
  387.750    0.197    0.429   90.010  171.510    5.569
