~VERSION INFORMATION
 VERS.                 2.0:   CWLS LOG ASCII STANDARD -VERSION 2.0
 WRAP.                  NO:   ONE LINE PER DEPTH STEP
~WELL INFORMATION BLOCK
#MNEM.UNIT           DATA                    DESCRIPTION OF MNEMONIC
#---------    -------------------            -------------------------------
# Generated from Intellog Unique Number	CW_76_78/WELL/2820
WELL.         11-34-077-26W4                 : Well_name    - WELL
LOC .         00/11-34-077-26W4/0            : Location     - LOCATION
UWI .         00/11-34-077-26W4/0            : Uwi          - UNIQUE WELL ID
ENTR.         JJ                             : Entered      - ENTERED BY
SRVC.         SCHLUMBERGER                   : Scn          - SERVICE COMPANY
DATE.         18 FEB 68                      : Date         - LOG DATE
STRT.M        420.624                        : top_depth    - START DEPTH
STOP.M        548.624                        : bot_depth    - STOP DEPTH
STEP.M        0.25                           : increment    - STEP LENGTH
 NULL. -999.2500:NULL Value
~CURVE INFORMATION BLOCK
#MNEM UNIT       ERCB CURVE CODE    CURVE DESCRIPTION
#-----------   ------------------   ----------------------------------
DEPT.M        00 001 00 00         : DEPTH        - DEPTH
DELT.US/F     00 520 00 00         : DELT         - SONIC TRAVEL TIME
GR  .API      00 310 00 00         : GR           - GAMMA RAY
CALI.MM       00 280 01 00         : CAL          - CALIPER
ILD .OHMM     00 120 00 00         : RESD         - DEEP RESISTIVITY (DIL)
~PARAMETER INFORMATION
#MNEM.UNIT           DATA             DESCRIPTION OF MNEMONIC
#---------         -----------     ------------------------------
GL  .M        631.85               : gl           - GROUND LEVEL ELEVATION
EREF.M        636.118              : kb           - ELEVATION OF DEPTH REFERENCE
DATM.M        636.118              : datum        - DATUM ELEVATION
TDD .M        562.966              : tdd          - TOTAL DEPTH DRILLER
RUN .         ONE                  : Run          - RUN NUMBER
ENG .         MILLER               : Engineer     - RECORDING ENGINEER
WIT .         DONALD               : Witness      - WITNESSED BY
BASE.         S.L.                 : Branch       - HOME BASE OF LOGGING UNIT
MUD .         GEL-CAUS             : Mud_type     - MUD TYPE
MATR.         SANDSTONE            : Logunit      - NEUTRON MATRIX
TMAX.C        23.3333              : BHT          - MAXIMUM RECORDED TEMPERATURE
BHTD.M        561.746              : BHTDEP       - MAXIMUM RECORDED TEMPERATURE
RMT .C        5.55556              : MDTP         - TEMPERATURE OF MUD
MUDD.KG/M     1224                 : MWT          - MUD DENSITY
NEUT.         1                    : NEUTRON      - NEUTRON TYPE
RESI.         0                    : RESIST       - RESISTIVITY TYPE
RM  .OHMM     5.01                 : RM           - RESISTIVITY OF MUD
RMC .OHMM     4.32                 : RMC          - RESISTIVITY OF MUD CAKE
RMF .OHMM     4.44                 : RMF          - RESISTIVITY OF MUD FILTRATE
SUFT.C        5                    : SUFT         - SURFACE TEMPERATURE
~A  DEPTH     DELT       GR      CAL     RESD
# ...
  464.124  287.723   80.218  216.270    7.582
  464.374  289.049   86.509  202.269    6.959
  464.624  247.394   89.563  205.969    6.287
  464.874  273.147   91.872  211.984    5.598
  465.124  346.018   95.736  216.208    5.153
  465.374  382.715  100.720  204.315    5.019
  465.624  395.720   90.896  209.069    5.506
  465.874  379.025   91.027  211.185    5.909
  466.124  384.956   91.594  211.409    6.501
  466.374  391.554   91.040  211.524    6.954
  466.624  382.202   84.390  212.484    6.739
  466.874  364.038   85.267  213.125    6.418
  467.124  346.210   86.768  217.140    6.316
  467.374  327.780   92.062  220.206    6.231
  467.624  345.658   95.553  215.161    6.080
  467.874  366.537   93.195  212.961    5.759
  468.124  371.668   89.469  213.708    5.502
  468.374  375.262   88.542  219.092    5.255
  468.624  372.517   93.899  218.787    5.096
  468.874  367.035   98.136  214.797    4.946
  469.124  360.352   97.334  213.120    4.884
  469.374  357.340  100.702  213.026    4.874
  469.624  368.676   95.356  213.774    4.885
  469.874  372.337   88.457  209.677    4.947
  470.124  358.846   89.895  214.745    4.985
  470.374  346.825   91.145  212.545    5.005
  470.624  330.397   91.961  213.084    4.954
  470.874  339.398   95.265  214.778    4.860
  471.124  352.469   98.382  217.635    4.783
  471.374  359.535   97.829  219.227    4.690
  471.624  344.643  102.252  219.027    4.621
  471.874  331.753   99.958  211.031    4.537
  472.124  355.169   93.868  209.355    4.516
  472.374  370.777   90.886  216.846    4.488
  472.624  369.967   95.310  218.334    4.459
  472.874  361.548   93.886  217.713    4.457
  473.124  361.138   93.332  218.356    4.560
  473.374  358.860   93.962  219.420    4.694
  473.624  352.110   88.368  220.381    4.878
  473.874  349.631   92.233  220.706    4.940
  474.124  353.026  101.696  221.035    4.846
  474.374  343.473   95.730  223.047    4.589
  474.624  335.522   91.444  226.850    4.383
  474.874  351.663   91.389  231.075    4.363
  475.124  359.662   93.386  232.561    4.400
  475.374  361.188   98.743  230.570    4.461
  475.624  360.511  104.597  227.420    4.514
  475.874  362.371  106.034  223.535    4.561
  476.124  362.829   94.282  220.702    4.589
  476.374  360.149   91.925  218.710    4.626
  476.624  360.607   98.216  217.878    4.626
  476.874  359.599   99.031  217.153    4.833
  477.124  350.712  103.206  217.375    4.893
  477.374  347.834  107.443  218.860    4.893
  477.624  355.300   99.299  220.346    4.848
  477.874  357.291  101.048  224.361    4.785
  478.124  350.142  103.481  227.954    4.480
  478.374  342.790  106.660  233.022    4.142
  478.624  338.777  112.515  237.142    3.812
  478.874  344.508  108.788  238.311    3.563
  479.124  357.313  102.761  230.000    3.471
  479.374  364.445  100.652  220.213    3.484
  479.624  369.507  100.845  219.698    3.569
  479.874  375.972  105.268  215.390    3.812
  480.124  338.988  101.480  209.396    4.011
  480.374  338.446  103.975  204.454    4.367
  480.624  349.916   89.735  203.201    4.909
  480.874  348.104   79.475  211.429    5.705
  481.124  343.624   72.886  212.704    7.202
  481.374  341.412   70.903  207.343    8.765
  481.624  308.100   75.078  204.194    9.610
  481.874  268.714   80.185  204.943    8.595
  482.124  257.960   82.556  209.695    7.531
  482.374  298.461   77.337  216.763    6.736
  482.624  383.479   78.028  211.824    6.275
  482.874  382.870   86.496  211.624    5.897
  483.124  367.042   89.054  216.693    6.090
  483.374  362.028   93.415  215.438    6.567
  483.624  379.037   97.279  213.027    7.224
  483.874  387.504  100.583  217.357    8.175
  484.124  356.928   88.830  221.477    8.930
  484.374  336.095   75.336  223.491    9.563
  484.624  295.843   66.322  224.240    9.795
  484.874  261.729   69.438  223.619    8.153
  485.124  246.502   81.018  213.726    7.007
  485.374  226.872   85.193  214.896    5.877
  485.624  251.156   83.768  219.120    5.369
  485.874  276.041   82.095  213.022    5.356
  486.124  344.640   88.324  216.403    5.467
  486.374  344.963   89.014  222.419    5.627
  486.624  334.410   86.905  219.797    5.836
  486.874  327.060   82.868  214.963    5.840
  487.124  320.643   83.745  217.397    5.535
  487.374  312.159   88.045  222.885    5.254
  487.624  308.946   89.732  227.005    5.087
  487.874  321.417   91.231  221.855    4.970
  488.124  327.348   93.726  221.761    4.902
  488.374  338.951   96.532  221.770    4.873
  488.624  346.751   96.726  217.779    4.869
  488.874  338.732  101.523  221.795    4.859
  489.124  332.717   97.174  224.439    4.822
  489.374  349.459   90.213  224.873    4.768
  489.624  348.915   90.718  224.882    4.765
  489.874  348.574   90.848  226.053    4.787
  490.124  348.697   90.916  224.167    4.825
  490.374  339.879   86.879  221.756    4.844
  490.624  338.534   81.348  219.976    4.849
  490.874  348.269   84.279  221.461    4.911
  491.124  349.194   98.657  223.368    4.973
  491.374  335.904   91.634  222.748    4.985
  491.624  320.544   88.218  221.810    4.981
  491.874  341.291   90.403  223.192    5.109
  492.124  342.017   92.275  223.624    5.171
  492.374  343.609   83.385  224.163    5.150
  492.624  345.536   86.751  224.597    5.082
  492.874  329.175   89.868  224.604    4.997
  493.124  316.685   90.746  225.038    4.912
  493.374  331.092   91.562  225.683    4.827
  493.624  344.096   93.871  225.692    4.773
  493.874  342.620   93.130  225.071    4.688
  494.124  344.145   90.585  223.291    4.628
  494.374  340.732   88.104  217.297    4.665
  494.624  343.059   89.479  219.625    4.898
  494.874  346.053   81.895  212.367    5.580
  495.124  349.046   73.938  224.283    6.065
  495.374  347.099   75.998  211.864    6.438
  495.624  331.609   81.542  204.079    6.696
  495.874  282.146   82.482  200.402    6.977
  496.124  261.513   81.803  203.679    7.365
  496.374  257.433   77.766  210.116    8.136
  496.624  347.723   69.746  218.344    9.389
  496.874  337.169   64.029  213.511   11.596
  497.124  286.371   59.992  207.201   13.355
  497.374  252.992   60.247  206.578   12.584
  497.624  271.403   65.170  208.065   10.403
  497.874  292.884   68.348  211.552    8.980
  498.124  295.010   75.137  211.037    7.891
  498.374  297.003   84.663  203.780    6.860
  498.624  272.300   88.153  209.269    6.008
  498.874  285.305   86.728  215.813    5.180
  499.124  277.954   87.419  220.565    4.802
  499.374  307.645   89.168  222.575    4.838
  499.624  331.661   84.259  223.852    5.334
  499.874  328.315   69.583  224.179    5.500
  500.124  329.708   81.846  223.663    5.498
  500.374  320.756   89.194  223.676    5.485
  500.624  290.378   94.055  223.685    5.376
  500.874  291.972   95.367  223.698    5.014
  501.124  307.045  100.040  223.920    4.781
  501.374  320.251  102.661  224.667    4.614
  501.624  327.716  107.954  227.206    4.628
  501.874  331.712  115.053  229.535    4.762
  502.124  336.241  101.372  219.010    5.101
  502.374  342.237   76.368  216.495    5.848
  502.624  347.501   70.154  219.560    7.664
  502.874  338.683   65.619  216.409   11.364
  503.124  267.796   63.011  212.525   11.679
  503.374  249.366   69.302  211.585   11.668
  503.624  240.080   73.912  210.860   11.452
  503.874  245.610   80.949  210.765   10.836
  504.124  375.677   76.414  210.460   10.025
  504.374  418.914   71.132  210.052    8.986
  504.624  426.515   78.107  209.850    8.199
  504.874  422.034   83.713  210.179    7.616
  505.124  276.064   87.888  210.820    6.976
  505.374  259.904   91.939  212.518    6.312
  505.624  297.603   90.078  216.428    5.941
  505.874  317.549   90.769  220.548    5.611
  506.124  320.942   94.012  222.876    5.331
  506.374  322.335   97.191  224.255    5.213
  506.624  322.058   99.997  225.215    5.104
  506.874  321.849   97.701  225.648    5.010
  507.124  321.573  102.810  225.660    4.917
  507.374  320.429  107.235  225.881    4.849
