~VERSION INFORMATION
 VERS.                 2.0:   CWLS LOG ASCII STANDARD -VERSION 2.0
 WRAP.                  NO:   ONE LINE PER DEPTH STEP
~WELL INFORMATION BLOCK
#MNEM.UNIT           DATA                    DESCRIPTION OF MNEMONIC
#---------    -------------------            -------------------------------
# Generated from Intellog Unique Number	CS_69_70/WELL/904
NULL.         -999.25                        : NULL_VALUE
WELL.         MAYNARD EXPLORATION            : Well_name    - WELL              
LOC .         00/16-33-070-15W4/0            : Location     - LOCATION          
UWI .         00/16-33-070-15W4/0            : Uwi          - UNIQUE WELL ID    
ENTR.         SP                             : Entered      - ENTERED BY        
SRVC.         SCHLUMBERGER                   : Scn          - SERVICE COMPANY   
STRT.M        265                            : top_depth    - START DEPTH       
STOP.M        476                            : bot_depth    - STOP DEPTH        
STEP.M        0.25                           : increment    - STEP LENGTH       
~CURVE INFORMATION BLOCK
#MNEM UNIT       ERCB CURVE CODE    CURVE DESCRIPTION
#-----------   ------------------   ----------------------------------
DEPT.M        00 001 00 00         : DEPTH        - DEPTH                       
ILD .OHMM     00 120 00 00         : RESD         - DEEP RESISTIVITY (DIL)      
DPHI.V/V      00 890 00 00         : PHID         - DENSITY POROSITY (LIMESTONE)
NPHI.V/V      00 330 00 00         : PHIN         - NEUTRON POROSITY (LIMESTONE)
GR  .API      00 310 00 00         : GR           - GAMMA RAY                   
~PARAMETER INFORMATION       
#MNEM.UNIT           DATA             DESCRIPTION OF MNEMONIC
#---------         -----------     ------------------------------
GL  .M        570.01               : gl           - GROUND LEVEL ELEVATION      
EREF.M        573.21               : kb           - ELEVATION OF DEPTH REFERENCE
DATM.M        570.01               : datum        - DATUM ELEVATION             
TDD .M        486                  : tdd          - TOTAL DEPTH DRILLER         
RUN .         ONE                  : Run          - RUN NUMBER                  
ENG .         BILL                 : Engineer     - RECORDING ENGINEER          
WIT .         JIM                  : Witness      - WITNESSED BY                
MUD .         GEL                  : Mud_type     - MUD TYPE                    
MATR.         LIMESTONE            : Logunit      - NEUTRON MATRIX              
TMAX.C        21                   : BHT          - MAXIMUM RECORDED TEMPERATURE
BHTD.M        486                  : BHTDEP       - MAXIMUM RECORDED TEMPERATURE
MATR.         1                    : LOGUNIT      - NEUTRON MATRIX              
RMT .C        25                   : MDTP         - TEMPERATURE OF MUD          
NEUT.         1                    : NEUTRON      - NEUTRON TYPE                
RESI.         0                    : RESIST       - RESISTIVITY TYPE            
RMC .OHMM     0.25                 : RMC          - RESISTIVITY OF MUD CAKE     
RMF .OHMM     0.25                 : RMF          - RESISTIVITY OF MUD FILTRATE 
SUFT.C        15                   : SUFT         - SURFACE TEMPERATURE         
~A  DEPTH     RESD     PHID     PHIN       GR
  265.000    2.617    0.264    0.482  104.823
  265.250    2.626    0.261    0.474  104.093
  265.500    2.497    0.267    0.469  101.843
  265.750    2.458    0.288    0.479   99.957
  266.000    2.410    0.301    0.488  100.078
  266.250    2.370    0.307    0.501  102.388
  266.500    2.355    0.306    0.496  103.056
  266.750    2.389    0.251    0.480   99.225
  267.000    2.455    0.262    0.471   96.062
  267.250    2.628    0.274    0.479   94.359
  267.500    2.702    0.286    0.481   93.750
  267.750    2.834    0.293    0.471   96.303
  268.000    2.949    0.262    0.468  102.383
  268.250    3.040    0.238    0.472  105.726
  268.500    3.196    0.216    0.456  106.151
  268.750    3.303    0.186    0.440  102.320
  269.000    3.394    0.154    0.429   99.887
  269.250    3.452    0.200    0.421   99.035
  269.500    3.412    0.236    0.434   99.946
  269.750    3.332    0.263    0.456  100.675
  270.000    3.260    0.281    0.472   97.391
  270.250    3.122    0.278    0.490   95.810
  270.500    2.936    0.272    0.491   96.903
  270.750    2.676    0.272    0.498   96.173
  271.000    2.555    0.280    0.487   95.929
  271.250    2.515    0.284    0.479   97.266
  271.500    2.557    0.267    0.480   99.758
  271.750    2.648    0.263    0.476  100.852
  272.000    2.764    0.256    0.460  101.398
  272.250    2.813    0.250    0.465   99.330
  272.500    2.912    0.259    0.483  102.127
  272.750    2.970    0.259    0.496  103.220
  273.000    2.939    0.260    0.487   98.112
  273.250    2.786    0.274    0.478   94.767
  273.500    2.745    0.288    0.483   92.699
  273.750    2.706    0.309    0.466   90.510
  274.000    2.715    0.330    0.453   88.077
  274.250    2.773    0.348    0.449   86.982
  274.500    2.856    0.203    0.445   85.947
  274.750    2.906    0.153    0.435   86.980
  275.000    2.907    0.256    0.439   89.655
  275.250    2.924    0.291    0.464   93.667
  275.500    3.024    0.281    0.463   95.308
  275.750    3.164    0.234    0.447   96.402
  276.000    3.377    0.195    0.434   96.948
  276.250    3.459    0.208    0.425   98.772
  276.500    3.664    0.223    0.428   96.947
  276.750    3.763    0.240    0.423   93.420
  277.000    3.903    0.248    0.412   89.832
  277.250    3.945    0.255    0.403   86.487
  277.500    3.978    0.253    0.395   86.668
  277.750    3.939    0.246    0.383   90.255
  278.000    3.981    0.233    0.376   92.504
  278.250    4.047    0.218    0.380   94.023
  278.500    4.032    0.241    0.387   92.381
  278.750    3.805    0.267    0.386   84.111
  279.000    3.561    0.294    0.378   69.579
  279.250    3.212    0.318    0.373   55.228
  279.500    2.952    0.336    0.358   43.250
  279.750    2.603    0.321    0.342   35.405
  280.000    2.449    0.301    0.331   31.392
  280.250    2.262    0.315    0.347   31.330
  280.500    2.117    0.324    0.361   32.849
  280.750    2.037    0.329    0.359   33.639
  281.000    2.013    0.333    0.356   33.882
  281.250    1.998    0.341    0.349   34.367
  281.500    2.015    0.343    0.342   35.218
  281.750    2.033    0.339    0.355   37.284
  282.000    2.058    0.335    0.341   39.351
  282.250    2.084    0.337    0.336   40.202
  282.500    2.109    0.335    0.341   41.964
  282.750    2.143    0.322    0.340   44.578
  283.000    2.144    0.319    0.347   46.401
  283.250    2.170    0.327    0.340   46.340
  283.500    2.171    0.337    0.346   49.379
  283.750    2.148    0.344    0.357   54.425
  284.000    2.141    0.341    0.368   57.951
  284.250    2.150    0.336    0.374   63.362
  284.500    2.143    0.326    0.373   68.894
  284.750    2.193    0.323    0.377   74.609
  285.000    2.309    0.317    0.382   80.992
  285.250    2.407    0.290    0.386   85.308
  285.500    2.579    0.271    0.393   87.557
  285.750    2.735    0.262    0.396   89.502
  286.000    2.998    0.259    0.392   88.954
  286.250    3.235    0.243    0.356   82.570
  286.500    3.530    0.231    0.330   75.151
  286.750    3.800    0.224    0.320   70.651
  287.000    4.021    0.237    0.315   68.704
  287.250    4.121    0.254    0.331   68.460
  287.500    4.080    0.270    0.349   69.129
  287.750    3.878    0.289    0.363   66.513
  288.000    3.430    0.299    0.376   61.466
  288.250    3.040    0.309    0.389   57.817
  288.500    2.764    0.316    0.389   55.749
  288.750    2.586    0.323    0.378   53.377
  289.000    2.505    0.312    0.372   61.950
  289.250    2.482    0.290    0.378   68.151
  289.500    2.500    0.280    0.379   70.582
  289.750    2.607    0.281    0.372   65.413
  290.000    2.641    0.300    0.364   59.940
  290.250    2.642    0.312    0.378   57.021
  290.500    2.627    0.319    0.384   54.649
  290.750    2.530    0.329    0.375   51.547
  291.000    2.392    0.335    0.366   50.817
  291.250    2.239    0.339    0.363   52.762
  291.500    2.142    0.329    0.357   54.160
  291.750    2.127    0.315    0.355   56.348
  292.000    2.160    0.299    0.356   57.563
  292.250    2.259    0.283    0.361   58.596
  292.500    2.399    0.269    0.371   60.480
  292.750    2.564    0.193    0.389   69.174
  293.000    2.622    0.166    0.415   80.057
  293.250    2.753    0.145    0.438   98.054
  293.500    2.958    0.121    0.448  103.708
  293.750    3.147    0.140    0.440  106.504
  294.000    3.327    0.230    0.444  109.057
  294.250    3.508    0.283    0.455  106.381
  294.500    3.574    0.302    0.468  102.975
  294.750    3.388    0.316    0.486  102.671
  295.000    3.030    0.355    0.484  104.980
  295.250    2.705    0.381    0.496  106.925
  295.500    2.478    0.433    0.505  108.749
  295.750    2.405    0.496    0.506  110.207
  296.000    2.480    0.540    0.494  109.659
  296.250    2.587    0.287    0.476  102.727
  296.500    2.768    0.273    0.418   96.403
  296.750    3.095    0.265    0.421   93.301
  297.000    3.439    0.245    0.413   90.564
  297.250    3.815    0.214    0.402   91.597
  297.500    4.069    0.201    0.415   92.874
  297.750    4.274    0.178    0.425   89.468
  298.000    4.381    0.161    0.418   93.966
  298.250    4.431    0.153    0.415   99.073
  298.500    4.440    0.158    0.432  102.903
  298.750    4.335    0.178    0.445  106.733
  299.000    4.173    0.181    0.460  109.407
  299.250    3.995    0.211    0.469  111.960
  299.500    3.792    0.241    0.465  113.541
  299.750    3.614    0.269    0.464  112.932
  300.000    3.460    0.286    0.483  107.094
  300.250    3.413    0.265    0.487  104.600
  300.500    3.454    0.259    0.478  102.958
  300.750    3.513    0.264    0.462  102.106
  301.000    3.603    0.272    0.451  105.085
  301.250    3.702    0.255    0.436  107.516
  301.500    3.842    0.249    0.425  111.407
  301.750    3.991    0.277    0.419  111.284
  302.000    4.040    0.281    0.411  101.616
  302.250    4.155    0.275    0.399   94.684
  302.500    4.238    0.270    0.385   89.089
  302.750    4.247    0.261    0.388   93.345
  303.000    4.216    0.257    0.401   99.120
  303.250    4.234    0.256    0.412  104.653
  303.500    4.259    0.253    0.421  106.233
  303.750    4.341    0.247    0.416  100.760
  304.000    4.441    0.261    0.408   97.537
  304.250    4.515    0.262    0.400  100.333
  304.500    4.598    0.245    0.397  103.251
  304.750    4.566    0.251    0.393   99.845
  305.000    4.461    0.267    0.392   98.081
  305.250    4.348    0.283    0.403  103.735
  305.500    4.268    0.292    0.419  108.537
  305.750    4.204    0.276    0.430  110.726
  306.000    4.164    0.248    0.421  111.151
  306.250    4.190    0.265    0.412  108.900
  306.500    4.215    0.275    0.414  106.528
  306.750    4.282    0.287    0.420  104.886
  307.000    4.405    0.229    0.415  105.311
  307.250    4.471    0.215    0.405  108.046
  307.500    4.644    0.208    0.402  109.930
  307.750    4.735    0.202    0.403  111.389
  308.000    4.744    0.192    0.412  112.726
  308.250    4.720    0.190    0.397  113.880
