~VERSION INFORMATION
 VERS.                 2.0:   CWLS LOG ASCII STANDARD -VERSION 2.0
 WRAP.                  NO:   ONE LINE PER DEPTH STEP
~WELL INFORMATION BLOCK
#MNEM.UNIT           DATA                    DESCRIPTION OF MNEMONIC
#---------    -------------------            -------------------------------
# Generated from Intellog Unique Number	CC_80_83/WELL/2391
NULL.         -999.25                        : NULL_VALUE
WELL.         ICGEX GRAHAM                   : Well_name    - WELL
LOC .         11-04-081-04W4                 : Location     - LOCATION          
UWI .         00/11-04-081-04W400            : Uwi          - UNIQUE WELL ID    
ENTR.         DW                             : Entered      - ENTERED BY        
SRVC.         SCHLUMBERGER                   : Scn          - SERVICE COMPANY   
DATE.         13 MAR 81                      : Date         - LOG DATE
STRT.M        100                            : top_depth    - START DEPTH       
STOP.M        274.901                        : bot_depth    - STOP DEPTH        
STEP.M        0.3                            : increment    - STEP LENGTH       
~CURVE INFORMATION BLOCK
#MNEM UNIT       ERCB CURVE CODE    CURVE DESCRIPTION
#-----------   ------------------   ----------------------------------
DEPT.M        00 001 00 00         : DEPTH        - DEPTH                       
DPHI.V/V      00 890 00 00         : PHID         - DENSITY POROSITY (LIMESTONE)
NPHI.V/V      00 330 00 00         : PHIN         - NEUTRON POROSITY (LIMESTONE)
GR  .API      00 310 00 00         : GR           - GAMMA RAY                   
ILD .OHMM     00 120 00 00         : RESD         - DEEP RESISTIVITY (DIL)      
~PARAMETER INFORMATION       
#MNEM.UNIT           DATA             DESCRIPTION OF MNEMONIC
#---------         -----------     ------------------------------
GL  .M        443.7                : gl           - GROUND LEVEL ELEVATION      
EREF.M        447.2                : kb           - ELEVATION OF DEPTH REFERENCE
DATM.M        447.2                : datum        - DATUM ELEVATION             
TDD .M        295                  : tdd          - TOTAL DEPTH DRILLER         
RUN .         ONE                  : Run          - RUN NUMBER                  
ENG .         BILL                 : Engineer     - RECORDING ENGINEER          
WIT .         JIM                  : Witness      - WITNESSED BY                
MUD .         GEL                  : Mud_type     - MUD TYPE                    
MATR.         LIMESTONE            : Logunit      - NEUTRON MATRIX              
TMAX.C        15                   : BHT          - MAXIMUM RECORDED TEMPERATURE
BHTD.M        295                  : BHTDEP       - MAXIMUM RECORDED TEMPERATURE
MATR.         1                    : LOGUNIT      - NEUTRON MATRIX              
RMT .C        25                   : MDTP         - TEMPERATURE OF MUD          
NEUT.         1                    : NEUTRON      - NEUTRON TYPE                
RESI.         0                    : RESIST       - RESISTIVITY TYPE            
RMC .OHMM     0.25                 : RMC          - RESISTIVITY OF MUD CAKE     
RMF .OHMM     0.25                 : RMF          - RESISTIVITY OF MUD FILTRATE 
SUFT.C        15                   : SUFT         - SURFACE TEMPERATURE         
~A  DEPTH     PHID     PHIN       GR     RESD
  100.000    0.291    0.467   72.839    6.838
  100.300    0.291    0.461   66.669    7.105
  100.600    0.278    0.458   57.415    7.383
  100.900    0.299    0.481   66.061    7.384
  101.200    0.291    0.482   75.942    7.111
  101.500    0.246    0.473   78.416    6.847
  101.800    0.248    0.465   75.950    6.593
  102.100    0.270    0.462   68.547    6.594
  102.400    0.291    0.483   58.675    7.118
  102.700    0.353    0.489   46.951    7.831
  103.000    0.343    0.463   38.931    8.293
  103.300    0.291    0.445   44.490    8.295
  103.600    0.338    0.440   48.199    8.619
  103.900    0.356    0.438   50.055    8.621
  104.200    0.324    0.441   51.294    8.959
  104.500    0.342    0.440   46.359    8.961
  104.800    0.350    0.415   45.129    9.134
  105.100    0.344    0.436   51.923    9.313
  105.400    0.338    0.450   57.483    9.495
  105.700    0.335    0.455   56.252    9.496
  106.000    0.330    0.467   48.849    9.682
  106.300    0.329    0.443   53.174    9.870
  106.600    0.333    0.445   57.500   10.063
  106.900    0.341    0.473   58.121   10.066
  107.200    0.340    0.452   60.594   10.068
  107.500    0.335    0.448   64.920   10.070
  107.800    0.318    0.431   61.837    9.883
  108.100    0.305    0.420   55.669    9.517
  108.400    0.323    0.448   54.439    9.519
  108.700    0.334    0.442   59.998    9.522
  109.000    0.318    0.433   58.151    9.344
  109.300    0.293    0.431   54.451    9.171
  109.600    0.292    0.422   52.604    9.173
  109.900    0.315    0.417   53.226    9.175
  110.200    0.339    0.471   56.317    9.178
  110.500    0.300    0.478   58.172    9.356
  110.800    0.273    0.474   61.263    9.359
  111.100    0.268    0.477   58.798    9.361
  111.400    0.267    0.497   56.334    8.843
  111.700    0.274    0.485   56.954    8.355
  112.000    0.307    0.488   59.427    7.455
  112.300    0.303    0.507   67.457    6.780
  112.600    0.298    0.513   76.103    5.936
  112.900    0.288    0.528   87.835    5.297
  113.200    0.273    0.540   89.073    4.297
  113.500    0.264    0.515   86.609    3.834
  113.800    0.266    0.521   92.786    3.555
  114.100    0.264    0.556   94.025    3.488
  114.400    0.254    0.544   91.560    3.489
  114.700    0.252    0.538   82.923    3.490
  115.000    0.266    0.538   84.779    3.626
  115.300    0.274    0.576   85.401    3.697
  115.600    0.278    0.580   85.404    3.698
  115.900    0.285    0.591   86.644    3.629
  116.200    0.295    0.574   88.499    3.428
  116.500    0.297    0.586   90.973    3.239
  116.800    0.298    0.602   90.359    3.366
  117.100    0.287    0.577   86.043    3.565
  117.400    0.269    0.515   80.491    3.847
  117.700    0.275    0.499   78.027    4.314
  118.000    0.283    0.513   76.796    4.657
  118.300    0.287    0.572   75.565    4.747
  118.600    0.269    0.557   73.100    4.840
  118.900    0.265    0.533   61.994    5.224
  119.200    0.293    0.483   53.356    6.085
  119.500    0.315    0.426   48.422    7.944
  119.800    0.335    0.412   44.724    9.432
  120.100    0.340    0.432   44.729    9.800
  120.400    0.337    0.439   44.732   10.380
  120.700    0.328    0.439   45.354   10.582
  121.000    0.320    0.432   47.209   10.584
  121.300    0.325    0.429   48.448   10.586
  121.600    0.330    0.444   47.218   10.389
  121.900    0.334    0.450   51.543   10.392
  122.200    0.334    0.427   46.610   10.199
  122.500    0.329    0.421   44.144   10.201
  122.800    0.306    0.418   42.913   10.203
  123.100    0.306    0.433   46.004   10.206
  123.400    0.319    0.424   47.245   10.406
  123.700    0.329    0.411   46.630   10.408
  124.000    0.337    0.402   44.783   10.410
  124.300    0.336    0.399   43.554   10.218
  124.600    0.331    0.417   43.557   10.027
  124.900    0.335    0.411   44.796   10.223
  125.200    0.331    0.406   46.651   10.622
  125.500    0.326    0.450   46.038   11.248
  125.800    0.299    0.434   44.808   11.467
  126.100    0.248    0.399   43.579   11.255
  126.400    0.319    0.387   42.964   10.838
  126.700    0.335    0.399   46.055   10.434
  127.000    0.325    0.433   50.997    9.859
  127.300    0.329    0.440   46.064    9.860
  127.600    0.336    0.435   45.450    9.678
  127.900    0.346    0.432   47.306    9.680
  128.200    0.336    0.430   47.928    9.682
  128.500    0.324    0.424   46.083    9.872
  128.800    0.319    0.419   44.850    9.874
  129.100    0.335    0.424   43.621   10.065
  129.400    0.346    0.429   46.094    9.692
  129.700    0.347    0.416   46.714    9.512
  130.000    0.348    0.413   44.869    9.699
  130.300    0.340    0.454   43.639    9.701
  130.600    0.300    0.470   43.023    9.889
  130.900    0.309    0.480   44.881    9.892
  131.200    0.316    0.463   45.502   10.084
  131.500    0.319    0.433   46.740    9.898
  131.800    0.332    0.428   47.979    9.900
  132.100    0.326    0.428   49.219    9.715
  132.400    0.322    0.442   49.841    9.355
  132.700    0.332    0.415   49.845    9.357
  133.000    0.345    0.412   47.996    9.184
  133.300    0.348    0.423   46.148    9.186
  133.600    0.336    0.423   48.004    9.365
  133.900    0.336    0.420   54.799    9.547
  134.200    0.346    0.442   48.631    9.549
  134.500    0.353    0.466   51.105    9.736
  134.800    0.347    0.456   52.344    9.554
  135.100    0.352    0.439   51.730    9.377
  135.400    0.352    0.432   51.117    9.378
  135.700    0.307    0.422   48.651    9.382
  136.000    0.326    0.412   51.744    9.564
  136.300    0.338    0.415   52.366    9.567
  136.600    0.341    0.422   53.605    9.569
  136.900    0.354    0.443   53.609    9.391
  137.200    0.351    0.420   52.994    9.216
  137.500    0.340    0.409   51.763    8.875
  137.800    0.352    0.448   50.533    8.876
  138.100    0.347    0.431   49.921    8.878
  138.400    0.337    0.403   49.924    8.882
  138.700    0.331    0.400   53.633    8.883
  139.000    0.328    0.422   56.105    9.231
  139.300    0.326    0.397   54.259    9.233
  139.600    0.327    0.423   50.558    9.062
  139.900    0.340    0.417   46.242    9.063
  140.200    0.336    0.397   48.715    8.727
  140.500    0.344    0.399   49.337    8.897
  140.800    0.354    0.430   49.341    9.423
  141.100    0.343    0.445   48.728   10.366
  141.400    0.195    0.491   48.114   11.188
  141.700    0.141    0.265   48.737   11.626
  142.000    0.177    0.298   50.593   10.983
  142.300    0.307    0.402   50.597    9.435
  142.600    0.339    0.431   48.749    9.085
  142.900    0.326    0.420   46.285    9.088
  143.200    0.328    0.408   45.055    9.089
  143.500    0.346    0.408   45.057    8.920
  143.800    0.353    0.446   46.297    8.755
  144.100    0.342    0.433   46.302    8.757
  144.400    0.343    0.429   46.305    8.593
  144.700    0.344    0.484   48.161    8.434
  145.000    0.344    0.485   49.401    8.121
  145.300    0.343    0.461   49.404    7.970
  145.600    0.343    0.454   48.175    8.126
  145.900    0.344    0.462   45.710    8.127
  146.200    0.347    0.442   44.478    8.285
  146.500    0.346    0.434   45.719    8.448
  146.800    0.346    0.445   48.191    8.612
  147.100    0.339    0.456   51.899    8.451
  147.400    0.318    0.439   52.520    7.984
  147.700    0.305    0.428   53.142    7.125
  148.000    0.318    0.444   55.614    5.671
  148.300    0.334    0.477   72.286    3.525
  148.600    0.322    0.590   76.610    2.364
  148.900    0.310    0.621   80.936    2.191
  149.201    0.297    0.608   87.112    2.277
  149.501    0.282    0.567   88.352    2.652
  149.801    0.276    0.546   87.122    2.862
  150.101    0.277    0.538   85.275    3.210
  150.401    0.277    0.553   85.278    3.335
  150.701    0.283    0.574   86.516    3.273
  151.001    0.278    0.532   84.668    3.670
  151.301    0.268    0.502   81.587    4.275
  151.601    0.256    0.488   76.037    5.172
  151.901    0.268    0.475   74.189    6.024
