~VERSION INFORMATION
 VERS.                 2.0:   CWLS LOG ASCII STANDARD -VERSION 2.0
 WRAP.                  NO:   ONE LINE PER DEPTH STEP
~WELL INFORMATION BLOCK
#MNEM.UNIT           DATA                    DESCRIPTION OF MNEMONIC
#---------    -------------------            -------------------------------
# Generated from Intellog Unique Number	CW_73_75/WELL/3529
WELL.         ULSTER G&W MARTEN HILLS        : Well_name    - WELL
LOC .         00/12-12-074-02W5/0            : Location     - LOCATION
UWI .         00/12-12-074-02W5/0            : Uwi          - UNIQUE WELL ID
ENTR.         T                              : Entered      - ENTERED BY
SRVC.         SCHLUMBERGER                   : Scn          - SERVICE COMPANY
STRT.M        360                            : top_depth    - START DEPTH
STOP.M        600                            : bot_depth    - STOP DEPTH
STEP.M        0.25                           : increment    - STEP LENGTH
 NULL. -999.2500:NULL Value
~CURVE INFORMATION BLOCK
#MNEM UNIT       ERCB CURVE CODE    CURVE DESCRIPTION
#-----------   ------------------   ----------------------------------
DEPT.M        00 001 00 00         : DEPTH        - DEPTH
ILD .OHMM     00 120 00 00         : RESD         - DEEP RESISTIVITY (DIL)
DPHI.V/V      00 890 00 00         : PHID         - DENSITY POROSITY (SANDSTONE)
NPHI.V/V      00 330 00 00         : PHIN         - NEUTRON POROSITY (SANDSTONE)
GR  .API      00 310 00 00         : GR           - GAMMA RAY
~PARAMETER INFORMATION
#MNEM.UNIT           DATA             DESCRIPTION OF MNEMONIC
#---------         -----------     ------------------------------
GL  .M        644                  : gl           - GROUND LEVEL ELEVATION
EREF.M        647.2                : kb           - ELEVATION OF DEPTH REFERENCE
DATM.M        647.2                : datum        - DATUM ELEVATION
TDD .M        606                  : tdd          - TOTAL DEPTH DRILLER
RUN .         ONE                  : Run          - RUN NUMBER
ENG .         BILL                 : Engineer     - RECORDING ENGINEER
WIT .         JIM                  : Witness      - WITNESSED BY
MUD .         GEL                  : Mud_type     - MUD TYPE
MATR.         SANDSTONE            : Logunit      - NEUTRON MATRIX
TMAX.C        23                   : BHT          - MAXIMUM RECORDED TEMPERATURE
BHTD.M        606                  : BHTDEP       - MAXIMUM RECORDED TEMPERATURE
MATR.         1                    : LOGUNIT      - NEUTRON MATRIX
RMT .C        17                   : MDTP         - TEMPERATURE OF MUD
NEUT.         1                    : NEUTRON      - NEUTRON TYPE
RESI.         0                    : RESIST       - RESISTIVITY TYPE
RMC .OHMM     2.6                  : RMC          - RESISTIVITY OF MUD CAKE
RMF .OHMM     1.7                  : RMF          - RESISTIVITY OF MUD FILTRATE
SUFT.C        15                   : SUFT         - SURFACE TEMPERATURE
~A  DEPTH     RESD     PHID     PHIN       GR
# ...
  447.000    4.601    0.375    0.381   60.180
  447.250    4.775    0.525    0.378   61.957
  447.500    4.864    0.535    0.400   66.686
  447.750    5.236    0.477    0.412   72.006
  448.000    5.050    0.441    0.407   79.690
  448.250    4.870    0.401    0.395  102.731
  448.500    4.697    0.306    0.409   99.192
  448.750    4.613    0.329    0.412   92.700
  449.000    5.058    0.257    0.377   85.026
  449.250    5.648    0.227    0.344   82.669
  449.500    5.969    0.239    0.344   86.218
  449.750    6.195    0.265    0.344   83.269
  450.000    6.310    0.275    0.345   79.729
  450.250    6.431    0.274    0.350   76.192
  450.500    6.432    0.266    0.359   77.969
  450.750    6.554    0.242    0.362   81.517
  451.000    6.678    0.214    0.345   84.474
  451.250    6.680    0.186    0.306   89.204
  451.500    6.562    0.128    0.280   83.303
  451.750    6.444    0.088    0.270   72.675
  452.000    6.102    0.168    0.299   73.271
  452.250    5.778    0.211    0.328   82.138
  452.500    5.372    0.211    0.360   86.867
  452.750    5.180    0.206    0.368   91.598
  453.000    4.905    0.204    0.371   92.192
  453.250    4.731    0.200    0.368   90.426
  453.500    4.820    0.192    0.354   89.839
  453.750    4.912    0.189    0.354   90.437
  454.000    5.003    0.187    0.357   91.622
  454.250    5.099    0.182    0.355   93.992
  454.500    5.194    0.180    0.355   95.767
  454.750    5.196    0.179    0.356   97.544
  455.000    5.294    0.180    0.358   99.320
  455.250    5.296    0.183    0.362  101.096
  455.500    5.202    0.183    0.366   98.738
  455.750    5.204    0.185    0.362   90.474
  456.000    5.206    0.185    0.356   94.023
  456.250    5.208    0.180    0.356   96.983
  456.500    5.306    0.175    0.352   97.578
  456.750    5.308    0.171    0.347   96.402
  457.000    5.408    0.166    0.353   95.225
  457.250    5.410    0.169    0.359   95.820
  457.500    5.412    0.174    0.347   95.824
  457.750    5.515    0.180    0.346   92.877
  458.000    5.618    0.189    0.345   91.108
  458.250    6.273    0.192    0.336   86.978
  458.500    7.134    0.181    0.323   81.668
  458.750    8.730    0.166    0.301   76.948
  459.000   10.489    0.141    0.276   72.227
  459.250   11.293    0.137    0.289   69.869
  459.500   10.498    0.151    0.313   75.190
  459.750    9.071    0.160    0.338   82.284
  460.000    8.129    0.169    0.364   87.013
  460.250    7.024    0.173    0.369   91.743
  460.500    5.959    0.181    0.376   92.339
  460.750    5.439    0.190    0.383   89.981
  461.000    5.150    0.202    0.377   88.214
  461.250    5.443    0.212    0.366   87.039
  461.500    5.753    0.220    0.352   86.452
  461.750    5.755    0.222    0.354   88.819
  462.000    5.757    0.217    0.362   92.960
  462.250    5.552    0.208    0.365   94.145
  462.500    5.453    0.201    0.366   91.788
  462.750    5.356    0.205    0.359   90.022
  463.000    5.359    0.219    0.355   89.435
  463.250    5.361    0.231    0.360   88.259
  463.500    5.362    0.229    0.364   88.263
  463.750    5.364    0.209    0.359   89.450
  464.000    5.366    0.178    0.358   91.818
  464.250    5.468    0.159    0.353   94.184
  464.500    5.470    0.151    0.348   94.780
  464.750    5.373    0.145    0.347   93.014
  465.000    5.181    0.140    0.348   91.248
  465.250    5.089    0.140    0.347   91.251
  465.500    4.998    0.145    0.347   91.255
  465.750    4.909    0.151    0.347   92.442
  466.000    4.911    0.160    0.347   93.629
  466.250    5.005    0.161    0.348   94.223
  466.500    5.006    0.162    0.352   91.276
  466.750    5.008    0.165    0.354   88.328
  467.000    5.010    0.171    0.356   87.742
  467.250    5.104    0.183    0.360   87.156
  467.500    5.805    0.192    0.360   85.980
  467.750    6.974    0.209    0.361   85.393
  468.000    7.931    0.225    0.365   83.035
  468.250    9.529    0.237    0.367   79.497
  468.500   11.039    0.252    0.366   75.956
  468.750   12.327    0.263    0.361   68.874
  469.000   12.331    0.271    0.359   64.154
  469.250   12.111    0.280    0.354   57.661
  469.500   11.895    0.284    0.350   53.531
  469.750   11.263    0.284    0.354   60.624
  470.000   10.283    0.280    0.359   69.489
  470.250    9.736    0.277    0.361   78.944
  470.500    9.388    0.276    0.355   74.814
  470.750    8.571    0.274    0.345   61.824
  471.000    8.265    0.269    0.342   60.649
  471.250    7.685    0.267    0.349   60.655
  471.500    7.411    0.267    0.351   61.841
  471.750    6.890    0.267    0.351   63.617
  472.000    6.524    0.264    0.349   68.347
  472.250    6.291    0.263    0.343   71.897
  472.500    6.067    0.261    0.338   71.309
  472.750    5.851    0.259    0.335   68.362
  473.000    5.540    0.259    0.335   63.051
  473.250    5.246    0.261    0.339   59.512
  473.500    4.967    0.263    0.338   60.107
  473.750    4.703    0.265    0.335   63.066
  474.000    4.454    0.267    0.332   64.842
  474.250    4.218    0.274    0.333   67.210
  474.500    4.142    0.279    0.339   69.578
  474.750    4.068    0.276    0.343   66.628
  475.000    3.996    0.281    0.347   61.318
  475.250    3.997    0.291    0.356   68.411
  475.500    4.073    0.286    0.364   75.503
  475.750    4.075    0.270    0.357   81.415
  476.000    4.151    0.245    0.350   89.689
  476.250    4.230    0.209    0.346   99.144
  476.500    4.231    0.187    0.351  100.330
  476.750    4.391    0.177    0.365   86.159
  477.000    4.641    0.180    0.362   92.073
  477.250    4.815    0.184    0.350   95.621
  477.500    4.998    0.186    0.341   97.990
  477.750    5.000    0.178    0.341   99.174
  478.000    5.001    0.181    0.342  104.496
  478.250    5.003    0.184    0.341  102.138
  478.500    4.914    0.184    0.339  100.369
  478.750    4.916    0.181    0.340   99.785
  479.000    4.829    0.177    0.342  100.971
  479.250    4.657    0.176    0.347  100.385
  479.500    4.832    0.179    0.352   96.255
  479.750    5.913    0.187    0.347   92.716
  480.000    6.725    0.201    0.337   88.587
  480.250    7.372    0.216    0.310   85.637
  480.500    7.110    0.229    0.273   80.917
  480.750    6.491    0.211    0.238   75.606
  481.000    6.034    0.113    0.260   70.294
  481.250    5.610    0.149    0.311   60.259
  481.500    5.312    0.172    0.341   66.170
  481.750    5.030    0.226    0.364   76.218
  482.000    4.676    0.232    0.351   80.946
  482.250    4.852    0.227    0.351   83.314
  482.500    5.223    0.173    0.358   82.728
  482.750    5.726    0.141    0.318   83.914
  483.000    6.513    0.091    0.266   82.737
  483.250    7.011    0.048    0.231   76.246
  483.500    6.761    0.070    0.325   71.525
  483.750    6.401    0.150    0.347   74.484
  484.000    6.061    0.198    0.360   83.351
  484.250    5.533    0.200    0.348   81.581
  484.500    4.960    0.203    0.347   79.224
  484.750    4.695    0.214    0.347   80.412
  485.000    4.286    0.222    0.346   83.368
  485.250    4.134    0.221    0.342   84.556
  485.500    4.211    0.198    0.341   85.742
  485.750    4.451    0.203    0.345   87.520
  486.000    4.618    0.203    0.349   88.113
  486.250    4.706    0.202    0.347   88.709
  486.500    4.708    0.197    0.349   88.714
  486.750    4.709    0.195    0.355   87.537
  487.000    4.711    0.199    0.359   88.724
  487.250    4.628    0.197    0.357   90.501
  487.500    4.630    0.191    0.350   89.325
  487.750    4.631    0.187    0.344   91.692
  488.000    4.549    0.184    0.348   95.240
  488.250    4.550    0.165    0.353   94.654
  488.500    4.552    0.168    0.357   91.116
  488.750    4.638    0.176    0.353   92.893
  489.000    4.640    0.190    0.351   91.716
  489.250    4.727    0.203    0.361   94.083
  489.500    4.906    0.216    0.368   99.995
  489.750    4.998    0.220    0.363   89.958
  490.000    5.000    0.215    0.352   84.058
  490.250    5.094    0.206    0.345   87.606
