~VERSION INFORMATION
 VERS.                 2.0:   CWLS LOG ASCII STANDARD -VERSION 2.0
 WRAP.                  NO:   ONE LINE PER DEPTH STEP
~WELL INFORMATION BLOCK
#MNEM.UNIT           DATA                    DESCRIPTION OF MNEMONIC
#---------    -------------------            -------------------------------
# Generated from Intellog Unique Number	CN_91_93/WELL/3062
WELL.         10-14-092-21W4                 : Well_name    - WELL
LOC .         00/10-14-092-21W4/0            : Location     - LOCATION
UWI .         00/10-14-092-21W4/0            : Uwi          - UNIQUE WELL ID
ENTR.         JOETTE                         : Entered      - ENTERED BY
SRVC.         SCHLUMBERGER                   : Scn          - SERVICE COMPANY
DATE.         04/09/92                       : Date         - LOG DATE
STRT.M        225                            : top_depth    - START DEPTH
STOP.M        367                            : bot_depth    - STOP DEPTH
STEP.M        0.25                           : increment    - STEP LENGTH
 NULL. -999.2500:NULL Value
~CURVE INFORMATION BLOCK
#MNEM UNIT       ERCB CURVE CODE    CURVE DESCRIPTION
#-----------   ------------------   ----------------------------------
DEPT.M        00 001 00 00         : DEPTH        - DEPTH
GR  .API      00 310 00 00         : GR           - GAMMA RAY
NPHI.V/V      00 330 00 00         : PHIN         - NEUTRON POROSITY (SANDSTONE)
DPHI.V/V      00 890 00 00         : PHID         - DENSITY POROSITY (SANDSTONE)
ILD .OHMM     00 120 00 00         : RESD         - DEEP RESISTIVITY (DIL)
~PARAMETER INFORMATION
#MNEM.UNIT           DATA             DESCRIPTION OF MNEMONIC
#---------         -----------     ------------------------------
GL  .M        540.3                : gl           - GROUND LEVEL ELEVATION
EREF.M        544                  : kb           - ELEVATION OF DEPTH REFERENCE
DATM.M        544                  : datum        - DATUM ELEVATION
TDD .M        379.69               : tdd          - TOTAL DEPTH DRILLER
RUN .         ONE                  : Run          - RUN NUMBER
ENG .         BILL                 : Engineer     - RECORDING ENGINEER
WIT .         JIM                  : Witness      - WITNESSED BY
MUD .         GEL                  : Mud_type     - MUD TYPE
MATR.         SANDSTONE            : Logunit      - NEUTRON MATRIX
TMAX.C        14                   : BHT          - MAXIMUM RECORDED TEMPERATURE
BHTD.M        379.69               : BHTDEP       - MAXIMUM RECORDED TEMPERATURE
RMT .C        14                   : MDTP         - TEMPERATURE OF MUD
MUDD.KG/M     9666.66              : MWT          - MUD DENSITY
NEUT.         1                    : NEUTRON      - NEUTRON TYPE
RESI.         0                    : RESIST       - RESISTIVITY TYPE
RM  .OHMM     8.5                  : RM           - RESISTIVITY OF MUD
RMC .OHMM     8.5                  : RMC          - RESISTIVITY OF MUD CAKE
RMF .OHMM     8.5                  : RMF          - RESISTIVITY OF MUD FILTRATE
SUFT.C        4                    : SUFT         - SURFACE TEMPERATURE
~A  DEPTH       GR     PHIN     PHID     RESD
  225.000   57.874    0.232    0.252    0.000
  225.250   57.895    0.226    0.204    0.000
  225.500   60.400    0.231    0.210    0.000
  225.750   61.034    0.242    0.219    0.000
  226.000   59.184    0.255    0.153    0.000
  226.250   56.711    0.252    0.105    0.000
  226.500   57.350    0.233    0.084    0.000
  226.750   59.855    0.255    0.167    0.000
  227.000   64.235    0.277    0.206    0.000
  227.250   65.492    0.274    0.230    0.000
  227.500   66.761    0.261    0.227    0.000
  227.750   67.391    0.266    0.231    0.000
  228.000   68.034    0.277    0.228    0.000
  228.250   68.050    0.285    0.207    0.000
  228.500   68.063    0.282    0.204    0.000
  228.750   66.212    0.256    0.198    0.000
  229.000   64.362    0.248    0.158    0.000
  229.250   61.889    0.242    0.111    0.000
  229.500   61.905    0.258    0.133    0.000
  229.750   66.281    0.272    0.169    0.000
  230.000   66.298    0.273    0.201    0.000
  230.250   65.692    0.278    0.204    0.000
  230.500   65.708    0.284    0.189    0.000
  230.750   66.969    0.290    0.196    0.000
  231.000   67.603    0.301    0.199    0.000
  231.250   68.242    0.300    0.136    0.000
  231.500   64.529    0.246    0.103    0.000
  231.750   62.678    0.229    0.082    0.000
  232.000   65.802    0.249    0.109    0.000
  232.250   71.419    0.274    0.161    0.000
  232.500   75.172    0.287    0.202    0.000
  232.750   75.811    0.292    0.214    0.000
  233.000   75.832    0.294    0.208    0.000
  233.250   75.225    0.271    0.185    0.000
  233.500   75.238    0.269    0.189    0.000
  233.750   75.254    0.278    0.201    0.000
  234.000   76.515    0.288    0.216    0.000
  234.250   77.157    0.294    0.217    0.000
  234.500   77.170    0.287    0.216    0.000
  234.750   76.564    0.273    0.209    0.000
  235.000   76.580    0.267    0.195    0.000
  235.250   74.730    0.260    0.140    0.000
  235.500   70.390    0.250    0.132    0.000
  235.750   64.184    0.239    0.130    0.000
  236.000   55.489    0.234    0.162    0.000
  236.250   46.793    0.104    0.220    0.000
  236.500   28.764    0.061    0.286    0.000
  236.750   20.069    0.031    0.314    0.000
  237.000   17.600    0.034    0.317    0.000
  237.250   16.372    0.042    0.336    0.000
  237.500   15.762    0.048    0.360    0.000
  237.750   14.534    0.050    0.352    0.000
  238.000   13.928    0.050    0.358    0.000
  238.250   13.322    0.044    0.360    0.000
  238.500   12.716    0.039    0.360    0.000
  238.750   12.114    0.037    0.366    0.000
  239.000   12.134    0.043    0.369    0.000
  239.250   12.143    0.052    0.362    0.000
  239.500   12.785    0.060    0.352    0.000
  239.750   12.802    0.067    0.335    0.000
  240.000   14.062    0.076    0.325    0.000
  240.250   16.568    0.084    0.319    0.000
  240.500   20.313    0.096    0.315    0.000
  240.750   26.552    0.127    0.273    0.000
  241.000   35.284    0.158    0.226    0.000
  241.250   42.768    0.186    0.140    0.000
  241.500   47.766    0.200    0.078    0.000
  241.750   48.401    0.198    0.105    0.000
  242.000   40.328    0.123    0.049    0.000
  242.250   16.698    0.108    0.013    0.000
  242.500   14.852    0.095    0.034    0.000
  242.750   17.357    0.100    0.047    0.000
  243.000   19.866    0.111    0.035    0.000
  243.250   20.497    0.118    0.042    0.000
  243.500   18.024    0.121    0.057    0.000
  243.750   15.551    0.119    0.073    0.000
  244.000   14.327    0.117    0.107    0.000
  244.250   14.344    0.117    0.088    0.000
  244.500   14.360    0.119    0.097    0.000
  244.750   13.754    0.123    0.117    0.000
  245.000   13.766    0.130    0.169    0.000
  245.250   12.538    0.135    0.176    0.000
  245.500   11.932    0.139    0.184    0.000
  245.750   12.575    0.145    0.201    0.000
  246.000   13.835    0.145    0.156    0.000
  246.250   15.092    0.139    0.109    0.000
  246.500   16.357    0.130    0.087    0.000
  246.750   15.751    0.135    0.081    0.000
  247.000   18.253    0.142    0.069    0.000
  247.250   20.140    0.152    0.064    0.000
  247.500   18.289    0.157    0.075    0.000
  247.750   14.572    0.150    0.086    0.000
  248.000   13.348    0.136    0.098    0.000
  248.250   12.738    0.145    0.099    0.000
  248.500   12.762    0.156    0.069    0.000
  248.750   12.774    0.167    0.082    0.000
  249.000   12.791    0.177    0.115    0.000
  249.250   12.803    0.183    0.128    0.000
  249.500   12.828    0.186    0.147    0.000
  249.750   12.840    0.187    0.161    0.000
  250.000   12.852    0.185    0.173  134.636
  250.250   14.117    0.183    0.187  134.648
  250.500   14.129    0.180    0.207  137.012
  250.750   14.145    0.164    0.110  137.031
  251.000   12.295    0.152    0.129  139.429
  251.250   11.067    0.156    0.160  139.441
  251.500   11.705    0.153    0.158  139.461
  251.750   14.837    0.146    0.164  141.910
  252.000   15.476    0.141    0.160  141.922
  252.250   13.003    0.127    0.106  141.938
  252.500   10.534    0.116    0.093  144.430
  252.750    9.924    0.120    0.104  144.443
  253.000    9.314    0.127    0.120  144.459
  253.250    8.716    0.139    0.113  142.011
  253.500    8.106    0.147    0.117  142.019
  253.750    7.508    0.147    0.106  142.039
  254.000    7.521    0.150    0.055  142.052
  254.250    8.163    0.157    0.073  139.637
  254.500    8.798    0.148    0.081  139.653
  254.750    8.814    0.137    0.078  139.672
  255.000    8.826    0.142    0.081  139.688
  255.250    8.847    0.154    0.096  137.317
  255.500    8.863    0.155    0.121  137.337
  255.750   11.368    0.147    0.096  134.994
  256.000   12.633    0.149    0.094  130.432
  256.250   12.642    0.154    0.085  130.447
  256.500   11.417    0.153    0.098  135.044
  256.750   10.811    0.142    0.088  142.243
  257.000    9.583    0.125    0.076  144.728
  257.250    8.355    0.112    0.069  139.836
  257.500    7.131    0.113    0.072  135.106
  257.750    6.517    0.122    0.062  130.536
  258.000    7.163    0.129    0.071  130.555
  258.250    7.798    0.134    0.063  128.335
  258.500    9.685    0.137    0.061  130.585
  258.750   10.316    0.143    0.074  135.191
  259.000   10.958    0.137    0.083  142.389
  259.250   10.975    0.119    0.052  147.407
  259.500   10.369    0.105    0.030  142.417
  259.750    8.522    0.105    0.083  124.065
  260.000    7.912    0.123    0.124  117.814
  260.250    7.937    0.162    0.160  126.250
  260.500    7.949    0.200    0.346  128.467
  260.750    8.587    0.214    0.409  121.994
  261.000   10.470    0.194    0.336  110.007
  261.250   12.976    0.163    0.225  108.139
  261.500   15.477    0.149    0.094  108.152
  261.750   20.471    0.158    0.072  100.947
  262.000   24.844    0.174    0.107   83.496
  262.250   31.082    0.187    0.080   61.203
  262.500   36.699    0.187    0.070   49.757
  262.750   37.338    0.184    0.051   46.443
  263.000   36.109    0.186    0.075   46.448
  263.250   32.392    0.191    0.106   49.774
  263.500   28.057    0.196    0.120   56.174
  263.750   23.713    0.188    0.142   67.928
  264.000   20.000    0.175    0.106   79.359
  264.250   18.768    0.155    0.069   83.587
  264.500   17.544    0.142    0.048   88.040
  264.750   18.186    0.141    0.047   86.543
  265.000   19.443    0.148    0.015   80.780
  265.250   20.704    0.151    0.009   79.404
  265.500   21.346    0.152    0.025   78.052
  265.750   21.367    0.152    0.022   78.061
  266.000   20.757    0.154    0.028   78.070
  266.250   19.533    0.158    0.043   79.438
  266.500   18.296    0.159    0.010   82.241
  266.750   16.450    0.162    0.004   85.137
  267.000   13.981    0.162    0.028   92.828
  267.250   12.745    0.159    0.012   94.452
  267.500   12.143    0.151    0.020   99.487
  267.750   12.155    0.143   -0.011   99.495
  268.000   12.176    0.138   -0.016   96.130
  268.250   12.196    0.144    0.034   91.288
