~VERSION INFORMATION
 VERS.                 2.0:   CWLS LOG ASCII STANDARD -VERSION 2.0
 WRAP.                  NO:   ONE LINE PER DEPTH STEP
~WELL INFORMATION BLOCK
#MNEM.UNIT           DATA                    DESCRIPTION OF MNEMONIC
#---------    -------------------            -------------------------------
# Generated from Intellog Unique Number	CS_67_68/WELL/2194
WELL.         DOME CDA ATMORE                : Well_name    - WELL
LOC .         00/10-08-067-17W4/0            : Location     - LOCATION
UWI .         00/10-08-067-17W4/0            : Uwi          - UNIQUE WELL ID
ENTR.         SP                             : Entered      - ENTERED BY
SRVC.         SCHLUMBERGER                   : Scn          - SERVICE COMPANY
STRT.M        380                            : top_depth    - START DEPTH
STOP.M        535                            : bot_depth    - STOP DEPTH
STEP.M        0.25                           : increment    - STEP LENGTH
 NULL. -999.2500:NULL Value
~CURVE INFORMATION BLOCK
#MNEM UNIT       ERCB CURVE CODE    CURVE DESCRIPTION
#-----------   ------------------   ----------------------------------
DEPT.M        00 001 00 00         : DEPTH        - DEPTH
ILD .OHMM     00 120 00 00         : RESD         - DEEP RESISTIVITY (DIL)
DPHI.V/V      00 890 00 00         : PHID         - DENSITY POROSITY (LIMESTONE)
NPHI.V/V      00 330 00 00         : PHIN         - NEUTRON POROSITY (LIMESTONE)
GR  .API      00 310 00 00         : GR           - GAMMA RAY
CALI.MM       00 280 01 00         : CAL          - CALIPER
~PARAMETER INFORMATION
#MNEM.UNIT           DATA             DESCRIPTION OF MNEMONIC
#---------         -----------     ------------------------------
GL  .M        606.1                : gl           - GROUND LEVEL ELEVATION
EREF.M        610                  : kb           - ELEVATION OF DEPTH REFERENCE
DATM.M        610                  : datum        - DATUM ELEVATION
TDD .M        582                  : tdd          - TOTAL DEPTH DRILLER
RUN .         ONE                  : Run          - RUN NUMBER
ENG .         BILL                 : Engineer     - RECORDING ENGINEER
WIT .         JIM                  : Witness      - WITNESSED BY
MUD .         GEL                  : Mud_type     - MUD TYPE
MATR.         LIMESTONE            : Logunit      - NEUTRON MATRIX
TMAX.C        22                   : BHT          - MAXIMUM RECORDED TEMPERATURE
BHTD.M        578.1                : BHTDEP       - MAXIMUM RECORDED TEMPERATURE
MATR.         1                    : LOGUNIT      - NEUTRON MATRIX
RMT .C        25                   : MDTP         - TEMPERATURE OF MUD
NEUT.         1                    : NEUTRON      - NEUTRON TYPE
RESI.         0                    : RESIST       - RESISTIVITY TYPE
RMC .OHMM     0.25                 : RMC          - RESISTIVITY OF MUD CAKE
RMF .OHMM     0.25                 : RMF          - RESISTIVITY OF MUD FILTRATE
SUFT.C        15                   : SUFT         - SURFACE TEMPERATURE
~A  DEPTH     RESD     PHID     PHIN       GR      CAL
# ...
  453.000    2.323    0.261    0.445   84.944  160.749
  453.250    2.251    0.274    0.434   83.860  159.953
  453.500    2.227    0.281    0.418   92.186  159.462
  453.750    2.211    0.288    0.407   97.659  159.375
  454.000    2.220    0.291    0.397  100.460  159.290
  454.250    2.263    0.275    0.389   95.369  159.508
  454.500    2.332    0.263    0.401   88.822  159.522
  454.750    2.395    0.254    0.403   84.945  159.638
  455.000    2.436    0.249    0.404   85.744  159.957
  455.250    2.447    0.248    0.412   89.273  159.666
  455.500    2.443    0.251    0.416   93.774  159.478
  455.750    2.416    0.263    0.434   99.307  159.394
  456.000    2.444    0.259    0.456  104.111  160.418
  456.250    2.611    0.235    0.462  102.056  161.849
  456.500    2.810    0.211    0.445   94.719  163.280
  456.750    3.024    0.193    0.430   87.080  163.700
  457.000    3.260    0.195    0.414   81.747  163.209
  457.250    3.450    0.209    0.400   82.849  163.731
  457.500    3.609    0.207    0.389   86.924  164.452
  457.750    3.762    0.192    0.401   91.972  165.379
  458.000    3.864    0.182    0.413   95.258  165.797
  458.250    3.916    0.176    0.421   98.728  166.320
  458.500    3.917    0.173    0.405  100.132  166.537
  458.750    3.832    0.177    0.408   98.016  166.652
  459.000    3.734    0.187    0.418   94.809  166.867
  459.250    3.564    0.192    0.406   91.720  167.388
  459.500    3.486    0.204    0.408   95.250  167.707
  459.750    3.514    0.213    0.417   90.949  168.227
  460.000    3.568    0.196    0.405   75.054  167.735
  460.250    3.630    0.181    0.389   63.771  166.738
  460.500    3.693    0.172    0.378   78.835  164.934
  460.750    3.736    0.166    0.399   88.374  165.554
  461.000    3.751    0.177    0.409   94.393  166.784
  461.250    3.732    0.189    0.405   94.706  166.697
  461.500    3.691    0.200    0.402   94.715  165.801
  461.750    3.617    0.188    0.415   94.541  165.107
  462.000    3.538    0.227    0.433   91.392  164.716
  462.250    3.454    0.279    0.427   85.816  163.618
  462.500    3.347    0.298    0.423   76.539  161.508
  462.750    3.201    0.312    0.444   68.959  159.094
  463.000    2.960    0.320    0.464   65.204  156.682
  463.250    2.737    0.314    0.457   63.149  154.573
  463.500    2.498    0.314    0.441   60.668  154.688
  463.750    2.416    0.319    0.409   60.921  156.525
  464.000    2.528    0.264    0.270   63.418  158.663
  464.250    2.899    0.090    0.219   63.305  161.106
  464.500    3.452    0.044    0.205   61.190  163.043
  464.750    4.651    0.025    0.203   68.058  163.866
  465.000    7.090    0.076    0.321   77.476  164.184
  465.250    8.731    0.113    0.345   85.983  163.897
  465.500    9.395    0.136    0.363   93.156  164.011
  465.750    7.479    0.153    0.372   91.465  162.611
  466.000    5.608    0.165    0.389   89.166  159.692
  466.250    4.884    0.180    0.402   85.170  157.884
  466.500    4.391    0.195    0.407   82.749  156.684
  466.750    4.192    0.208    0.387   86.218  158.924
  467.000    4.107    0.206    0.384   92.054  162.075
  467.250    4.025    0.216    0.378   93.034  163.203
  467.500    3.967    0.216    0.378   97.353  163.218
  467.750    3.924    0.192    0.401  100.033  163.131
  468.000    3.896    0.178    0.414  100.770  163.957
  468.250    3.883    0.172    0.422   99.990  164.678
  468.500    3.862    0.175    0.411   97.752  165.807
  468.750    3.849    0.174    0.397   95.030  166.935
  469.000    3.850    0.167    0.388   96.859  167.254
  469.250    3.844    0.178    0.401  101.299  167.672
  469.500    3.846    0.185    0.418  105.619  167.180
  469.750    3.854    0.192    0.427  107.934  167.297
  470.000    3.849    0.187    0.405   97.198  167.816
  470.250    3.879    0.173    0.380  103.763  168.337
  470.500    3.917    0.164    0.383  106.564  168.858
  470.750    3.955    0.167    0.402  101.899  169.278
  471.000    4.001    0.176    0.398   99.540  169.595
  471.250    4.033    0.181    0.390   99.306  169.711
  471.500    4.041    0.183    0.410  101.804  170.536
  471.750    3.990    0.181    0.435  107.822  170.651
  472.000    3.888    0.193    0.450  112.141  169.857
  472.250    3.796    0.189    0.463  105.108  168.960
  472.500    3.706    0.178    0.447  101.232  169.278
  472.750    3.551    0.169    0.442  107.858  169.798
  473.000    3.434    0.161    0.439  112.723  170.420
  473.250    3.291    0.158    0.427  114.552  169.828
  473.500    3.249    0.183    0.420  111.404  168.325
  473.750    3.275    0.192    0.410  107.286  166.722
  474.000    3.319    0.178    0.400  104.199  165.117
  474.250    3.402    0.165    0.395  101.597  165.436
  474.500    3.500    0.160    0.404  103.002  166.866
  474.750    3.642    0.166    0.415  108.474  167.085
  475.000    3.719    0.171    0.427  112.489  166.188
  475.250    3.679    0.168    0.393  101.815  164.787
  475.500    3.625    0.133    0.369   92.779  163.688
  475.750    3.586    0.108    0.342   81.314  163.299
  476.000    3.655    0.102    0.353   86.120  163.312
  476.250    3.831    0.144    0.392   92.744  163.023
  476.500    4.016    0.173    0.414   97.609  162.430
  476.750    4.101    0.190    0.405   98.711  161.939
  477.000    4.126    0.186    0.391  100.055  161.550
  477.250    3.954    0.183    0.403  100.914  162.071
  477.500    3.676    0.186    0.408  100.679  162.692
  477.750    3.477    0.184    0.406  102.206  163.516
  478.000    3.452    0.179    0.416  101.790  164.847
  478.250    3.486    0.177    0.424   98.399  165.267
  478.500    3.520    0.181    0.416   96.769  165.281
  478.750    3.554    0.178    0.414  101.149  166.003
  479.000    3.562    0.173    0.423  103.950  166.422
  479.250    3.570    0.177    0.411  101.409  166.842
  479.500    3.551    0.181    0.397   99.840  166.857
  479.750    3.552    0.185    0.390  103.369  167.074
  480.000    3.527    0.186    0.400  103.742  167.189
  480.250    3.528    0.190    0.402  102.112  167.710
  480.500    3.523    0.192    0.394  101.211  167.825
  480.750    3.517    0.188    0.389  100.127  167.640
  481.000    3.512    0.181    0.399   98.982  167.349
  481.250    3.520    0.184    0.396   98.444  166.150
  481.500    3.515    0.187    0.389   98.635  164.444
  481.750    3.516    0.179    0.405   98.340  162.131
  482.000    3.471    0.194    0.421   97.378  160.124
  482.250    3.402    0.207    0.419   96.295  159.329
  482.500    3.284    0.218    0.403   94.178  158.839
  482.750    3.164    0.211    0.392   89.209  157.941
  483.000    3.130    0.192    0.413   81.873  157.349
  483.250    3.445    0.171    0.384   75.508  157.971
  483.500    3.842    0.164    0.328   70.478  158.086
  483.750    4.180    0.189    0.329   66.177  158.912
  484.000    4.550    0.189    0.372   64.669  159.634
  484.250    4.998    0.207    0.407   67.773  160.561
  484.500    5.429    0.056    0.436   68.936  161.587
  484.750    6.099    0.031    0.361   64.998  162.409
  485.000    7.317    0.014    0.208   58.451  163.435
  485.250    8.977    0.005    0.179   53.907  164.159
  485.500   11.693    0.000    0.163   50.517  164.580
  485.750   17.107    0.000    0.145   52.225  165.402
  486.000   23.971    0.000    0.127   57.029  165.719
  486.250   32.537    0.000    0.116   61.713  166.241
  486.500   35.277    0.000    0.119   64.574  166.255
  486.750   36.024    0.000    0.118   63.856  166.371
  487.000   35.105    0.000    0.113   61.314  166.386
  487.250   32.583    0.036    0.141   60.473  166.197
  487.500   28.913    0.099    0.180   60.725  165.506
  487.750   24.899    0.141    0.223   63.343  165.117
  488.000   18.985    0.169    0.270   69.240  164.726
  488.250   13.507    0.192    0.312   79.326  164.031
  488.500    9.467    0.209    0.346   84.616  163.844
  488.750    6.561    0.215    0.379   87.842  163.454
  489.000    5.097    0.212    0.373   83.724  163.468
  489.250    3.990    0.219    0.362   88.284  163.381
