~Version Information
VERS.                2.00:
WRAP.                  NO:
~Well Information Block
#MNEM.UNIT       Data Type    Information
#---------    -------------   -------------------
FLD.   :FIELD
FLD.   :FIELD
FLD.   :FIELD
FLD.   :FIELD
STRT.M          1950.0000:
STOP.M          4060.0000:
STEP.M             0.8202:
NULL.           -999.2500:
COMP.  MUTUAL EXPLORATION FUNDS:COMPANY
WELL.  MUTES IOE SEAFORTH:WELL
FLD.   :FIELD
LOC.   15-20-095-20W4:LOCATION
CTRY.  CANADA:COUNTRY
PROV.  ALBERTA:PROVINCE
SRVC.  SCHLUMBERGER:SERVICE COMPANY
DATE.  01 MAR 69:LOG DATE
UWI.   00/15-20-095-20W4/0:UNIQUE WELL ID
~Curve Information Block
#MNEM.UNIT        API CODE    Curve Description
#---------    ------------    -----
DEPT.M                    :   DEPTH
CALI.in                   :   CALI
GR  .API                  :   GR
SNP .V/V                  :   SNP
~A  Depth           CALI          GR         SNP
# ...
3698.6664         8.8217     11.2326      0.0153
3699.4866         8.8226     11.7110      0.0148
3700.3068         8.8234     11.7434      0.0133
3701.1270         8.8242     11.3760      0.0116
3701.9472         8.8251     10.9853      0.0114
3702.7674         8.8259     12.0813      0.0121
3703.5876         8.8267     13.0601      0.0115
3704.4078         8.8276     13.7376      0.0107
3705.2280         8.8284     13.4351      0.0106
3706.0482         8.8292     13.0510      0.0098
3706.8684         8.8703     12.6594      0.0097
3707.6886         8.8713     12.9849      0.0112
3708.5088         8.8993     11.6039      0.0125
3709.3290         8.9110     10.7436      0.0151
3710.1492         8.9409     10.6437      0.0191
3710.9694         8.9532     11.3361      0.0238
3711.7896         8.9559     11.9902      0.0279
3712.6098         8.9572     12.4699      0.0312
3713.4300         8.9583     12.6455      0.0344
3714.2502         8.9592     12.6778      0.0391
3715.0704         8.9601     12.3495      0.0432
3715.8906         8.9609     11.9672      0.0464
3716.7108         8.9617     11.6454      0.0450
3717.5310         8.9966     11.2750      0.0419
3718.3512         9.0008     11.1391      0.0386
3719.1714         9.0033     11.1212      0.0314
3719.9916         9.0050     10.5822      0.0454
3720.8118         9.0063     10.0515      0.0583
3721.6320         9.0073      9.9548      0.0719
3722.4522         9.0326      9.6210      0.0730
3723.2724         9.0473      9.5421      0.0730
3724.0926         9.0249      9.9447      0.0746
3724.9128         9.0125      9.9580      0.0746
3725.7330         9.0117      9.6531      0.0762
3726.5532         9.0123      9.5752      0.0813
3727.3734         9.0131      9.5796      0.0824
3728.1936         9.0140      9.2050      0.0845
3729.0138         8.9850      8.8135      0.0882
3729.8340         8.9761      8.7977      0.0921
3730.6542         8.9460      8.8039      0.0987
3731.4744         8.9389      8.8115      0.1026
3732.2946         8.9372      8.5191      0.1046
3733.1148         8.9379      8.4329      0.0997
3733.9350         8.9387      8.4322      0.0948
3734.7552         8.9395      8.8018      0.0913
3735.5754         8.9403      9.2064      0.0920
3736.3956         8.9411      9.2557      0.0894
3737.2158         8.9420      9.2679      0.0883
3738.0360         8.9428      9.2760      0.0895
3738.8562         8.9046      9.2839      0.0896
3739.6764         8.9040      8.9421      0.0931
3740.4966         8.9047      9.5995      0.0929
3741.3168         8.9056     10.0419      0.0949
3742.1370         8.9064     10.1107      0.0938
3742.9572         8.9072     10.1272      0.0895
3743.7774         8.9081      9.8556      0.0903
3744.5976         8.8763      9.4233      0.0915
3745.4178         8.8718      9.3598      0.0898
3746.2380         8.8708      9.3556      0.0824
3747.0582         8.8710      9.3613      0.0736
3747.8784         8.8441      9.3686      0.0676
3748.6986         8.8342      9.3762      0.0670
3749.5188         8.7995      9.3839      0.0721
3750.3390         8.7953      9.3916      0.0791
3751.1592         8.7740      9.3993      0.0893
3751.9794         8.7604      9.4070      0.0857
3752.7996         8.7559      9.4147      0.0787
3753.6198         8.7275      9.4223      0.0760
3754.4400         8.7178      9.4300      0.0735
3755.2602         8.7171      9.8284      0.0718
3756.0804         8.7178      9.8482      0.0679
3756.9006         8.7186     10.2421      0.0661
3757.7208         8.7194     10.2664      0.0691
3758.5410         8.7202     10.2749      0.0731
3759.3612         8.7210      9.9047      0.0771
3760.1814         8.7219      9.5894      0.0710
3761.0016         8.7227      9.4996      0.0676
3761.8218         8.7235      9.4999      0.0650
3762.6420         8.7244      9.5070      0.0611
3763.4622         8.6883      9.1494      0.0563
3764.2824         8.6864      9.1229      0.0484
3765.1026         8.6866      9.1272      0.0410
3765.9228         8.6872      9.4277      0.0383
3766.7430         8.6880      9.5327      0.0451
3767.5632         8.6888      9.9063      0.0515
3768.3834         8.6896      9.9577      0.0553
3769.2036         8.6904     10.3216      0.0573
3770.0238         8.6913     10.7244      0.0610
3770.8440         8.6921     10.7849      0.0643
3771.6642         8.6929     10.4555      0.0695
3772.4844         8.6938     10.4143      0.0718
3773.3046         8.6629      9.5755      0.0748
3774.1248         8.6579      8.5984      0.0773
3774.9450         8.6563      8.1107      0.0797
3775.7652         8.6567      8.0348      0.0713
3776.5854         8.6574      8.3592      0.0575
3777.4056         8.6582      8.7528      0.0507
3778.2258         8.6357      9.1586      0.0476
3779.0460         8.6249      9.5666      0.0465
3779.8662         8.6212      9.9750      0.0485
3780.6864         8.6215     10.3162      0.0529
3781.5066         8.6220     10.4566      0.0570
3782.3268         8.6226     10.0985      0.0603
3783.1470         8.6235      9.7065      0.0621
3783.9672         8.6522      9.7071      0.0616
3784.7874         8.6636     10.1056      0.0601
3785.6076         8.6659     10.1251      0.0621
3786.4278         8.6672     10.1332      0.0608
3787.2480         8.6681     10.1409      0.0622
3788.0682         8.6690     10.1486      0.0637
3788.8884         8.6698     10.5349      0.0668
3789.7086         8.6707     10.9421      0.0685
3790.5288         8.6715     11.3505      0.0716
3791.3490         8.6723     11.3813      0.0711
3792.1692         8.6732     11.3961      0.0733
3792.9894         8.6740     11.0374      0.0772
3793.8096         8.6748     10.6481      0.0835
3794.6298         8.6757      9.8950      0.0921
3795.4500         8.6765     10.5436      0.0919
3796.2702         8.6773     11.6957      0.0897
3797.0904         8.6782     12.5436      0.0971
3797.9106         8.6790     11.9387      0.1088
3798.7308         8.6798     11.3094      0.1080
3799.5510         8.6807     11.0968      0.0815
3800.3712         8.6815     12.1192      0.0696
3801.1914         8.6823     13.3059      0.0675
3802.0116         8.6831     13.8226      0.0645
3802.8318         8.6840     14.2467      0.0716
3803.6520         8.6848     14.3050      0.0757
3804.4722         8.6856     14.6708      0.0699
3805.2924         8.6865     14.7248      0.0674
3806.1126         8.6873     14.4143      0.0721
3806.9328         8.6881     13.8268      0.0776
3807.7530         8.6890     12.9477      0.0793
3808.5732         8.6898     11.8134      0.0769
3809.3934         8.6906     10.9582      0.0752
3810.2136         8.6915     11.4482      0.0755
3811.0338         8.6923     12.8436      0.0776
3811.8540         8.6931     14.0004      0.0766
3812.6742         8.6940     16.0202      0.0764
3813.4944         8.6948     16.8329      0.0763
3814.3146         8.6956     17.4832      0.0770
3815.1348         8.6965     17.6572      0.0764
3815.9550         8.6973     17.0372      0.0743
3816.7752         8.6981     16.0978      0.0753
3817.5954         8.6990     15.3011      0.0775
3818.4156         8.6998     15.6569      0.0771
3819.2358         8.7006     16.8275      0.0750
3820.0560         8.6678     18.0379      0.0754
3820.8762         8.6629     20.3945      0.0768
3821.6964         8.6631     23.1981      0.0699
3822.5166         8.6636     26.0273      0.0698
3823.3368         8.6643     28.0932      0.0703
3824.1570         8.6651     28.1976      0.0712
3824.9772         8.6659     27.3197      0.0706
3825.7974         8.6667     26.3169      0.0712
3826.6176         8.6675     24.7762      0.0720
3827.4378         8.6684     22.1106      0.0743
3828.2580         8.6692     20.1430      0.0796
3829.0782         8.6700     18.4290      0.0782
3829.8984         8.6709     18.2314      0.0770
3830.7186         8.6468     19.9739      0.0791
3831.5388         8.6337     21.2535      0.0807
3832.3590         8.6330     21.4252      0.0838
