~VERSION INFORMATION
 VERS.                 2.0:   CWLS LOG ASCII STANDARD -VERSION 2.0
 WRAP.                  NO:   ONE LINE PER DEPTH STEP
~WELL INFORMATION BLOCK
#MNEM.UNIT           DATA                    DESCRIPTION OF MNEMONIC
#---------    -------------------            -------------------------------
# Generated from Intellog Unique Number	CW_82_90/WELL/1031
WELL.         13-22-083-22W4                 : Well_name    - WELL
LOC .         13-22-083-22W4                 : Location     - LOCATION
UWI .         00/13-22-083-22W4/0            : Uwi          - UNIQUE WELL ID
ENTR.         JAYE                           : Entered      - ENTERED BY
SRVC.         SCHLUMBERGER                   : Scn          - SERVICE COMPANY
DATE.         16 FEB 86                      : Date         - LOG DATE
STRT.M        210                            : top_depth    - START DEPTH
STOP.M        441                            : bot_depth    - STOP DEPTH
STEP.M        0.25                           : increment    - STEP LENGTH
 NULL. -999.2500:NULL Value
~CURVE INFORMATION BLOCK
#MNEM UNIT       ERCB CURVE CODE    CURVE DESCRIPTION
#-----------   ------------------   ----------------------------------
DEPT.M        00 001 00 00         : DEPTH        - DEPTH
CALI.MM       00 280 01 00         : CAL          - CALIPER
GR  .API      00 310 00 00         : GR           - GAMMA RAY
NPHI.V/V      00 330 00 00         : PHIN         - NEUTRON POROSITY (SANDSTONE)
DPHI.V/V      00 890 00 00         : PHID         - DENSITY POROSITY (SANDSTONE)
ILD .OHMM     00 120 00 00         : RESD         - DEEP RESISTIVITY (DIL)
~PARAMETER INFORMATION
#MNEM.UNIT           DATA             DESCRIPTION OF MNEMONIC
#---------         -----------     ------------------------------
GL  .M        607.4                : gl           - GROUND LEVEL ELEVATION
EREF.M        611                  : kb           - ELEVATION OF DEPTH REFERENCE
DATM.M        607.4                : datum        - DATUM ELEVATION
TDD .M        442                  : tdd          - TOTAL DEPTH DRILLER
RUN .         ONE                  : Run          - RUN NUMBER
ENG .         NAGY                 : Engineer     - RECORDING ENGINEER
WIT .         KOSS                 : Witness      - WITNESSED BY
BASE.         S.L.                 : Branch       - HOME BASE OF LOGGING UNIT
MUD .         GEL CHEM             : Mud_type     - MUD TYPE
MATR.         SANDSTONE            : Logunit      - NEUTRON MATRIX
TMAX.C        20                   : BHT          - MAXIMUM RECORDED TEMPERATURE
BHTD.M        442                  : BHTDEP       - MAXIMUM RECORDED TEMPERATURE
RMT .C        12                   : MDTP         - TEMPERATURE OF MUD
MUDD.KG/M     1125                 : MWT          - MUD DENSITY
NEUT.         1                    : NEUTRON      - NEUTRON TYPE
RESI.         0                    : RESIST       - RESISTIVITY TYPE
RM  .OHMM     5.87                 : RM           - RESISTIVITY OF MUD
RMC .OHMM     0                    : RMC          - RESISTIVITY OF MUD CAKE
RMF .OHMM     5.23                 : RMF          - RESISTIVITY OF MUD FILTRATE
SUFT.C        0                    : SUFT         - SURFACE TEMPERATURE
~A  DEPTH      CAL       GR     PHIN     PHID     RESD
# ...
  392.500  256.573   85.490    0.456    0.206   10.742
  392.750  254.368   85.791    0.433    0.187   10.849
  393.000  253.727   83.843    0.419    0.143   11.184
  393.250  255.475   83.083    0.418    0.177   11.401
  393.500  256.813   84.633    0.423    0.184   11.407
  393.750  258.356   85.934    0.406    0.176   11.330
  394.000  259.482   86.672    0.380    0.170   11.108
  394.250  260.918   85.911    0.384    0.188   10.826
  394.500  262.359   87.900    0.397    0.198   10.340
  394.750  263.904   90.949    0.400    0.205    9.986
  395.000  270.549   90.939    0.412    0.213    9.556
  395.250  275.735   89.741    0.407    0.220    9.195
  395.500  276.862   90.167    0.415    0.221    8.929
  395.750  270.805   89.717    0.443    0.210    9.309
  396.000  262.977   86.395    0.451    0.178    9.941
  396.250  256.294   83.824    0.408    0.115   10.116
  396.500  255.651   94.495    0.406    0.128    9.679
  396.750  255.530  102.042    0.419    0.190    9.209
  397.000  255.298  103.218    0.425    0.199    8.411
  397.250  255.489  103.081    0.413    0.195    7.712
  397.500  255.471  101.946    0.402    0.198    7.516
  397.750  255.347  103.621    0.400    0.198    7.179
  398.000  255.433  106.046    0.405    0.195    6.985
  398.250  255.210  108.472    0.403    0.197    6.846
  398.500  255.086  110.960    0.396    0.197    6.736
  398.750  254.546  110.760    0.393    0.190    7.050
  399.000  254.425  106.628    0.419    0.181    8.111
  399.250  254.302   90.810    0.419    0.082    9.725
  399.500  253.970   91.924    0.369    0.052   11.127
  399.750  253.219   94.787    0.326    0.075   11.887
  400.000  252.276   95.580    0.355    0.180   11.408
  400.250  249.543  100.716    0.392    0.197   10.378
  400.500  248.470  100.696    0.399    0.196    9.442
  400.750  249.680   99.679    0.407    0.186    9.412
  401.000  251.506   94.134    0.409    0.180    9.664
  401.250  249.918   86.287    0.395    0.183    9.832
  401.500  247.913   82.605    0.382    0.181    9.835
  401.750  250.153   80.782    0.387    0.177    9.410
  402.000  250.126   84.610    0.392    0.173    8.387
  402.250  251.749   91.052    0.397    0.177    7.517
  402.500  252.852   98.735    0.453    0.184    6.219
  402.750  252.199   99.895    0.487    0.187    5.895
  403.000  251.953   95.212    0.482    0.191    5.844
  403.250  252.848   91.034    0.433    0.190    5.988
  403.500  253.125   85.051    0.364    0.182    7.085
  403.750  252.365   80.870    0.334    0.157   10.022
  404.000  252.225   77.063    0.306    0.092   11.359
  404.250  252.498   76.484    0.348    0.098   12.107
  404.500  252.987   82.428    0.398    0.145   10.691
  404.750  253.156  100.108    0.433    0.170    9.301
  405.000  253.222  104.309    0.448    0.189    8.849
  405.250  253.082  102.614    0.417    0.204    9.361
  405.500  252.843   96.010    0.397    0.217   10.089
  405.750  252.812   81.891    0.384    0.231   12.884
  406.000  252.150   76.470    0.372    0.246   15.673
  406.250  252.014   66.014    0.365    0.258   18.890
  406.500  250.939   68.044    0.363    0.261   23.544
  406.750  249.870   66.908    0.415    0.272   27.800
  407.000  247.236   63.284    0.426    0.304   28.814
  407.250  245.952   58.296    0.419    0.315   28.775
  407.500  246.335   59.081    0.418    0.317   27.993
  407.750  248.467   60.368    0.429    0.314   26.582
  408.000  249.589   61.715    0.442    0.309   24.319
  408.250  251.413   67.656    0.445    0.291   23.659
  408.500  250.971   72.417    0.437    0.273   26.125
  408.750  248.234   75.686    0.422    0.264   35.475
  409.000  246.845   78.155    0.421    0.266   36.289
  409.250  246.703   86.953    0.425    0.278   35.374
  409.500  246.990   93.081    0.416    0.284   32.785
  409.750  247.368   92.873    0.393    0.290   29.993
  410.000  248.575   79.563    0.387    0.252   23.466
  410.250  250.412   71.781    0.383    0.248   16.327
  410.500  251.621   68.219    0.378    0.234   13.813
  410.750  251.377   70.124    0.410    0.199   11.364
  411.000  250.926   68.119    0.416    0.211   10.534
  411.250  250.577   68.843    0.399    0.232   10.938
  411.500  249.298   68.327    0.403    0.225   12.100
  411.750  248.331   64.458    0.388    0.212   12.518
  412.000  249.019   56.364    0.364    0.220   10.972
  412.250  250.442   57.273    0.370    0.224   10.635
  412.500  251.542   64.894    0.396    0.217    9.949
  412.750  251.613   78.228    0.409    0.199    9.052
  413.000  251.877   82.366    0.419    0.182    8.839
  413.250  252.166   79.242    0.405    0.152    9.077
  413.500  252.531   73.262    0.305    0.140    9.602
  413.750  252.807   60.446    0.293    0.142   10.083
  414.000  252.782   85.456    0.347    0.189    9.828
  414.250  252.231   91.770    0.375    0.190    9.211
  414.500  251.981   93.302    0.420    0.186    8.318
  414.750  252.371   91.978    0.438    0.187    7.553
  415.000  252.326   89.474    0.456    0.234    7.159
  415.250  252.189   87.841    0.474    0.265    6.900
  415.500  251.117   84.839    0.505    0.285    6.840
  415.750  250.259   84.944    0.521    0.304    6.893
  416.000  248.868   87.407    0.526    0.307    7.039
  416.250  249.047   90.618    0.503    0.301    7.043
  416.500  249.012   94.196    0.487    0.269    6.864
  416.750  249.495   94.427    0.495    0.238    6.506
  417.000  251.120   93.971    0.498    0.205    6.282
  417.250  250.660   95.505    0.495    0.163    6.146
  417.500  249.905   93.995    0.492    0.169    6.160
  417.750  247.486   91.489    0.455    0.197    6.338
  418.000  247.241   88.115    0.435    0.221    6.959
  418.250  248.548   87.288    0.459    0.234    7.843
  418.500  249.248   92.797    0.475    0.297    9.074
  418.750  246.092   97.001    0.531    0.402   10.814
  419.000  243.362   91.826    0.596    0.593   13.279
  419.250  242.399   86.713    0.630    0.661   15.623
  419.500  243.395  113.151    0.667    0.687   16.162
  419.750  246.371  174.989    0.521    0.643   15.319
  420.000  249.243  222.356    0.569    0.452   14.252
  420.250  250.447  224.758    0.600    0.347   11.901
  420.500  250.418  211.075    0.612    0.311   11.729
  420.750  249.965  173.356    0.462    0.254   11.670
  421.000  250.137  125.078    0.458    0.206   11.675
  421.250  251.032   92.577    0.458    0.174   11.636
  421.500  251.930   84.854    0.454    0.178   11.112
  421.750  252.108   85.022    0.447    0.184   10.551
  422.000  252.479   86.927    0.434    0.191    9.528
  422.250  252.655  112.247    0.451    0.193    8.914
  422.500  252.816  119.619    0.471    0.201    8.672
  422.750  252.791  118.850    0.436    0.199    8.693
  423.000  253.368  121.687    0.435    0.195    8.826
  423.250  253.140  127.881    0.443    0.190    9.064
  423.500  252.999  116.744    0.439    0.186    9.220
  423.750  253.069  108.401    0.408    0.182    9.557
  424.000  252.202  100.865    0.387    0.181    9.924
  424.250  254.129   92.957    0.369    0.181   10.538
  424.500  256.076   87.783    0.370    0.183   11.148
  424.750  255.729   85.650    0.371    0.183   11.838
  425.000  252.475   86.005    0.363    0.181   12.999
  425.250  251.606   88.035    0.344    0.182   13.932
  425.500  251.371   86.461    0.342    0.193   14.739
  425.750  251.330   80.230    0.362    0.192   15.107
  426.000  251.503   73.810    0.386    0.192   15.170
  426.250  251.468   71.371    0.386    0.206   15.120
  426.500  251.744   66.879    0.384    0.226   14.931
  426.750  251.911   61.517    0.360    0.236   14.717
  427.000  252.089   61.062    0.358    0.237   14.587
  427.250  252.257   61.540    0.361    0.227   14.511
  427.500  252.536   62.511    0.373    0.206   14.329
  427.750  252.915   63.298    0.379    0.200   13.811
  428.000  252.572   66.198    0.379    0.203   13.412
  428.250  251.492   66.927    0.374    0.200   13.169
  428.500  250.429   69.639    0.353    0.196   13.006
  428.750  248.111   76.451    0.346    0.209   13.206
