~VERSION INFORMATION
 VERS.                 2.0:   CWLS LOG ASCII STANDARD -VERSION 2.0
 WRAP.                  NO:   ONE LINE PER DEPTH STEP
~WELL INFORMATION BLOCK
#MNEM.UNIT           DATA                    DESCRIPTION OF MNEMONIC
#---------    -------------------            -------------------------------
# Generated from Intellog Unique Number	CW_82_90/WELL/1030
WELL.         AMOCO BRINTNELL 13-16          : Well_name    - WELL
LOC .         00/13-16-084-23W4/0            : Location     - LOCATION
UWI .         00/13-16-084-23W4/0            : Uwi          - UNIQUE WELL ID
ENTR.         JAYE                           : Entered      - ENTERED BY
SRVC.         SCHLUMBERGER                   : Scn          - SERVICE COMPANY
DATE.         25 FEB 86                      : Date         - LOG DATE
STRT.M        190                            : top_depth    - START DEPTH
STOP.M        410                            : bot_depth    - STOP DEPTH
STEP.M        0.25                           : increment    - STEP LENGTH
 NULL. -999.2500:NULL Value
~CURVE INFORMATION BLOCK
#MNEM UNIT       ERCB CURVE CODE    CURVE DESCRIPTION
#-----------   ------------------   ----------------------------------
DEPT.M        00 001 00 00         : DEPTH        - DEPTH
CALI.MM       00 280 01 00         : CAL          - CALIPER
GR  .API      00 310 00 00         : GR           - GAMMA RAY
NPHI.V/V      00 330 00 00         : PHIN         - NEUTRON POROSITY (SANDSTONE)
DPHI.V/V      00 890 00 00         : PHID         - DENSITY POROSITY (SANDSTONE)
ILD .OHMM     00 120 00 00         : RESD         - DEEP RESISTIVITY (DIL)
~PARAMETER INFORMATION
#MNEM.UNIT           DATA             DESCRIPTION OF MNEMONIC
#---------         -----------     ------------------------------
GL  .M        584.4                : gl           - GROUND LEVEL ELEVATION
EREF.M        588                  : kb           - ELEVATION OF DEPTH REFERENCE
DATM.M        584.4                : datum        - DATUM ELEVATION
TDD .M        413                  : tdd          - TOTAL DEPTH DRILLER
RUN .         ONE                  : Run          - RUN NUMBER
ENG .         VERNER               : Engineer     - RECORDING ENGINEER
WIT .         KOSS                 : Witness      - WITNESSED BY
BASE.         S.L.                 : Branch       - HOME BASE OF LOGGING UNIT
MUD .         GEL CHEM             : Mud_type     - MUD TYPE
MATR.         SANDSTONE            : Logunit      - NEUTRON MATRIX
TMAX.C        20                   : BHT          - MAXIMUM RECORDED TEMPERATURE
BHTD.M        413                  : BHTDEP       - MAXIMUM RECORDED TEMPERATURE
RMT .C        18.3                 : MDTP         - TEMPERATURE OF MUD
MUDD.KG/M     1130                 : MWT          - MUD DENSITY
NEUT.         1                    : NEUTRON      - NEUTRON TYPE
RESI.         0                    : RESIST       - RESISTIVITY TYPE
RM  .OHMM     4.13                 : RM           - RESISTIVITY OF MUD
RMC .OHMM     0                    : RMC          - RESISTIVITY OF MUD CAKE
RMF .OHMM     4.22                 : RMF          - RESISTIVITY OF MUD FILTRATE
SUFT.C        0                    : SUFT         - SURFACE TEMPERATURE
~A  DEPTH      CAL       GR     PHIN     PHID     RESD
# ...
  263.000  247.773   75.924    0.487    0.299    9.416
  263.250  248.744   79.512    0.505    0.305    9.271
  263.500  248.769   79.968    0.489    0.307    9.244
  263.750  248.694   78.669    0.478    0.289    9.136
  264.000  248.616   76.992    0.479    0.288    9.179
  264.250  248.854   75.000    0.471    0.293    8.971
  264.500  248.671   74.394    0.468    0.313    8.572
  264.750  248.699   76.165    0.474    0.303    8.178
  265.000  247.889   76.683    0.483    0.292    7.769
  265.250  245.827   75.882    0.472    0.279    7.101
  265.500  243.241   75.967    0.487    0.276    6.548
  265.750  241.388   78.991    0.507    0.269    5.280
  266.000  240.581   84.274    0.499    0.271    4.692
  266.250  240.091   88.931    0.495    0.281    4.508
  266.500  239.698   89.076    0.480    0.294    4.599
  266.750  239.620   87.083    0.453    0.308    4.790
  267.000  239.647   82.649    0.459    0.305    4.939
  267.250  240.199   77.835    0.506    0.294    5.339
  267.500  241.168   73.462    0.501    0.294    5.675
  267.750  242.244   74.423    0.499    0.304    5.906
  268.000  242.789   74.875    0.503    0.307    6.326
  268.250  244.077   75.584    0.495    0.313    6.648
  268.500  244.937   75.787    0.480    0.318    7.052
  268.750  246.218   74.987    0.464    0.322    7.611
  269.000  247.082   71.304    0.465    0.310    7.788
  269.250  247.634   67.621    0.478    0.287    8.003
  269.500  247.976   65.505    0.490    0.259    7.691
  269.750  247.792   66.407    0.490    0.266    7.054
  270.000  247.818   67.607    0.481    0.278    6.729
  270.250  247.852   79.978    0.492    0.293    6.901
  270.500  247.772   82.447    0.466    0.233    7.501
  270.750  247.799   81.391    0.395    0.189    8.198
  271.000  247.307   67.926    0.356    0.155    8.631
  271.250  246.807   63.991    0.393    0.139    8.939
  271.500  245.373   63.317    0.438    0.195    9.084
  271.750  244.253   64.467    0.464    0.267    9.511
  272.000  243.026   66.677    0.484    0.256    9.920
  272.250  241.699   71.397    0.502    0.232    9.623
  272.500  240.680   81.070    0.520    0.242    8.598
  272.750  240.080   85.978    0.508    0.246    7.049
  273.000  239.791   85.744    0.481    0.251    5.549
  273.250  239.616   84.695    0.462    0.260    4.839
  273.500  239.848   88.289    0.498    0.271    4.413
  273.750  240.295   88.931    0.518    0.283    4.265
  274.000  240.635   87.504    0.517    0.286    4.310
  274.250  241.392   83.320    0.509    0.294    4.799
  274.500  242.048   79.133    0.507    0.298    5.620
  274.750  242.286   73.319    0.498    0.304    6.424
  275.000  242.420   68.067    0.479    0.305    7.008
  275.250  244.013   67.080    0.483    0.304    7.534
  275.500  244.564   69.606    0.446    0.303    7.442
  275.750  244.380   73.448    0.460    0.298    6.149
  276.000  243.994   78.293    0.482    0.295    4.715
  276.250  243.498   80.633    0.558    0.316    4.035
  276.500  242.583   78.828    0.511    0.319    4.345
  276.750  241.151   70.001    0.467    0.335    5.262
  277.000  239.609   63.496    0.459    0.345    6.677
  277.250  238.593   55.423    0.466    0.347    9.011
  277.500  238.618   53.372    0.474    0.350   10.204
  277.750  238.439   53.830    0.465    0.362   11.491
  278.000  238.255   55.225    0.451    0.366   11.677
  278.250  237.763   55.866    0.466    0.367   11.585
  278.500  237.580   55.193    0.481    0.368   11.424
  278.750  236.876   53.017    0.481    0.356   10.696
  279.000  236.172   54.162    0.500    0.330   10.013
  279.250  235.679   54.930    0.517    0.309    9.768
  279.500  235.703   51.873    0.484    0.326    9.962
  279.750  236.579   52.643    0.451    0.344   10.315
  280.000  237.434   55.544    0.438    0.356   10.250
  280.250  238.610   62.085    0.448    0.353    9.832
  280.500  240.414   68.120    0.460    0.328    9.203
  280.750  242.846   76.665    0.464    0.307    7.366
  281.000  245.700   81.327    0.474    0.293    5.564
  281.250  247.606   82.155    0.486    0.272    4.149
  281.500  248.997   85.056    0.519    0.262    3.870
  281.750  250.796   84.949    0.519    0.262    3.746
  282.000  251.663   83.522    0.482    0.252    3.800
  282.250  252.842   82.346    0.452    0.232    4.392
  282.500  253.388   79.102    0.438    0.232    5.409
  282.750  254.358   81.439    0.480    0.236    5.901
  283.000  255.327   82.398    0.483    0.238    6.168
  283.250  255.040   81.224    0.471    0.237    6.176
  283.500  253.501   79.984    0.473    0.229    5.990
  283.750  251.854   78.809    0.491    0.231    5.534
  284.000  251.255   77.259    0.509    0.236    5.038
  284.250  250.550   77.089    0.504    0.239    4.869
  284.500  251.834   78.233    0.490    0.242    4.820
  284.750  253.429   80.759    0.476    0.238    4.863
  285.000  254.085   82.655    0.477    0.230    4.950
  285.250  254.530   82.296    0.472    0.230    5.339
  285.500  254.036   85.324    0.492    0.230    6.480
  285.750  253.017   87.037    0.496    0.228    8.085
  286.000  250.434   85.105    0.474    0.216    9.755
  286.250  249.414   72.837    0.343    0.110   10.962
  286.500  248.922   73.474    0.311    0.111   12.814
  286.750  248.430   75.936    0.321    0.124   12.616
  287.000  248.139   78.398    0.356    0.169   11.420
  287.250  247.853   78.291    0.466    0.195    9.612
  287.500  247.149   72.788    0.468    0.217    7.809
  287.750  246.340   70.424    0.436    0.178   11.525
  288.000  243.755   70.188    0.271    0.009   15.848
  288.250  242.006   69.890    0.251    0.019   20.374
  288.500  240.574   66.647    0.255    0.041   21.981
  288.750  239.870   64.530    0.279    0.065   21.436
  289.000  240.209   67.118    0.368    0.165   19.082
  289.250  241.596   70.962    0.474    0.278   15.416
  289.500  243.087   73.992    0.474    0.261   12.338
  289.750  244.264   76.388    0.453    0.249    9.372
  290.000  245.028   80.233    0.436    0.243    6.377
  290.250  244.007   82.629    0.424    0.248    5.448
  290.500  244.666   85.719    0.449    0.251    4.969
  290.750  246.152   85.171    0.454    0.253    4.626
  291.000  247.645   75.655    0.444    0.266    4.487
  291.250  246.941   68.710    0.433    0.279    5.055
  291.500  240.903   62.833    0.424    0.301    8.309
  291.750  239.471   59.715    0.481    0.304   10.368
  292.000  239.497   60.608    0.469    0.301   11.895
  292.250  239.527   63.513    0.458    0.296   13.699
  292.500  239.554   65.285    0.450    0.302   14.949
  292.750  239.897   65.801    0.441    0.312   15.335
  293.000  239.927   65.817    0.430    0.311   15.319
  293.250  240.056   65.833    0.451    0.306   14.974
  293.500  240.086   62.778    0.459    0.298   14.657
  293.750  240.007   59.848    0.454    0.297   14.431
  294.000  239.825   60.302    0.450    0.293   14.261
  294.250  239.641   62.202    0.457    0.287   14.249
  294.500  239.669   61.715    0.455    0.277   14.135
  294.750  239.284   59.599    0.459    0.281   13.815
  295.000  239.413   58.111    0.466    0.277   13.497
  295.250  239.441   58.818    0.463    0.281   13.216
  295.500  239.365   61.093    0.469    0.291   13.134
  295.750  239.390   63.303    0.464    0.291   13.204
  296.000  238.896   64.826    0.453    0.293   13.341
  296.250  238.401   62.459    0.431    0.286   13.862
  296.500  240.520   58.652    0.397    0.254   14.951
  296.750  240.651   57.791    0.359    0.128   15.539
  297.000  239.843   58.498    0.368    0.182   15.305
  297.250  237.152   60.519    0.424    0.276   14.870
  297.500  228.504   67.246    0.454    0.283   13.813
  297.750  228.953   75.038    0.467    0.262   11.542
  298.000  231.384   85.654    0.474    0.253   10.331
  298.250  234.545   87.052    0.466    0.251    9.853
  298.500  238.130   80.296    0.437    0.244    9.628
  298.750  240.037   80.438    0.430    0.231    9.551
  299.000  241.637   81.397    0.432    0.229    9.582
  299.250  242.393   82.038    0.433    0.233    9.682
