~VERSION INFORMATION
 VERS.                 2.0:   CWLS LOG ASCII STANDARD -VERSION 2.0
 WRAP.                  NO:   ONE LINE PER DEPTH STEP
~WELL INFORMATION BLOCK
#MNEM.UNIT           DATA                    DESCRIPTION OF MNEMONIC
#---------    -------------------            -------------------------------
# Generated from Intellog Unique Number	CX_WELLS/WELL/2324
WELL.         11-36-088-18W4                 : Well_name    - WELL
LOC .         00/11-36-088-18W4/0            : Location     - LOCATION
UWI .         00/11-36-088-18W400            : Uwi          - UNIQUE WELL ID
ENTR.         DW                             : Entered      - ENTERED BY
SRVC.         SCHLUMBERGER                   : Scn          - SERVICE COMPANY
STRT.M        77                             : top_depth    - START DEPTH
STOP.M        197                            : bot_depth    - STOP DEPTH
STEP.M        0.25                           : increment    - STEP LENGTH
 NULL. -999.2500:NULL Value
~CURVE INFORMATION BLOCK
#MNEM UNIT       ERCB CURVE CODE    CURVE DESCRIPTION
#-----------   ------------------   ----------------------------------
DEPT.M        00 001 00 00         : DEPTH        - DEPTH
GR  .API      00 310 00 00         : GR           - GAMMA RAY
NPHI.V/V      00 330 00 00         : PHIN         - NEUTRON POROSITY (SANDSTONE)
DPHI.V/V      00 890 00 00         : PHID         - DENSITY POROSITY (SANDSTONE)
ILD .OHMM     00 120 00 00         : RESD         - DEEP RESISTIVITY (DIL)
~PARAMETER INFORMATION
#MNEM.UNIT           DATA             DESCRIPTION OF MNEMONIC
#---------         -----------     ------------------------------
GL  .M        484.3                : gl           - GROUND LEVEL ELEVATION
EREF.M        487.2                : kb           - ELEVATION OF DEPTH REFERENCE
DATM.M        487.2                : datum        - DATUM ELEVATION
TDD .M        196                  : tdd          - TOTAL DEPTH DRILLER
RUN .         ONE                  : Run          - RUN NUMBER
ENG .         BILL                 : Engineer     - RECORDING ENGINEER
WIT .         JIM                  : Witness      - WITNESSED BY
MUD .         GEL                  : Mud_type     - MUD TYPE
MATR.         SANDSTONE            : Logunit      - NEUTRON MATRIX
TMAX.C        25                   : BHT          - MAXIMUM RECORDED TEMPERATURE
BHTD.M        197                  : BHTDEP       - MAXIMUM RECORDED TEMPERATURE
MATR.         1                    : LOGUNIT      - NEUTRON MATRIX
RMT .C        25                   : MDTP         - TEMPERATURE OF MUD
NEUT.         1                    : NEUTRON      - NEUTRON TYPE
RESI.         0                    : RESIST       - RESISTIVITY TYPE
RMC .OHMM     0.25                 : RMC          - RESISTIVITY OF MUD CAKE
RMF .OHMM     0.25                 : RMF          - RESISTIVITY OF MUD FILTRATE
SUFT.C        15                   : SUFT         - SURFACE TEMPERATURE
~A  DEPTH       GR     PHIN     PHID     RESD
   77.000  114.318    0.531    0.179    7.386
   77.250  112.564    0.522    0.192    7.414
   77.500  110.202    0.534    0.220    7.036
   77.750  109.680    0.561    0.234    6.312
   78.000  109.714    0.551    0.233    5.563
   78.250  110.390    0.559    0.226    5.178
   78.500  109.868    0.570    0.234    4.487
   78.750  106.899    0.582    0.249    4.255
   79.000  105.145    0.592    0.257    4.110
   79.250  105.196    0.590    0.262    3.835
   79.500  106.496    0.585    0.272    3.704
   79.750  106.548    0.582    0.280    3.580
   80.000  107.223    0.586    0.288    3.461
   80.250  106.701    0.591    0.286    3.343
   80.500  106.162    0.596    0.278    3.232
   80.750  105.623    0.597    0.282    3.182
   81.000  103.261    0.593    0.281    3.078
   81.250  104.545    0.585    0.271    3.090
   81.500  106.435    0.584    0.269    3.038
   81.750  107.128    0.588    0.269    2.994
   82.000  105.981    0.585    0.274    3.003
   82.250  103.620    0.580    0.281    2.957
   82.500  101.258    0.581    0.288    2.966
   82.750  100.685    0.579    0.283    2.973
   83.000   99.556    0.576    0.283    2.982
   83.250   97.802    0.571    0.287    2.994
   83.500   97.262    0.564    0.290    3.003
   83.750   98.546    0.553    0.281    3.010
   84.000   99.221    0.543    0.274    3.019
   84.250   98.699    0.539    0.275    3.028
   84.500   98.767    0.542    0.279    3.094
   84.750   98.836    0.548    0.274    3.164
   85.000   99.494    0.559    0.270    3.173
   85.250   99.580    0.565    0.268    3.303
   85.500  100.238    0.563    0.267    3.375
   85.750   96.055    0.544    0.265    3.647
   86.000   88.834    0.516    0.262    4.013
   86.250   82.220    0.499    0.251    4.666
   86.500   76.804    0.493    0.234    5.951
   86.750   72.013    0.487    0.212    7.596
   87.000   66.632    0.466    0.131    9.005
   87.250   67.290    0.454    0.105    9.373
   87.500   78.917    0.458    0.172    9.394
   87.750   82.040    0.468    0.230    9.621
   88.000   80.893    0.482    0.239    9.998
   88.250   79.729    0.492    0.239   10.815
   88.500   77.385    0.491    0.238   11.033
   88.750   76.829    0.470    0.237   11.698
   89.000   77.504    0.471    0.242   12.175
   89.250   79.429    0.471    0.252   12.918
   89.500   80.678    0.466    0.252   12.958
   89.750   81.354    0.463    0.244   12.062
   90.000   80.815    0.466    0.232   10.253
   90.250   74.826    0.478    0.222    9.552
   90.500   69.427    0.490    0.226    9.588
   90.750   66.441    0.493    0.230    9.964
   91.000   62.257    0.478    0.236   10.565
   91.250   59.896    0.473    0.243   12.757
   91.500   59.374    0.471    0.253   14.835
   91.750   58.817    0.463    0.266   18.589
   92.000   58.886    0.457    0.276   20.076
   92.250   58.954    0.450    0.280   20.513
   92.500   59.056    0.453    0.279   20.199
   92.750   59.698    0.456    0.275   20.276
   93.000   60.998    0.458    0.268   20.338
   93.250   61.674    0.463    0.260   20.765
   93.500   61.725    0.467    0.250   21.645
   93.750   61.793    0.465    0.248   22.100
   94.000   59.466    0.452    0.261   23.037
   94.250   58.285    0.434    0.268   23.072
   94.500   56.531    0.430    0.263   23.160
   94.750   56.600    0.436    0.252   22.788
   95.000   61.544    0.446    0.235   22.029
   95.250   67.080    0.425    0.220   20.521
   95.500   73.239    0.425    0.229   18.424
   95.750   76.935    0.430    0.223   16.541
   96.000   80.665    0.433    0.206   14.567
   96.250   84.395    0.487    0.201   10.097
   96.500   86.910    0.503    0.202    8.569
   96.750   88.159    0.501    0.228    6.515
   97.000   90.674    0.487    0.241    4.949
   97.250   92.565    0.488    0.254    4.703
   97.500   94.456    0.498    0.253    4.714
   97.750   95.148    0.521    0.246    4.638
   98.000   95.824    0.524    0.242    4.574
   98.250   96.500    0.523    0.232    4.581
   98.500   96.568    0.520    0.230    4.768
   98.750   95.421    0.522    0.235    5.063
   99.000   94.258    0.525    0.244    5.364
   99.250   92.521    0.521    0.257    6.133
   99.500   91.982    0.515    0.260    6.492
   99.750   88.996    0.498    0.248    7.143
  100.000   82.990    0.481    0.250    8.800
  100.250   79.413    0.479    0.256    9.674
  100.500   73.998    0.472    0.266   10.841
  100.750   69.223    0.466    0.276   11.917
  101.000   68.077    0.465    0.271   13.615
  101.250   68.752    0.469    0.262   14.704
  101.500   71.251    0.464    0.261   15.881
  101.750   74.981    0.463    0.251   16.837
  102.000   76.871    0.466    0.240   16.579
  102.250   78.154    0.468    0.231   15.174
  102.500   78.830    0.462    0.232   13.613
  102.750   79.523    0.455    0.232   11.778
  103.000   79.557    0.456    0.232    9.641
  103.250   77.803    0.458    0.237    8.032
  103.500   71.797    0.475    0.244    8.367
  103.750   65.183    0.500    0.251    9.911
  104.000   59.785    0.505    0.263   12.409
  104.250   59.280    0.494    0.277   14.985
  104.500   59.921    0.488    0.289   15.596
  104.750   62.419    0.478    0.297   15.644
  105.000   65.525    0.469    0.294   14.574
  105.250   68.630    0.481    0.286   12.369
  105.500   71.753    0.492    0.280    9.939
  105.750   73.643    0.486    0.270    7.993
  106.000   74.336    0.478    0.265    8.011
  106.250   74.404    0.475    0.259    8.345
  106.500   74.473    0.485    0.249    8.520
  106.750   74.541    0.502    0.239    9.033
  107.000   74.002    0.479    0.228   10.504
  107.250   72.248    0.472    0.213   13.407
  107.500   69.869    0.464    0.212   15.591
  107.750   68.115    0.448    0.193   18.144
  108.000   72.436    0.417    0.158   18.567
  108.250   76.148    0.384    0.140   17.593
  108.500   81.701    0.379    0.161   15.794
  108.750   85.431    0.453    0.194   13.655
  109.000   82.462    0.459    0.209    9.656
  109.250   79.493    0.457    0.227   10.623
  109.500   75.916    0.453    0.183   11.254
  109.750   73.555    0.445    0.166   12.155
  110.000   71.801    0.429    0.173   12.192
  110.250   70.654    0.423    0.183   12.229
  110.500   70.706    0.425    0.199   12.033
  110.750   70.791    0.436    0.215   12.295
  111.000   71.450    0.447    0.253   12.351
  111.250   72.750    0.448    0.245   11.921
  111.500   73.408    0.450    0.234    9.940
  111.750   76.514    0.453    0.222    6.282
  112.000   85.711    0.459    0.229    5.740
  112.250   93.068    0.469    0.241    5.158
  112.500   98.604    0.480    0.222    4.982
  112.750  104.156    0.488    0.208    4.823
  113.000  106.654    0.513    0.211    4.742
  113.250  106.722    0.515    0.215    4.584
  113.500  106.183    0.498    0.219    4.438
  113.750  105.036    0.512    0.222    4.367
  114.000  102.085    0.542    0.212    4.380
  114.250  100.921    0.549    0.188    4.562
  114.500  100.382    0.555    0.171    4.654
  114.750   96.805    0.557    0.171    4.935
  115.000   91.407    0.548    0.186    5.429
  115.250   86.633    0.534    0.200    6.318
  115.500   84.237    0.505    0.219    7.910
  115.750   77.016    0.475    0.230   10.477
  116.000   70.403    0.464    0.251   13.622
  116.250   66.236    0.454    0.266   16.437
  116.500   63.857    0.447    0.269   19.849
  116.750   61.496    0.435    0.240   20.659
  117.000   59.742    0.377    0.220   19.986
  117.250   58.595    0.330    0.143   19.320
  117.500   59.288    0.316    0.167   17.998
  117.750   60.554    0.336    0.195   16.146
  118.000   64.874    0.395    0.217   13.452
  118.250   72.232    0.387    0.193   11.435
  118.500   83.859    0.399    0.187   11.268
  118.750   90.609    0.406    0.209   11.294
  119.000   85.210    0.425    0.216   11.755
  119.250   74.952    0.435    0.211   12.011
  119.500   69.553    0.433    0.214   12.492
  119.750   67.192    0.428    0.213   13.254
  120.000   66.653    0.422    0.158   13.532
  120.250   78.870    0.410    0.123   13.837
