~VERSION INFORMATION
 VERS.                 2.0:   CWLS LOG ASCII STANDARD -VERSION 2.0
 WRAP.                  NO:   ONE LINE PER DEPTH STEP
~WELL INFORMATION BLOCK
#MNEM.UNIT           DATA                    DESCRIPTION OF MNEMONIC
#---------    -------------------            -------------------------------
# Generated from Intellog Unique Number	CS_77_79/WELL/957
WELL.         MESA HB LEISMER                : Well_name    - WELL
LOC .         00/10-18-078-10W4/0            : Location     - LOCATION
UWI .         00/10-18-078-10W4/0            : Uwi          - UNIQUE WELL ID
ENTR.         JHS                            : Entered      - ENTERED BY
SRVC.         SCHLUMBERGER                   : Scn          - SERVICE COMPANY
STRT.M        243.84                         : top_depth    - START DEPTH
STOP.M        475.34                         : bot_depth    - STOP DEPTH
STEP.M        0.25                           : increment    - STEP LENGTH
 NULL. -999.2500:NULL Value
~CURVE INFORMATION BLOCK
#MNEM UNIT       ERCB CURVE CODE    CURVE DESCRIPTION
#-----------   ------------------   ----------------------------------
DEPT.M        00 001 00 00         : DEPTH        - DEPTH
RHOB.KG/M3    00 350 00 00         : DENS         - BULK DENSITY
GR  .API      00 310 00 00         : GR           - GAMMA RAY
DPHI.V/V      00 890 00 00         : PHID         - DENSITY POROSITY (SANDSTONE)
NPHI.V/V      00 330 00 00         : PHIN         - NEUTRON POROSITY (SANDSTONE)
ILD .OHMM     00 120 00 00         : RESD         - DEEP RESISTIVITY (DIL)
~PARAMETER INFORMATION
#MNEM.UNIT           DATA             DESCRIPTION OF MNEMONIC
#---------         -----------     ------------------------------
GL  .M        662.33               : gl           - GROUND LEVEL ELEVATION
EREF.M        666.293              : kb           - ELEVATION OF DEPTH REFERENCE
DATM.M        666.293              : datum        - DATUM ELEVATION
TDD .M        487.68               : tdd          - TOTAL DEPTH DRILLER
RUN .         ONE                  : Run          - RUN NUMBER
ENG .         BILL                 : Engineer     - RECORDING ENGINEER
WIT .         JIM                  : Witness      - WITNESSED BY
MUD .         GEL                  : Mud_type     - MUD TYPE
MATR.         SANDSTONE            : Logunit      - NEUTRON MATRIX
TMAX.C        22.2222              : BHT          - MAXIMUM RECORDED TEMPERATURE
BHTD.M        487.68               : BHTDEP       - MAXIMUM RECORDED TEMPERATURE
MATR.         1                    : LOGUNIT      - NEUTRON MATRIX
RMT .C        25                   : MDTP         - TEMPERATURE OF MUD
NEUT.         1                    : NEUTRON      - NEUTRON TYPE
RESI.         0                    : RESIST       - RESISTIVITY TYPE
RMC .OHMM     0.25                 : RMC          - RESISTIVITY OF MUD CAKE
RMF .OHMM     0.25                 : RMF          - RESISTIVITY OF MUD FILTRATE
SUFT.C        15                   : SUFT         - SURFACE TEMPERATURE
~A  DEPTH     DENS       GR     PHID     PHIN     RESD
# ...
  280.340    0.000   91.068    0.327    0.422   13.322
  280.590    0.000  100.619    0.305    0.408   12.010
  280.840    0.000  106.143    0.300    0.406   10.259
  281.090    0.000  110.079    0.279    0.415    9.381
  281.340    0.000  116.416    0.255    0.422    8.175
  281.590    0.000  125.001    0.232    0.435    7.103
  281.840    0.000  132.499    0.219    0.461    6.347
  282.090    0.000  134.766    0.207    0.476    6.222
  282.340    0.000  131.918    0.199    0.474    6.363
  282.590    0.000  131.307    0.203    0.466    7.174
  282.840    0.000  128.692    0.222    0.457    7.981
  283.090    0.000  118.536    0.256    0.449    9.351
  283.340    0.000  114.861    0.278    0.447   10.174
  283.590    0.000  113.998    0.284    0.447   11.371
  283.840    0.000  109.188    0.288    0.448   12.144
  284.090    0.000  102.608    0.300    0.418   12.084
  284.340    0.000   98.014    0.316    0.414   11.777
  284.590    0.000   98.998    0.325    0.422   10.902
  284.840    0.000  105.351    0.310    0.435    9.882
  285.090    0.000  110.848    0.271    0.436    9.469
  285.340    0.000  112.743    0.242    0.422    9.364
  285.590    0.000  109.676    0.258    0.414    9.519
  285.840    0.000  100.712    0.269    0.400   10.096
  286.090    0.000   89.577    0.261    0.408   10.991
  286.340    0.000   76.550    0.274    0.428   12.050
  286.590    0.000   70.633    0.307    0.451   12.864
  286.840    0.000   74.162    0.323    0.420   13.084
  287.090    0.000   71.651    0.312    0.429   13.297
  287.340    0.000   76.455    0.279    0.410   13.589
  287.590    0.000   79.483    0.253    0.394   13.565
  287.840    0.000   81.224    0.253    0.388   14.195
  288.090    0.000   80.965    0.278    0.413   14.761
  288.340    0.000   80.547    0.292    0.427   15.715
  288.590    0.000   80.915    0.305    0.422   16.543
  288.840    0.000   82.190    0.304    0.416   16.551
  289.090    0.000   84.574    0.300    0.434   16.078
  289.340    0.000   88.493    0.302    0.454   15.001
  289.590    0.000   87.064    0.302    0.450   13.931
  289.840    0.000   89.902    0.299    0.440   12.528
  290.090    0.000   92.310    0.290    0.428   11.421
  290.340    0.000   96.358    0.274    0.437   10.428
  290.590    0.000   97.078    0.247    0.481    9.950
  290.840    0.000   95.152    0.259    0.464    9.984
  291.090    0.000   93.170    0.280    0.457   10.305
  291.340    0.000   93.025    0.281    0.463   10.826
  291.590    0.000   96.590    0.276    0.483   11.105
  291.840    0.000   99.820    0.275    0.476   11.088
  292.090    0.000   97.936    0.269    0.461   11.108
  292.340    0.000   95.370    0.274    0.461   10.850
  292.590    0.000   94.376    0.282    0.476   10.334
  292.840    0.000   96.197    0.254    0.488   10.216
  293.090    0.000   97.957    0.258    0.468   10.121
  293.340    0.000   95.785    0.275    0.461   10.115
  293.590    0.000   93.261    0.280    0.470   10.101
  293.840    0.000   86.751    0.266    0.466   10.316
  294.090    0.000   83.599    0.268    0.452   10.327
  294.340    0.000   93.440    0.293    0.445   10.112
  294.590    0.000   93.170    0.295    0.462    9.940
  294.840    0.000   96.546    0.290    0.457    9.694
  295.090    0.000  101.492    0.278    0.451    8.746
  295.340    0.000  102.272    0.271    0.448    7.868
  295.590    0.000  100.864    0.278    0.459    7.235
  295.840    0.000  101.857    0.259    0.464    6.994
  296.090    0.000  105.449    0.220    0.464    7.003
  296.340    0.000  106.527    0.208    0.473    7.387
  296.590    0.000  102.022    0.240    0.462    8.012
  296.840    0.000   98.188    0.297    0.442    8.783
  297.090    0.000   94.195    0.293    0.427    9.521
  297.340    0.000   94.450    0.287    0.426    9.585
  297.590    0.000   94.135    0.278    0.439    9.424
  297.840    0.000   91.407    0.286    0.432    9.234
  298.090    0.000   87.853    0.273    0.444    9.236
  298.340    0.000   81.864    0.270    0.447    9.978
  298.590    0.000   75.418    0.274    0.441   11.103
  298.840    0.000   69.057    0.278    0.439   11.920
  299.090    0.000   64.361    0.304    0.438   12.368
  299.340    0.000   63.634    0.301    0.438   11.957
  299.590    0.000   65.202    0.313    0.441   11.405
  299.840    0.000   67.299    0.323    0.447   10.895
  300.090    0.000   71.722    0.316    0.433   10.135
  300.340    0.000   77.088    0.306    0.440    9.682
  300.590    0.000   81.896    0.296    0.457    9.569
  300.840    0.000   83.510    0.305    0.452    9.258
  301.090    0.000   77.451    0.309    0.457    9.281
  301.340    0.000   74.410    0.319    0.457    9.083
  301.590    0.000   78.756    0.311    0.436    8.941
  301.840    0.000   76.519    0.313    0.433    8.674
  302.090    0.000   73.644    0.322    0.445    8.417
  302.340    0.000   73.254    0.311    0.457    8.152
  302.590    0.000   75.000    0.305    0.466    8.062
  302.840    0.000   77.611    0.300    0.459    8.168
  303.090    0.000   76.740    0.293    0.455    8.402
  303.340    0.000   73.114    0.303    0.460    8.900
  303.590    0.000   67.703    0.320    0.468    9.652
  303.840    0.000   63.022    0.339    0.474   11.417
  304.090   -0.000   60.842    0.320    0.432   12.919
  304.340   -0.000   58.283    0.304    0.423   14.414
  304.590    0.000   54.496    0.313    0.429   15.631
  304.840    0.000   56.225    0.332    0.445   16.595
  305.090   -0.000   58.720    0.337    0.444   17.653
  305.340   -0.000   58.513    0.333    0.449   18.249
  305.590   -0.000   57.548    0.336    0.454   18.420
  305.840    0.000   57.616    0.337    0.432   18.741
  306.090    0.000   58.080    0.350    0.414   18.764
  306.340    0.000   59.454    0.356    0.408   18.376
  306.590   -0.000   59.859    0.361    0.422   18.129
  306.840   -0.000   62.253    0.348    0.427   17.968
  307.090   -0.000   65.441    0.356    0.412   17.397
  307.340    0.000   68.903    0.357    0.427   17.099
  307.590    0.000   70.407    0.350    0.434   16.735
  307.840   -0.000   67.403    0.365    0.425   16.789
  308.090   -0.000   64.157    0.340    0.423   16.470
  308.340   -0.000   65.159    0.335    0.433   16.099
  308.590    0.000   66.094    0.350    0.443   15.635
  308.840    0.000   64.097    0.364    0.450   15.310
  309.090    0.000   63.648    0.352    0.435   15.008
  309.340   -0.000   65.150    0.350    0.435   15.005
  309.590   -0.000   66.086    0.360    0.433   15.340
  309.840   -0.000   65.369    0.356    0.419   15.312
  310.090    0.000   63.962    0.351    0.428   15.314
  310.340    0.000   63.021    0.358    0.437   15.331
  310.590   -0.000   62.383    0.365    0.451   15.043
  310.840   -0.000   64.290    0.371    0.434   14.747
  311.090   -0.000   66.844    0.365    0.428   14.768
  311.340    0.000   68.249    0.353    0.428   14.752
  311.590    0.000   69.170    0.345    0.436   15.068
  311.840    0.000   65.234    0.345    0.422   15.034
  312.090   -0.000   61.609    0.358    0.412   15.312
  312.340   -0.000   64.407    0.360    0.408   15.040
  312.590   -0.000   66.642    0.364    0.418   14.764
  312.840    0.000   66.790    0.362    0.411   14.592
  313.090    0.000   66.976    0.351    0.405   14.151
  313.340    0.000   68.388    0.356    0.404   13.727
  313.590   -0.000   67.102    0.349    0.428   13.586
  313.840   -0.000   67.190    0.345    0.439   13.215
  314.090    0.000   67.180    0.350    0.428   13.238
  314.340    0.000   66.300    0.364    0.429   13.364
  314.590    0.000   62.385    0.375    0.444   13.793
  314.840   -0.000   59.515    0.369    0.460   14.214
  315.090   -0.000   58.062    0.357    0.454   14.515
  315.340   -0.000   58.195    0.353    0.451   14.806
  315.590    0.000   59.290    0.362    0.465   15.027
  315.840    0.000   59.597    0.367    0.455   15.191
  316.090    0.000   59.960    0.361    0.453   15.368
  316.340   -0.000   61.772    0.351    0.442   15.637
  316.590   -0.000   64.670    0.314    0.416   15.995
