~VERSION INFORMATION
 VERS.                 2.0:   CWLS LOG ASCII STANDARD -VERSION 2.0
 WRAP.                  NO:   ONE LINE PER DEPTH STEP
~WELL INFORMATION BLOCK
#MNEM.UNIT           DATA                    DESCRIPTION OF MNEMONIC
#---------    -------------------            -------------------------------
# Generated from Intellog Unique Number	CS_73_76/WELL/3229
WELL.         DOME PETOLEUM LIMITED          : Well_name    - WELL
LOC .         00/10-04-075-07W4/0            : Location     - LOCATION
UWI .         00/10-04-075-07W4/0            : Uwi          - UNIQUE WELL ID
ENTR.         SP                             : Entered      - ENTERED BY
SRVC.         SCHLUMBERGER                   : Scn          - SERVICE COMPANY
STRT.M        265.176                        : top_depth    - START DEPTH
STOP.M        487.426                        : bot_depth    - STOP DEPTH
STEP.M        0.25                           : increment    - STEP LENGTH
 NULL. -999.2500:NULL Value
~CURVE INFORMATION BLOCK
#MNEM UNIT       ERCB CURVE CODE    CURVE DESCRIPTION
#-----------   ------------------   ----------------------------------
DEPT.M        00 001 00 00         : DEPTH        - DEPTH
GR  .API      00 310 00 00         : GR           - GAMMA RAY
DPHI.V/V      00 890 00 00         : PHID         - DENSITY POROSITY (SANDSTONE)
NPHI.V/V      00 330 00 00         : PHIN         - NEUTRON POROSITY (SANDSTONE)
ILD .OHMM     00 120 00 00         : RESD         - DEEP RESISTIVITY (DIL)
~PARAMETER INFORMATION
#MNEM.UNIT           DATA             DESCRIPTION OF MNEMONIC
#---------         -----------     ------------------------------
GL  .M        662.33               : gl           - GROUND LEVEL ELEVATION
EREF.M        665.074              : kb           - ELEVATION OF DEPTH REFERENCE
DATM.M        662.33               : datum        - DATUM ELEVATION
TDD .M        550.469              : tdd          - TOTAL DEPTH DRILLER
RUN .         ONE                  : Run          - RUN NUMBER
ENG .         BILL                 : Engineer     - RECORDING ENGINEER
WIT .         JIM                  : Witness      - WITNESSED BY
MUD .         GEL                  : Mud_type     - MUD TYPE
MATR.         SANDSTONE            : Logunit      - NEUTRON MATRIX
TMAX.C        60                   : BHT          - MAXIMUM RECORDED TEMPERATURE
BHTD.M        550.469              : BHTDEP       - MAXIMUM RECORDED TEMPERATURE
MATR.         1                    : LOGUNIT      - NEUTRON MATRIX
RMT .C        25                   : MDTP         - TEMPERATURE OF MUD
NEUT.         1                    : NEUTRON      - NEUTRON TYPE
RESI.         0                    : RESIST       - RESISTIVITY TYPE
RMC .OHMM     0.25                 : RMC          - RESISTIVITY OF MUD CAKE
RMF .OHMM     0.25                 : RMF          - RESISTIVITY OF MUD FILTRATE
SUFT.C        15                   : SUFT         - SURFACE TEMPERATURE
~A  DEPTH       GR     PHID     PHIN     RESD
# ...
  439.176   74.268    0.253    0.367   21.017
  439.426   80.199    0.259    0.389   21.202
  439.676   74.470    0.261    0.397   20.812
  439.926   72.498    0.243    0.392   19.980
  440.176   70.545    0.230    0.392   18.767
  440.426   70.254    0.216    0.389   17.661
  440.676   71.286    0.228    0.380   16.119
  440.926   77.858    0.222    0.369   14.700
  441.176   86.230    0.209    0.359   13.661
  441.426   98.251    0.195    0.354   12.336
  441.676  106.560    0.185    0.369   11.174
  441.926  105.602    0.172    0.393   10.796
  442.176   89.011    0.246    0.417   12.050
  442.426   80.439    0.289    0.438   14.342
  442.676   72.871    0.316    0.454   17.310
  442.926   76.305    0.341    0.464   20.013
  443.176   81.561    0.315    0.443   21.287
  443.426   88.378    0.288    0.429   17.126
  443.676   92.282    0.255    0.416   14.955
  443.926   90.562    0.227    0.431   13.998
  444.176   73.254    0.226    0.462   16.187
  444.426   63.782    0.256    0.463   19.281
  444.676   65.868    0.288    0.452   25.208
  444.926   70.272    0.287    0.427   29.788
  445.176   73.928    0.272    0.405   34.049
  445.426   74.636    0.257    0.410   32.003
  445.676   78.681    0.273    0.422   28.736
  445.926   79.380    0.265    0.431   25.641
  446.176   67.067    0.261    0.437   25.680
  446.426   57.741    0.286    0.444   30.110
  446.676   51.148    0.316    0.452   38.227
  446.926   49.833    0.340    0.453   47.260
  447.176   49.744    0.335    0.450   68.778
  447.426   46.021    0.327    0.454   83.288
  447.676   44.794    0.320    0.452   99.730
  447.926   43.553    0.327    0.436  111.097
  448.176   46.152    0.327    0.431  120.037
  448.426   48.563    0.325    0.427  125.125
  448.676   52.678    0.327    0.428  112.192
  448.926   54.576    0.326    0.426   96.062
  449.176   60.026    0.320    0.418   84.649
  449.426   75.839    0.314    0.421   83.344
  449.676   91.468    0.308    0.438   84.302
  449.926   90.448    0.302    0.447   84.851
  450.176   82.603    0.301    0.436   85.515
  450.426   77.655    0.304    0.430   73.003
  450.676   74.254    0.299    0.444   60.660
  450.926   73.950    0.304    0.440   50.505
  451.176   78.799    0.307    0.450   43.094
  451.426   81.927    0.296    0.459   39.432
  451.676   83.633    0.301    0.464   40.476
  451.926   81.015    0.305    0.464   42.916
  452.176   75.737    0.294    0.462   44.166
  452.426   71.684    0.267    0.453   45.353
  452.676   70.777    0.093    0.302   37.467
  452.926   73.834    0.142    0.336   34.152
  453.176   74.484    0.237    0.383   29.036
  453.426   76.183    0.271    0.424   24.752
  453.676   79.218    0.280    0.440   21.237
  453.926   83.178    0.267    0.448   17.487
  454.176   88.110    0.235    0.462   15.028
  454.426   92.741    0.239    0.441   12.189
  454.676   95.304    0.250    0.420   10.625
  454.926  104.533    0.242    0.428    8.990
  455.176  115.018    0.239    0.429    8.559
  455.426  121.027    0.224    0.434    7.673
  455.676  122.429    0.217    0.423    7.473
  455.926  127.413    0.216    0.414    7.384
  456.176  133.552    0.211    0.433    7.309
  456.426  129.351    0.216    0.462    7.192
  456.676  120.869    0.216    0.456    7.135
  456.926  116.011    0.224    0.420    6.899
  457.176  122.934    0.233    0.396    6.493
  457.426  131.829    0.209    0.420    5.992
  457.676  135.770    0.176    0.460    5.415
  457.926  133.735    0.173    0.492    5.269
  458.176  132.742    0.200    0.505    5.093
  458.426  133.444    0.193    0.528    5.142
  458.676  131.629    0.180    0.540    5.197
  458.926  124.674    0.185    0.518    5.368
  459.176  119.753    0.187    0.496    5.534
  459.426  117.216    0.186    0.462    5.949
  459.676  118.399    0.181    0.424    6.389
  459.926  118.892    0.194    0.439    6.894
  460.176  118.879    0.204    0.434    7.435
  460.426  118.010    0.209    0.428    7.642
  460.676  115.633    0.207    0.456    7.884
  460.926  117.427    0.205    0.455    8.175
  461.176  118.664    0.193    0.436    8.705
  461.426  103.447    0.189    0.431    9.527
  461.676   89.709    0.204    0.451   10.299
  461.926   80.788    0.220    0.416   10.868
  462.176   79.557    0.236    0.384   11.861
  462.426   75.501    0.250    0.393   13.114
  462.676   77.402    0.259    0.392   14.096
  462.926   80.744    0.249    0.390   15.022
  463.176   82.413    0.244    0.398   15.631
  463.426   79.840    0.254    0.403   16.371
  463.676   76.590    0.267    0.401   17.283
  463.926   75.029    0.266    0.384   17.412
  464.176   71.510    0.259    0.382   17.780
  464.426   69.407    0.250    0.392   17.390
  464.676   69.730    0.266    0.401   17.073
  464.926   72.413    0.267    0.372   17.090
  465.176   73.370    0.255    0.388   17.134
  465.426   73.423    0.252    0.394   18.017
  465.676   69.108    0.246    0.399   18.953
  465.926   64.816    0.259    0.409   20.012
  466.176   60.877    0.277    0.416   21.273
  466.426   57.143    0.288    0.402   22.658
  466.676   59.673    0.299    0.384   23.549
  466.926   64.147    0.284    0.394   22.182
  467.176   68.189    0.271    0.421   20.862
  467.426   71.624    0.258    0.410   19.814
  467.676   69.106    0.238    0.409   19.477
  467.926   61.466    0.262    0.417   19.514
  468.176   61.777    0.282    0.418   19.132
  468.426   68.638    0.297    0.409   18.976
  468.676   71.306    0.284    0.400   17.951
  468.926   71.189    0.260    0.408   17.752
  469.176   66.652    0.267    0.409   17.879
  469.426   66.022    0.270    0.410   18.909
  469.676   60.141    0.271    0.416   20.369
  469.926   56.537    0.286    0.431   22.657
  470.176   54.724    0.304    0.429   24.569
  470.426   60.496    0.312    0.427   26.882
  470.676   64.153    0.285    0.409   30.221
  470.926   56.168    0.280    0.426   31.755
  471.176   49.663    0.303    0.458   32.045
  471.426   53.130    0.314    0.405   30.069
  471.676   60.389    0.303    0.400   27.913
  471.926   67.146    0.281    0.409   25.762
  472.176   70.348    0.280    0.417   23.751
  472.426   69.695    0.282    0.396   22.003
  472.676   70.642    0.272    0.402   20.789
  472.926   71.522    0.282    0.392   20.657
  473.176   68.583    0.264    0.391   20.608
  473.426   62.879    0.268    0.403   21.010
  473.676   58.678    0.280    0.409   21.875
  473.926   56.905    0.295    0.407   22.069
  474.176   58.203    0.294    0.396   23.421
  474.426   60.635    0.280    0.401   24.900
  474.676   61.043    0.267    0.415   26.522
  474.926   62.131    0.284    0.414   27.481
  475.176   63.088    0.278    0.430   28.386
  475.426   60.744    0.288    0.437   28.660
  475.676   59.156    0.292    0.426   29.634
  475.926   57.140    0.293    0.429   29.615
  476.176   55.751    0.298    0.435   28.503
  476.426   55.188    0.304    0.427   26.766
  476.676   56.754    0.309    0.420   24.808
  476.926   57.755    0.290    0.419   23.383
  477.176   56.379    0.283    0.413   22.701
  477.426   56.180    0.291    0.414   22.643
  477.676   56.002    0.303    0.414   23.868
  477.926   52.832    0.293    0.431   22.783
  478.176   51.557    0.287    0.450   20.809
  478.426   50.916    0.298    0.420   19.166
  478.676   59.982    0.289    0.373   18.022
  478.926   64.599    0.272    0.384   16.209
  479.176   63.626    0.268    0.406   14.968
  479.426   62.614    0.274    0.406   14.546
  479.676   61.380    0.266    0.418   14.571
  479.926   60.042    0.288    0.406   15.358
  480.176   56.270    0.269    0.423   15.533
  480.426   52.116    0.281    0.435   16.108
  480.676   49.150    0.302    0.429   17.168
  480.926   44.508    0.310    0.423   17.663
  481.176   40.599    0.325    0.411   18.636
  481.426   39.943    0.311    0.411   19.180
  481.676   41.474    0.308    0.442   19.608
  481.926   38.912    0.315    0.434   19.602
  482.176   36.483    0.300    0.398   17.451
  482.426   34.482    0.296    0.390   15.261
