~VERSION INFORMATION
 VERS.                 2.0:   CWLS LOG ASCII STANDARD -VERSION 2.0
 WRAP.                  NO:   ONE LINE PER DEPTH STEP
~WELL INFORMATION BLOCK
#MNEM.UNIT           DATA                    DESCRIPTION OF MNEMONIC
#---------    -------------------            -------------------------------
# Generated from Intellog Unique Number	CW_79_81/WELL/2491
WELL.         14-17-081-24W4                 : Well_name    - WELL
LOC .         00/14-17-081-24W4/0            : Location     - LOCATION
UWI .         00/14-17-081-24W4/0            : Uwi          - UNIQUE WELL ID
ENTR.         MAX                            : Entered      - ENTERED BY
SRVC.         WESTERN ATLAS                  : Scn          - SERVICE COMPANY
STRT.M        215                            : top_depth    - START DEPTH
STOP.M        459.75                         : bot_depth    - STOP DEPTH
STEP.M        0.25                           : increment    - STEP LENGTH
 NULL. -999.2500:NULL Value
~CURVE INFORMATION BLOCK
#MNEM UNIT       ERCB CURVE CODE    CURVE DESCRIPTION
#-----------   ------------------   ----------------------------------
DEPT.M        00 001 00 00         : DEPTH        - DEPTH
ILD .OHMM     00 120 00 00         : RESD         - DEEP RESISTIVITY (DIL)
NPHI.V/V      00 330 00 00         : PHIN         - NEUTRON POROSITY (SANDSTONE)
DPHI.V/V      00 890 00 00         : PHID         - DENSITY POROSITY (SANDSTONE)
GR  .API      00 310 00 00         : GR           - GAMMA RAY
CALI.MM       00 280 01 00         : CAL          - CALIPER
~PARAMETER INFORMATION
#MNEM.UNIT           DATA             DESCRIPTION OF MNEMONIC
#---------         -----------     ------------------------------
GL  .M        602.08               : gl           - GROUND LEVEL ELEVATION
EREF.M        605.78               : kb           - ELEVATION OF DEPTH REFERENCE
DATM.M        602.08               : datum        - DATUM ELEVATION
TDD .M        462                  : tdd          - TOTAL DEPTH DRILLER
RUN .         ONE                  : Run          - RUN NUMBER
ENG .         BILL                 : Engineer     - RECORDING ENGINEER
WIT .         JIM                  : Witness      - WITNESSED BY
MUD .         GEL                  : Mud_type     - MUD TYPE
MATR.         SANDSTONE            : Logunit      - NEUTRON MATRIX
TMAX.C        22                   : BHT          - MAXIMUM RECORDED TEMPERATURE
BHTD.M        462                  : BHTDEP       - MAXIMUM RECORDED TEMPERATURE
MATR.         1                    : LOGUNIT      - NEUTRON MATRIX
RMT .C        13                   : MDTP         - TEMPERATURE OF MUD
NEUT.         1                    : NEUTRON      - NEUTRON TYPE
RESI.         0                    : RESIST       - RESISTIVITY TYPE
RMC .OHMM     4.2                  : RMC          - RESISTIVITY OF MUD CAKE
RMF .OHMM     2.5                  : RMF          - RESISTIVITY OF MUD FILTRATE
SUFT.C        -20                  : SUFT         - SURFACE TEMPERATURE
~A  DEPTH     RESD     PHIN     PHID       GR      CAL
# ...
  397.500   11.332    0.351    0.200   92.748  224.271
  397.750   11.611    0.368    0.198   90.675  224.430
  398.000   11.785    0.381    0.209   89.697  225.242
  398.250   11.867    0.387    0.221   88.992  225.240
  398.500   11.883    0.381    0.223   89.870  225.531
  398.750   11.749    0.377    0.212   89.634  225.724
  399.000   11.514    0.375    0.196   87.874  225.624
  399.250   11.291    0.367    0.188   86.905  225.149
  399.500   11.035    0.356    0.202   89.102  224.739
  399.750   10.792    0.349    0.203   91.914  224.736
  400.000   10.672    0.344    0.204   94.199  225.027
  400.250   10.591    0.344    0.205   96.191  225.220
  400.500   10.549    0.349    0.201   97.303  225.316
  400.750   10.621    0.360    0.186   95.543  225.785
  401.000   10.617    0.359    0.189   92.610  226.189
  401.250   10.613    0.356    0.189   92.374  226.578
  401.500   10.552    0.352    0.183   91.787  226.966
  401.750   10.510    0.360    0.166   90.495  227.355
  402.000   10.467    0.380    0.159   89.497  227.646
  402.250   10.281    0.393    0.210   91.772  227.643
  402.500   10.124    0.393    0.205   94.946  227.640
  402.750   10.047    0.378    0.176   96.117  227.247
  403.000    9.970    0.362    0.162   96.584  226.561
  403.250    9.931    0.356    0.166   96.700  225.776
  403.500    9.927    0.359    0.184   96.523  225.090
  403.750    9.953    0.356    0.199   95.720  224.616
  404.000   10.101    0.359    0.171   95.230  224.206
  404.250   10.096    0.367    0.151   93.822  223.813
  404.500   10.148    0.388    0.156   93.996  225.178
  404.750   10.218    0.394    0.157   93.878  226.153
  405.000   10.344    0.378    0.145   93.055  226.053
  405.250   10.740    0.362    0.136   92.878  225.740
  405.500   11.236    0.359    0.178   94.342  226.145
  405.750   11.070    0.347    0.156   92.465  227.315
  406.000   10.847    0.341    0.127   89.005  228.192
  406.250   10.492    0.344    0.138   87.713  229.362
  406.500   10.080    0.349    0.183   89.881  230.531
  406.750    9.788    0.341    0.200   95.263  230.366
  407.000    9.785    0.339    0.199   99.902  229.550
  407.250    9.852    0.348    0.205  101.307  227.984
  407.500    9.440    0.354    0.197  100.427  227.298
  407.750    9.106    0.359    0.191  101.246  227.686
  408.000    9.085    0.367    0.194  104.410  229.052
  408.250    9.596    0.383    0.201  106.929  231.003
  408.500   10.593    0.379    0.189  105.462  231.000
  408.750   12.993    0.364    0.178  106.164  228.262
  409.000   15.756    0.355    0.172  104.931  226.111
  409.250   18.543    0.349    0.168  101.413  223.959
  409.500   21.246    0.343    0.169   96.370  221.905
  409.750   25.540    0.334    0.199   91.385  220.648
  410.000   29.994    0.324    0.264   89.919  220.238
  410.250   35.793    0.305    0.229   81.477  219.846
  410.500   39.248    0.299    0.208   73.385  219.452
  410.750   35.463    0.298    0.189   69.397  219.254
  411.000   27.672    0.296    0.167   67.931  219.252
  411.250   20.419    0.297    0.143   62.067  219.249
  411.500   17.209    0.314    0.148   62.065  219.246
  411.750   15.636    0.339    0.166   67.222  219.244
  412.000   15.035    0.347    0.224   72.555  218.949
  412.250   14.922    0.349    0.267   76.892  218.751
  412.500   15.133    0.348    0.279   79.821  218.651
  412.750   16.005    0.342    0.291   81.305  218.257
  413.000   17.804    0.335    0.300   79.349  218.255
  413.250   17.797    0.336    0.291   75.127  217.862
  413.500   17.213    0.330    0.265   74.070  217.469
  413.750   15.726    0.329    0.230   74.772  217.075
  414.000   14.169    0.338    0.219   76.471  216.682
  414.250   13.598    0.358    0.288   79.488  216.288
  414.500   13.288    0.366    0.283   81.685  216.286
  414.750   13.284    0.367    0.274   82.152  216.283
  415.000   13.496    0.366    0.267   81.917  216.281
  415.250   13.788    0.363    0.256   81.212  216.278
  415.500   14.137    0.357    0.240   79.862  216.276
  415.750   14.849    0.345    0.212   77.379  216.274
  416.000   15.896    0.335    0.161   77.866  216.271
  416.250   17.442    0.340    0.201   79.740  216.269
  416.500   19.648    0.345    0.229   81.966  215.973
  416.750   22.965    0.342    0.231   82.903  215.775
  417.000   27.744    0.333    0.185   82.140  216.164
  417.250   33.378    0.319    0.056   80.106  218.538
  417.500   33.365    0.286    0.020   78.150  222.607
  417.750   27.503    0.279    0.024   74.632  226.512
  418.000   25.058    0.288    0.122   68.827  227.780
  418.250   24.175    0.302    0.205   66.597  227.973
  418.500   24.122    0.313    0.232   69.468  227.873
  418.750   24.574    0.324    0.223   75.260  227.397
  419.000   25.130    0.326    0.196   78.434  226.988
  419.250   26.420    0.327    0.187   77.495  226.986
  419.500   27.929    0.325    0.171   76.731  226.984
  419.750   29.588    0.323    0.151   74.502  226.982
  420.000   30.278    0.319    0.129   71.863  226.979
  420.250   26.531    0.311    0.102   72.321  226.976
  420.500   21.104    0.303    0.088   71.098  226.973
  420.750   16.619    0.320    0.133   75.786  226.971
  421.000   14.093    0.343    0.187   81.002  226.968
  421.250   12.961    0.357    0.225   85.456  226.966
  421.500   12.657    0.357    0.238   88.737  227.061
  421.750   12.561    0.355    0.239   91.998  227.531
  422.000   12.555    0.354    0.233   95.416  227.936
  422.250   12.642    0.350    0.224   96.353  228.715
  422.500   12.729    0.347    0.212   94.300  229.787
  422.750   12.538    0.340    0.190   92.070  230.567
  423.000   12.066    0.334    0.161   90.604  231.541
  423.250   11.461    0.345    0.146   88.667  234.193
  423.500   11.034    0.356    0.180   87.200  233.783
  423.750   10.713    0.350    0.179   87.433  233.389
  424.000   10.574    0.344    0.155   87.491  233.289
  424.250   10.456    0.340    0.154   87.255  233.092
  424.500   10.301    0.341    0.179   87.722  232.699
  424.750   10.133    0.344    0.197   91.590  232.224
  425.000   10.053    0.352    0.198   94.519  231.814
  425.250    9.977    0.345    0.162   94.283  231.421
  425.500    9.955    0.348    0.177   97.916  231.321
  425.750    9.916    0.352    0.196  101.667  231.318
  426.000    9.858    0.354    0.194  102.076  231.414
  426.250    9.839    0.357    0.173   95.684  231.802
  426.500    9.762    0.359    0.175   94.217  231.799
  426.750    9.758    0.356    0.146   94.450  231.797
  427.000    9.808    0.357    0.158   95.211  231.501
  427.250    9.768    0.358    0.179   96.499  231.108
  427.500    9.606    0.357    0.190   97.787  230.813
  427.750    9.367    0.357    0.184   98.460  230.891
  428.000    9.223    0.358    0.175  100.656  231.296
  428.250    9.021    0.347    0.156   99.717  231.684
  428.500    8.921    0.342    0.128   96.667  232.073
  428.750    8.917    0.346    0.121   96.314  232.656
  429.000    9.121    0.355    0.140  100.475  233.240
  429.250    9.824    0.356    0.168  108.367  233.156
  429.500    9.895    0.346    0.182  110.320  232.746
  429.750    9.608    0.347    0.183  105.864  231.963
  430.000    9.072    0.350    0.172   99.121  231.765
  430.250    8.495    0.349    0.142   93.843  232.153
  430.500    8.063    0.345    0.119   91.848  232.834
  430.750    7.968    0.348    0.160   93.947  233.059
  431.000    8.086    0.359    0.176   98.587  232.243
  431.250    8.748    0.383    0.174  106.323  230.677
  431.500    9.567    0.380    0.159  108.432  229.698
  431.750   10.115    0.361    0.099  104.327  228.719
  432.000    9.993    0.339    0.042   97.819  227.837
  432.250    9.218    0.330    0.125  100.142  227.834
  432.500    9.498    0.327    0.172  115.285  227.832
  432.750   10.131    0.341    0.168  115.283  227.829
  433.000   11.266    0.338    0.147  107.193  226.654
  433.250   13.197    0.328    0.113   96.991  225.675
  433.500   15.645    0.323    0.094   91.713  225.380
  433.750   16.601    0.331    0.152   99.548  225.376
