~VERSION INFORMATION
 VERS.                 2.0:   CWLS LOG ASCII STANDARD -VERSION 2.0
 WRAP.                  NO:   ONE LINE PER DEPTH STEP
~WELL INFORMATION BLOCK
#MNEM.UNIT           DATA                    DESCRIPTION OF MNEMONIC
#---------    -------------------            -------------------------------
# Generated from Intellog Unique Number	CS_67_68/WELL/853
WELL.         CHIEFTAIN DEVELOPMENT          : Well_name    - WELL
LOC .         00/13-09-068-11W4/0            : Location     - LOCATION
UWI .         00/13-09-068-11W4/0            : Uwi          - UNIQUE WELL ID
ENTR.         SP                             : Entered      - ENTERED BY
SRVC.         SCHLUMBERGER                   : Scn          - SERVICE COMPANY
STRT.M        255                            : top_depth    - START DEPTH
STOP.M        485                            : bot_depth    - STOP DEPTH
STEP.M        0.25                           : increment    - STEP LENGTH
 NULL. -999.2500:NULL Value
~CURVE INFORMATION BLOCK
#MNEM UNIT       ERCB CURVE CODE    CURVE DESCRIPTION
#-----------   ------------------   ----------------------------------
DEPT.M        00 001 00 00         : DEPTH        - DEPTH
ILD .OHMM     00 120 00 00         : RESD         - DEEP RESISTIVITY (DIL)
DPHI.V/V      00 890 00 00         : PHID         - DENSITY POROSITY (LIMESTONE)
NPHI.V/V      00 330 00 00         : PHIN         - NEUTRON POROSITY (LIMESTONE)
GR  .API      00 310 00 00         : GR           - GAMMA RAY
~PARAMETER INFORMATION
#MNEM.UNIT           DATA             DESCRIPTION OF MNEMONIC
#---------         -----------     ------------------------------
GL  .M        599                  : gl           - GROUND LEVEL ELEVATION
EREF.M        602                  : kb           - ELEVATION OF DEPTH REFERENCE
DATM.M        599                  : datum        - DATUM ELEVATION
TDD .M        494                  : tdd          - TOTAL DEPTH DRILLER
RUN .         ONE                  : Run          - RUN NUMBER
ENG .         BILL                 : Engineer     - RECORDING ENGINEER
WIT .         JIM                  : Witness      - WITNESSED BY
MUD .         GEL                  : Mud_type     - MUD TYPE
MATR.         LIMESTONE            : Logunit      - NEUTRON MATRIX
TMAX.C        22                   : BHT          - MAXIMUM RECORDED TEMPERATURE
BHTD.M        494                  : BHTDEP       - MAXIMUM RECORDED TEMPERATURE
MATR.         1                    : LOGUNIT      - NEUTRON MATRIX
RMT .C        25                   : MDTP         - TEMPERATURE OF MUD
NEUT.         1                    : NEUTRON      - NEUTRON TYPE
RESI.         0                    : RESIST       - RESISTIVITY TYPE
RMC .OHMM     0.25                 : RMC          - RESISTIVITY OF MUD CAKE
RMF .OHMM     0.25                 : RMF          - RESISTIVITY OF MUD FILTRATE
SUFT.C        15                   : SUFT         - SURFACE TEMPERATURE
~A  DEPTH     RESD     PHID     PHIN       GR
# ...
  342.000    3.441    0.242    0.384   99.924
  342.250    3.519    0.240    0.380   97.961
  342.500    3.605    0.236    0.380   97.632
  342.750    3.626    0.230    0.378   98.101
  343.000    3.640    0.225    0.383   99.233
  343.250    3.674    0.229    0.395  100.484
  343.500    3.730    0.240    0.394  101.133
  343.750    3.787    0.249    0.393  101.598
  344.000    3.901    0.234    0.394  101.455
  344.250    3.938    0.218    0.397   99.491
  344.500    3.998    0.204    0.394   95.220
  344.750    4.073    0.192    0.410   92.773
  345.000    4.158    0.182    0.430   92.874
  345.250    4.221    0.181    0.418   95.099
  345.500    4.229    0.182    0.412   97.141
  345.750    4.222    0.180    0.410   98.576
  346.000    4.129    0.181    0.407   99.162
  346.250    3.994    0.187    0.409   99.502
  346.500    3.785    0.197    0.408  100.273
  346.750    3.508    0.205    0.392  100.982
  347.000    3.263    0.220    0.381  101.201
  347.250    3.087    0.245    0.378  100.148
  347.500    2.997    0.265    0.375   98.062
  347.750    2.888    0.278    0.367   95.978
  348.000    2.835    0.298    0.362   94.137
  348.250    2.814    0.283    0.362   93.145
  348.500    2.820    0.274    0.353   92.941
  348.750    2.863    0.277    0.374   92.920
  349.000    2.933    0.281    0.394   92.777
  349.250    2.999    0.276    0.400   92.511
  349.500    3.050    0.269    0.389   91.946
  349.750    3.085    0.265    0.396   91.076
  350.000    3.109    0.258    0.401   89.902
  350.250    3.115    0.247    0.399   89.030
  350.500    3.115    0.235    0.396   88.644
  350.750    3.104    0.230    0.389   88.625
  351.000    3.099    0.242    0.373   88.786
  351.250    3.099    0.254    0.360   91.007
  351.500    3.117    0.256    0.353   92.750
  351.750    3.123    0.251    0.351   94.546
  352.000    3.153    0.248    0.359   95.379
  352.250    3.189    0.253    0.354   96.025
  352.500    3.231    0.254    0.353   95.944
  352.750    3.298    0.240    0.365   95.435
  353.000    3.379    0.227    0.372   94.504
  353.250    3.481    0.216    0.368   96.486
  353.500    3.634    0.206    0.378   99.258
  353.750    3.836    0.198    0.373  101.969
  354.000    3.989    0.192    0.362  101.948
  354.250    4.095    0.186    0.364  101.014
  354.500    4.149    0.190    0.379  102.149
  354.750    4.172    0.196    0.392  104.068
  355.000    4.119    0.201    0.399  105.017
  355.250    4.021    0.205    0.409  105.970
  355.500    3.941    0.211    0.426  107.951
  355.750    3.826    0.223    0.445  109.933
  356.000    3.714    0.236    0.459  107.725
  356.250    3.639    0.266    0.423  101.997
  356.500    3.533    0.281    0.399   96.879
  356.750    3.411    0.265    0.385   89.998
  357.000    3.368    0.245    0.372   87.673
  357.250    3.270    0.225    0.368   88.562
  357.500    3.192    0.228    0.358   88.662
  357.750    3.128    0.250    0.347   86.575
  358.000    3.076    0.263    0.342   82.975
  358.250    3.003    0.274    0.340   79.252
  358.500    2.927    0.290    0.358   76.740
  358.750    2.852    0.292    0.359   76.776
  359.000    2.759    0.292    0.351   75.602
  359.250    2.693    0.296    0.353   73.095
  359.500    2.624    0.299    0.360   69.980
  359.750    2.600    0.296    0.364   68.988
  360.000    2.596    0.284    0.354   70.848
  360.250    2.645    0.276    0.357   74.285
  360.500    2.771    0.266    0.354   77.359
  360.750    2.963    0.255    0.343   79.706
  361.000    3.163    0.240    0.338   81.565
  361.250    3.351    0.234    0.334   82.518
  361.500    3.497    0.239    0.342   82.680
  361.750    3.570    0.246    0.344   81.441
  362.000    3.604    0.249    0.357   81.849
  362.250    3.631    0.252    0.362   83.588
  362.500    3.645    0.239    0.354   85.747
  362.750    3.659    0.224    0.349   87.308
  363.000    3.729    0.212    0.344   88.928
  363.250    3.813    0.205    0.342   90.725
  363.500    3.885    0.203    0.344   91.918
  363.750    3.929    0.206    0.345   92.628
  364.000    3.930    0.207    0.349   93.030
  364.250    3.909    0.209    0.357   92.100
  364.500    3.873    0.214    0.367   90.744
  364.750    3.824    0.223    0.375   92.357
  365.000    3.775    0.229    0.366   93.736
  365.250    3.740    0.221    0.354   96.139
  365.500    3.741    0.210    0.351   97.880
  365.750    3.755    0.202    0.358   99.438
  366.000    3.798    0.202    0.362  101.178
  366.250    3.834    0.203    0.364  102.918
  366.500    3.885    0.202    0.357  104.476
  366.750    3.914    0.199    0.353  104.151
  367.000    3.929    0.198    0.366  102.188
  367.250    3.944    0.199    0.376   99.493
  367.500    3.945    0.200    0.388   97.651
  367.750    3.938    0.198    0.373   96.539
  368.000    3.917    0.211    0.360   95.545
  368.250    3.896    0.226    0.350   94.920
  368.500    3.853    0.232    0.341   94.656
  368.750    3.797    0.231    0.344   94.390
  369.000    3.693    0.222    0.357   93.333
  369.250    3.552    0.215    0.367   92.526
  369.500    3.398    0.209    0.379   91.839
  369.750    3.385    0.204    0.380   91.879
  370.000    3.424    0.224    0.380   93.314
  370.250    3.476    0.234    0.378   94.992
  370.500    3.554    0.234    0.374   94.911
  370.750    3.676    0.217    0.365   94.648
  371.000    3.808    0.206    0.366   99.847
  371.250    3.946    0.200    0.374  105.167
  371.500    4.081    0.193    0.372  105.511
  371.750    4.228    0.184    0.369  104.276
  372.000    4.324    0.176    0.366  104.192
  372.250    4.365    0.181    0.360  104.717
  372.500    4.373    0.194    0.355  103.904
  372.750    4.326    0.205    0.366  102.795
  373.000    4.223    0.214    0.365  102.107
  373.250    4.024    0.212    0.359  102.145
  373.500    3.792    0.209    0.359  103.277
  373.750    3.628    0.206    0.368  104.531
  374.000    3.444    0.203    0.376  106.089
  374.250    3.313    0.211    0.366  106.676
  374.500    3.264    0.220    0.369  104.345
  374.750    3.265    0.228    0.381  100.622
  375.000    3.277    0.228    0.397   97.689
  375.250    3.315    0.227    0.411   96.391
  375.500    3.371    0.239    0.427   95.947
  375.750    3.441    0.247    0.435   97.201
  376.000    3.467    0.253    0.414  100.032
  376.250    3.468    0.241    0.417   99.404
  376.500    3.455    0.214    0.410   98.105
  376.750    3.437    0.190    0.398   97.297
  377.000    3.418    0.174    0.389   97.824
  377.250    3.412    0.170    0.382  102.049
  377.500    3.419    0.182    0.384  104.702
  377.750    3.426    0.182    0.394  102.980
  378.000    3.433    0.173    0.406  102.656
  378.250    3.440    0.175    0.424  105.731
  378.500    3.434    0.186    0.400  105.341
  378.750    3.434    0.196    0.393  103.747
  379.000    3.435    0.201    0.403  101.472
  379.250    3.429    0.190    0.396  100.364
  379.500    3.335    0.180    0.387   98.278
  379.750    3.184    0.209    0.382   95.222
  380.000    3.046    0.235    0.378   90.711
  380.250    2.968    0.263    0.380   86.623
  380.500    2.930    0.293    0.384   85.508
  380.750    2.996    0.308    0.387   88.579
  381.000    3.099    0.294    0.390   90.989
  381.250    3.210    0.276    0.384   92.668
  381.500    3.326    0.257    0.373   94.043
  381.750    3.433    0.238    0.371   93.720
  382.000    3.498    0.221    0.378   91.878
  382.250    3.499    0.234    0.377   90.522
  382.500    3.454    0.276    0.370   90.865
  382.750    3.310    0.288    0.380   90.723
  383.000    3.190    0.284    0.378   91.064
  383.250    3.091    0.272    0.369   92.804
  383.500    3.023    0.268    0.380   94.240
  383.750    3.018    0.257    0.395   94.460
  384.000    3.047    0.248    0.404   94.439
  384.250    3.093    0.241    0.398   94.540
  384.500    3.192    0.240    0.394   94.397
  384.750    3.301    0.239    0.391   94.195
  385.000    3.472    0.234    0.394   93.809
  385.250    3.624    0.226    0.390   96.156
