~VERSION INFORMATION
 VERS.                 2.0:   CWLS LOG ASCII STANDARD -VERSION 2.0
 WRAP.                  NO:   ONE LINE PER DEPTH STEP
~WELL INFORMATION BLOCK
#MNEM.UNIT           DATA                    DESCRIPTION OF MNEMONIC
#---------    -------------------            -------------------------------
# Generated from Intellog Unique Number	CN_94_101/WELL/3442
WELL.         PACIFIC PETROLEUMS LTD.        : Well_name    - WELL
LOC .         00/10-08-095-21W4/0            : Location     - LOCATION
UWI .         00/10-08-095-21W4/0            : Uwi          - UNIQUE WELL ID
ENTR.         J                              : Entered      - ENTERED BY
SRVC.         SCHLUMBERGER                   : Scn          - SERVICE COMPANY
DATE.         07/28/92                       : Date         - LOG DATE
STRT.F        1250                           : top_depth    - START DEPTH
STOP.F        1710.14                        : bot_depth    - STOP DEPTH
STEP.F        0.82                           : increment    - STEP LENGTH
 NULL. -999.2500:NULL Value
~CURVE INFORMATION BLOCK
#MNEM UNIT       ERCB CURVE CODE    CURVE DESCRIPTION
#-----------   ------------------   ----------------------------------
DEPT.F        00 001 00 00         : DEPTH        - DEPTH
ILD .OHMM     00 120 00 00         : RESD         - DEEP RESISTIVITY (DIL)
GR  .API      00 310 00 00         : GR           - GAMMA RAY
NPHI.V/V      00 330 00 00         : PHIN         - NEUTRON POROSITY (SANDSTONE)
DPHI.V/V      00 890 00 00         : PHID         - DENSITY POROSITY (SANDSTONE)
~PARAMETER INFORMATION
#MNEM.UNIT           DATA             DESCRIPTION OF MNEMONIC
#---------         -----------     ------------------------------
GL  .F        2678                 : gl           - GROUND LEVEL ELEVATION
EREF.F        7690                 : kb           - ELEVATION OF DEPTH REFERENCE
DATM.F        7690                 : datum        - DATUM ELEVATION
TDD .F        1720                 : tdd          - TOTAL DEPTH DRILLER
RUN .         ONE                  : Run          - RUN NUMBER
ENG .         BILL                 : Engineer     - RECORDING ENGINEER
WIT .         JIM                  : Witness      - WITNESSED BY
MUD .         GEL                  : Mud_type     - MUD TYPE
MATR.         SANDSTONE            : Logunit      - NEUTRON MATRIX
TMAX.F        48                   : BHT          - MAXIMUM RECORDED TEMPERATURE
BHTD.F        1720                 : BHTDEP       - MAXIMUM RECORDED TEMPERATURE
RMT .F        48                   : MDTP         - TEMPERATURE OF MUD
MUDD.LB/G     9.4                  : MWT          - MUD DENSITY
NEUT.         1                    : NEUTRON      - NEUTRON TYPE
RESI.         0                    : RESIST       - RESISTIVITY TYPE
RM  .OHMM     2.65                 : RM           - RESISTIVITY OF MUD
RMC .OHMM     2.65                 : RMC          - RESISTIVITY OF MUD CAKE
RMF .OHMM     2.65                 : RMF          - RESISTIVITY OF MUD FILTRATE
SUFT.F        39.2                 : SUFT         - SURFACE TEMPERATURE
~A  DEPTH     RESD       GR     PHIN     PHID
# ...
 1535.430   16.830   73.736    0.468    0.267
 1536.250   24.012   73.667    0.467    0.244
 1537.070   13.112   74.828    0.468    0.233
 1537.890   16.718   79.121    0.457    0.214
 1538.710   17.650   89.028    0.450    0.202
 1539.530    9.109   92.091    0.454    0.186
 1540.350    6.004   91.999    0.506    0.190
 1541.170    5.769   86.874    0.523    0.209
 1541.990    5.544   81.794    0.540    0.235
 1542.810    5.130   78.570    0.541    0.252
 1543.640    5.216   74.720    0.510    0.263
 1544.460    8.821   72.726    0.484    0.274
 1545.280   11.455   71.962    0.472    0.283
 1546.100   27.181   71.893    0.473    0.278
 1546.920   38.077   71.825    0.482    0.264
 1547.740   35.887   71.061    0.498    0.271
 1548.560   22.793   70.365    0.505    0.275
 1549.380   17.139   69.670    0.494    0.231
 1550.200   21.447   67.676    0.461    0.146
 1551.020   32.376   65.079    0.451    0.082
 1551.840   34.200   62.505    0.433    0.018
 1552.660   39.669   57.379    0.437   -0.029
 1553.480   59.884   56.638    0.453   -0.015
 1554.300  122.302   59.051    0.470    0.026
 1555.120  254.383   62.718    0.448    0.057
 1555.940  592.364   65.178    0.421    0.122
 1556.760  661.712   70.723    0.423    0.142
 1557.580  322.745   75.016    0.477    0.171
 1558.400   43.727   79.286    0.516    0.202
 1559.220   10.425   81.073    0.502    0.224
 1560.040    6.872   80.378    0.489    0.200
 1560.860    6.596   78.407    0.486    0.187
 1561.680    6.971   76.413    0.487    0.166
 1562.500    8.086   76.948    0.509    0.171
 1563.320   10.113   79.362    0.523    0.202
 1564.140   10.885   82.402    0.515    0.235
 1564.960   10.460   86.718    0.482    0.239
 1565.780    9.307   89.154    0.475    0.216
 1566.600    8.617   89.689    0.471    0.197
 1567.420    7.680   87.046    0.473    0.181
 1568.240    7.239   85.701    0.470    0.151
 1569.060    7.508   85.609    0.454    0.137
 1569.880    8.230   86.167    0.433    0.165
 1570.700    9.728   90.460    0.450    0.195
 1571.520   10.465   96.028    0.494    0.208
 1572.340    9.680   98.419    0.499    0.206
 1573.160    8.958   98.350    0.502    0.189
 1573.980    8.608   97.006    0.498    0.192
 1574.800    8.589   95.638    0.489    0.190
 1575.620    8.570   95.570    0.482    0.181
 1576.440    8.081   97.334    0.477    0.177
 1577.260    7.770   98.495    0.475    0.171
 1578.080    7.891   98.403    0.483    0.164
 1578.900    8.185   99.564    0.488    0.175
 1579.720    8.480  101.351    0.483    0.185
 1580.540    8.149  101.283    0.478    0.187
 1581.360    7.262  101.191    0.478    0.179
 1582.190    6.348  101.076    0.482    0.168
 1583.010    6.698   99.105    0.484    0.167
 1583.830    7.080   97.111    0.480    0.177
 1584.650    7.616   96.393    0.473    0.170
 1585.470    7.599   96.324    0.465    0.162
 1586.290    7.302   96.836    0.454    0.154
 1587.110    6.625   99.250    0.441    0.163
 1587.930    6.998  101.060    0.444    0.173
 1588.750    8.276  102.221    0.448    0.177
 1589.570    9.072  102.129    0.437    0.183
 1590.390    9.047  102.037    0.437    0.173
 1591.210    9.373  101.319    0.440    0.171
 1592.030   10.084  100.578    0.438    0.168
 1592.850   10.646   99.234    0.436    0.162
 1593.670   11.030   98.538    0.434    0.180
 1594.490   11.427   98.447    0.434    0.199
 1595.310   11.833   97.728    0.434    0.198
 1596.130   12.266   98.263    0.437    0.182
 1596.950   12.465   98.171    0.440    0.174
 1597.770   12.688   98.057    0.445    0.171
 1598.590   12.900   97.361    0.444    0.182
 1599.410   12.158   95.368    0.440    0.186
 1600.230   12.361   94.672    0.438    0.180
 1601.050   12.575   94.535    0.436    0.172
 1601.870   12.548   93.167    0.435    0.174
 1602.690   12.520   90.593    0.437    0.183
 1603.510   12.259   89.271    0.444    0.182
 1604.330   12.232   94.168    0.449    0.175
 1605.150   12.205   96.581    0.455    0.181
 1605.970   11.951   97.116    0.465    0.185
 1606.790   10.853   97.650    0.477    0.184
 1607.610    9.137   98.811    0.493    0.175
 1608.430    8.302  100.576    0.481    0.161
 1609.250    7.391  101.783    0.476    0.163
 1610.070    7.808  101.691    0.492    0.172
 1610.890    8.399  100.973    0.499    0.176
 1611.710    8.535  100.255    0.498    0.176
 1612.530    7.752  100.766    0.497    0.178
 1613.350    7.306  100.698    0.488    0.182
 1614.170    7.436  100.583    0.474    0.185
 1614.990    7.561   99.238    0.465    0.187
 1615.810    8.936   96.641    0.448    0.182
 1616.630   10.974   92.791    0.436    0.171
 1617.450   15.657   95.831    0.437    0.162
 1618.270   13.431   98.245    0.431    0.157
 1619.090   11.753   97.550    0.412    0.154
 1619.910   11.288   96.205    0.402    0.158
 1620.730   12.616   95.487    0.401    0.168
 1621.560   13.312   99.153    0.414    0.159
 1622.380   12.097  104.676    0.426    0.152
 1623.200   11.194  108.343    0.431    0.157
 1624.020   11.592  109.481    0.421    0.160
 1624.840   11.357  108.808    0.417    0.150
 1625.660    9.202  106.837    0.438    0.145
 1626.480    8.683  104.866    0.449    0.150
 1627.300    8.343  104.125    0.436    0.163
 1628.120    8.639  102.781    0.428    0.157
 1628.940    8.951  102.063    0.429    0.160
 1629.760    8.765  100.718    0.446    0.180
 1630.580    8.115   99.374    0.466    0.187
 1631.400    8.097   98.029    0.481    0.183
 1632.220    9.387   98.587    0.489    0.169
 1633.040   10.104  104.132    0.494    0.162
 1633.860    9.710  105.897    0.500    0.173
 1634.680    8.334  105.201    0.499    0.183
 1635.500    7.153  102.558    0.481    0.195
 1636.320    6.742  101.863    0.472    0.181
 1637.140    6.605  101.122    0.471    0.180
 1637.960    6.467  100.404    0.476    0.180
 1638.780    7.937  102.863    0.488    0.168
 1639.600   10.906  109.662    0.528    0.218
 1640.420   11.306  113.932    0.559    0.224
 1641.240    5.209  113.191    0.529    0.216
 1642.060    4.225  109.990    0.513    0.214
 1642.880    3.625  105.513    0.490    0.229
 1643.700    4.983  102.290    0.482    0.224
 1644.520    6.354   99.670    0.478    0.227
 1645.340    7.098   98.302    0.494    0.227
 1646.160    8.079   97.630    0.511    0.214
 1646.980    8.061   98.768    0.516    0.203
 1647.800    8.043  101.205    0.514    0.217
 1648.620    8.980  104.871    0.505    0.206
 1649.440    9.309  109.164    0.506    0.191
 1650.260    8.449  114.106    0.517    0.191
 1651.080    7.678  117.146    0.516    0.197
 1651.900    6.715  117.681    0.502    0.198
 1652.720    5.867  115.710    0.501    0.192
 1653.540    5.745  113.090    0.501    0.186
 1654.360    6.065  112.998    0.501    0.191
 1655.180    6.403  113.532    0.492    0.181
 1656.000    6.389  114.693    0.483    0.145
 1656.820    6.021  113.349    0.475    0.113
 1657.640    6.015  104.488    0.457    0.107
 1658.460    6.350   93.052    0.430    0.069
 1659.280    6.961   93.633    0.435    0.138
 1660.100    8.079   97.926    0.441    0.164
 1660.930    9.196  102.868    0.446    0.162
 1661.750   11.069  109.040    0.438    0.161
 1662.570   11.469  113.959    0.428    0.158
 1663.390   11.661  118.856    0.431    0.147
 1664.210   11.856  119.436    0.435    0.146
 1665.030   11.174  120.574    0.438    0.158
 1665.850   10.154  121.109    0.428    0.163
 1666.670    9.762  122.896    0.422    0.161
 1667.490    9.206  124.706    0.433    0.156
 1668.310    9.360  125.844    0.441    0.151
 1669.130    9.697  126.356    0.444    0.141
 1669.950   10.047  126.310    0.450    0.149
 1670.770    9.838  121.161    0.442    0.159
 1671.590   10.003  117.311    0.431    0.168
 1672.410   10.755  115.990    0.426    0.154
 1673.230   11.361  115.272    0.420    0.161
 1674.050   12.925  117.685    0.418    0.168
 1674.870   14.177  120.680    0.417    0.159
 1675.690   15.836  120.007    0.421    0.141
 1676.510   15.792  118.663    0.423    0.137
 1677.330   14.082  117.922    0.428    0.164
