~VERSION INFORMATION
 VERS.                 2.0:   CWLS LOG ASCII STANDARD -VERSION 2.0
 WRAP.                  NO:   ONE LINE PER DEPTH STEP
~WELL INFORMATION BLOCK
#MNEM.UNIT           DATA                    DESCRIPTION OF MNEMONIC
#---------    -------------------            -------------------------------
# Generated from Intellog Unique Number	CS_77_79/WELL/1006
WELL.         NORTHSTAR THORNBURY            : Well_name    - WELL
LOC .         00/11-32-079-12W4/0            : Location     - LOCATION
UWI .         00/11-32-079-12W4/0            : Uwi          - UNIQUE WELL ID
ENTR.         JHS                            : Entered      - ENTERED BY
SRVC.         SCHLUMBERGER                   : Scn          - SERVICE COMPANY
STRT.M        250                            : top_depth    - START DEPTH
STOP.M        495                            : bot_depth    - STOP DEPTH
STEP.M        0.25                           : increment    - STEP LENGTH
 NULL. -999.2500:NULL Value
~CURVE INFORMATION BLOCK
#MNEM UNIT       ERCB CURVE CODE    CURVE DESCRIPTION
#-----------   ------------------   ----------------------------------
DEPT.M        00 001 00 00         : DEPTH        - DEPTH
DPHI.V/V      00 890 00 00         : PHID         - DENSITY POROSITY (LIMESTONE)
NPHI.V/V      00 330 00 00         : PHIN         - NEUTRON POROSITY (LIMESTONE)
GR  .API      00 310 00 00         : GR           - GAMMA RAY
ILD .OHMM     00 120 00 00         : RESD         - DEEP RESISTIVITY (DIL)
RHOB.KG/M3    00 350 00 00         : DENS         - BULK DENSITY
~PARAMETER INFORMATION
#MNEM.UNIT           DATA             DESCRIPTION OF MNEMONIC
#---------         -----------     ------------------------------
GL  .M        683.9                : gl           - GROUND LEVEL ELEVATION
EREF.M        687.9                : kb           - ELEVATION OF DEPTH REFERENCE
DATM.M        687.9                : datum        - DATUM ELEVATION
TDD .M        502                  : tdd          - TOTAL DEPTH DRILLER
RUN .         ONE                  : Run          - RUN NUMBER
ENG .         BILL                 : Engineer     - RECORDING ENGINEER
WIT .         JIM                  : Witness      - WITNESSED BY
MUD .         GEL                  : Mud_type     - MUD TYPE
MATR.         LIMESTONE            : Logunit      - NEUTRON MATRIX
TMAX.C        21.1                 : BHT          - MAXIMUM RECORDED TEMPERATURE
BHTD.M        502                  : BHTDEP       - MAXIMUM RECORDED TEMPERATURE
MATR.         1                    : LOGUNIT      - NEUTRON MATRIX
RMT .C        25                   : MDTP         - TEMPERATURE OF MUD
NEUT.         1                    : NEUTRON      - NEUTRON TYPE
RESI.         0                    : RESIST       - RESISTIVITY TYPE
RMC .OHMM     0.25                 : RMC          - RESISTIVITY OF MUD CAKE
RMF .OHMM     0.25                 : RMF          - RESISTIVITY OF MUD FILTRATE
SUFT.C        15                   : SUFT         - SURFACE TEMPERATURE
~A  DEPTH     PHID     PHIN       GR     RESD     DENS
  250.000    0.293    0.589  116.810    2.945    0.000
  250.250    0.282    0.567  117.429    2.892    0.000
  250.500    0.259    0.570  118.665    2.947    0.000
  250.750    0.277    0.579  118.670    2.948    0.000
  251.000    0.284    0.553  118.059    2.949    0.000
  251.250    0.272    0.549  114.990    2.950    0.000
  251.500    0.285    0.554  111.308    2.951    0.000
  251.750    0.297    0.562  111.313    2.844    0.000
  252.000    0.287    0.571  110.703    2.845    0.000
  252.250    0.291    0.562  112.552    2.691    0.000
  252.500    0.301    0.574  112.558    2.594    0.000
  252.750    0.274    0.588  112.563    2.500    0.000
  253.000    0.283    0.605  114.411    2.455    0.000
  253.250    0.301    0.601  118.105    2.410    0.000
  253.500    0.308    0.576  116.267    2.411    0.000
  253.750    0.296    0.562  111.353    2.412    0.000
  254.000    0.282    0.558  108.899    2.412    0.000
  254.250    0.286    0.567  108.903    2.413    0.000
  254.500    0.289    0.567  108.909    2.414    0.000
  254.750    0.296    0.555  107.685    2.327    0.000
  255.000    0.308    0.545  108.305    2.328    0.000
  255.250    0.303    0.544  110.768    2.328    0.000
  255.500    0.275    0.555  107.700    2.373    0.000
  255.750    0.254    0.571  102.172    2.418    0.000
  256.000    0.216    0.585   98.489    2.419    0.000
  256.250    0.192    0.567  101.567    2.465    0.000
  256.500    0.219    0.568  110.179    2.421    0.000
  256.750    0.284    0.585  112.643    2.422    0.000
  257.000    0.281    0.577  110.805    2.423    0.000
  257.250    0.278    0.575  109.580    2.423    0.000
  257.500    0.278    0.583  113.273    2.379    0.000
  257.750    0.279    0.589  114.509    2.425    0.000
  258.000    0.283    0.593  113.285    2.471    0.000
  258.250    0.264    0.585  113.289    2.566    0.000
  258.500    0.242    0.556  112.679    2.664    0.000
  258.750    0.255    0.544  110.225    2.716    0.000
  259.000    0.261    0.536  109.001    2.767    0.000
  259.250    0.257    0.539  113.310    2.768    0.000
  259.500    0.261    0.546  114.544    2.821    0.000
  259.750    0.273    0.555  113.934    2.822    0.000
  260.000    0.265    0.552  112.095    2.876    0.000
  260.250    0.256    0.530  109.641    2.931    0.000
  260.500    0.245    0.529  108.418    2.932    0.000
  260.750    0.231    0.537  107.807    3.045    0.000
  261.000    0.241    0.545  108.428    3.161    0.000
  261.250    0.234    0.553  107.202    3.282    0.000
  261.500    0.213    0.556  103.519    3.408    0.000
  261.750    0.208    0.519  106.598    3.473    0.000
  262.000    0.203    0.503  111.522    3.674    0.000
  262.250    0.248    0.525  112.141    3.675    0.000
  262.500    0.243    0.525  110.302    3.608    0.000
  262.750    0.241    0.518  108.462    3.477    0.000
  263.000    0.236    0.520  111.543    3.229    0.000
  263.250    0.242    0.507  112.776    3.055    0.000
  263.500    0.243    0.517  112.782    2.999    0.000
  263.750    0.240    0.534  111.557    3.057    0.000
  264.000    0.245    0.543  110.947    3.116    0.000
  264.250    0.254    0.534  110.338    3.235    0.000
  264.500    0.232    0.525  109.113    3.422    0.000
  264.750    0.223    0.519  106.044    3.553    0.000
  265.000    0.227    0.524  106.049    3.554    0.000
  265.250    0.247    0.535  109.128    3.622    0.000
  265.500    0.248    0.543  104.215    3.623    0.000
  265.750    0.258    0.523   97.459    3.692    0.000
  266.000    0.247    0.503   93.159    3.834    0.000
  266.250    0.235    0.476   87.632    4.056    0.000
  266.500    0.223    0.461   83.948    4.371    0.000
  266.750    0.235    0.417   78.420    4.623    0.000
  267.000    0.247    0.393   71.662    5.076    0.000
  267.250    0.230    0.401   72.897    5.573    0.000
  267.500    0.210    0.427   72.902    6.234    0.000
  267.750    0.213    0.405   71.063    7.104    0.000
  268.000    0.216    0.395   72.913    7.947    0.000
  268.250    0.256    0.420   77.836    9.056    0.000
  268.500    0.289    0.443   84.604    9.943    0.000
  268.750    0.283    0.442   88.297    9.407    0.000
  269.000    0.286    0.431   95.681    8.898    0.000
  269.250    0.278    0.425   97.529    8.418    0.000
  269.500    0.269    0.428   96.919    8.265    0.000
  269.750    0.278    0.432   95.080    8.117    0.000
  270.000    0.268    0.445   95.086    7.969    0.000
  270.250    0.264    0.448   97.550    7.825    0.000
  270.500    0.262    0.453  100.629    7.682    0.000
  270.750    0.247    0.460  103.708    7.134    0.000
  271.000    0.231    0.453  106.173    6.748    0.000
  271.250    0.247    0.460  106.792    6.150    0.000
  271.500    0.255    0.460  109.256    5.401    0.000
  271.750    0.249    0.471  111.721    4.742    0.000
  272.000    0.240    0.497  111.111    3.938    0.000
  272.250    0.254    0.514  106.812    3.657    0.000
  272.500    0.263    0.526   96.366    4.090    0.000
  272.750    0.276    0.522   81.001    5.938    0.000
  273.000    0.302    0.480   68.096    7.427    0.000
  273.250    0.341    0.449   59.496    8.950    0.000
  273.500    0.342    0.436   58.270   10.989    0.000
  273.750    0.333    0.455   55.201   11.841    0.000
  274.000    0.330    0.458   50.288   12.761    0.000
  274.250    0.307    0.446   45.374   13.499    0.000
  274.500    0.307    0.420   38.617   14.280    0.000
  274.750    0.313    0.403   37.393   15.106    0.000
  275.000    0.328    0.398   37.398   15.978    0.000
  275.250    0.308    0.404   40.477   16.285    0.000
  275.500    0.305    0.409   41.712   16.290    0.000
  275.750    0.313    0.401   42.331   16.296    0.000
  276.000    0.323    0.401   47.870   16.001    0.000
  276.250    0.314    0.403   53.408   15.712    0.000
  276.500    0.317    0.410   52.799   15.715    0.000
  276.750    0.325    0.416   50.959   15.721    0.000
  277.000    0.332    0.426   47.275   15.727    0.000
  277.250    0.329    0.415   44.823   14.604    0.000
  277.500    0.328    0.407   47.900   13.065    0.000
  277.750    0.313    0.399   57.127   11.687    0.000
  278.000    0.300    0.394   68.813    9.526    0.000
  278.250    0.262    0.396   89.106    8.681    0.000
  278.500    0.223    0.417   99.563    7.766    0.000
  278.750    0.234    0.468  100.797    7.078    0.000
  279.000    0.252    0.473   98.344    7.214    0.000
  279.250    0.263    0.464   95.274    7.631    0.000
  279.500    0.278    0.447   90.977    8.224    0.000
  279.750    0.274    0.432   90.366    8.864    0.000
  280.000    0.256    0.428   90.986    9.203    0.000
  280.250    0.257    0.434   93.450    9.036    0.000
  280.500    0.287    0.445   97.144    8.708    0.000
  280.750    0.268    0.451  101.452    8.086    0.000
  281.000    0.264    0.455  106.990    7.649    0.000
  281.250    0.253    0.456  111.915    7.652    0.000
  281.500    0.247    0.459  111.919    7.945    0.000
  281.750    0.264    0.472  107.006    8.723    0.000
  282.000    0.305    0.488   96.560   10.318    0.000
  282.250    0.338    0.501   87.344   11.980    0.000
  282.500    0.372    0.486   87.963   12.911    0.000
  282.750    0.378    0.488   91.042   13.157    0.000
  283.000    0.367    0.477   93.506   13.161    0.000
  283.250    0.352    0.480   91.668   12.925    0.000
  283.500    0.341    0.482   91.673   12.929    0.000
  283.750    0.328    0.461   93.521   12.693    0.000
  284.000    0.331    0.450   93.528   12.464    0.000
  284.250    0.320    0.445   91.688   12.238    0.000
  284.500    0.314    0.446   88.005   12.242    0.000
  284.750    0.327    0.452   88.009   12.477    0.000
  285.000    0.338    0.455   88.015   12.482    0.000
  285.250    0.339    0.455   91.093   12.486    0.000
  285.500    0.336    0.457   95.402   12.489    0.000
  285.750    0.320    0.453   97.251   12.493    0.000
  286.000    0.304    0.450  100.330   12.497    0.000
  286.250    0.282    0.450  101.564   12.503    0.000
