~VERSION INFORMATION
 VERS.                 2.0:   CWLS LOG ASCII STANDARD -VERSION 2.0
 WRAP.                  NO:   ONE LINE PER DEPTH STEP
~WELL INFORMATION BLOCK
#MNEM.UNIT           DATA                    DESCRIPTION OF MNEMONIC
#---------    -------------------            -------------------------------
# Generated from Intellog Unique Number	CW_73_75/WELL/3023
WELL.         RANGER ET AL MARTEN H 11-15    : Well_name    - WELL
LOC .         00/11-15-073-23W4/0            : Location     - LOCATION
UWI .         00/11-15-073-23W4/0            : Uwi          - UNIQUE WELL ID
ENTR.         JJ                             : Entered      - ENTERED BY
SRVC.         SCHLUMBERGER                   : Scn          - SERVICE COMPANY
DATE.         13 NOV 70                      : Date         - LOG DATE
STRT.M        502.92                         : top_depth    - START DEPTH
STOP.M        697.92                         : bot_depth    - STOP DEPTH
STEP.M        0.25                           : increment    - STEP LENGTH
 NULL. -999.2500:NULL Value
~CURVE INFORMATION BLOCK
#MNEM UNIT       ERCB CURVE CODE    CURVE DESCRIPTION
#-----------   ------------------   ----------------------------------
DEPT.M        00 001 00 00         : DEPTH        - DEPTH
DPHI.V/V      00 890 00 00         : PHID         - DENSITY POROSITY (SANDSTONE)
GR  .API      00 310 00 00         : GR           - GAMMA RAY
CALI.MM       00 280 01 00         : CAL          - CALIPER
NPHI.V/V      00 330 00 00         : PHIN         - NEUTRON POROSITY (SANDSTONE)
ILD .OHMM     00 120 00 00         : RESD         - DEEP RESISTIVITY (DIL)
~PARAMETER INFORMATION
#MNEM.UNIT           DATA             DESCRIPTION OF MNEMONIC
#---------         -----------     ------------------------------
GL  .M        717.499              : gl           - GROUND LEVEL ELEVATION
EREF.M        720.547              : kb           - ELEVATION OF DEPTH REFERENCE
DATM.M        720.547              : datum        - DATUM ELEVATION
TDD .M        701.04               : tdd          - TOTAL DEPTH DRILLER
RUN .         ONE                  : Run          - RUN NUMBER
ENG .         SLADEN               : Engineer     - RECORDING ENGINEER
WIT .         BROWN                : Witness      - WITNESSED BY
BASE.         EDMONTON             : Branch       - HOME BASE OF LOGGING UNIT
MUD .         GEL CHEM-LCM         : Mud_type     - MUD TYPE
MATR.         SANDSTONE            : Logunit      - NEUTRON MATRIX
TMAX.C        20                   : BHT          - MAXIMUM RECORDED TEMPERATURE
BHTD.M        701.345              : BHTDEP       - MAXIMUM RECORDED TEMPERATURE
RMT .C        7.22222              : MDTP         - TEMPERATURE OF MUD
MUDD.KG/M     1068                 : MWT          - MUD DENSITY
NEUT.         0                    : NEUTRON      - NEUTRON TYPE
RESI.         0                    : RESIST       - RESISTIVITY TYPE
RM  .OHMM     2.13                 : RM           - RESISTIVITY OF MUD
RMC .OHMM     0                    : RMC          - RESISTIVITY OF MUD CAKE
RMF .OHMM     2.91                 : RMF          - RESISTIVITY OF MUD FILTRATE
SUFT.C        5                    : SUFT         - SURFACE TEMPERATURE
~A  DEPTH     PHID       GR      CAL     PHIN     RESD
# ...
  648.920    0.168   99.781  157.164    0.339    2.556
  649.170    0.181   99.855  159.147    0.329    2.687
  649.420    0.169  100.049  161.451    0.313    2.851
  649.670    0.149   97.065  162.401    0.307    3.264
  649.920    0.140   91.998  162.523    0.264    4.021
  650.170    0.115   89.073  163.375    0.252    4.875
  650.420    0.090   89.697  163.812    0.241    5.544
  650.670    0.107   98.152  164.354    0.237    5.845
  650.920    0.129   99.144  164.574    0.265    5.896
  651.170    0.135   96.830  164.703    0.283    5.948
  651.420    0.113   90.846  164.714    0.246    6.297
  651.670    0.097   80.152  164.737    0.206    6.774
  651.920    0.064   71.539  165.379    0.181    7.058
  652.170    0.003   80.604  165.397    0.169    7.022
  652.420    0.042   87.407  165.829    0.248    6.873
  652.670    0.152   90.661  165.126    0.282    6.508
  652.920    0.144   88.592  162.143    0.281    5.686
  653.170    0.141   82.915  157.396    0.272    5.392
  653.420    0.149   87.882  157.396    0.286    5.541
  653.670    0.159   86.976  159.729    0.283    5.841
  653.920    0.158   87.050  160.770    0.281    6.061
  654.170    0.144   91.160  162.862    0.284    6.065
  654.420    0.149   89.520  163.712    0.276    6.069
  654.670    0.142   86.412  163.528    0.279    6.345
  654.920    0.111   84.588  162.824    0.256    6.541
  655.170    0.069   85.764  162.529    0.237    6.457
  655.420    0.080   87.915  162.038    0.237    6.268
  655.670    0.117   92.882  161.951    0.236    5.967
  655.920    0.133   99.136  161.762    0.242    5.490
  656.170    0.136  104.222  161.264    0.260    5.068
  656.420    0.145   94.447  160.980    0.282    4.759
  656.670    0.157   95.929  161.311    0.274    4.523
  656.920    0.143   94.961  161.229    0.269    4.590
  657.170    0.146   92.219  161.342    0.263    4.875
  657.420    0.147   86.419  162.092    0.270    5.263
  657.670    0.123   81.660  162.736    0.272    5.716
  657.920    0.107   83.263  163.380    0.247    6.217
  658.170    0.123   87.556  163.604    0.233    6.637
  658.420    0.154   85.244  163.932    0.223    7.010
  658.670    0.125   74.978  164.055    0.239    7.351
  658.920    0.115   66.732  164.055    0.241    7.715
  659.170    0.111   73.717  164.055    0.230    8.048
  659.420    0.117   85.782  165.263    0.216    8.284
  659.670    0.099   92.154  165.376    0.201    8.272
  659.920    0.096  101.954  165.296    0.240    7.859
  660.170    0.118  108.266  165.296    0.256    7.509
  660.420    0.126  108.584  162.432    0.235    6.944
  660.670    0.134   97.769  162.040    0.228    6.427
  660.920    0.138   97.781  162.472    0.250    5.997
  661.170    0.153   99.628  163.010    0.232    5.744
  661.420    0.156  102.208  162.512    0.234    5.659
  661.670    0.142  106.257  160.983    0.261    5.687
  661.920    0.100   92.627  159.964    0.268    5.859
  662.170    0.113   90.561  159.776    0.245    6.584
  662.420    0.117   86.781  160.937    0.222    7.815
  662.670    0.096   81.653  161.474    0.209    8.661
  662.920    0.088   86.680  161.808    0.206    9.073
  663.170    0.098   82.043  161.824    0.201    9.511
  663.420    0.073   76.917  161.948    0.216    9.923
  663.670    0.062   85.309  162.697    0.234   10.224
  663.920    0.073   93.395  162.922    0.208    9.851
  664.170    0.096  101.604  162.942    0.199    9.276
  664.420    0.099   91.585  162.962    0.208    8.799
  664.670    0.115   91.047  163.292    0.223    8.466
  664.920    0.121   95.951  163.003    0.208    8.358
  665.170    0.121  104.284  163.127    0.216    8.361
  665.420    0.101  108.270  163.353    0.224    8.381
  665.670    0.100   99.781  163.371    0.216    8.344
  665.920    0.118   91.288  163.706    0.216    8.308
  666.170    0.106   93.808  163.932    0.204    8.184
  666.420    0.115   94.799  164.054    0.212    7.970
  666.670    0.140   94.565  164.383    0.225    7.766
  666.920    0.158   96.291  164.405    0.236    7.505
  667.170    0.157   98.750  164.738    0.239    7.293
  667.420    0.139   96.619  165.170    0.234    7.248
  667.670    0.140   99.018  164.051    0.227    7.276
  667.920    0.170  105.453  162.933    0.225    7.448
  668.170    0.226   98.368  161.296    0.239    7.548
  668.420    0.262   93.487  159.141    0.271    7.680
  668.670    0.191   90.623  156.778    0.323    7.981
  668.920    0.194   85.742  155.036    0.300    8.521
  669.170    0.195   74.865  152.778    0.242    9.800
  669.420    0.160   73.347  151.035    0.223   10.798
  669.670    0.172   70.118  149.294    0.222   11.724
  669.920    0.163   70.068  148.593    0.236   12.586
  670.170    0.155   72.037  149.856    0.248   13.247
  670.420    0.166   72.171  152.981    0.256   12.400
  670.670    0.134   72.306  156.832    0.248   11.514
  670.920    0.139   80.576  160.167    0.232   10.291
  671.170    0.110   86.031  160.916    0.222    9.461
  671.420    0.115   93.629  161.037    0.245    8.830
  671.670    0.128   95.905  160.749    0.244    8.249
  671.920    0.154   91.207  160.458    0.257    7.988
  672.170    0.125   90.177  160.786    0.273    7.566
  672.420    0.134   90.067  161.014    0.253    7.402
  672.670    0.127   91.365  160.310    0.268    7.751
  672.920    0.148   91.436  158.572    0.282    8.324
  673.170    0.184   83.924  156.723    0.296    8.704
  673.420    0.233   77.635  151.151    0.288    8.106
  673.670    0.279   99.363  150.445    0.294    7.083
  673.920    0.275  122.070  156.267    0.316    6.245
  674.170    0.250  131.869  160.635    0.376    5.062
  674.420    0.198  124.480  156.513    0.337    4.488
  674.670    0.148  110.299  152.394    0.325    4.452
  674.920    0.142   92.816  152.616    0.320    5.193
  675.170    0.129   76.434  154.296    0.305    6.993
  675.420    0.088   56.136  155.454    0.293   11.312
  675.670    0.017   28.988  156.098    0.242   16.215
  675.920   -0.048   17.440  156.219    0.152   18.729
  676.170   -0.020   15.982  152.614    0.121   19.815
  676.420   -0.027   14.893  148.906    0.074   32.110
  676.670   -0.037   15.578  149.961    0.089   51.761
  676.920   -0.061   20.116  156.407    0.090   49.105
  677.170    0.030   49.858  160.669    0.084   39.823
  677.420    0.164   75.134  155.511    0.075   18.501
  677.670    0.327   85.116  146.518    0.092   10.950
  677.920    0.351  102.134  151.510    0.357    8.765
  678.170    0.351   98.293  163.235    0.444    8.745
  678.420    0.364   94.083  161.290    0.392    8.869
  678.670    0.308   91.587  154.264    0.370    9.025
  678.920    0.249   67.986  145.275    0.328    9.190
  679.170    0.240   57.843  140.631    0.307    9.330
  679.420    0.266   75.719  142.102    0.300    9.478
  679.670    0.285   87.963  143.881    0.289    9.521
  679.920    0.283  120.030  146.908    0.300    9.373
  680.170    0.290  135.030  153.974    0.346    8.759
  680.420    0.315  132.593  159.479    0.376    7.889
  680.670    0.334   88.745  158.878    0.378    6.858
  680.920    0.330   67.530  139.841    0.370    5.740
  681.170    0.297   46.805  126.290    0.320    5.118
  681.420    0.266   59.235  132.843    0.298    4.600
  681.670    0.276   60.286  137.828    0.311    4.115
  681.920    0.265   78.528  150.070    0.346    4.391
  682.170    0.287  117.200  152.890    0.383    5.366
  682.420    0.319  120.393  157.465    0.410    6.027
  682.670    0.291  108.783  162.774    0.362    7.282
  682.920    0.243   91.974  160.201    0.328    8.874
  683.170    0.157   81.523  155.039    0.257    8.476
  683.420    0.173   67.650  148.328    0.242    7.437
  683.670    0.200   54.143  146.895    0.241    6.680
  683.920    0.219   44.428  147.126    0.263    6.114
  684.170    0.216   42.361  147.249    0.269    5.564
  684.420    0.204   50.019  147.371    0.256    5.151
  684.670    0.198   52.600  148.432    0.253    4.882
  684.920    0.213   52.061  148.555    0.234    4.798
  685.170    0.219   49.443  149.191    0.233    4.834
