~VERSION INFORMATION
 VERS.                 2.0:   CWLS LOG ASCII STANDARD -VERSION 2.0
 WRAP.                  NO:   ONE LINE PER DEPTH STEP
~WELL INFORMATION BLOCK
#MNEM.UNIT           DATA                    DESCRIPTION OF MNEMONIC
#---------    -------------------            -------------------------------
# Generated from Intellog Unique Number	CW_76_78/WELL/3588
WELL.         MARK RESOURCES INC.            : Well_name    - WELL
LOC .         00/14-03-077-19W4/0            : Location     - LOCATION
UWI .         00/14-03-077-19W4/0            : Uwi          - UNIQUE WELL ID
ENTR.         JOETTE                         : Entered      - ENTERED BY
SRVC.         SCHLUMBERGER                   : Scn          - SERVICE COMPANY
DATE.         08/26/92                       : Date         - LOG DATE
STRT.M        210                            : top_depth    - START DEPTH
STOP.M        455                            : bot_depth    - STOP DEPTH
STEP.M        0.25                           : increment    - STEP LENGTH
 NULL. -999.2500:NULL Value
~CURVE INFORMATION BLOCK
#MNEM UNIT       ERCB CURVE CODE    CURVE DESCRIPTION
#-----------   ------------------   ----------------------------------
DEPT.M        00 001 00 00         : DEPTH        - DEPTH
GR  .API      00 310 00 00         : GR           - GAMMA RAY
NPHI.V/V      00 330 00 00         : PHIN         - NEUTRON POROSITY (SANDSTONE)
DPHI.V/V      00 890 00 00         : PHID         - DENSITY POROSITY (SANDSTONE)
ILD .OHMM     00 120 00 00         : RESD         - DEEP RESISTIVITY (DIL)
~PARAMETER INFORMATION
#MNEM.UNIT           DATA             DESCRIPTION OF MNEMONIC
#---------         -----------     ------------------------------
GL  .M        561                  : gl           - GROUND LEVEL ELEVATION
EREF.M        564.3                : kb           - ELEVATION OF DEPTH REFERENCE
DATM.M        564.3                : datum        - DATUM ELEVATION
TDD .M        458                  : tdd          - TOTAL DEPTH DRILLER
RUN .         ONE                  : Run          - RUN NUMBER
ENG .         BILL                 : Engineer     - RECORDING ENGINEER
WIT .         JIM                  : Witness      - WITNESSED BY
MUD .         GEL                  : Mud_type     - MUD TYPE
MATR.         SANDSTONE            : Logunit      - NEUTRON MATRIX
TMAX.C        28                   : BHT          - MAXIMUM RECORDED TEMPERATURE
BHTD.M        458                  : BHTDEP       - MAXIMUM RECORDED TEMPERATURE
MATR.         1                    : LOGUNIT      - NEUTRON MATRIX
RMT .C        21                   : MDTP         - TEMPERATURE OF MUD
NEUT.         1                    : NEUTRON      - NEUTRON TYPE
RESI.         0                    : RESIST       - RESISTIVITY TYPE
RMC .OHMM     4.75                 : RMC          - RESISTIVITY OF MUD CAKE
RMF .OHMM     4.75                 : RMF          - RESISTIVITY OF MUD FILTRATE
SUFT.C        15                   : SUFT         - SURFACE TEMPERATURE
~A  DEPTH       GR     PHIN     PHID     RESD
# ...
  253.500   62.291    0.431    0.326   10.394
  253.750   62.908    0.459    0.232   12.275
  254.000   59.377    0.424    0.199   13.973
  254.250   42.809    0.363    0.020   13.977
  254.500   46.388    0.289    0.075   13.980
  254.750   62.411    0.371    0.158   12.293
  255.000   66.582    0.407    0.250   11.214
  255.250   66.013    0.427    0.285    9.329
  255.500   63.076    0.444    0.290    7.761
  255.750   57.182    0.434    0.298    6.577
  256.000   57.792    0.427    0.329    5.890
  256.250   68.485    0.422    0.334    5.374
  256.500   70.872    0.432    0.311    5.182
  256.750   75.635    0.451    0.298    5.280
  257.000   76.251    0.478    0.288    5.582
  257.250   73.906    0.487    0.293    6.010
  257.500   68.006    0.491    0.316    5.585
  257.750   69.221    0.481    0.322    6.126
  258.000   69.245    0.469    0.331    6.846
  258.250   66.900    0.461    0.336    7.510
  258.500   62.191    0.459    0.310    7.939
  258.750   61.616    0.467    0.305    8.710
  259.000   68.156    0.459    0.286    9.207
  259.250   72.333    0.454    0.291   10.101
  259.500   71.172    0.457    0.298   10.483
  259.750   68.234    0.468    0.298   10.681
  260.000   55.819    0.461    0.233   10.884
  260.250   55.837    0.364    0.204   10.889
  260.500   59.415    0.432    0.194   10.692
  260.750   59.445    0.453    0.327    9.937
  261.000   58.870    0.446    0.326    9.404
  261.250   67.188    0.437    0.307    8.579
  261.500   77.281    0.456    0.278    8.121
  261.750   80.866    0.460    0.270    8.274
  262.000   82.080    0.449    0.273    8.431
  262.250   78.544    0.444    0.316    8.914
  262.500   73.829    0.445    0.323    9.600
  262.750   69.707    0.431    0.330    9.963
  263.000   65.596    0.425    0.332   10.342
  263.250   65.016    0.411    0.329   10.539
  263.500   65.040    0.375    0.326   10.543
  263.750   65.656    0.380    0.321   10.164
  264.000   69.827    0.399    0.313    9.800
  264.250   80.513    0.403    0.289    9.106
  264.500   82.320    0.409    0.284    8.461
  264.750   83.523    0.422    0.277    7.863
  265.000   84.145    0.440    0.260    6.914
  265.250   84.756    0.429    0.277    6.666
  265.500   84.792    0.463    0.274    6.547
  265.750   83.027    0.469    0.288    6.794
  266.000   78.910    0.445    0.267    7.183
  266.250   81.297    0.445    0.256    7.320
  266.500   90.219    0.453    0.242    7.458
  266.750   86.683    0.487    0.272    7.461
  267.000   82.560    0.492    0.307    7.328
  267.250   80.215    0.476    0.324    7.195
  267.500   76.098    0.482    0.325    7.468
  267.750   73.154    0.485    0.299    7.751
  268.000   76.140    0.507    0.307    6.942
  268.250   82.088    0.474    0.314    5.775
  268.500   84.481    0.468    0.313    4.717
  268.750   85.097    0.495    0.322    4.303
  269.000   82.752    0.544    0.327    3.854
  269.250   79.228    0.555    0.320    3.927
  269.500   91.093    0.628    0.318    4.152
  269.750   90.531    0.605    0.327    4.471
  270.000   88.179    0.534    0.341    4.996
  270.250   83.464    0.487    0.346    5.582
  270.500   79.342    0.482    0.336    6.472
  270.750   74.633    0.510    0.327    7.231
  271.000   74.651    0.503    0.334   10.079
  271.250   72.898    0.487    0.341   10.656
  271.500   67.591    0.469    0.335   11.689
  271.750   58.137    0.467    0.328   12.588
  272.000   51.053    0.469    0.331   14.066
  272.250   46.344    0.472    0.343   14.598
  272.500   45.775    0.471    0.356   14.606
  272.750   43.430    0.470    0.358   14.345
  273.000   43.448    0.465    0.355   14.345
  273.250   47.032    0.454    0.348   10.886
  273.500   47.050    0.443    0.342   10.891
  273.750   44.711    0.443    0.344   10.695
  274.000   44.136    0.448    0.353   10.502
  274.250   45.357    0.454    0.351   10.508
  274.500   47.756    0.453    0.346   10.510
  274.750   48.953    0.450    0.340   10.321
  275.000   50.754    0.447    0.337   10.326
  275.250   53.148    0.466    0.337   10.328
  275.500   57.324    0.449    0.332   10.145
  275.750   58.527    0.444    0.329   10.147
  276.000   59.149    0.432    0.329   10.150
  276.250   56.217    0.438    0.316    9.969
  276.500   55.045    0.443    0.321    9.972
  276.750   52.705    0.449    0.321   10.162
  277.000   50.958    0.449    0.321   10.164
  277.250   50.384    0.424    0.325   10.749
  277.500   53.376    0.447    0.335   10.950
  277.750   56.349    0.457    0.343   11.793
  278.000   61.711    0.475    0.345   12.467
  278.250   59.957    0.479    0.340   12.942
  278.500   58.204    0.473    0.331   12.945
  278.750   55.273    0.443    0.324   12.949
  279.000   54.704    0.443    0.317   12.717
  279.250   54.722    0.445    0.310   12.489
  279.500   55.339    0.445    0.308   11.822
  279.750   55.955    0.438    0.310   11.611
  280.000   58.348    0.437    0.322   11.401
  280.250   54.226    0.455    0.333   11.199
  280.500   51.288    0.465    0.339   11.202
  280.750   49.541    0.455    0.338   11.000
  281.000   47.195    0.424    0.338   11.005
  281.250   47.219    0.429    0.340   11.008
  281.500   51.384    0.444    0.346   11.013
  281.750   51.414    0.457    0.351   11.220
  282.000   52.623    0.454    0.353   11.863
  282.250   55.016    0.449    0.359   12.541
  282.500   48.518    0.450    0.367   14.014
  282.750   44.988    0.452    0.363   14.817
  283.000   47.980    0.452    0.361   14.821
  283.250   50.367    0.441    0.358   14.555
  283.500   50.391    0.435    0.352   14.034
  283.750   48.052    0.449    0.347   13.781
  284.000   45.114    0.452    0.340   13.534
  284.250   43.361    0.440    0.322   14.049
  284.500   42.200    0.387    0.172   14.315
  284.750   41.045    0.376    0.158   14.320
  285.000   42.248    0.406    0.190   14.062
  285.250   46.425    0.434    0.236   13.312
  285.500   46.449    0.441    0.352   12.600
  285.750   45.880    0.445    0.348   11.708
  286.000   45.312    0.449    0.349   11.287
  286.250   47.113    0.431    0.353   10.883
  286.500   45.952    0.407    0.349   10.687
  286.750   44.791    0.432    0.316   10.692
  287.000   51.918    0.443    0.301   10.895
  287.250   63.789    0.443    0.287   12.174
  287.500   69.150    0.436    0.304   13.604
  287.750   74.505    0.450    0.304   14.648
  288.000   66.829    0.439    0.270   16.067
  288.250   55.604    0.420    0.248   17.626
  288.500   50.883    0.446    0.338   18.635
  288.750   45.582    0.475    0.355   19.339
  289.000   44.415    0.474    0.352   20.446
  289.250   46.216    0.472    0.347   21.223
  289.500   45.654    0.467    0.346   21.625
  289.750   45.079    0.461    0.341   22.445
  290.000   44.511    0.464    0.339   22.871
  290.250   45.719    0.474    0.329   23.305
  290.500   45.743    0.471    0.329   23.746
  290.750   44.589    0.462    0.340   20.879
  291.000   43.428    0.452    0.345   16.135
  291.250   43.452    0.444    0.335   15.272
  291.500   41.699    0.448    0.325   14.454
  291.750   39.353    0.447    0.331   12.945
  292.000   40.562    0.441    0.342   11.596
  292.250   43.542    0.453    0.347   11.181
  292.500   46.528    0.440    0.350   10.980
  292.750   48.335    0.430    0.332   10.585
  293.000   48.359    0.442    0.320   10.019
  293.250   47.791    0.430    0.313    9.839
  293.500   44.853    0.415    0.296    9.663
  293.750   42.507    0.459    0.302    9.490
  294.000   44.907    0.468    0.317    9.320
  294.250   47.300    0.479    0.335    9.497
  294.500   49.107    0.488    0.339    9.676
  294.750   49.712    0.461    0.335    9.860
  295.000   49.742    0.438    0.333   10.619
  295.250   49.173    0.426    0.328   10.819
  295.500   48.611    0.411    0.327   11.229
  295.750   48.036    0.413    0.326   11.656
  296.000   47.468    0.420    0.323   11.659
  296.250   47.486    0.421    0.318   11.882
  296.500   47.510    0.416    0.317   11.885
  296.750   47.540    0.416    0.323   11.888
