~VERSION INFORMATION
 VERS.                 2.0:   CWLS LOG ASCII STANDARD -VERSION 2.0
 WRAP.                  NO:   ONE LINE PER DEPTH STEP
~WELL INFORMATION BLOCK
#MNEM.UNIT           DATA                    DESCRIPTION OF MNEMONIC
#---------    -------------------            -------------------------------
# Generated from Intellog Unique Number	CW_73_75/WELL/2749
WELL.         COSEKA ETAL MITSUE 12-31       : Well_name    - WELL
LOC .         00/12-31-073-04W5/0            : Location     - LOCATION
UWI .         00/12-31-073-04W5/0            : Uwi          - UNIQUE WELL ID
ENTR.         JAYE                           : Entered      - ENTERED BY
SRVC.         WESTERN ATLAS                  : Scn          - SERVICE COMPANY
DATE.         19 JUNE 84                     : Date         - LOG DATE
STRT.M        365                            : top_depth    - START DEPTH
STOP.M        585                            : bot_depth    - STOP DEPTH
STEP.M        0.25                           : increment    - STEP LENGTH
 NULL. -999.2500:NULL Value
~CURVE INFORMATION BLOCK
#MNEM UNIT       ERCB CURVE CODE    CURVE DESCRIPTION
#-----------   ------------------   ----------------------------------
DEPT.M        00 001 00 00         : DEPTH        - DEPTH
DPHI.V/V      00 890 00 00         : PHID         - DENSITY POROSITY (SANDSTONE)
NPHI.V/V      00 330 00 00         : PHIN         - NEUTRON POROSITY (SANDSTONE)
GR  .API      00 310 00 00         : GR           - GAMMA RAY
CALI.MM       00 280 01 00         : CAL          - CALIPER
ILD .OHMM     00 120 00 00         : RESD         - DEEP RESISTIVITY (DIL)
~PARAMETER INFORMATION
#MNEM.UNIT           DATA             DESCRIPTION OF MNEMONIC
#---------         -----------     ------------------------------
GL  .M        585.2                : gl           - GROUND LEVEL ELEVATION
EREF.M        598.8                : kb           - ELEVATION OF DEPTH REFERENCE
DATM.M        585.2                : datum        - DATUM ELEVATION
TDD .M        1645                 : tdd          - TOTAL DEPTH DRILLER
RUN .         ONE                  : Run          - RUN NUMBER
ENG .         TAKEYASU             : Engineer     - RECORDING ENGINEER
WIT .         JONES                : Witness      - WITNESSED BY
BASE.         EDM                  : Branch       - HOME BASE OF LOGGING UNIT
MUD .         GEL CHEM             : Mud_type     - MUD TYPE
MATR.         SANDSTONE            : Logunit      - NEUTRON MATRIX
TMAX.C        49                   : BHT          - MAXIMUM RECORDED TEMPERATURE
BHTD.M        1645.6               : BHTDEP       - MAXIMUM RECORDED TEMPERATURE
RMT .C        16                   : MDTP         - TEMPERATURE OF MUD
MUDD.KG/M     1090                 : MWT          - MUD DENSITY
NEUT.         1                    : NEUTRON      - NEUTRON TYPE
RESI.         0                    : RESIST       - RESISTIVITY TYPE
RM  .OHMM     1.2                  : RM           - RESISTIVITY OF MUD
RMC .OHMM     1.2                  : RMC          - RESISTIVITY OF MUD CAKE
RMF .OHMM     0.6                  : RMF          - RESISTIVITY OF MUD FILTRATE
SUFT.C        0                    : SUFT         - SURFACE TEMPERATURE
~A  DEPTH     PHID     PHIN       GR      CAL     RESD
# ...
  438.000    0.334    0.453   62.648  243.173    4.492
  438.250    0.346    0.444   61.557  243.710    4.935
  438.500    0.341    0.445   63.546  243.844    5.243
  438.750    0.324    0.448   66.949  244.076    5.083
  439.000    0.319    0.440   66.104  244.414    5.013
  439.250    0.312    0.473   63.783  244.339    4.951
  439.500    0.303    0.450   65.709  243.648    4.908
  439.750    0.291    0.437   68.250  242.649    4.867
  440.000    0.295    0.451   69.561  241.858    4.843
  440.250    0.289    0.483   71.550  241.372    4.829
  440.500    0.287    0.412   76.372  240.886    4.832
  440.750    0.293    0.416   69.797  240.099    4.872
  441.000    0.293    0.440   70.492  239.508    4.978
  441.250    0.284    0.455   71.618  239.432    5.037
  441.500    0.262    0.459   66.399  240.076    5.051
  441.750    0.235    0.428   68.141  240.927    4.989
  442.000    0.248    0.401   72.161  241.879    4.928
  442.250    0.258    0.412   69.530  242.934    4.877
  442.500    0.255    0.404   72.627  245.223    4.872
  442.750    0.242    0.401   79.420  248.125    4.903
  443.000    0.240    0.436   80.362  251.336    4.943
  443.250    0.245    0.419   76.189  254.138    4.965
  443.500    0.244    0.382   80.951  256.426    4.979
  443.750    0.244    0.411   73.576  255.427    5.029
  444.000    0.248    0.448   67.493  254.016    5.157
  444.250    0.259    0.438   69.605  253.739    5.238
  444.500    0.264    0.408   73.811  254.588    5.272
  444.750    0.259    0.470   77.033  257.081    5.276
  445.000    0.252    0.452   78.527  260.396    5.300
  445.250    0.257    0.423   75.402  264.737    5.314
  445.500    0.257    0.416   71.046  269.794    5.318
  445.750    0.241    0.374   69.831  273.930    5.282
  446.000    0.224    0.424   68.678  275.192    5.296
  446.250    0.204    0.466   71.098  275.937    5.281
  446.500    0.224    0.420   73.518  276.276    5.284
  446.750    0.222    0.453   74.272  276.305    5.279
  447.000    0.217    0.462   74.783  276.333    5.284
  447.250    0.227    0.443   74.984  276.256    5.297
  447.500    0.234    0.421   74.263  276.079    5.341
  447.750    0.233    0.377   73.663  275.801    5.375
  448.000    0.226    0.370   73.681  275.830    5.389
  448.250    0.212    0.404   76.900  275.754    5.393
  448.500    0.189    0.399   80.737  275.372    5.398
  448.750    0.199    0.417   75.826  272.833    5.432
  449.000    0.221    0.409   68.143  267.830    5.437
  449.250    0.234    0.384   67.605  259.338    5.461
  449.500    0.244    0.400   75.014  254.437    5.496
  449.750    0.255    0.421   81.316  253.235    5.531
  450.000    0.265    0.438   81.580  252.236    5.545
  450.250    0.255    0.408   76.668  251.339    5.376
  450.500    0.213    0.379   75.391  248.802    4.919
  450.750    0.221    0.411   79.968  246.365    4.594
  451.000    0.215    0.429   86.268  245.987    4.396
  451.250    0.198    0.445   84.374  243.138    4.230
  451.500    0.193    0.464   79.650  237.621    4.178
  451.750    0.214    0.460   73.012  230.464    4.349
  452.000    0.241    0.407   67.979  227.410    4.743
  452.250    0.254    0.403   62.943  226.005    5.359
  452.500    0.262    0.411   57.970  224.595    5.888
  452.750    0.274    0.417   55.461  224.209    6.506
  453.000    0.269    0.438   62.379  224.034    7.256
  453.250    0.275    0.367   62.149  224.678    6.878
  453.500    0.267    0.391   57.546  228.710    6.448
  453.750    0.263    0.442   59.535  232.333    6.011
  454.000    0.268    0.430   65.589  235.339    5.795
  454.250    0.268    0.399   72.752  237.115    5.423
  454.500    0.250    0.435   73.139  236.730    5.238
  454.750    0.263    0.439   65.086  233.782    5.183
  455.000    0.297    0.421   58.202  231.449    5.187
  455.250    0.299    0.393   61.546  229.733    5.230
  455.500    0.280    0.371   61.565  228.530    5.273
  455.750    0.279    0.389   62.445  227.839    5.277
  456.000    0.278    0.415   64.801  227.456    5.282
  456.250    0.274    0.438   72.272  227.690    5.276
  456.500    0.257    0.457   68.716  228.231    5.289
  456.750    0.270    0.455   63.005  228.365    5.333
  457.000    0.275    0.448   61.297  228.599    5.428
  457.250    0.278    0.429   64.887  229.037    5.473
  457.500    0.284    0.389   65.273  229.271    5.488
  457.750    0.287    0.399   58.082  229.505    5.461
  458.000    0.285    0.443   56.066  230.045    5.414
  458.250    0.279    0.424   62.675  230.689    5.368
  458.500    0.277    0.403   63.986  230.717    5.332
  458.750    0.282    0.348   61.724  230.334    5.267
  459.000    0.289    0.413   57.983  230.056    5.232
  459.250    0.295    0.449   55.474  229.878    5.149
  459.500    0.294    0.373   60.358  229.600    5.105
  459.750    0.285    0.389   61.299  229.320    5.166
  460.000    0.282    0.406   60.392  229.150    5.287
  460.250    0.278    0.399   59.794  229.274    5.628
  460.500    0.273    0.381   60.611  229.412    5.979
  460.750    0.275    0.420   64.633  229.434    5.929
  461.000    0.277    0.411   67.792  229.153    5.888
  461.250    0.279    0.372   62.018  229.182    5.806
  461.500    0.280    0.337   65.115  229.108    5.853
  461.750    0.280    0.365   67.781  229.858    6.104
  462.000    0.282    0.405   72.357  230.706    6.412
  462.250    0.279    0.409   72.621  232.992    6.575
  462.500    0.269    0.385   71.962  236.511    6.339
  462.750    0.253    0.403   75.303  238.903    5.253
  463.000    0.251    0.432   84.747  240.471    4.281
  463.250    0.251    0.453   82.114  242.039    3.917
  463.500    0.259    0.439   77.820  244.840    3.826
  463.750    0.269    0.403   73.585  249.591    3.800
  464.000    0.271    0.416   73.665  257.320    3.712
  464.250    0.257    0.461   79.225  264.329    3.605
  464.500    0.241    0.487   86.204  273.806    3.457
  464.750    0.234    0.502   87.083  277.941    3.332
  465.000    0.233    0.471   86.856  277.454    3.341
  465.250    0.218    0.424   87.179  274.712    3.524
  465.500    0.201    0.399   86.951  272.995    3.750
  465.750    0.198    0.469   85.550  271.383    4.044
  466.000    0.227    0.497   80.578  270.078    4.265
  466.250    0.256    0.459   75.728  269.284    4.422
  466.500    0.264    0.428   76.238  268.490    4.585
  466.750    0.248    0.428   81.861  268.107    4.844
  467.000    0.245    0.375   79.475  267.623    5.061
  467.250    0.240    0.403   73.702  267.959    5.257
  467.500    0.237    0.390   72.116  269.012    4.984
  467.750    0.240    0.408   71.703  269.760    4.716
  468.000    0.219    0.455   79.790  268.966    4.624
  468.250    0.242    0.402   79.438  266.018    4.559
  468.500    0.257    0.410   78.100  262.659    4.588
  468.750    0.260    0.504   79.410  258.890    4.687
  469.000    0.267    0.487   76.839  257.067    4.832
  469.250    0.257    0.396   76.303  255.868    4.965
  469.500    0.258    0.408   85.806  255.894    5.006
  469.750    0.271    0.384   83.051  256.539    5.028
  470.000    0.262    0.386   72.719  257.286    5.023
  470.250    0.242    0.371   75.878  258.752    5.027
  470.500    0.241    0.374   76.388  256.108    5.030
  470.750    0.255    0.427   80.594  255.318    5.053
  471.000    0.261    0.438   78.824  259.965    5.076
  471.250    0.242    0.403   74.344  270.776    5.099
  471.500    0.223    0.396   73.993  279.121    5.190
  471.750    0.214    0.347   75.672  282.741    5.282
  472.000    0.212    0.379   77.476  284.725    5.325
  472.250    0.209    0.402   71.640  285.470    5.329
  472.500    0.207    0.356   66.729  285.496    5.333
  472.750    0.203    0.371   70.936  284.190    5.358
  473.000    0.205    0.371   74.525  281.137    5.351
  473.250    0.223    0.380   78.425  276.135    5.286
  473.500    0.236    0.411   79.795  270.620    5.154
  473.750    0.249    0.439   74.761  267.158    4.996
  474.000    0.246    0.431   81.556  268.319    4.917
  474.250    0.228    0.416   83.114  270.295    4.866
