~V
VERS. 2.00: Ver 2.00
WRAP. NO:
VEND. PRIZM:GeoGraphix
~W
STRT.M 97.5000:START DEPTH
STOP.M 344.5000:STOP DEPTH
STEP.M 0.2500:STEP
NULL. -999.2500:NULL VALUE
WELL. 00/10-19-083-05W4/0 :WELL
COMP. :COMPANY
UWI. 00_10-19-083-05W4_0:UNIQUE WELL ID
FLD. :FIELD
CNTY. :COUNTY
STAT. :STATE
CTRY. :COUNTRY
PDAT. :PERMANENT DATUM
LMF. :LOG MEASURED FROM
DMF. :DRILLING MEASURED FROM
LOC1. :LOCATION LINE 1
LOC2. :LOCATION LINE 2
LOC3. :LOCATION LINE 3
SEC. :SECTION
TWP. :TOWNSHIP
RAN. :RANGE
SRVC. :Logging Company
BASE. :Logging Unit Location
ENG. :Logging Engineer
WITN. :Witnessed By
RUN. :Run No.
MUD_TYPE. :Type Fluid in Hole
MUDS. :Source of Mud Sample
RMFS. :Source of Mud Filtrate
RMCS. :Source of Mud Cake
LOC. :LOCATION
DATE. :LOG DATE
~C
DEPT.M :DEPTH
NPHI. :NPHI
GR.API :GR
DPHI. :Created by graphical digitiser entry.
ILD.Ohmm :ILD
~P
EKB. -999.2500:ELEVATION OF KELLY BUSHING
EDF. -999.2500:ELEVATION OF DRILLING FLOOR
EGL. -999.2500:ELEVATION OF GROUND LEVEL
EPD. -999.2500:ELEVATION OF PERMANENT DATUM
APD. -999.2500:LMF DISTANCE ABOVE PERMANENT DATUM
LAT. -999.2500:LATITUDE OF WELL LOCATION
LONG. -999.2500:LONGITUDE OF WELL LOCATION
TDD. -999.2500:Total Depth Driller
TDL. -999.2500:Total Depth Logger
LCSG1. -999.2500:Depth of Casing from Logger
CSIZE. -999.2500:Casing Size
CWT. -999.2500:Casing Weight
BS. -999.2500:Bit Size
TLI. 97.5000:Top Logged Interval
BLI. 344.4000:Bottom Logged Interval
MRT. 0.0000:Maximum Recorded Temperature
WMUD. -999.2500:Drilling Mud Density
DFV. -999.2500:Drilling Mud Viscosity
PH. -999.2500:Drilling Mud pH
DFL. -999.2500:Drilling Mud Fluid Loss
RM. -999.2500:Resistivity of Drilling Fluid
RMT. -999.2500:Measured Temp. of Drilling Fluid
RMF. -999.2500:Resistivity of Drilling Fluid Filtrate
RMFT. -999.2500:Measured Temp. of Drilling Fluid Filtrate
RMC. -999.2500:Resistivity of Mud Cake
RMCT. -999.2500:Measured Temp. of Mud Cake
PHImax.V/V 0.3900:Maximum allowable Porosity
RwBnd.OHMM 0.1500:Bound Water Resistivity
RhoHy.KG/MT 1000.0000:Hydrocarbon Bulk density
SwCutoff.V/V 0.7000:Water Saturation Cutoff
PHINsh.V/V 0.4800:New Description
Rw.OHMM 1.0000:Formation Water Resistivity
Rshl.OHMM 5.0000:Resistivity shale
Trw.DEGC 25.0000:Rw measured at Lab conditions
ShaleCutoff.V/V 0.4000:New Description
GRcln.API 45.0000:Gamma Ray clean
RhoM.KG/MT 2650.0000:Bulk Density Matrix
GRshl.API 90.0000:Gamma Ray shale
m. 2.0000:Archie "m"
n. 2.0000:Archie "n"
GasTol.V/V 0.0500:Gas Tollerance
BHTemp.DEGC 25.0000:Bottom Hole Temperature
BHTDepth.M 1000.0000:Bottom Hole Depth
PHIDsh.US/MT 0.1800:New Description
a. 1.0000:Archie "a"
Gas Tol.V/V 0.0500:Gas Tollerance
RhoF.KG/MT 1000.0000:Bulk Density Fluid
RhoShl.KG/MT 2300.0000:Bulk Density Shale
TarCutoff.V/V 0.0300:New Description
SurfTemp.DEGC 10.0000:New Description
HIshl.V/V 0.4000:Neutron Hydrogen Index shale
NULL. -999.2500:
~A
   97.5000     0.5595    91.3436     0.2893     3.1349 
   97.7500     0.5671    90.8282     0.2854     3.1696 
   98.0000     0.5758    89.5041     0.2866     3.4089 
   98.2500     0.5847    88.9955     0.2948     3.6652 
   98.5000     0.5913    88.2731     0.3018     3.8612 
   98.7500     0.5939    87.4125     0.3020     3.9785 
   99.0000     0.5949    91.3523     0.3033     4.0067 
   99.2500     0.5951    95.9314     0.2950     3.9122 
   99.5000     0.5910   100.6521     0.2833     3.7988 
   99.7500     0.5871   101.4993     0.2761     3.6747 
  100.0000     0.5795    98.7486     0.2758     3.5670 
  100.2500     0.5654    94.7609     0.2802     3.5240 
  100.5000     0.5526    91.7772     0.2838     3.6175 
  100.7500     0.5653    94.4682     0.2834     3.8264 
  101.0000     0.5845    93.3863     0.2724     4.1346 
  101.2500     0.5952    89.9128     0.2594     4.5705 
  101.5000     0.6008    84.4214     0.2542     5.0299 
  101.7500     0.6097    78.8040     0.2580     5.3981 
  102.0000     0.6214    78.9968     0.2533     5.6728 
  102.2500     0.6248    80.0233     0.2479     5.7748 
  102.5000     0.6301    80.8565     0.2605     5.6901 
  102.7500     0.6393    81.3983     0.2683     5.5183 
  103.0000     0.6485    81.8459     0.2666     5.2433 
  103.2500     0.6518    82.4070     0.2618     4.8352 
  103.5000     0.6456    83.0147     0.2640     4.3523 
  103.7500     0.6259    83.4891     0.2730     4.1341 
  104.0000     0.5971    82.3797     0.2623     4.3566 
  104.2500     0.5818    75.6171     0.2551     5.2802 
  104.5000     0.5797    64.0557     0.2520     6.5939 
  104.7500     0.5825    53.7111     0.2333     7.8572 
  105.0000     0.5900    55.9985     0.1611     8.9417 
  105.2500     0.5973    67.5425     0.1763     9.1582 
  105.5000     0.6108    78.8243     0.2441     8.9874 
  105.7500     0.6238    84.1739     0.2596     8.9219 
  106.0000     0.6320    84.4442     0.2507     9.2059 
  106.2500     0.6330    82.4977     0.2699     9.8188 
  106.5000     0.6271    78.6923     0.2863    10.4590 
  106.7500     0.6239    75.4434     0.3065    12.2548 
  107.0000     0.6178    74.0445     0.3048    13.9907 
  107.2500     0.6068    69.8333     0.3040    15.2728 
  107.5000     0.5986    61.5624     0.3093    15.9391 
  107.7500     0.5988    51.4842     0.3173    16.2551 
  108.0000     0.5984    45.4344     0.3234    17.1104 
  108.2500     0.5947    41.7118     0.3030    18.4106 
  108.5000     0.5896    33.7735     0.2941    19.7788 
  108.7500     0.5836    30.1478     0.3101    21.1912 
  109.0000     0.5787    31.6041     0.3282    22.4591 
  109.2500     0.5777    35.6674     0.3285    23.2146 
  109.5000     0.5844    41.1321     0.3335    22.8967 
  109.7500     0.5952    48.2110     0.3246    21.6451 
  110.0000     0.5986    56.3165     0.2959    19.9370 
  110.2500     0.6017    63.1279     0.2869    18.1982 
  110.5000     0.6061    66.9467     0.2818    16.6453 
  110.7500     0.6100    67.6459     0.2612    15.4543 
  111.0000     0.6102    67.6186     0.2547    14.9291 
  111.2500     0.6134    68.5678     0.2791    15.1028 
  111.5000     0.6187    70.0754     0.3313    15.0364 
  111.7500     0.6256    73.2101     0.3394    14.8741 
  112.0000     0.6280    78.8544     0.3252    14.6759 
  112.2500     0.6241    86.0689     0.3223    14.4434 
  112.5000     0.6263    90.4575     0.2951    14.1455 
  112.7500     0.6230    92.1602     0.2898    13.8476 
  113.0000     0.6209    94.5628     0.2885    13.5407 
  113.2500     0.6219    97.0625     0.2815    13.1987 
  113.5000     0.6252    98.8739     0.2743    12.8347 
  113.7500     0.6273    99.7852     0.2717    12.4665 
  114.0000     0.6225   100.9130     0.2619    12.0812 
  114.2500     0.6131   103.7383     0.2511    11.6639 
  114.5000     0.6165   109.4003     0.2408    11.2465 
  114.7500     0.6197   109.5057     0.2447    10.6600 
  115.0000     0.6165   104.6024     0.2524    10.1729 
  115.2500     0.6094    98.6776     0.2527    10.2554 
  115.5000     0.6095    93.6551     0.2554    11.3436 
  115.7500     0.6187    85.9421     0.2593    12.6147 
  116.0000     0.6268    76.9234     0.2629    13.6412 
  116.2500     0.6281    71.5034     0.2849    14.4094 
  116.5000     0.6236    68.3586     0.3214    14.9452 
  116.7500     0.6199    66.0807     0.3532    15.2773 
  117.0000     0.6289    69.3217     0.3540    15.3993 
  117.2500     0.6378    69.5915     0.3497    15.4351 
  117.5000     0.6435    65.4766     0.3396    16.1661 
  117.7500     0.6457    61.4020     0.3234    17.7977 
  118.0000     0.6382    58.1258     0.3239    19.6401 
  118.2500     0.6214    55.3252     0.3483    20.9265 
  118.5000     0.6152    54.1829     0.3501    21.6326 
  118.7500     0.6278    56.6576     0.3449    21.7588 
  119.0000     0.6366    59.5790     0.3363    21.8203 
  119.2500     0.6420    60.7127     0.3243    21.4869 
  119.5000     0.6494    61.5624     0.3148    20.9009 
  119.7500     0.6566    64.2479     0.3099    20.3358 
  120.0000     0.6394    68.3813     0.2991    19.8536 
  120.2500     0.6308    70.1088     0.3240    19.4329 
  120.5000     0.6288    69.4402     0.3123    19.0732 
  120.7500     0.6217    68.8584     0.3058    18.8557 
  121.0000     0.6131    69.4089     0.3112    18.6546 
  121.2500     0.6104    71.2843     0.3181    18.3346 
  121.5000     0.6132    74.4077     0.3177    17.9492 
  121.7500     0.6265    77.2437     0.3079    17.1979 
  122.0000     0.6310    77.8397     0.2928    16.2141 
  122.2500     0.6324    77.1669     0.2895    16.1410 
  122.5000     0.6331    75.8791     0.2990    16.9613 
  122.7500     0.6322    74.5218     0.3169    18.1594 
  123.0000     0.6233    73.7400     0.3451    19.3843 
  123.2500     0.6164    73.2199     0.3404    19.6448 
  123.5000     0.6121    74.0152     0.3322    19.7556 
  123.7500     0.6077    74.1043     0.3280    19.5387 
  124.0000     0.6037    73.1730     0.3263    19.0649 
  124.2500     0.6018    71.5766     0.3249    18.3275 
  124.5000     0.6031    69.3037     0.3292    16.9175 
  124.7500     0.6073    66.2443     0.3352    15.0167 
  125.0000     0.6107    63.7553     0.3709    12.8625 
  125.2500     0.6098    62.7206     0.4025    12.0594 
  125.5000     0.5981    63.4517     0.4134    12.3783 
  125.7500     0.5799    65.8880     0.3870    12.9732 
  126.0000     0.5832    69.7951     0.2912    13.5974 
  126.2500     0.5833    70.0187     0.2966    14.0865 
  126.5000     0.5754    67.0699     0.2959    14.4930 
  126.7500     0.5679    63.2580     0.2990    14.8789 
  127.0000     0.5638    59.6473     0.3033    15.2152 
  127.2500     0.5649    56.9282     0.3031    15.4577 
  127.5000     0.5761    56.2888     0.2988    15.6214 
  127.7500     0.5939    60.8376     0.2834    15.7851 
  128.0000     0.5980    64.8604     0.2825    15.9426 
  128.2500     0.5956    67.7686     0.2816    16.0219 
  128.5000     0.5849    67.9921     0.2773    16.0501 
  128.7500     0.5656    65.4230     0.2718    16.0779 
  129.0000     0.5495    63.8584     0.2681    16.1047 
  129.2500     0.5490    66.1751     0.2750    15.7504 
  129.5000     0.5544    69.2318     0.2691    15.5680 
  129.7500     0.5644    67.7157     0.2666    15.5772 
  130.0000     0.5614    63.7683     0.2626    15.8237 
  130.2500     0.5360    60.9257     0.2370    16.2939 
  130.5000     0.5117    58.0593     0.1608    16.8295 
  130.7500     0.4889    63.6462     0.1496    17.6228 
  131.0000     0.4820    65.8163     0.2421    18.4162 
  131.2500     0.4811    64.8682     0.2943    19.1726 
  131.5000     0.4846    63.4242     0.3039    19.8775 
  131.7500     0.4933    63.7660     0.3169    20.5419 
  132.0000     0.5043    65.1704     0.3356    21.2064 
  132.2500     0.5185    65.4065     0.3427    21.8567 
  132.5000     0.5269    65.5115     0.3492    22.5043 
  132.7500     0.5350    67.3951     0.3550    23.1311 
  133.0000     0.5361    67.7991     0.3567    23.7446 
