~VERSION INFORMATION
 VERS.                 2.0:   CWLS LOG ASCII STANDARD -VERSION 2.0
 WRAP.                  NO:   ONE LINE PER DEPTH STEP
~WELL INFORMATION BLOCK
#MNEM.UNIT           DATA                    DESCRIPTION OF MNEMONIC
#---------    -------------------            -------------------------------
# Generated from Intellog Unique Number	CW_73_75/WELL/2743
WELL.         LAND BANK ET AL BLANCHE 11-03  : Well_name    - WELL
LOC .         00/11-03-073-02W5/0            : Location     - LOCATION
UWI .         00/11-03-073-02W5/0            : Uwi          - UNIQUE WELL ID
ENTR.         JAYE                           : Entered      - ENTERED BY
SRVC.         SCHLUMBERGER                   : Scn          - SERVICE COMPANY
DATE.         7 JAN 80                       : Date         - LOG DATE
STRT.M        380                            : top_depth    - START DEPTH
STOP.M        590                            : bot_depth    - STOP DEPTH
STEP.M        0.25                           : increment    - STEP LENGTH
 NULL. -999.2500:NULL Value
~CURVE INFORMATION BLOCK
#MNEM UNIT       ERCB CURVE CODE    CURVE DESCRIPTION
#-----------   ------------------   ----------------------------------
DEPT.M        00 001 00 00         : DEPTH        - DEPTH
DPHI.V/V      00 890 00 00         : PHID         - DENSITY POROSITY (SANDSTONE)
NPHI.V/V      00 330 00 00         : PHIN         - NEUTRON POROSITY (SANDSTONE)
GR  .API      00 310 00 00         : GR           - GAMMA RAY
CALI.MM       00 280 01 00         : CAL          - CALIPER
ILD .OHMM     00 120 00 00         : RESD         - DEEP RESISTIVITY (DIL)
~PARAMETER INFORMATION
#MNEM.UNIT           DATA             DESCRIPTION OF MNEMONIC
#---------         -----------     ------------------------------
GL  .M        597                  : gl           - GROUND LEVEL ELEVATION
EREF.M        600.2                : kb           - ELEVATION OF DEPTH REFERENCE
DATM.M        597                  : datum        - DATUM ELEVATION
TDD .M        601                  : tdd          - TOTAL DEPTH DRILLER
RUN .         ONE                  : Run          - RUN NUMBER
ENG .         WALTERHOUSE          : Engineer     - RECORDING ENGINEER
WIT .         LOWTHER              : Witness      - WITNESSED BY
BASE.         EDM                  : Branch       - HOME BASE OF LOGGING UNIT
MUD .         GEL CHEM             : Mud_type     - MUD TYPE
MATR.         SANDSTONE            : Logunit      - NEUTRON MATRIX
TMAX.C        24.4                 : BHT          - MAXIMUM RECORDED TEMPERATURE
BHTD.M        602.5                : BHTDEP       - MAXIMUM RECORDED TEMPERATURE
RMT .C        12.8                 : MDTP         - TEMPERATURE OF MUD
MUDD.KG/M     1170                 : MWT          - MUD DENSITY
NEUT.         1                    : NEUTRON      - NEUTRON TYPE
RESI.         0                    : RESIST       - RESISTIVITY TYPE
RM  .OHMM     2.98                 : RM           - RESISTIVITY OF MUD
RMC .OHMM     0                    : RMC          - RESISTIVITY OF MUD CAKE
RMF .OHMM     2.85                 : RMF          - RESISTIVITY OF MUD FILTRATE
SUFT.C        0                    : SUFT         - SURFACE TEMPERATURE
~A  DEPTH     PHID     PHIN       GR      CAL     RESD
# ...
  562.500    0.188    0.459  121.571  186.993    2.833
  562.750    0.170    0.445  117.893  186.208    3.174
  563.000    0.137    0.421  115.016  184.092    3.686
  563.250    0.133    0.397  114.978  183.718    4.715
  563.500    0.120    0.339  116.726  183.754    5.687
  563.750    0.110    0.353  113.973  183.791    6.171
  564.000    0.099    0.345  106.471  183.829    6.350
  564.250    0.085    0.338  109.393  183.872    6.376
  564.500    0.077    0.344  113.670  183.903    6.391
  564.750    0.109    0.344  115.359  183.943    6.442
  565.000    0.124    0.340  108.288  183.983    6.383
  565.250    0.117    0.334  101.526  183.396    6.337
  565.500    0.097    0.313  104.138  182.921    6.448
  565.750    0.038    0.286  106.814  182.856    7.023
  566.000    0.030    0.314  106.651  183.302    6.985
  566.250    0.098    0.324  102.725  184.471    6.467
  566.500    0.092    0.297  105.400  183.171    5.667
  566.750    0.076    0.272  111.774  180.329    5.542
  567.000    0.072    0.315  117.903  181.091    5.607
  567.250    0.113    0.380  115.644  182.564    5.869
  567.500    0.129    0.345  111.350  183.729    6.144
  567.750    0.144    0.333  106.066  179.039    6.566
  568.000    0.110    0.324   98.256  179.901    7.018
  568.250    0.078    0.318  103.706  181.480    7.586
  568.500    0.062    0.315  109.033  181.622    7.348
  568.750    0.092    0.310  112.201  181.040    6.816
  569.000    0.095    0.298  113.518  180.567    6.334
  569.250    0.102    0.302  113.543  180.810    6.032
  569.500    0.111    0.320  114.550  181.468    5.888
  569.750    0.119    0.332  117.595  181.701    5.768
  570.000    0.121    0.344  122.428  181.845    5.749
  570.250    0.113    0.355  108.017  181.779    6.051
  570.500    0.098    0.346  102.494  181.300    6.884
  570.750    0.129    0.283   98.872  179.179    8.132
  571.000    0.153    0.259   68.179  175.004   10.187
  571.250    0.175    0.235   65.245  173.088   12.357
  571.500    0.200    0.232   67.484  172.508   13.408
  571.750    0.220    0.234   70.097  172.447   12.066
  572.000    0.236    0.243   74.255  172.789   11.276
  572.250    0.235    0.259   79.886  173.237   10.419
  572.500    0.233    0.286   90.025  173.682    9.519
  572.750    0.216    0.307   98.128  174.337    8.929
  573.000    0.174    0.305  103.947  174.787    8.313
  573.250    0.154    0.301  106.438  175.138    8.411
  573.500    0.140    0.313  111.454  175.375    8.871
  573.750    0.091    0.326   98.092  175.622    9.303
  574.000    0.015    0.255   91.454  176.072   10.171
  574.250   -0.014    0.174   94.622  176.208   11.036
  574.500   -0.004    0.174  104.205  176.869   11.166
  574.750    0.007    0.194  110.518  177.005    9.657
  575.000    0.019    0.210  118.990  176.935    9.215
  575.250    0.042    0.226  127.154  177.486    9.062
  575.500    0.058    0.244  127.669  177.836    8.996
  575.750    0.055    0.264  127.630  177.975    8.865
  576.000    0.073    0.264  128.704  178.320    8.685
  576.250    0.082    0.272  130.082  178.560    8.494
  576.500    0.084    0.285  131.893  179.009    8.290
  576.750    0.089    0.297  133.887  179.253    8.061
  577.000    0.112    0.297  138.412  179.495    7.883
  577.250    0.113    0.289  148.612  179.537    7.694
  577.500    0.112    0.287  157.393  179.678    7.453
  577.750    0.103    0.294  164.076  179.712    7.220
  578.000    0.095    0.302  169.033  179.644    6.955
  578.250    0.124    0.312  160.050  179.374    6.674
  578.500    0.123    0.321  160.073  178.907    6.514
  578.750    0.116    0.319  163.118  178.937    6.529
  579.000    0.128    0.313  163.079  178.873    6.643
  579.250    0.100    0.317  153.910  178.907    6.785
  579.500    0.101    0.320  149.370  178.839    6.877
  579.750    0.108    0.318  144.705  178.671    6.985
  580.000    0.119    0.315  142.324  179.428    7.161
  580.250    0.126    0.312  139.012  179.774    7.369
  580.500    0.124    0.307  142.304  180.226    7.470
  580.750    0.129    0.300  148.493  180.263    7.572
  581.000    0.135    0.297  146.604  180.200    7.603
  581.250    0.138    0.300  145.577  180.028    7.678
  581.500    0.119    0.297  146.587  180.069    7.696
  581.750    0.124    0.295  151.914  180.416    7.728
  582.000    0.133    0.299  156.746  180.348    7.744
  582.250    0.129    0.301  156.894  180.484    7.747
  582.500    0.118    0.301  148.589  180.734    7.750
  582.750    0.131    0.300  149.105  180.871    7.752
  583.000    0.132    0.300  154.246  180.904    7.756
  583.250    0.128    0.300  158.957  180.843    7.758
  583.500    0.130    0.303  162.185  180.568    7.746
  583.750    0.141    0.309  165.662  180.304    7.675
  584.000    0.146    0.324  170.373  180.130    7.635
  584.250    0.140    0.323  171.011  179.860    7.580
  584.500    0.133    0.329  173.068  179.588    7.454
  584.750    0.126    0.318  185.242  177.979    7.262
  585.000    0.124    0.319  205.988  176.474    6.929
  585.250    0.126    0.332  231.606  176.728    6.488
  585.500    0.142    0.342  235.022  177.066    6.052
  585.750    0.158    0.343  245.035  177.000    5.550
  586.000    0.176    0.368  258.690  176.937    5.458
  586.250    0.171    0.391  249.028  176.559    5.789
  586.500    0.162    0.387  207.232  175.875    6.499
  586.750    0.092    0.305  162.539  175.091    7.577
  587.000    0.058    0.184  111.677  174.511   10.353
  587.250    0.015    0.114   52.736  175.165   14.887
  587.500   -0.002    0.109   41.286  176.231   19.113
  587.750    0.010    0.123   34.709  175.142   24.169
  588.000   -0.008    0.113   29.735  172.609   26.877
  588.250   -0.019    0.102   22.110  171.618   31.333
  588.500    0.026    0.090   17.198  171.342   34.779
  588.750    0.035    0.079   14.382  171.077   38.382
  589.000    0.027    0.073   14.221  170.701   41.101
  589.250    0.018    0.069   14.799  170.636   41.191
  589.500    0.010    0.065   15.930  170.569   39.828
  589.750    0.004    0.062   18.235  170.707   38.728
  590.000   -0.002    0.062   20.294  170.541   37.233
