~VERSION INFORMATION
 VERS.                 2.0:   CWLS LOG ASCII STANDARD -VERSION 2.0
 WRAP.                  NO:   ONE LINE PER DEPTH STEP
~WELL INFORMATION BLOCK
#MNEM.UNIT           DATA                    DESCRIPTION OF MNEMONIC
#---------    -------------------            -------------------------------
# Generated from Intellog Unique Number	CS_77_79/WELL/1002
WELL.         MAYNARD ET AL THORNBURY        : Well_name    - WELL
LOC .         00/11-29-079-11W4/0            : Location     - LOCATION
UWI .         00/11-29-079-11W4/0            : Uwi          - UNIQUE WELL ID
ENTR.         JHS                            : Entered      - ENTERED BY
SRVC.         SCHLUMBERGER                   : Scn          - SERVICE COMPANY
STRT.M        250                            : top_depth    - START DEPTH
STOP.M        495                            : bot_depth    - STOP DEPTH
STEP.M        0.25                           : increment    - STEP LENGTH
 NULL. -999.2500:NULL Value
~CURVE INFORMATION BLOCK
#MNEM UNIT       ERCB CURVE CODE    CURVE DESCRIPTION
#-----------   ------------------   ----------------------------------
DEPT.M        00 001 00 00         : DEPTH        - DEPTH
DPHI.V/V      00 890 00 00         : PHID         - DENSITY POROSITY (LIMESTONE)
NPHI.V/V      00 330 00 00         : PHIN         - NEUTRON POROSITY (LIMESTONE)
GR  .API      00 310 00 00         : GR           - GAMMA RAY
ILD .OHMM     00 120 00 00         : RESD         - DEEP RESISTIVITY (DIL)
RHOB.KG/M3    00 350 00 00         : DENS         - BULK DENSITY
~PARAMETER INFORMATION
#MNEM.UNIT           DATA             DESCRIPTION OF MNEMONIC
#---------         -----------     ------------------------------
GL  .M        690.19               : gl           - GROUND LEVEL ELEVATION
EREF.M        693.39               : kb           - ELEVATION OF DEPTH REFERENCE
DATM.M        693.39               : datum        - DATUM ELEVATION
TDD .M        500                  : tdd          - TOTAL DEPTH DRILLER
RUN .         ONE                  : Run          - RUN NUMBER
ENG .         BILL                 : Engineer     - RECORDING ENGINEER
WIT .         JIM                  : Witness      - WITNESSED BY
MUD .         GEL                  : Mud_type     - MUD TYPE
MATR.         LIMESTONE            : Logunit      - NEUTRON MATRIX
TMAX.C        22                   : BHT          - MAXIMUM RECORDED TEMPERATURE
BHTD.M        500                  : BHTDEP       - MAXIMUM RECORDED TEMPERATURE
MATR.         1                    : LOGUNIT      - NEUTRON MATRIX
RMT .C        25                   : MDTP         - TEMPERATURE OF MUD
NEUT.         1                    : NEUTRON      - NEUTRON TYPE
RESI.         0                    : RESIST       - RESISTIVITY TYPE
RMC .OHMM     0.25                 : RMC          - RESISTIVITY OF MUD CAKE
RMF .OHMM     0.25                 : RMF          - RESISTIVITY OF MUD FILTRATE
SUFT.C        15                   : SUFT         - SURFACE TEMPERATURE
~A  DEPTH     PHID     PHIN       GR     RESD     DENS
# ...
  432.500    0.279    0.364   83.309   18.871 2232.750
  432.750    0.285    0.361   75.365   17.962 2222.330
  433.000    0.285    0.376   74.155   16.310 2222.380
  433.250    0.258    0.387   82.129   14.161    0.000
  433.500    0.236    0.397   93.163   12.013 2306.230
  433.750    0.213    0.410  102.974   10.525 2346.060
  434.000    0.197    0.407  109.722   10.360 2373.330
  434.250    0.188    0.403  114.027   11.187 2388.040
  434.500    0.196    0.387  118.324   12.757 2375.530
  434.750    0.215    0.367  118.954   14.989 2342.080
  435.000    0.240    0.346  111.617   17.213 2300.240
  435.250    0.265    0.328   93.265   21.311 2256.330
  435.500    0.275    0.311   81.036   26.230 2239.630
  435.750    0.298    0.282   71.253   31.148 2199.880
  436.000    0.326    0.254   67.596   37.705 2151.780
  436.250    0.334    0.235   64.546   46.721 2139.270
  436.500    0.351    0.192   62.117   57.377 2110.000
  436.750    0.350    0.156   60.291   72.131 2112.140
  437.000    0.358    0.137   54.182   86.885 2097.530
  437.250    0.373    0.119   49.302   90.984 2072.460
  437.500    0.380    0.108   46.253   77.049 2059.950
  437.750    0.401    0.110   46.880   58.197 2024.400
  438.000    0.384    0.128   54.853   40.984 2053.760
  438.250    0.349    0.190   66.500   20.777 2112.440
  438.500    0.314    0.271   75.700   13.752 2173.210
  438.750    0.280    0.308   73.266   12.017 2231.890
  439.000    0.278    0.340   67.770   11.026 2234.040
  439.250    0.295    0.341   62.883   10.778 2204.770
  439.500    0.302    0.342   69.022   10.943 2194.350
  439.750    0.287    0.346   75.159   11.770 2219.530
  440.000    0.278    0.355   75.791   12.597 2234.240
  440.250    0.277    0.370   75.186   13.837 2236.380
  440.500    0.286    0.386   67.856   14.498 2221.760
  440.750    0.297    0.391   60.525   15.242 2202.970
  441.000    0.281    0.387   64.211   15.573 2230.240
  441.250    0.266    0.382   69.735   15.573 2255.420
  441.500    0.278    0.372   68.523   15.160 2234.530
  441.750    0.254    0.369   69.769   14.664 2276.460
  442.000    0.250    0.371   68.555   14.169 2282.790
  442.250    0.249    0.376   64.281   13.590 2284.930
  442.500    0.236    0.370   64.908   13.260 2305.920
  442.750    0.241    0.362   74.720   13.178 2297.600
  443.000    0.263    0.365   74.124   13.178 2259.960
  443.250    0.277    0.368   70.463   12.930 2236.970
  443.500    0.279    0.360   60.682   12.517 2232.840
  443.750    0.279    0.350   57.026   12.021 2232.890
  444.000    0.281    0.343   54.589   12.104 2228.740
  444.250    0.289    0.340   47.867   12.270 2216.230
  444.500    0.296    0.340   38.698   12.931 2203.710
  444.750    0.298    0.349   40.548   13.923 2199.570
  445.000    0.284    0.363   55.870   18.033 2224.760
  445.250    0.254    0.377   69.353   19.672 2275.060
  445.500    0.247    0.387   76.716   22.131 2287.670
  445.750    0.248    0.390   77.347   22.131 2285.630
  446.000    0.295    0.398   61.438   20.492 2206.100
  446.250    0.309    0.401   47.984   19.672 2181.030
  446.500    0.301    0.401   54.731   19.672 2195.730
  446.750    0.265    0.399   75.566   19.672 2256.510
  447.000    0.233    0.389   83.537   20.492 2311.000
  447.250    0.212    0.389   89.677   23.770 2346.640
  447.500    0.225    0.401   81.115   28.689 2325.750
  447.750    0.287    0.412   61.541   36.066 2219.010
  448.000    0.336    0.422   52.982   59.836 2135.310
  448.250    0.326    0.407   55.448   82.787 2152.130
  448.500    0.310    0.379   57.299  101.639 2179.390
  448.750    0.303    0.365   53.029  123.770 2191.990
  449.000    0.294    0.357   48.757  140.984 2206.700
  449.250    0.293    0.348   40.199  136.066 2208.840
  449.500    0.305    0.347   36.539  104.098 2187.960
  449.750    0.292    0.366   42.066   71.311 2211.040
  450.000    0.288    0.382   50.037   57.377 2217.370
  450.250    0.282    0.391   58.009   54.918 2227.890
  450.500    0.281    0.395   67.210   56.557 2230.030
  450.750    0.290    0.387   62.324   63.115 2213.340
  451.000    0.301    0.377   50.707   77.869 2194.530
  451.250    0.305    0.365   44.598   98.361 2188.300
  451.500    0.295    0.360   49.513  114.754 2205.100
  451.750    0.296    0.356   51.976   80.328 2203.060
  452.000    0.295    0.363   51.380   57.377 2205.200
  452.250    0.283    0.375   53.841   52.459 2226.190
  452.500    0.288    0.377   57.528   51.639 2217.870
  452.750    0.274    0.372   66.114   54.098 2240.940
  453.000    0.257    0.344   67.352   59.836 2270.310
  453.250    0.268    0.326   64.305   76.230 2251.510
  453.500    0.293    0.317   49.014  140.164 2209.680
  453.750    0.305    0.306   41.070  202.459 2188.810
  454.000    0.307    0.300   36.798  241.803 2184.650
  454.250    0.306    0.301   33.755  295.082 2186.810
  454.500    0.307    0.312   31.932  280.328 2184.750
  454.750    0.312    0.326   35.011  234.426 2176.430
  455.000    0.317    0.345   38.696  216.393 2168.100
  455.250    0.322    0.368   41.769   12.527 2159.780
  455.500    0.309    0.385   46.682    8.726 2180.770
  455.750    0.286    0.393   57.717    6.247 2220.600
  456.000    0.270    0.399   66.917    5.586 2247.870
  456.250    0.262    0.396   72.441    5.421 2262.580
  456.500    0.259    0.374   74.291    6.247 2266.820
  456.750    0.276    0.360   65.736    7.653 2237.550
  457.000    0.281    0.346   57.178    9.636 2229.220
  457.250    0.292    0.334   50.456   11.703 2210.420
  457.500    0.291    0.325   43.124   13.108 2212.580
  457.750    0.292    0.330   35.181   12.034 2210.520
  458.000    0.304    0.342   35.193   10.298 2189.630
  458.250    0.286    0.346   38.882    8.398 2221.090
  458.500    0.259    0.343   45.017    8.067 2267.210
  458.750    0.244    0.331   51.767    7.902 2292.390
  459.000    0.241    0.324   51.169    7.985 2298.720
  459.250    0.245    0.318   44.449    8.894 2290.390
  459.500    0.316    0.316   30.994   18.852 2168.990
  459.750    0.330    0.319   27.958   21.311 2146.020
  460.000    0.326    0.326   29.190   21.311 2152.350
  460.250    0.320    0.337   35.938   26.230 2162.860
  460.500    0.317    0.347   40.239   31.148 2167.110
  460.750    0.308    0.360   40.253   36.885 2183.900
  461.000    0.310    0.355   36.594   41.803 2179.760
  461.250    0.312    0.335   32.939   45.902 2175.630
  461.500    0.316    0.323   34.785   43.443 2169.390
  461.750    0.297    0.320   36.024   49.180 2202.950
  462.000    0.289    0.322   35.427   63.115 2215.550
  462.250    0.285    0.326   34.214   68.853 2221.880
  462.500    0.278    0.327   32.392   48.361 2234.500
  462.750    0.285    0.323   31.801   45.082 2221.980
  463.000    0.296    0.321   31.811   45.902 2203.190
  463.250    0.304    0.318   34.888   37.705 2190.690
  463.500    0.311    0.317   35.515   33.607 2178.170
  463.750    0.318    0.322   33.079   32.787 2165.650
  464.000    0.326    0.321   33.092   28.689 2153.130
  464.250    0.326    0.328   33.719   24.590 2153.190
  464.500    0.339    0.342   32.508   22.951 2130.210
  464.750    0.343    0.354   30.073   23.770 2123.970
  465.000    0.341    0.355   27.639   25.410 2126.110
  465.250    0.330    0.351   30.108   26.230 2145.010
  465.500    0.325    0.348   32.570   27.049 2153.430
  465.750    0.314    0.341   33.808   31.967 2172.330
  466.000    0.308    0.341   32.601   38.525 2182.850
  466.250    0.313    0.349   30.777   36.066 2174.530
  466.500    0.319    0.345   28.953   33.607 2164.090
  466.750    0.334    0.340   28.353   34.426 2139.020
  467.000    0.324    0.345   29.594   31.967 2155.830
  467.250    0.307    0.352   32.671   26.230 2185.190
  467.500    0.296    0.344   36.355   22.131 2204.090
  467.750    0.296    0.340   36.985   18.406 2204.140
  468.000    0.302    0.340   38.838   16.423 2193.710
  468.250    0.314    0.339   41.299   18.324 2172.820
  468.500    0.310    0.352   45.599   20.225 2179.160
  468.750    0.302    0.361   45.005   20.060 2193.860
