~VERSION INFORMATION
 VERS.                 2.0:   CWLS LOG ASCII STANDARD -VERSION 2.0
 WRAP.                  NO:   ONE LINE PER DEPTH STEP
~WELL INFORMATION BLOCK
#MNEM.UNIT           DATA                    DESCRIPTION OF MNEMONIC
#---------    -------------------            -------------------------------
# Generated from Intellog Unique Number	CS_77_79/WELL/948
LOC .         00/10-11-079-07W4/0            : Location     - LOCATION
UWI .         00/10-11-079-07W4/0            : Uwi          - UNIQUE WELL ID
ENTR.         JHS                            : Entered      - ENTERED BY
SRVC.         SCHLUMBERGER                   : Scn          - SERVICE COMPANY
STRT.M        110                            : top_depth    - START DEPTH
STOP.M        345                            : bot_depth    - STOP DEPTH
STEP.M        0.25                           : increment    - STEP LENGTH
 NULL. -999.2500:NULL Value
~CURVE INFORMATION BLOCK
#MNEM UNIT       ERCB CURVE CODE    CURVE DESCRIPTION
#-----------   ------------------   ----------------------------------
DEPT.M        00 001 00 00         : DEPTH        - DEPTH
DPHI.V/V      00 890 00 00         : PHID         - DENSITY POROSITY (LIMESTONE)
NPHI.V/V      00 330 00 00         : PHIN         - NEUTRON POROSITY (LIMESTONE)
GR  .API      00 310 00 00         : GR           - GAMMA RAY
ILD .OHMM     00 120 00 00         : RESD         - DEEP RESISTIVITY (DIL)
RHOB.KG/M3    00 350 00 00         : DENS         - BULK DENSITY
~PARAMETER INFORMATION
#MNEM.UNIT           DATA             DESCRIPTION OF MNEMONIC
#---------         -----------     ------------------------------
GL  .M        550.24               : gl           - GROUND LEVEL ELEVATION
EREF.M        553.62               : kb           - ELEVATION OF DEPTH REFERENCE
DATM.M        553.62               : datum        - DATUM ELEVATION
TDD .M        349                  : tdd          - TOTAL DEPTH DRILLER
RUN .         ONE                  : Run          - RUN NUMBER
ENG .         BILL                 : Engineer     - RECORDING ENGINEER
WIT .         JIM                  : Witness      - WITNESSED BY
MUD .         GEL                  : Mud_type     - MUD TYPE
MATR.         LIMESTONE            : Logunit      - NEUTRON MATRIX
TMAX.C        15                   : BHT          - MAXIMUM RECORDED TEMPERATURE
BHTD.M        349                  : BHTDEP       - MAXIMUM RECORDED TEMPERATURE
MATR.         1                    : LOGUNIT      - NEUTRON MATRIX
RMT .C        25                   : MDTP         - TEMPERATURE OF MUD
NEUT.         1                    : NEUTRON      - NEUTRON TYPE
RESI.         0                    : RESIST       - RESISTIVITY TYPE
RMC .OHMM     0.25                 : RMC          - RESISTIVITY OF MUD CAKE
RMF .OHMM     0.25                 : RMF          - RESISTIVITY OF MUD FILTRATE
SUFT.C        15                   : SUFT         - SURFACE TEMPERATURE
~A  DEPTH     PHID     PHIN       GR     RESD     DENS
# ...
  146.500    0.301    0.456   88.052   26.420    0.000
  146.750    0.291    0.429   93.672   26.940    0.000
  147.000    0.279    0.419  100.544   26.956    0.000
  147.250    0.252    0.448  106.169   25.975    0.000
  147.500    0.193    0.497  118.016   22.784    0.000
  147.750    0.155    0.511  133.597   14.511    0.000
  148.000    0.134    0.515  134.242    7.237    0.000
  148.250    0.170    0.558  142.982    6.468    0.000
  148.500    0.222    0.551  146.739    5.891    0.000
  148.750    0.223    0.527  149.874    5.266    0.000
  149.000    0.228    0.516  147.408    4.887    0.000
  149.250    0.234    0.530  131.873    4.367    0.000
  149.500    0.243    0.495  139.361    4.053    0.000
  149.750    0.252    0.475  144.987    4.134    0.000
  150.000    0.244    0.445  149.988    4.630    0.000
  150.250    0.226    0.391  143.165    6.502    0.000
  150.500    0.223    0.361   94.644    9.480    0.000
  150.750    0.291    0.345   82.221   12.818    0.000
  151.000    0.309    0.344   51.750   20.149    0.000
  151.250    0.303    0.325   54.893   29.936    0.000
  151.500    0.284    0.297   55.529   38.989    0.000
  151.750    0.263    0.264   53.064   41.278    0.000
  152.000    0.152    0.242   58.072   39.783    0.000
  152.250    0.172    0.230   61.199   37.618    0.000
  152.500    0.279    0.445   66.828   32.997    0.000
  152.750    0.320    0.431   68.097   26.343    0.000
  153.000    0.320    0.441   71.850   24.912    0.000
  153.250    0.320    0.426   79.966   24.014    0.000
  153.500    0.315    0.426   85.588   23.576    0.000
  153.750    0.302    0.421   92.459   23.153    0.000
  154.000    0.299    0.448   86.260   22.733    0.000
  154.250    0.296    0.432   83.793   21.907    0.000
  154.500    0.290    0.421   78.215   21.515    0.000
  154.750    0.284    0.423   80.102   20.350    0.000
  155.000    0.282    0.430   93.819   19.978    0.000
  155.250    0.284    0.425   96.335   18.542    0.000
  155.500    0.282    0.449   95.732   16.574    0.000
  155.750    0.282    0.472  103.224   14.810    0.000
  156.000    0.266    0.484  116.940   12.277    0.000
  156.250    0.231    0.504  136.879    9.801    0.000
  156.500    0.212    0.510  147.483    7.825    0.000
  156.750    0.197    0.503  133.815    6.994    0.000
  157.000    0.209    0.484  132.595    6.740    0.000
  157.250    0.194    0.475  131.994    6.745    0.000
  157.500    0.200    0.470  141.974    7.141    0.000
  157.750    0.214    0.474  136.396    7.706    0.000
  158.000    0.227    0.456  140.158    8.004    0.000
  158.250    0.253    0.444  140.183    8.967    0.000
  158.500    0.288    0.449  133.358   10.831    0.000
  158.750    0.299    0.435  126.536   13.084    0.000
  159.000    0.314    0.431  117.843   15.218    0.000
  159.250    0.305    0.421  109.779   17.371    0.000
  159.500    0.299    0.442  104.200   19.104    0.000
  159.750    0.295    0.481  107.955   18.754    0.000
  160.000    0.288    0.482  114.203   17.081    0.000
  160.250    0.284    0.472  123.561   14.705    0.000
  160.500    0.290    0.466  111.758   13.907    0.000
  160.750    0.296    0.435  116.762   13.914    0.000
  161.000    0.295    0.442  106.825   13.922    0.000
  161.250    0.290    0.440  128.011   14.197    0.000
  161.500    0.282    0.409  130.529   15.030    0.000
  161.750    0.292    0.384  120.587   16.525    0.000
  162.000    0.298    0.368  114.387   17.826    0.000
  162.250    0.300    0.347  100.721   20.353    0.000
  162.500    0.302    0.339   55.932   21.954    0.000
  162.750    0.293    0.379   58.447   24.599    0.000
  163.000    0.288    0.377   63.449   26.537    0.000
  163.250    0.287    0.375   66.585   28.099    0.000
  163.500    0.294    0.361   59.139   29.751    0.000
  163.750    0.297    0.355   47.958   31.496    0.000
  164.000    0.293    0.364   47.359   32.722    0.000
  164.250    0.292    0.357   52.365   34.646    0.000
  164.500    0.294    0.361   52.385   35.326    0.000
  164.750    0.293    0.360   50.544   36.029    0.000
  165.000    0.287    0.354   46.828   35.377    0.000
  165.250    0.280    0.358   41.251   33.451    0.000
  165.500    0.275    0.367   53.099   31.634    0.000
  165.750    0.264    0.374   72.416   29.919    0.000
  166.000    0.272    0.361   63.728   29.378    0.000
  166.250    0.300    0.366   72.465   28.848    0.000
  166.500    0.296    0.384   81.821   27.803    0.000
  166.750    0.291    0.403   86.201   26.294    0.000
  167.000    0.291    0.394   94.316   24.402    0.000
  167.250    0.281    0.415  101.807   22.645    0.000
  167.500    0.263    0.405   96.229   19.493    0.000
  167.750    0.239    0.437  114.927   16.777    0.000
  168.000    0.218    0.459  121.793   13.146    0.000
  168.250    0.222    0.452  130.531   11.315    0.000
  168.500    0.238    0.442  131.797    9.740    0.000
  168.750    0.234    0.454  143.025    8.383    0.000
  169.000    0.223    0.480  127.491    7.780    0.000
  169.250    0.218    0.464  125.022    7.641    0.000
  169.500    0.227    0.454  136.876    7.940    0.000
  169.750    0.241    0.463  136.274    8.566    0.000
  170.000    0.249    0.447  140.652    9.241    0.000
  170.250    0.255    0.433  142.549   10.158    0.000
  170.500    0.258    0.419  115.804   11.596    0.000
  170.750    0.255    0.424  108.356   13.239    0.000
  171.000    0.239    0.427  118.966   14.553    0.000
  171.250    0.231    0.422  122.720   15.702    0.000
  171.500    0.227    0.403  117.147   15.419    0.000
  171.750    0.221    0.430  122.766   14.309    0.000
  172.000    0.226    0.450  142.706   12.318    0.000
  172.250    0.236    0.468  148.953   11.217    0.000
  172.500    0.235    0.497  133.416    9.841    0.000
  172.750    0.253    0.493  143.397    9.305    0.000
  173.000    0.258    0.475  145.289    8.969    0.000
  173.250    0.268    0.463  132.864    9.145    0.000
  173.500    0.275    0.460  130.401    9.323    0.000
  173.750    0.271    0.487  134.163    9.870    0.000
  174.000    0.255    0.494  136.046   11.267    0.000
  174.250    0.274    0.464  127.354   12.863    0.000
  174.500    0.274    0.417  116.803   14.412    0.000
  174.750    0.277    0.420  116.825   15.547    0.000
  175.000    0.269    0.422  116.222   16.773    0.000
  175.250    0.265    0.462  120.606   17.102    0.000
  175.500    0.261    0.446  125.604   17.116    0.000
  175.750    0.259    0.442  133.097   16.806    0.000
  176.000    0.257    0.464  130.008   16.193    0.000
  176.250    0.266    0.481  124.432   15.607    0.000
  176.500    0.262    0.480  133.788   15.043    0.000
  176.750    0.256    0.480  136.924   15.048    0.000
  177.000    0.255    0.486  140.062   14.502    0.000
  177.250    0.246    0.484  138.215   13.975    0.000
  177.500    0.242    0.460  126.413   13.723    0.000
  177.750    0.208    0.464  117.101   13.226    0.000
  178.000    0.169    0.446  104.054   12.507    0.000
  178.250    0.194    0.461   96.609   11.607    0.000
  178.500    0.256    0.488  113.438   10.182    0.000
  178.750    0.258    0.465  119.063    9.273    0.000
  179.000    0.261    0.450  123.441    8.287    0.000
  179.250    0.270    0.489  124.093    7.407    0.000
  179.500    0.290    0.471  124.112    7.005    0.000
  179.750    0.288    0.445  119.154    7.558    0.000
  180.000    0.289    0.437   96.152    8.466    0.000
  180.250    0.280    0.406   88.085   10.420    0.000
  180.500    0.293    0.383   86.862   13.069    0.000
  180.750    0.289    0.369   84.397   16.702    0.000
  181.000    0.274    0.353   76.329   20.174    0.000
  181.250    0.273    0.352   68.887   23.030    0.000
  181.500    0.286    0.374   66.416   26.793    0.000
  181.750    0.289    0.376   67.062   29.456    0.000
  182.000    0.292    0.378   65.218   30.605    0.000
  182.250    0.300    0.379   68.355   31.212    0.000
  182.500    0.298    0.379   64.644   31.230    0.000
  182.750    0.296    0.385   65.910   31.842    0.000
