~VERSION INFORMATION
 VERS.                 2.0:   CWLS LOG ASCII STANDARD -VERSION 2.0
 WRAP.                  NO:   ONE LINE PER DEPTH STEP
~WELL INFORMATION BLOCK
#MNEM.UNIT           DATA                    DESCRIPTION OF MNEMONIC
#---------    -------------------            -------------------------------
# Generated from Intellog Unique Number	CS_69_70/WELL/885
NULL.         -999.25                        : NULL_VALUE
WELL.         CDN HOMSTEAD ET AL HEART       : Well_name    - WELL              
LOC .         00/11-05-070-09W4/0            : Location     - LOCATION          
UWI .         00/11-05-070-09W4/0            : Uwi          - UNIQUE WELL ID    
ENTR.         SP                             : Entered      - ENTERED BY        
SRVC.         SCHLUMBERGER                   : Scn          - SERVICE COMPANY   
STRT.M        320                            : top_depth    - START DEPTH       
STOP.M        545                            : bot_depth    - STOP DEPTH        
STEP.M        0.25                           : increment    - STEP LENGTH       
~CURVE INFORMATION BLOCK
#MNEM UNIT       ERCB CURVE CODE    CURVE DESCRIPTION
#-----------   ------------------   ----------------------------------
DEPT.M        00 001 00 00         : DEPTH        - DEPTH                       
ILD .OHMM     00 120 00 00         : RESD         - DEEP RESISTIVITY (DIL)      
DPHI.V/V      00 890 00 00         : PHID         - DENSITY POROSITY (LIMESTONE)
NPHI.V/V      00 330 00 00         : PHIN         - NEUTRON POROSITY (LIMESTONE)
GR  .API      00 310 00 00         : GR           - GAMMA RAY                   
~PARAMETER INFORMATION       
#MNEM.UNIT           DATA             DESCRIPTION OF MNEMONIC
#---------         -----------     ------------------------------
GL  .M        659.4                : gl           - GROUND LEVEL ELEVATION      
EREF.M        662.75               : kb           - ELEVATION OF DEPTH REFERENCE
DATM.M        659.4                : datum        - DATUM ELEVATION             
TDD .M        570.4                : tdd          - TOTAL DEPTH DRILLER         
RUN .         ONE                  : Run          - RUN NUMBER                  
ENG .         BILL                 : Engineer     - RECORDING ENGINEER          
WIT .         JIM                  : Witness      - WITNESSED BY                
MUD .         GEL                  : Mud_type     - MUD TYPE                    
MATR.         LIMESTONE            : Logunit      - NEUTRON MATRIX              
TMAX.C        25                   : BHT          - MAXIMUM RECORDED TEMPERATURE
BHTD.M        570.4                : BHTDEP       - MAXIMUM RECORDED TEMPERATURE
MATR.         1                    : LOGUNIT      - NEUTRON MATRIX              
RMT .C        25                   : MDTP         - TEMPERATURE OF MUD          
NEUT.         1                    : NEUTRON      - NEUTRON TYPE                
RESI.         0                    : RESIST       - RESISTIVITY TYPE            
RMC .OHMM     0.25                 : RMC          - RESISTIVITY OF MUD CAKE     
RMF .OHMM     0.25                 : RMF          - RESISTIVITY OF MUD FILTRATE 
SUFT.C        15                   : SUFT         - SURFACE TEMPERATURE         
~A  DEPTH     RESD     PHID     PHIN       GR
# ...
  450.500    5.140    0.222    0.488   82.224
  450.750    5.046    0.234    0.510   79.428
  451.000    4.916    0.219    0.502   76.997
  451.250    4.835    0.226    0.491   76.566
  451.500    4.719    0.212    0.493   79.590
  451.750    4.658    0.209    0.504   81.766
  452.000    4.598    0.221    0.498   83.093
  452.250    4.539    0.204    0.479   82.359
  452.500    4.548    0.197    0.468   80.169
  452.750    4.573    0.207    0.463   80.223
  453.000    4.677    0.222    0.473   80.944
  453.250    4.792    0.218    0.485   81.483
  453.500    4.882    0.211    0.497   82.386
  453.750    4.919    0.209    0.505   83.410
  454.000    4.838    0.204    0.505   84.615
  454.250    4.499    0.199    0.493   85.821
  454.500    4.168    0.197    0.485   87.572
  454.750    3.734    0.199    0.492   90.173
  455.000    3.402    0.208    0.513   91.622
  455.250    3.158    0.215    0.511   89.978
  455.500    2.894    0.222    0.522   88.273
  455.750    2.651    0.224    0.532   89.055
  456.000    2.384    0.220    0.548   90.443
  456.250    2.172    0.212    0.552   91.467
  456.500    1.780    0.218    0.532   93.336
  456.750    1.692    0.223    0.551   93.818
  457.000    1.594    0.240    0.578   94.897
  457.250    1.553    0.248    0.604   95.015
  457.500    1.589    0.248    0.622   94.889
  457.750    1.686    0.247    0.610   93.789
  458.000    1.800    0.244    0.607   90.814
  458.250    1.991    0.240    0.603   87.715
  458.500    2.055    0.225    0.570   89.466
  458.750    2.121    0.207    0.566   92.005
  459.000    2.157    0.208    0.583   93.454
  459.250    2.260    0.214    0.580   94.478
  459.500    2.504    0.209    0.563   94.593
  459.750    2.913    0.203    0.529   92.525
  460.000    3.197    0.211    0.477   86.819
  460.250    3.438    0.224    0.450   82.872
  460.500    3.636    0.232    0.438   80.076
  460.750    3.824    0.225    0.442   82.858
  461.000    4.022    0.216    0.471   81.760
  461.250    4.277    0.232    0.479   79.389
  461.500    4.374    0.244    0.452   81.323
  461.750    4.448    0.223    0.437   82.832
  462.000    4.490    0.210    0.447   80.279
  462.250    4.601    0.197    0.454   78.574
  462.500    4.767    0.189    0.456   77.901
  462.750    5.165    0.197    0.450   77.894
  463.000    5.617    0.190    0.442   78.857
  463.250    6.235    0.192    0.440   78.790
  463.500    6.831    0.163    0.432   76.237
  463.750    7.319    0.125    0.374   72.047
  464.000    7.626    0.059    0.331   63.915
  464.250    7.053    0.066    0.278   64.758
  464.500    5.789    0.098    0.330   76.271
  464.750    4.997    0.133    0.380   81.781
  465.000    4.544    0.165    0.444   84.320
  465.250    4.210    0.199    0.469   85.163
  465.500    4.179    0.209    0.464   86.308
  465.750    4.179    0.222    0.457   88.120
  466.000    4.179    0.217    0.457   89.871
  466.250    4.203    0.217    0.463   90.410
  466.500    4.203    0.217    0.453   89.676
  466.750    4.235    0.213    0.445   87.123
  467.000    4.283    0.203    0.441   84.934
  467.250    4.307    0.196    0.444   83.775
  467.500    4.340    0.208    0.456   84.678
  467.750    4.389    0.208    0.461   86.428
  468.000    4.447    0.198    0.467   88.727
  468.250    4.489    0.193    0.469   94.964
  468.500    4.582    0.200    0.471  101.687
  468.750    4.651    0.187    0.476  105.015
  469.000    4.686    0.175    0.467  104.159
  469.250    4.677    0.131    0.438   87.722
  469.500    4.515    0.094    0.419   81.472
  469.750    4.207    0.121    0.436   79.646
  470.000    3.941    0.214    0.447   79.154
  470.250    3.826    0.240    0.443   83.573
  470.500    3.783    0.232    0.439   87.082
  470.750    3.812    0.218    0.450   88.228
  471.000    3.891    0.212    0.464   84.159
  471.250    3.972    0.206    0.465   81.727
  471.500    4.017    0.199    0.450   79.962
  471.750    4.017    0.205    0.444   80.441
  472.000    3.950    0.200    0.446   82.132
  472.250    3.646    0.194    0.456   80.731
  472.500    3.130    0.196    0.457   78.845
  472.750    2.598    0.203    0.444   79.566
  473.000    2.259    0.209    0.512   82.710
  473.250    1.998    0.220    0.539   84.583
  473.500    1.841    0.236    0.550   83.850
  473.750    1.810    0.239    0.549   81.661
  474.000    1.943    0.239    0.540   81.229
  474.250    2.153    0.224    0.537   81.889
  474.500    2.408    0.220    0.536   79.396
  474.750    2.738    0.210    0.532   77.510
  475.000    3.293    0.222    0.458   76.049
  475.250    3.711    0.201    0.434   75.436
  475.500    4.058    0.160    0.421   77.369
  475.750    4.166    0.134    0.408   78.999
  476.000    4.221    0.124    0.399   79.477
  476.250    4.406    0.141    0.420   78.805
  476.500    4.668    0.171    0.445   78.373
  476.750    4.801    0.178    0.435   78.912
  477.000    4.730    0.156    0.419   76.905
  477.250    4.277    0.134    0.403   76.716
  477.500    3.956    0.155    0.430   79.317
  477.750    3.840    0.192    0.456   82.400
  478.000    3.804    0.195    0.456   83.970
  478.250    3.840    0.194    0.450   85.177
  478.500    4.001    0.191    0.445   85.776
  478.750    4.169    0.190    0.438   84.557
  479.000    4.271    0.174    0.427   81.761
  479.250    4.319    0.137    0.421   80.179
  479.500    4.162    0.096    0.421   80.536
  479.750    3.834    0.130    0.437   84.046
  480.000    3.353    0.172    0.458   87.615
  480.250    3.027    0.182    0.465   91.003
  480.500    2.804    0.170    0.470   92.877
  480.750    2.692    0.171    0.495   93.174
  481.000    2.627    0.140    0.503   94.198
  481.250    2.579    0.128    0.485   98.738
  481.500    2.633    0.146    0.502  102.187
  481.750    2.579    0.161    0.514  103.999
  482.000    2.551    0.182    0.501  103.265
  482.250    2.546    0.176    0.495  101.561
  482.500    2.575    0.180    0.513  101.068
  482.750    2.658    0.164    0.530  100.819
  483.000    2.693    0.161    0.515   99.418
  483.250    2.718    0.167    0.496   95.591
  483.500    2.624    0.141    0.481   94.131
  483.750    2.468    0.119    0.478   97.943
  484.000    2.373    0.162    0.506  103.271
  484.250    2.248    0.175    0.522  105.691
  484.500    2.174    0.176    0.518  108.048
  484.750    2.162    0.177    0.511  104.222
  485.000    2.374    0.178    0.511  101.486
  485.250    2.834    0.179    0.514   98.994
  485.500    3.383    0.179    0.517   96.563
  485.750    4.160    0.178    0.496   92.069
  486.000    4.994    0.167    0.445   87.334
  486.250    5.906    0.176    0.396   79.324
  486.500    6.729    0.178    0.382   68.344
  486.750    7.346    0.174    0.387   61.728
  487.000    8.063    0.178    0.393   58.388
  487.250    8.884    0.201    0.395   58.260
  487.500   10.010    0.196    0.367   57.706
  487.750   10.726    0.162    0.261   56.427
  488.000   10.867    0.039    0.238   54.723
  488.250   10.450    0.067    0.264   56.959
  488.500    9.363    0.115    0.308   59.014
  488.750    8.404    0.150    0.375   60.886
  489.000    7.729    0.187    0.400   61.668
  489.250    7.474    0.193    0.398   61.965
  489.500    7.461    0.182    0.387   61.898
  489.750    7.447    0.183    0.390   61.891
  490.000    7.560    0.167    0.399   60.672
  490.250    7.702    0.157    0.384   59.816
  490.500    7.906    0.145    0.361   60.234
  490.750    8.011    0.139    0.360   62.348
  491.000    7.922    0.163    0.366   65.373
  491.250    7.604    0.176    0.375   67.731
  491.500    7.548    0.180    0.375   69.785
  491.750    7.879    0.185    0.400   71.901
  492.000    8.458    0.215    0.412   74.016
  492.250    8.895    0.235    0.422   74.677
  492.500    8.912    0.258    0.421   78.550
  492.750    8.491    0.236    0.420   83.575
  493.000    7.794    0.209    0.413   88.904
  493.250    7.128    0.199    0.402   90.110
  493.500    6.641    0.257    0.406   87.738
  493.750    6.398    0.294    0.396   84.458
