~VERSION INFORMATION
 VERS.                 2.0:   CWLS LOG ASCII STANDARD -VERSION 2.0
 WRAP.                  NO:   ONE LINE PER DEPTH STEP
~WELL INFORMATION BLOCK
#MNEM.UNIT           DATA                    DESCRIPTION OF MNEMONIC
#---------    -------------------            -------------------------------
# Generated from Intellog Unique Number	CS_73_76/WELL/3279
WELL.         BAAY LAND CONSULTANTS LTD.     : Well_name    - WELL
LOC .         00/16-04-075-05W4/0            : Location     - LOCATION
UWI .         00/16-04-075-05W4/0            : Uwi          - UNIQUE WELL ID
ENTR.         SP                             : Entered      - ENTERED BY
SRVC.         SCHLUMBERGER                   : Scn          - SERVICE COMPANY
STRT.M        243.84                         : top_depth    - START DEPTH
STOP.M        460.09                         : bot_depth    - STOP DEPTH
STEP.M        0.25                           : increment    - STEP LENGTH
 NULL. -999.2500:NULL Value
~CURVE INFORMATION BLOCK
#MNEM UNIT       ERCB CURVE CODE    CURVE DESCRIPTION
#-----------   ------------------   ----------------------------------
DEPT.M        00 001 00 00         : DEPTH        - DEPTH
GR  .API      00 310 00 00         : GR           - GAMMA RAY
DPHI.V/V      00 890 00 00         : PHID         - DENSITY POROSITY (SANDSTONE)
NPHI.V/V      00 330 00 00         : PHIN         - NEUTRON POROSITY (SANDSTONE)
ILD .OHMM     00 120 00 00         : RESD         - DEEP RESISTIVITY (DIL)
~PARAMETER INFORMATION
#MNEM.UNIT           DATA             DESCRIPTION OF MNEMONIC
#---------         -----------     ------------------------------
GL  .M        649.834              : gl           - GROUND LEVEL ELEVATION
EREF.M        652.272              : kb           - ELEVATION OF DEPTH REFERENCE
DATM.M        649.834              : datum        - DATUM ELEVATION
TDD .M        559.308              : tdd          - TOTAL DEPTH DRILLER
RUN .         ONE                  : Run          - RUN NUMBER
ENG .         BILL                 : Engineer     - RECORDING ENGINEER
WIT .         JIM                  : Witness      - WITNESSED BY
MUD .         GEL                  : Mud_type     - MUD TYPE
MATR.         SANDSTONE            : Logunit      - NEUTRON MATRIX
TMAX.C        26.6667              : BHT          - MAXIMUM RECORDED TEMPERATURE
BHTD.M        559.308              : BHTDEP       - MAXIMUM RECORDED TEMPERATURE
MATR.         1                    : LOGUNIT      - NEUTRON MATRIX
RMT .C        25                   : MDTP         - TEMPERATURE OF MUD
NEUT.         1                    : NEUTRON      - NEUTRON TYPE
RESI.         0                    : RESIST       - RESISTIVITY TYPE
RMC .OHMM     0.25                 : RMC          - RESISTIVITY OF MUD CAKE
RMF .OHMM     0.25                 : RMF          - RESISTIVITY OF MUD FILTRATE
SUFT.C        15                   : SUFT         - SURFACE TEMPERATURE
~A  DEPTH       GR     PHID     PHIN     RESD
# ...
  330.840   92.062    0.242    0.496    2.068
  331.090   91.937    0.241    0.479    2.053
  331.340   91.873    0.241    0.473    1.989
  331.590   90.880    0.232    0.482    1.898
  331.840   88.616    0.234    0.502    1.825
  332.090   85.287    0.247    0.509    1.712
  332.340   80.873    0.250    0.500    1.578
  332.590   77.716    0.262    0.485    1.525
  332.840   78.205    0.274    0.489    1.507
  333.090   82.877    0.266    0.490    1.443
  333.340   87.301    0.235    0.525    1.384
  333.590   91.667    0.268    0.579    1.259
  333.840   93.396    0.298    0.571    1.115
  334.090   82.451    0.301    0.494    0.985
  334.340   68.402    0.293    0.450    0.817
  334.590   62.107    0.293    0.431    0.726
  334.840   59.767    0.286    0.432    0.664
  335.090   58.760    0.291    0.434    0.624
  335.340   58.642    0.308    0.443    0.603
  335.590   59.266    0.321    0.435    0.585
  335.840   60.881    0.318    0.424    0.585
  336.090   61.824    0.310    0.419    0.584
  336.340   62.789    0.309    0.426    0.594
  336.590   63.369    0.316    0.441    0.618
  336.840   64.868    0.306    0.464    0.656
  337.090   67.846    0.308    0.484    0.721
  337.340   70.268    0.271    0.479    0.791
  337.590   67.977    0.211    0.462    0.868
  337.840   66.643    0.121    0.347    1.030
  338.090   65.551    0.198    0.350    1.176
  338.340   67.741    0.303    0.390    1.342
  338.590   71.284    0.306    0.469    1.343
  338.840   73.857    0.298    0.466    1.153
  339.090   75.360    0.295    0.472    0.976
  339.340   76.385    0.294    0.478    0.907
  339.590   76.559    0.285    0.482    0.866
  339.840   76.612    0.268    0.486    0.900
  340.090   75.735    0.255    0.477    0.964
  340.340   74.127    0.250    0.468    1.054
  340.590   74.188    0.258    0.460    1.158
  340.840   75.101    0.244    0.458    1.264
  341.090   76.059    0.235    0.480    1.413
  341.340   77.528    0.256    0.508    1.577
  341.590   78.809    0.266    0.531    1.650
  341.840   80.186    0.254    0.547    1.722
  342.090   81.074    0.261    0.544    1.778
  342.340   80.700    0.266    0.528    1.791
  342.590   80.789    0.263    0.530    1.850
  342.840   82.111    0.259    0.516    1.851
  343.090   83.290    0.257    0.510    1.856
  343.340   84.375    0.263    0.527    1.884
  343.590   83.775    0.266    0.522    1.884
  343.840   83.147    0.266    0.508    1.886
  344.090   83.270    0.250    0.496    1.918
  344.340   82.718    0.265    0.487    1.915
  344.590   84.492    0.253    0.478    1.914
  344.840   85.636    0.238    0.482    1.940
  345.090   85.411    0.241    0.509    1.948
  345.340   85.007    0.244    0.523    1.947
  345.590   85.356    0.248    0.504    1.986
  345.840   86.444    0.259    0.511    1.983
  346.090   89.034    0.226    0.536    1.980
  346.340   90.736    0.243    0.553    2.021
  346.590   91.659    0.238    0.534    2.016
  346.840   90.581    0.235    0.517    2.049
  347.090   89.490    0.223    0.505    2.049
  347.340   89.219    0.214    0.500    2.096
  347.590   89.152    0.206    0.503    2.130
  347.840   89.875    0.202    0.509    2.129
  348.090   89.816    0.221    0.516    2.128
  348.340   89.767    0.226    0.527    2.169
  348.590   90.613    0.219    0.525    2.177
  348.840   91.594    0.223    0.516    2.204
  349.090   91.284    0.211    0.509    2.179
  349.340   90.225    0.198    0.506    2.162
  349.590   87.672    0.189    0.518    2.163
  349.840   86.001    0.224    0.543    2.100
  350.090   84.378    0.243    0.565    2.037
  350.340   82.562    0.272    0.568    1.976
  350.590   80.286    0.284    0.600    1.915
  350.840   82.802    0.263    0.604    1.857
  351.090   84.190    0.250    0.605    1.827
  351.340   84.108    0.241    0.605    1.787
  351.590   82.730    0.256    0.604    1.791
  351.840   82.716    0.273    0.597    1.758
  352.090   85.448    0.263    0.584    1.721
  352.340   85.166    0.264    0.590    1.724
  352.590   85.447    0.284    0.601    1.727
  352.840   86.523    0.303    0.601    1.690
  353.090   88.503    0.296    0.589    1.639
  353.340   89.964    0.281    0.568    1.509
  353.590   89.789    0.293    0.547    1.291
  353.840   86.307    0.295    0.529    1.146
  354.090   82.382    0.303    0.514    0.984
  354.340   79.138    0.312    0.500    0.881
  354.590   77.487    0.310    0.464    0.799
  354.840   78.245    0.300    0.488    0.766
  355.090   79.187    0.279    0.503    0.819
  355.340   81.125    0.263    0.496    0.870
  355.590   82.965    0.253    0.484    0.924
  355.840   84.415    0.263    0.485    0.980
  356.090   82.044    0.284    0.498    1.015
  356.340   73.458    0.303    0.514    0.976
  356.590   64.954    0.315    0.507    0.849
  356.840   59.394    0.314    0.488    0.731
  357.090   56.121    0.315    0.472    0.677
  357.340   58.945    0.316    0.463    0.645
  357.590   60.763    0.307    0.456    0.625
  357.840   60.798    0.302    0.458    0.619
  358.090   58.859    0.305    0.452    0.620
  358.340   59.822    0.317    0.449    0.606
  358.590   60.252    0.322    0.445    0.607
  358.840   59.303    0.308    0.444    0.613
  359.090   58.413    0.320    0.456    0.617
  359.340   58.420    0.309    0.468    0.617
  359.590   59.306    0.309    0.462    0.623
  359.840   60.988    0.310    0.448    0.630
  360.090   63.487    0.302    0.464    0.672
  360.340   64.749    0.311    0.454    0.700
  360.590   64.434    0.293    0.446    0.714
  360.840   66.837    0.295    0.446    0.757
  361.090   69.569    0.287    0.442    0.791
  361.340   69.215    0.291    0.433    0.826
  361.590   69.849    0.286    0.426    0.852
  361.840   71.717    0.285    0.423    0.881
  362.090   73.817    0.280    0.430    0.920
  362.340   74.848    0.278    0.444    0.966
  362.590   75.821    0.281    0.448    1.018
  362.840   75.323    0.266    0.471    1.156
  363.090   74.723    0.230    0.477    1.253
  363.340   71.961    0.083    0.459    1.565
  363.590   67.593    0.016    0.208    1.936
  363.840   63.121    0.012    0.189    2.243
  364.090   56.089    0.118    0.252    2.147
  364.340   59.051    0.222    0.324    1.831
  364.590   69.486    0.251    0.388    1.582
  364.840   75.616    0.247    0.452    1.359
  365.090   82.725    0.234    0.457    1.296
  365.340   86.207    0.241    0.477    1.455
  365.590   86.054    0.233    0.482    1.592
  365.840   86.524    0.227    0.490    1.659
  366.090   87.846    0.232    0.496    1.687
  366.340   89.326    0.236    0.491    1.742
  366.590   89.680    0.241    0.476    1.794
  366.840   90.728    0.245    0.472    1.847
  367.090   91.091    0.253    0.467    1.871
  367.340   91.950    0.257    0.455    1.878
  367.590   91.931    0.254    0.448    1.879
  367.840   91.385    0.242    0.450    1.877
  368.090   89.817    0.231    0.436    1.871
  368.340   87.837    0.242    0.444    1.810
  368.590   87.780    0.225    0.454    1.805
  368.840   87.689    0.220    0.477    1.843
  369.090   87.165    0.222    0.482    1.867
  369.340   87.202    0.226    0.490    1.938
  369.590   87.243    0.232    0.512    2.059
  369.840   87.767    0.224    0.514    2.120
  370.090   88.464    0.216    0.524    2.188
  370.340   88.399    0.235    0.534    2.209
  370.590   88.054    0.218    0.545    2.251
  370.840   85.919    0.237    0.561    2.237
  371.090   84.105    0.268    0.577    2.205
  371.340   89.633    0.286    0.575    2.176
  371.590   90.916    0.288    0.568    2.207
  371.840   85.179    0.315    0.559    2.237
  372.090   83.400    0.285    0.544    2.297
  372.340   85.386    0.301    0.528    2.470
  372.590   81.189    0.320    0.498    2.643
  372.840   78.599    0.329    0.463    3.031
  373.090   75.259    0.347    0.432    3.380
  373.340   70.526    0.352    0.401    3.641
  373.590   67.051    0.347    0.379    3.935
  373.840   64.645    0.344    0.394    3.967
  374.090   65.271    0.339    0.405    3.634
