~VERSION INFORMATION
 VERS.                 2.0:   CWLS LOG ASCII STANDARD -VERSION 2.0
 WRAP.                  NO:   ONE LINE PER DEPTH STEP
~WELL INFORMATION BLOCK
#MNEM.UNIT           DATA                    DESCRIPTION OF MNEMONIC
#---------    -------------------            -------------------------------
# Generated from Intellog Unique Number	CC_80_83/WELL/2400
NULL.         -999.25                        : NULL_VALUE
WELL.         AMOCO HANGINGSTONE             : Well_name    - WELL
LOC .         11-17-083-09W4                 : Location     - LOCATION          
UWI .         00/11-17-083-09W400            : Uwi          - UNIQUE WELL ID    
ENTR.         DW                             : Entered      - ENTERED BY        
SRVC.         WELEX                          : Scn          - SERVICE COMPANY   
DATE.         28 FEB 74                      : Date         - LOG DATE
STRT.M        259.08                         : top_depth    - START DEPTH       
STOP.M        493.783                        : bot_depth    - STOP DEPTH        
STEP.M        0.305                          : increment    - STEP LENGTH       
~CURVE INFORMATION BLOCK
#MNEM UNIT       ERCB CURVE CODE    CURVE DESCRIPTION
#-----------   ------------------   ----------------------------------
DEPT.M        00 001 00 00         : DEPTH        - DEPTH                       
ILD .OHMM     00 120 00 00         : RESD         - DEEP RESISTIVITY (DIL)      
GR  .API      00 310 00 00         : GR           - GAMMA RAY                   
NPHI.V/V      00 330 00 00         : PHIN         - NEUTRON POROSITY (LIMESTONE)
DPHI.V/V      00 890 00 00         : PHID         - DENSITY POROSITY (LIMESTONE)
~PARAMETER INFORMATION       
#MNEM.UNIT           DATA             DESCRIPTION OF MNEMONIC
#---------         -----------     ------------------------------
GL  .M        730.27               : gl           - GROUND LEVEL ELEVATION      
EREF.M        733.471              : kb           - ELEVATION OF DEPTH REFERENCE
DATM.M        733.471              : datum        - DATUM ELEVATION             
TDD .M        502.615              : tdd          - TOTAL DEPTH DRILLER         
RUN .         ONE                  : Run          - RUN NUMBER                  
ENG .         BILL                 : Engineer     - RECORDING ENGINEER          
WIT .         JIM                  : Witness      - WITNESSED BY                
MUD .         GEL                  : Mud_type     - MUD TYPE                    
MATR.         LIMESTONE            : Logunit      - NEUTRON MATRIX              
TMAX.C        21.6667              : BHT          - MAXIMUM RECORDED TEMPERATURE
BHTD.M        502.006              : BHTDEP       - MAXIMUM RECORDED TEMPERATURE
MATR.         1                    : LOGUNIT      - NEUTRON MATRIX              
RMT .C        25                   : MDTP         - TEMPERATURE OF MUD          
NEUT.         1                    : NEUTRON      - NEUTRON TYPE                
RESI.         0                    : RESIST       - RESISTIVITY TYPE            
RMC .OHMM     0.25                 : RMC          - RESISTIVITY OF MUD CAKE     
RMF .OHMM     0.25                 : RMF          - RESISTIVITY OF MUD FILTRATE 
SUFT.C        15                   : SUFT         - SURFACE TEMPERATURE         
~A  DEPTH     RESD       GR     PHIN     PHID
# ...
  312.117   11.664   95.894    0.454    0.208
  312.422   11.451   98.987    0.457    0.203
  312.726   11.034  102.079    0.465    0.202
  313.031   10.434  108.259    0.473    0.191
  313.336    9.502  113.201    0.470    0.171
  313.641    8.494  118.145    0.461    0.175
  313.946    7.883  120.623    0.461    0.180
  314.251    7.595  124.952    0.476    0.171
  314.555    7.320  128.044    0.493    0.163
  314.860    7.187  129.290    0.513    0.161
  315.165    7.327  120.051    0.500    0.170
  315.470    7.903  112.050    0.492    0.201
  315.775    8.687  109.594    0.464    0.214
  316.079    9.728  108.370    0.453    0.229
  316.384   11.101  105.301    0.453    0.240
  316.689   12.200  100.994    0.453    0.240
  316.994   12.674  102.240    0.455    0.234
  317.299   11.762  110.266    0.457    0.219
  317.603   10.916  117.677    0.467    0.205
  317.908    9.577  122.003    0.477    0.197
  318.213    9.055  114.618    0.480    0.199
  318.518    8.406  118.945    0.484    0.212
  318.823    8.252  120.805    0.488    0.224
  319.127    8.413  115.883    0.489    0.234
  319.432    8.740  101.096    0.486    0.252
  319.737    9.606   97.412    0.475    0.266
  320.042   10.758   97.420    0.468    0.267
  320.347   12.048   90.033    0.458    0.271
  320.652   13.241   83.878    0.444    0.289
  320.956   14.280   80.191    0.411    0.311
  321.261   16.921   77.118    0.381    0.331
  321.566   20.429   70.966    0.365    0.356
  321.871   23.314   67.892    0.379    0.336
  322.176   24.681   65.437    0.433    0.306
  322.480   24.691   65.449    0.445    0.306
  322.785   23.792   66.694    0.447    0.314
  323.090   23.363   69.170    0.447    0.313
  323.395   22.512   72.267    0.447    0.309
  323.700   22.102   71.660    0.451    0.306
  324.004   21.704   66.121    0.455    0.304
  324.309   21.308   63.052    0.450    0.300
  324.614   21.325   64.295    0.450    0.295
  324.919   21.332   68.623    0.453    0.287
  325.224   21.753   67.403    0.461    0.284
  325.528   22.175   65.564    0.464    0.284
  325.833   22.184   64.957    0.466    0.290
  326.138   22.197   68.055    0.460    0.293
  326.443   21.794   68.678    0.456    0.300
  326.748   21.398   67.459    0.454    0.302
  327.053   21.009   67.467    0.452    0.298
  327.357   20.630   65.017    0.451    0.287
  327.662   20.640   61.944    0.456    0.275
  327.967   21.042   60.103    0.447    0.258
  328.272   21.053   60.733    0.440    0.265
  328.577   21.060   63.212    0.463    0.296
  328.881   21.471   63.836    0.472    0.296
  329.186   21.483   63.848    0.463    0.297
  329.491   21.093   64.475    0.458    0.309
  329.796   20.331   63.873    0.455    0.299
  330.101   19.962   63.885    0.456    0.296
  330.405   19.973   62.046    0.466    0.299
  330.710   19.982   60.204    0.474    0.304
  331.015   19.991   60.832    0.485    0.315
  331.320   20.379   58.997    0.482    0.310
  331.625   20.387   60.854    0.478    0.302
  331.929   20.401   59.635    0.478    0.304
  332.234   20.409   58.411    0.472    0.311
  332.539   20.417   59.657    0.461    0.314
  332.844   20.823   59.052    0.454    0.313
  333.149   20.445   59.680    0.449    0.311
  333.454   20.454   61.541    0.457    0.314
  333.758   20.085   61.553    0.470    0.314
  334.063   20.093   63.418    0.470    0.311
  334.368   20.102   64.043    0.464    0.300
  334.673   19.737   64.054    0.462    0.298
  334.978   19.746   62.830    0.467    0.304
  335.282   20.134   62.224    0.475    0.309
  335.587   20.140   61.004    0.462    0.312
  335.892   20.534   60.396    0.463    0.312
  336.197   20.543   59.795    0.486    0.310
  336.502   20.559   59.186    0.487    0.307
  336.806   20.570   59.816    0.475    0.309
  337.111   20.579   61.059    0.475    0.310
  337.416   20.588   62.303    0.485    0.310
  337.721   20.212   62.932    0.484    0.309
  338.026   20.222   62.943    0.474    0.307
  338.330   19.861   60.488    0.475    0.308
  338.635   19.500   62.967    0.483    0.308
  338.940   19.143   66.060    0.485    0.308
  339.245   19.154   65.457    0.469    0.307
  339.550   19.167   64.232    0.460    0.305
  339.855   19.174   64.860    0.451    0.300
  340.159   19.546   65.490    0.455    0.297
  340.464   19.560   66.116    0.461    0.298
  340.769   19.569   65.513    0.470    0.292
  341.074   19.212   66.755    0.482    0.277
  341.379   19.226   69.236    0.484    0.270
  341.683   19.233   72.330    0.477    0.275
  341.988   19.239   73.571    0.473    0.281
  342.293   19.256   71.734    0.467    0.295
  342.598   18.905   67.431    0.466    0.298
  342.903   18.563   64.359    0.468    0.296
  343.207   18.573   66.217    0.471    0.292
  343.512   18.236   70.549    0.465    0.290
  343.817   18.591   71.790    0.463    0.285
  344.122   18.601   71.184    0.465    0.277
  344.427   18.962   71.815    0.473    0.275
  344.731   18.969   71.828    0.456    0.270
  345.036   18.627   73.072    0.460    0.267
  345.341   17.615   74.931    0.483    0.265
  345.646   16.654   79.256    0.493    0.261
  345.951   12.809   84.203    0.499    0.250
  346.256   10.037   86.061    0.499    0.239
  346.560    7.866   89.155    0.488    0.236
  346.865    7.300   93.483    0.484    0.235
  347.170    7.170   95.344    0.488    0.240
  347.475    7.309   87.341    0.495    0.257
  347.780    7.593   84.268    0.500    0.266
  348.084    7.886   79.966    0.511    0.264
  348.389    8.507   78.126    0.507    0.256
  348.694    8.837   76.291    0.494    0.251
  348.999    9.356   76.297    0.492    0.245
  349.304    9.536   80.010    0.490    0.240
  349.608   10.096   83.106    0.479    0.236
  349.913   10.685   80.647    0.467    0.243
  350.218   11.744   72.029    0.459    0.251
  350.523   12.669   75.742    0.454    0.266
  350.828   13.159   78.218    0.447    0.272
  351.132   13.414   78.843    0.455    0.269
  351.437   13.173   80.087    0.475    0.258
  351.742   12.692   86.266    0.487    0.246
  352.047   11.560   90.594    0.490    0.235
  352.352   10.334   91.221    0.492    0.232
  352.657    9.770   95.547    0.497    0.241
  352.961    8.899   96.177    0.497    0.236
  353.266    8.418   93.722    0.503    0.228
  353.571    8.111   94.352    0.511    0.225
  353.876    7.963   96.210    0.509    0.225
  354.181    7.672   98.072    0.509    0.223
  354.485    6.988  101.781    0.513    0.217
  354.790    6.246  105.493    0.515    0.213
  355.095    5.582  107.354    0.514    0.213
  355.400    4.989  106.131    0.512    0.221
  355.705    4.719   99.979    0.509    0.224
  356.009    4.633  101.842    0.508    0.223
  356.314    4.550  105.548    0.509    0.213
  356.619    4.467  112.959    0.519    0.197
  356.924    3.845  116.053    0.526    0.201
  357.229    3.437  115.448    0.530    0.208
  357.533    3.374  112.377    0.536    0.211
  357.838    3.314  109.923    0.547    0.211
  358.143    3.378  107.466    0.552    0.217
  358.448    3.509  103.778    0.545    0.223
  358.753    3.646   98.243    0.541    0.229
  359.058    3.647   98.252    0.546    0.229
  359.362    3.450  106.280    0.551    0.218
  359.667    3.202  109.372    0.559    0.214
  359.972    3.143  110.001    0.568    0.220
  360.277    2.972  104.465    0.575    0.229
  360.582    2.865  102.625    0.575    0.238
  360.886    2.866  100.786    0.569    0.247
  361.191    2.922   99.565    0.554    0.257
  361.496    3.036   98.964    0.527    0.263
  361.801    3.154   98.969    0.495    0.274
  362.106    3.879   96.515    0.467    0.327
  362.410    4.596   91.595    0.449    0.335
  362.715    5.344   82.975    0.411    0.332
  363.020    6.575   79.288    0.377    0.353
  363.325    8.088   78.064    0.324    0.369
  363.630   10.931   71.293    0.300    0.377
  363.934   23.633   66.987    0.261    0.386
  364.239   35.750   69.467    0.252    0.400
  364.544   46.537   72.563    0.250    0.416
  364.849   52.127   74.427    0.248    0.428
