~VERSION INFORMATION
 VERS.                 2.0:   CWLS LOG ASCII STANDARD -VERSION 2.0
 WRAP.                  NO:   ONE LINE PER DEPTH STEP
~WELL INFORMATION BLOCK
#MNEM.UNIT           DATA                    DESCRIPTION OF MNEMONIC
#---------    -------------------            -------------------------------
# Generated from Intellog Unique Number	CW_76_78/WELL/2586
WELL.         SCURRY ET AL DOUCETTE          : Well_name    - WELL
LOC .         00/12-22-078-02W5/0            : Location     - LOCATION
UWI .         00/12-22-078-02W5/0            : Uwi          - UNIQUE WELL ID
ENTR.         MAX                            : Entered      - ENTERED BY
SRVC.         WESTERN ATLAS                  : Scn          - SERVICE COMPANY
STRT.M        330                            : top_depth    - START DEPTH
STOP.M        585                            : bot_depth    - STOP DEPTH
STEP.M        0.25                           : increment    - STEP LENGTH
 NULL. -999.2500:NULL Value
~CURVE INFORMATION BLOCK
#MNEM UNIT       ERCB CURVE CODE    CURVE DESCRIPTION
#-----------   ------------------   ----------------------------------
DEPT.M        00 001 00 00         : DEPTH        - DEPTH
ILD .OHMM     00 120 00 00         : RESD         - DEEP RESISTIVITY (DIL)
NPHI.V/V      00 330 00 00         : PHIN         - NEUTRON POROSITY (SANDSTONE)
DPHI.V/V      00 890 00 00         : PHID         - DENSITY POROSITY (SANDSTONE)
CALI.MM       00 280 01 00         : CAL          - CALIPER
GR  .API      00 310 00 00         : GR           - GAMMA RAY
~PARAMETER INFORMATION
#MNEM.UNIT           DATA             DESCRIPTION OF MNEMONIC
#---------         -----------     ------------------------------
GL  .M        625.1                : gl           - GROUND LEVEL ELEVATION
EREF.M        629.33               : kb           - ELEVATION OF DEPTH REFERENCE
DATM.M        625.1                : datum        - DATUM ELEVATION
TDD .M        611.3                : tdd          - TOTAL DEPTH DRILLER
RUN .         ONE                  : Run          - RUN NUMBER
ENG .         BILL                 : Engineer     - RECORDING ENGINEER
WIT .         JIM                  : Witness      - WITNESSED BY
MUD .         GEL                  : Mud_type     - MUD TYPE
MATR.         SANDSTONE            : Logunit      - NEUTRON MATRIX
TMAX.C        29                   : BHT          - MAXIMUM RECORDED TEMPERATURE
BHTD.M        611.3                : BHTDEP       - MAXIMUM RECORDED TEMPERATURE
RMT .C        13                   : MDTP         - TEMPERATURE OF MUD
MUDD.KG/M     1170                 : MWT          - MUD DENSITY
NEUT.         1                    : NEUTRON      - NEUTRON TYPE
RESI.         0                    : RESIST       - RESISTIVITY TYPE
RM  .OHMM     5                    : RM           - RESISTIVITY OF MUD
RMC .OHMM     3.5                  : RMC          - RESISTIVITY OF MUD CAKE
RMF .OHMM     6                    : RMF          - RESISTIVITY OF MUD FILTRATE
SUFT.C        -5                   : SUFT         - SURFACE TEMPERATURE
~A  DEPTH     RESD     PHIN     PHID      CAL       GR
# ...
  439.500   20.378    0.386    0.268  193.149   65.875
  439.750   18.164    0.388    0.270  194.674   68.818
  440.000   15.211    0.394    0.273  199.093   72.352
  440.250   13.927    0.399    0.271  198.655   77.633
  440.500   12.866    0.404    0.260  196.751   77.665
  440.750   12.316    0.404    0.261  195.845   74.488
  441.000   12.443    0.398    0.245  199.777   67.219
  441.250   12.908    0.384    0.210  203.224   64.333
  441.500   11.925    0.343    0.198  203.278   66.109
  441.750   10.919    0.370    0.251  203.326   71.394
  442.000   10.178    0.393    0.261  201.921   72.302
  442.250    9.318    0.395    0.222  200.996   74.369
  442.500    8.458    0.383    0.173  200.084   77.611
  442.750    8.024    0.379    0.193  199.153   80.266
  443.000    7.481    0.398    0.219  197.736   82.345
  443.250    7.034    0.404    0.229  199.249   83.832
  443.500    6.674    0.403    0.232  203.188   86.196
  443.750    6.221    0.398    0.229  206.646   88.555
  444.000    5.595    0.398    0.213  207.661   92.673
  444.250    5.032    0.398    0.212  207.721   91.830
  444.500    4.608    0.402    0.213  207.283   93.613
  444.750    4.531    0.420    0.212  208.303   96.268
  445.000    4.830    0.424    0.211  209.330   96.877
  445.250    5.335    0.420    0.214  206.941   88.735
  445.500    5.946    0.412    0.222  200.673   82.640
  445.750    6.567    0.394    0.219  197.311   80.918
  446.000    6.567    0.379    0.211  194.939   80.364
  446.250    7.874    0.375    0.204  194.981   80.980
  446.500    7.883    0.392    0.208  195.041   81.300
  446.750    7.822    0.401    0.225  195.083   80.159
  447.000    7.691    0.402    0.241  195.125   78.728
  447.250    7.701    0.401    0.251  195.660   76.135
  447.500    7.778    0.404    0.259  197.179   78.210
  447.750    8.218    0.410    0.251  198.199   78.530
  448.000    8.527    0.417    0.246  199.706   78.559
  448.250    8.536    0.415    0.256  200.727   81.214
  448.500    8.102    0.412    0.265  201.754   84.453
  448.750    7.618    0.404    0.260  202.288   90.908
  449.000    7.618    0.401    0.248  203.795   94.438
  449.250    7.114    0.408    0.234  205.795   86.585
  449.500    6.808    0.412    0.232  206.815   81.074
  449.750    6.518    0.408    0.232  206.869   81.099
  450.000    6.658    0.405    0.222  203.177   83.415
  450.250    6.781    0.415    0.226  203.187   82.546
  450.500    6.906    0.422    0.231  203.201   82.555
  450.750    6.971    0.430    0.229  204.190   82.272
  451.000    7.164    0.432    0.225  205.669   83.451
  451.250    7.362    0.432    0.224  206.658   84.921
  451.500    7.771    0.429    0.226  206.184   84.345
  451.750    8.351    0.425    0.228  204.246   81.720
  452.000    8.974    0.423    0.235  201.823   81.142
  452.250   10.175    0.423    0.244  200.371   80.858
  452.500   12.393    0.420    0.253  199.409   81.159
  452.750   14.827    0.415    0.269  197.475   82.337
  453.000   16.811    0.408    0.274  197.490   79.126
  453.250   19.932    0.374    0.259  197.501   70.646
  453.500   25.386    0.340    0.191  197.026   65.094
  453.750   25.857    0.335    0.217  197.042   64.225
  454.000   24.738    0.393    0.251  197.054   65.405
  454.250   23.668    0.412    0.264  197.069   67.462
  454.500   22.239    0.417    0.286  198.060   70.689
  454.750   17.633    0.417    0.286  200.025   75.381
  455.000   15.154    0.413    0.260  203.453   79.779
  455.250   15.434    0.408    0.254  203.954   68.958
  455.500   16.146    0.408    0.263  203.482   64.284
  455.750   19.145    0.406    0.264  202.032   63.707
  456.000   20.574    0.390    0.255  199.607   67.520
  456.250   19.334    0.393    0.258  198.158   74.262
  456.500   17.847    0.400    0.263  199.146   73.098
  456.750   16.476    0.408    0.269  199.651   71.058
  457.000   15.208    0.411    0.271  199.661   70.480
  457.250   13.069    0.411    0.267  198.699   72.830
  457.500   12.391    0.411    0.261  196.765   76.058
  457.750   11.749    0.409    0.253  194.338   79.287
  458.000   11.649    0.393    0.222  194.839   79.002
  458.250   11.865    0.374    0.203  200.220   77.254
  458.500   11.870    0.362    0.190  199.748   76.677
  458.750   11.982    0.366    0.205  198.786   74.929
  459.000   11.880    0.391    0.233  197.825   73.768
  459.250   11.675    0.396    0.252  197.825   74.946
  459.500   11.170    0.397    0.262  197.854   74.076
  459.750   10.402    0.397    0.266  197.379   72.915
  460.000    9.776    0.401    0.256  197.878   73.510
  460.250    9.187    0.404    0.248  199.843   75.272
  460.500    8.868    0.408    0.244  201.808   77.915
  460.750    8.561    0.412    0.243  202.800   79.972
  461.000    8.412    0.412    0.238  203.788   80.273
  461.250    8.267    0.411    0.231  204.779   79.989
  461.500    8.124    0.414    0.218  204.305   79.706
  461.750    7.983    0.408    0.205  203.344   79.420
  462.000    7.915    0.405    0.202  202.870   81.184
  462.250    7.849    0.410    0.211  202.396   86.754
  462.500    7.712    0.414    0.210  202.897   92.910
  462.750    7.579    0.411    0.205  203.888   93.211
  463.000    7.516    0.406    0.205  203.900   89.707
  463.250    7.519    0.402    0.205  203.916   87.375
  463.500    7.455    0.401    0.209  203.440   86.504
  463.750    7.392    0.403    0.207  201.502   87.683
  464.000    7.200    0.407    0.198  200.056   88.861
  464.250    7.202    0.416    0.187  200.069   89.456
  464.500    7.206    0.419    0.191  202.524   89.464
  464.750    7.338    0.417    0.194  202.534   90.059
  465.000    7.609    0.410    0.198  202.551   90.360
  465.250    8.251    0.411    0.217  202.564   90.367
  465.500    9.107    0.408    0.231  199.162   87.156
  465.750   10.327    0.406    0.250  194.789   82.774
  466.000   13.035    0.410    0.263  195.288   78.393
  466.250   14.135    0.412    0.261  198.718   80.157
  466.500   15.464    0.412    0.268  204.099   83.092
  466.750   16.767    0.408    0.277  204.110   81.638
  467.000   19.704    0.405    0.273  202.174   77.256
  467.250   20.611    0.406    0.263  197.800   71.702
  467.500   24.222    0.403    0.271  196.837   69.370
  467.750   31.406    0.396    0.277  196.363   69.965
  468.000   36.254    0.395    0.268  196.864   68.801
  468.250   36.595    0.399    0.268  198.829   69.689
  468.500   34.700    0.402    0.264  200.795   70.573
  468.750   31.462    0.388    0.204  201.297   67.656
  469.000   25.624    0.317    0.155  201.309   63.860
  469.250   22.619    0.282    0.115  201.322   63.284
  469.500   19.264    0.300    0.089  201.339   63.583
  469.750   17.945    0.342    0.099  200.377   64.177
  470.000   18.276    0.380    0.215  200.389   66.527
  470.250   19.118    0.387    0.228  199.918   69.755
  470.500   19.824    0.386    0.230  200.420   73.275
  470.750   19.136    0.373    0.221  202.874   76.211
  471.000   17.043    0.369    0.214  204.349   79.146
  471.250   14.258    0.377    0.229  204.853   81.203
  471.500   11.718    0.377    0.225  204.864   81.211
  471.750   10.720    0.374    0.208  204.394   83.270
  472.000   10.165    0.378    0.197  203.919   84.156
  472.250   10.169    0.384    0.198  203.930   83.579
  472.500   10.545    0.389    0.212  204.431   83.293
  472.750   10.835    0.388    0.214  205.422   84.182
  473.000   11.234    0.379    0.200  206.902   84.483
  473.250   11.340    0.370    0.200  206.916   83.321
  473.500   11.340    0.371    0.196  206.928   82.450
  473.750   11.351    0.371    0.189  206.454   81.287
  474.000   11.154    0.368    0.181  206.955   79.831
  474.250   10.672    0.368    0.190  207.944   81.305
  474.500   10.301    0.371    0.216  206.495   85.702
  474.750   10.122    0.387    0.240  205.534   84.541
  475.000    9.771    0.381    0.239  206.037   83.377
  475.250    9.602    0.373    0.232  206.537   83.680
  475.500    9.607    0.375    0.225  205.089   84.567
  475.750    9.872    0.384    0.206  204.613   85.160
