~VERSION INFORMATION
VERS.                2.00:   CWLS LOG ASCII STANDARD -VERSION 2.0
WRAP.                  NO:
~WELL INFORMATION BLOCK
#MNEM.UNIT           DATA                    DESCRIPTION OF MNEMONIC
#---------    -------------------            -------------------------------
# Generated from Intellog Unique Number	CC_80_83/WELL/2471
LOC .         00/10-22-083-08W4/0            : Location     - LOCATION
UWI .         00/10-22-083-08W4/0            : Uwi          - UNIQUE WELL ID
ENTR.         DW                             : Entered      - ENTERED BY
STRT.M             259.08:
STOP.M             511.83:
STEP.M               0.25:
NULL.             -999.25:
COMP.  :COMPANY
WELL.  ARC0 ET AL SURMONT:WELL
FLD.   :FIELD
LOC.   :LOCATION
CTRY.  :COUNTRY
PROV.  :PROVINCE
SRVC.  SCHLUMBERGER:SERVICE COMPANY
DATE.  :LOG DATE
UWI.   :UNIQUE WELL ID
~PARAMETER INFORMATION
#MNEM.UNIT           DATA             DESCRIPTION OF MNEMONIC
#---------         -----------     ------------------------------
GL  .M        732.13               : gl           - GROUND LEVEL ELEVATION
EREF.M        735.178              : kb           - ELEVATION OF DEPTH REFERENCE
DATM.M        735.178              : datum        - DATUM ELEVATION
TDD .M        515.722              : tdd          - TOTAL DEPTH DRILLER
RUN .         ONE                  : Run          - RUN NUMBER
ENG .         BILL                 : Engineer     - RECORDING ENGINEER
WIT .         JIM                  : Witness      - WITNESSED BY
MUD .         GEL                  : Mud_type     - MUD TYPE
MATR.         SANDSTONE            : Logunit      - NEUTRON MATRIX
TMAX.C        20                   : BHT          - MAXIMUM RECORDED TEMPERATURE
BHTD.M        515.722              : BHTDEP       - MAXIMUM RECORDED TEMPERATURE
MATR.         1                    : LOGUNIT      - NEUTRON MATRIX
RMT .C        25                   : MDTP         - TEMPERATURE OF MUD
NEUT.         1                    : NEUTRON      - NEUTRON TYPE
RESI.         0                    : RESIST       - RESISTIVITY TYPE
RMC .OHMM     0.25                 : RMC          - RESISTIVITY OF MUD CAKE
RMF .OHMM     0.25                 : RMF          - RESISTIVITY OF MUD FILTRATE
SUFT.C        15                   : SUFT         - SURFACE TEMPERATURE
~Curve Information Block
#MNEM UNIT       ERCB CURVE CODE    CURVE DESCRIPTION
#MNEM.UNIT         API CODE    Curve Description
#----------    ------------    --------------------
DEPT.M                     :   DEPTH
DPHI.V/V                   :   DPHI
DT  .us/m                  :   DT
GR  .API       00 310 00 00:   GR
ILD .Ohmm      00 120 00 00:   ILD
NPHI.V/V       00 330 00 00:   NPHI
RHOB.gm/c3                 :   RHOB
~A  Depth           DPHI          DT          GR         ILD        NPHI        RHOB
# ...
330.33           -999.25     -999.25       76.37       11.35        0.37     -999.25
330.58           -999.25     -999.25       74.36       11.24        0.35     -999.25
330.83           -999.25     -999.25       72.63       12.02        0.32     -999.25
331.08           -999.25     -999.25       69.84       13.52        0.31     -999.25
331.33           -999.25     -999.25       65.37       15.07        0.32     -999.25
331.58           -999.25     -999.25       57.10       16.85        0.32     -999.25
331.83           -999.25     -999.25       51.89       18.18        0.33     -999.25
332.08           -999.25     -999.25       49.75       18.78        0.36     -999.25
332.33           -999.25     -999.25       50.18       18.81        0.37     -999.25
332.58           -999.25     -999.25       52.38       18.41        0.36     -999.25
332.83           -999.25     -999.25       53.29       17.83        0.38     -999.25
333.08           -999.25     -999.25       53.44       17.75        0.39     -999.25
333.33           -999.25     -999.25       52.66       18.03        0.38     -999.25
333.58           -999.25     -999.25       51.51       18.21        0.34     -999.25
333.83           -999.25     -999.25       49.43       18.09        0.33     -999.25
334.08           -999.25     -999.25       46.38       17.79        0.36     -999.25
334.33           -999.25     -999.25       44.85       17.52        0.37     -999.25
334.58           -999.25     -999.25       44.26       17.26        0.39     -999.25
334.83           -999.25     -999.25       46.65       16.95        0.36     -999.25
335.08           -999.25     -999.25       50.32       16.80        0.33     -999.25
335.33           -999.25     -999.25       49.46       16.83        0.35     -999.25
335.58           -999.25     -999.25       44.17       16.82        0.36     -999.25
335.83           -999.25     -999.25       44.83       16.87        0.36     -999.25
336.08           -999.25     -999.25       45.65       16.48        0.37     -999.25
336.33           -999.25     -999.25       45.03       15.92        0.35     -999.25
336.58           -999.25     -999.25       47.20       15.44        0.33     -999.25
336.83           -999.25     -999.25       51.81       14.98        0.34     -999.25
337.08           -999.25     -999.25       52.76       14.74        0.36     -999.25
337.33           -999.25     -999.25       52.22       14.70        0.34     -999.25
337.58           -999.25     -999.25       49.03       14.84        0.35     -999.25
337.83           -999.25     -999.25       45.06       15.20        0.35     -999.25
338.08           -999.25     -999.25       43.32       15.70        0.33     -999.25
338.33           -999.25     -999.25       42.88       16.20        0.33     -999.25
338.58           -999.25     -999.25       41.67       16.72        0.36     -999.25
338.83           -999.25     -999.25       42.79       17.11        0.39     -999.25
339.08           -999.25     -999.25       43.76       17.05        0.39     -999.25
339.33           -999.25     -999.25       44.77       16.74        0.37     -999.25
339.58           -999.25     -999.25       46.68       16.48        0.35     -999.25
339.83           -999.25     -999.25       45.59       16.22        0.36     -999.25
340.08           -999.25     -999.25       43.09       16.21        0.37     -999.25
340.33           -999.25     -999.25       40.75       16.12        0.38     -999.25
340.58           -999.25     -999.25       39.23       16.52        0.38     -999.25
340.83           -999.25     -999.25       38.42       17.28        0.37     -999.25
341.08           -999.25     -999.25       37.96       17.49        0.35     -999.25
341.33           -999.25     -999.25       38.31       17.76        0.35     -999.25
341.58           -999.25     -999.25       40.70       18.06        0.36     -999.25
341.83           -999.25     -999.25       44.74       18.26        0.35     -999.25
342.08           -999.25     -999.25       45.40       17.97        0.35     -999.25
342.33           -999.25     -999.25       41.86       17.45        0.37     -999.25
342.58           -999.25     -999.25       40.99       17.49        0.36     -999.25
342.83           -999.25     -999.25       42.43       17.28        0.35     -999.25
343.08           -999.25     -999.25       40.33       16.90        0.34     -999.25
343.33           -999.25     -999.25       41.66       16.93        0.33     -999.25
343.58           -999.25     -999.25       43.64       17.21        0.32     -999.25
343.83           -999.25     -999.25       39.11       17.15        0.33     -999.25
344.08           -999.25     -999.25       40.97       16.87        0.34     -999.25
344.33           -999.25     -999.25       45.04       16.82        0.36     -999.25
344.58           -999.25     -999.25       46.41       16.84        0.38     -999.25
344.83           -999.25     -999.25       45.71       16.86        0.38     -999.25
345.08           -999.25     -999.25       44.50       16.81        0.36     -999.25
345.33           -999.25     -999.25       42.97       16.53        0.36     -999.25
345.58           -999.25     -999.25       43.38       16.51        0.35     -999.25
345.83           -999.25     -999.25       43.79       16.53        0.36     -999.25
346.08           -999.25     -999.25       45.17       16.53        0.36     -999.25
346.33           -999.25     -999.25       47.02       16.51        0.34     -999.25
346.58           -999.25     -999.25       47.27       16.54        0.34     -999.25
346.83           -999.25     -999.25       46.82       16.81        0.36     -999.25
347.08           -999.25     -999.25       45.28       16.90        0.37     -999.25
347.33           -999.25     -999.25       44.76       16.66        0.37     -999.25
347.58           -999.25     -999.25       47.86       16.52        0.38     -999.25
347.83           -999.25     -999.25       50.22       16.48        0.36     -999.25
348.08           -999.25     -999.25       48.50       15.92        0.33     -999.25
348.33           -999.25     -999.25       53.21       15.16        0.37     -999.25
348.58           -999.25     -999.25       53.35       14.82        0.38     -999.25
348.83           -999.25     -999.25       49.64       14.62        0.38     -999.25
349.08           -999.25     -999.25       46.13       14.43        0.38     -999.25
349.33           -999.25     -999.25       44.25       14.48        0.36     -999.25
349.58           -999.25     -999.25       45.98       14.72        0.35     -999.25
349.83           -999.25     -999.25       44.70       14.93        0.35     -999.25
350.08           -999.25     -999.25       41.47       15.31        0.35     -999.25
350.33           -999.25     -999.25       42.49       15.87        0.35     -999.25
350.58           -999.25     -999.25       45.79       16.28        0.36     -999.25
350.83           -999.25     -999.25       44.84       16.54        0.37     -999.25
351.08           -999.25     -999.25       44.24       17.29        0.37     -999.25
351.33           -999.25     -999.25       44.28       18.41        0.39     -999.25
351.58           -999.25     -999.25       43.99       19.46        0.37     -999.25
351.83           -999.25     -999.25       43.47       20.23        0.34     -999.25
352.08           -999.25     -999.25       43.75       19.80        0.35     -999.25
352.33           -999.25     -999.25       45.32       16.63        0.34     -999.25
352.58           -999.25     -999.25       46.93       11.37        0.33     -999.25
352.83           -999.25     -999.25       48.20        7.58        0.32     -999.25
353.08           -999.25     -999.25       50.73        5.82        0.34     -999.25
353.33           -999.25     -999.25       58.92        5.24        0.37     -999.25
353.58           -999.25     -999.25       71.78        5.49        0.38     -999.25
353.83           -999.25     -999.25       77.89        5.67        0.39     -999.25
