~VERSION INFORMATION
 VERS.                 2.0:   CWLS LOG ASCII STANDARD -VERSION 2.0
 WRAP.                  NO:   ONE LINE PER DEPTH STEP
~WELL INFORMATION BLOCK
#MNEM.UNIT           DATA                    DESCRIPTION OF MNEMONIC
#---------    -------------------            -------------------------------
# Generated from Intellog Unique Number	CS_77_79/WELL/3309
WELL.         COLUMBIA GAS DEVELOPMENT       : Well_name    - WELL
LOC .         00/16-24-079-16W4/0            : Location     - LOCATION
UWI .         00/16-24-079-16W4/0            : Uwi          - UNIQUE WELL ID
ENTR.         JOETTE                         : Entered      - ENTERED BY
SRVC.         SCHLUMBERGER                   : Scn          - SERVICE COMPANY
DATE.         08-24-92                       : Date         - LOG DATE
STRT.M        180                            : top_depth    - START DEPTH
STOP.M        400                            : bot_depth    - STOP DEPTH
STEP.M        0.25                           : increment    - STEP LENGTH
 NULL. -999.2500:NULL Value
~CURVE INFORMATION BLOCK
#MNEM UNIT       ERCB CURVE CODE    CURVE DESCRIPTION
#-----------   ------------------   ----------------------------------
DEPT.M        00 001 00 00         : DEPTH        - DEPTH
ILD .OHMM     00 120 00 00         : RESD         - DEEP RESISTIVITY (DIL)
DPHI.V/V      00 890 00 00         : PHID         - DENSITY POROSITY (SANDSTONE)
NPHI.V/V      00 330 00 00         : PHIN         - NEUTRON POROSITY (SANDSTONE)
GR  .API      00 310 00 00         : GR           - GAMMA RAY
~PARAMETER INFORMATION
#MNEM.UNIT           DATA             DESCRIPTION OF MNEMONIC
#---------         -----------     ------------------------------
GL  .M        584.7                : gl           - GROUND LEVEL ELEVATION
EREF.M        588.2                : kb           - ELEVATION OF DEPTH REFERENCE
DATM.M        588.2                : datum        - DATUM ELEVATION
TDD .M        406                  : tdd          - TOTAL DEPTH DRILLER
RUN .         ONE                  : Run          - RUN NUMBER
ENG .         BILL                 : Engineer     - RECORDING ENGINEER
WIT .         JIM                  : Witness      - WITNESSED BY
MUD .         GEL                  : Mud_type     - MUD TYPE
MATR.         SANDSTONE            : Logunit      - NEUTRON MATRIX
TMAX.C        25                   : BHT          - MAXIMUM RECORDED TEMPERATURE
BHTD.M        406                  : BHTDEP       - MAXIMUM RECORDED TEMPERATURE
MATR.         1                    : LOGUNIT      - NEUTRON MATRIX
RMT .C        22                   : MDTP         - TEMPERATURE OF MUD
NEUT.         1                    : NEUTRON      - NEUTRON TYPE
RESI.         0                    : RESIST       - RESISTIVITY TYPE
RMC .OHMM     5                    : RMC          - RESISTIVITY OF MUD CAKE
RMF .OHMM     5                    : RMF          - RESISTIVITY OF MUD FILTRATE
SUFT.C        15                   : SUFT         - SURFACE TEMPERATURE
~A  DEPTH     RESD     PHID     PHIN       GR
# ...
  267.000   12.191    0.278    0.380   67.826
  267.250   12.647    0.290    0.408   61.249
  267.500   13.363    0.299    0.394   55.864
  267.750   13.863    0.295    0.383   56.441
  268.000   14.378    0.294    0.371   55.826
  268.250   14.372    0.293    0.374   59.379
  268.500   14.361    0.293    0.381   59.956
  268.750   14.355    0.295    0.379   59.937
  269.000   14.347    0.301    0.379   61.711
  269.250   14.072    0.310    0.380   58.115
  269.500   14.064    0.316    0.379   54.514
  269.750   13.541    0.316    0.374   54.495
  270.000   13.286    0.311    0.369   52.682
  270.250   12.795    0.283    0.367   52.072
  270.500   12.786    0.279    0.372   56.822
  270.750   13.261    0.270    0.385   65.150
  271.000   13.757    0.286    0.390   59.169
  271.250   14.272    0.296    0.391   55.573
  271.500   15.078    0.290    0.391   55.554
  271.750   15.071    0.289    0.384   57.323
  272.000   14.510    0.299    0.382   54.919
  272.250   14.239    0.302    0.394   61.458
  272.500   12.964    0.290    0.393   59.050
  272.750   12.485    0.284    0.396   56.646
  273.000   11.367    0.292    0.396   57.819
  273.250   10.746    0.285    0.390   60.185
  273.500    9.786    0.285    0.390   63.743
  273.750    8.748    0.299    0.400   70.287
  274.000    7.968    0.302    0.427   70.267
  274.250    7.531    0.274    0.443   65.479
  274.500    7.668    0.264    0.437   67.248
  274.750    7.523    0.253    0.408   74.383
  275.000    6.851    0.253    0.398   85.692
  275.250    5.685    0.260    0.420   92.827
  275.500    4.897    0.275    0.478   98.174
  275.750    4.218    0.280    0.508   98.751
  276.000    3.701    0.275    0.532   97.539
  276.250    3.631    0.275    0.534   94.539
  276.500    4.133    0.284    0.511   97.501
  276.750    4.705    0.288    0.528   99.867
  277.000    5.356    0.279    0.501   99.848
  277.250    6.446    0.264    0.439   96.251
  277.500    7.070    0.248    0.419   90.270
  277.750    7.611    0.234    0.421   86.669
  278.000    8.193    0.229    0.411   86.059
  278.250    8.037    0.226    0.414   89.021
  278.500    7.597    0.221    0.420   91.983
  278.750    7.181    0.206    0.376   90.771
  279.000    7.044    0.209    0.393   90.156
  279.250    7.040    0.211    0.423   92.522
  279.500    7.037    0.210    0.424   97.272
  279.750    7.299    0.204    0.435  100.234
  280.000    7.572    0.198    0.437   94.849
  280.250    7.566    0.200    0.404   91.844
  280.500    7.561    0.210    0.410   93.017
  280.750    7.279    0.225    0.424   95.975
  281.000    7.143    0.230    0.438   93.575
  281.250    6.879    0.227    0.443   89.383
  281.500    7.135    0.233    0.440   92.340
  281.750    7.400    0.233    0.434   94.710
  282.000    7.820    0.230    0.435   91.114
  282.250    8.112    0.232    0.441   93.480
  282.500    8.572    0.242    0.404   95.846
  282.750    8.727    0.250    0.400   70.191
  283.000    8.887    0.255    0.400   73.749
  283.250    8.880    0.255    0.392   86.249
  283.500    8.712    0.249    0.386   89.807
  283.750    8.548    0.241    0.396   90.976
  284.000    8.077    0.228    0.410   87.981
  284.250    7.926    0.226    0.415   90.942
  284.500    7.919    0.229    0.406   95.097
  284.750    7.917    0.239    0.404   84.942
  285.000    8.061    0.233    0.419   78.957
  285.250    7.073    0.240    0.418   74.173
  285.500    5.349    0.262    0.404   72.365
  285.750    3.551    0.275    0.414   78.303
  286.000    2.736    0.286    0.474   80.674
  286.250    2.313    0.284    0.501   94.963
  286.500    2.146    0.274    0.506   99.713
  286.750    2.267    0.268    0.495   99.689
  287.000    2.533    0.267    0.486  101.464
  287.250    2.628    0.278    0.486  100.248
  287.500    2.882    0.280    0.506  102.017
  287.750    3.161    0.269    0.509  101.402
  288.000    3.279    0.272    0.502   98.998
  288.250    3.663    0.282    0.479   96.003
  288.500    3.872    0.274    0.473   97.166
  288.750    4.326    0.266    0.449  100.138
  289.000    4.572    0.256    0.427  104.287
  289.250    5.014    0.244    0.414  101.287
  289.500    5.397    0.223    0.422   99.475
  289.750    5.810    0.217    0.420   98.263
  290.000    5.917    0.217    0.406  100.037
  290.250    5.912    0.223    0.398  105.384
  290.500    5.909    0.226    0.416  101.783
  290.750    5.907    0.228    0.419   98.783
  291.000    5.902    0.229    0.414   97.572
  291.250    5.900    0.220    0.439   96.961
  291.500    5.896    0.211    0.425  102.308
  291.750    5.892    0.217    0.412   91.557
  292.000    5.889    0.227    0.455   86.172
  292.250    6.109    0.231    0.462   91.514
  292.500    6.953    0.235    0.435   93.284
  292.750    6.949    0.236    0.417   95.654
  293.000    6.692    0.238    0.426   93.250
  293.250    6.445    0.246    0.429   89.058
  293.500    6.440    0.245    0.414   89.034
  293.750    6.556    0.240    0.403   92.597
  294.000    7.058    0.249    0.411   98.535
  294.250    7.323    0.254    0.419   97.924
  294.500    8.032    0.281    0.412   68.687
  294.750    8.647    0.301    0.395   60.918
  295.000    9.840    0.317    0.382   55.533
  295.250   10.400    0.317    0.381   52.533
  295.500   10.790    0.314    0.376   57.274
  295.750   11.187    0.312    0.363   56.072
  296.000   11.184    0.314    0.364   54.860
  296.250   11.179    0.317    0.371   59.606
  296.500   10.965    0.320    0.383   61.380
  296.750   10.757    0.325    0.386   60.164
  297.000   10.751    0.322    0.403   63.131
  297.250   10.545    0.327    0.398   67.881
  297.500   10.540    0.321    0.385   65.477
  297.750   10.536    0.309    0.384   64.862
  298.000   10.527    0.313    0.390   69.016
  298.250   10.522    0.311    0.386   70.189
  298.500   10.518    0.300    0.380   64.199
  298.750   10.707    0.305    0.386   66.574
  299.000   10.701    0.315    0.397   71.921
  299.250   10.695    0.323    0.406   71.305
  299.500   10.687    0.322    0.393   68.305
  299.750   10.684    0.310    0.387   70.075
  300.000   10.288    0.292    0.391   74.820
  300.250    9.542    0.284    0.402   72.417
  300.500    9.540    0.292    0.403   70.013
  300.750    9.713    0.317    0.399   67.013
  301.000   10.264    0.333    0.399   62.816
  301.250   10.845    0.333    0.402   60.412
  301.500   11.040    0.322    0.399   60.989
  301.750   11.244    0.316    0.395   62.162
  302.000   11.447    0.314    0.390   59.758
  302.250   11.442    0.326    0.392   56.763
  302.500   11.223    0.323    0.405   57.936
  302.750   11.010    0.319    0.413   63.283
  303.000   10.803    0.322    0.410   62.071
  303.250   10.401    0.322    0.404   63.841
  303.500   10.015    0.320    0.398   65.610
  303.750   10.010    0.319    0.398   67.380
  304.000   10.191    0.317    0.394   63.187
  304.250   10.375    0.319    0.376   66.745
  304.500   10.371    0.317    0.392   66.130
  304.750   10.363    0.312    0.387   59.543
  305.000   10.359    0.325    0.396   58.938
  305.250   10.353    0.333    0.416   58.919
  305.500   10.539    0.334    0.417   60.688
  305.750   10.729    0.328    0.410   60.068
  306.000   10.928    0.329    0.398   61.241
  306.250   11.126    0.321    0.390   61.227
  306.500   12.430    0.251    0.396   61.804
  306.750   15.530    0.207    0.381   60.593
  307.000   26.614    0.148    0.297   54.006
  307.250   29.737    0.051    0.169   53.391
  307.500   43.901    0.025    0.129   52.780
  307.750   46.405    0.049    0.120   46.799
  308.000   49.959    0.066    0.134   47.376
  308.250   50.867    0.099    0.149   46.761
  308.500   29.101    0.112    0.162   43.761
  308.750   24.603    0.044    0.151   43.742
  309.000   19.310    0.025    0.134   43.723
  309.250   15.730    0.107    0.203   44.300
  309.500   13.299    0.310    0.275   49.050
  309.750   12.111    0.312    0.369   58.570
  310.000   11.662    0.313    0.384   63.321
  310.250   11.439    0.317    0.384   65.681
