~VERSION INFORMATION
 VERS.                 2.0:   CWLS LOG ASCII STANDARD -VERSION 2.0
 WRAP.                  NO:   ONE LINE PER DEPTH STEP
~WELL INFORMATION BLOCK
#MNEM.UNIT           DATA                    DESCRIPTION OF MNEMONIC
#---------    -------------------            -------------------------------
# Generated from Intellog Unique Number	CS_73_76/WELL/3267
WELL.         11-27-076-13W4                 : Well_name    - WELL
LOC .         00/11-27-076-13W4/0            : Location     - LOCATION
UWI .         00/11-27-076-13W4/0            : Uwi          - UNIQUE WELL ID
ENTR.         SP                             : Entered      - ENTERED BY
SRVC.         SCHLUMBERGER                   : Scn          - SERVICE COMPANY
STRT.M        310.896                        : top_depth    - START DEPTH
STOP.M        548.396                        : bot_depth    - STOP DEPTH
STEP.M        0.25                           : increment    - STEP LENGTH
 NULL. -999.2500:NULL Value
~CURVE INFORMATION BLOCK
#MNEM UNIT       ERCB CURVE CODE    CURVE DESCRIPTION
#-----------   ------------------   ----------------------------------
DEPT.M        00 001 00 00         : DEPTH        - DEPTH
GR  .API      00 310 00 00         : GR           - GAMMA RAY
DPHI.V/V      00 890 00 00         : PHID         - DENSITY POROSITY (SANDSTONE)
NPHI.V/V      00 330 00 00         : PHIN         - NEUTRON POROSITY (SANDSTONE)
ILD .OHMM     00 120 00 00         : RESD         - DEEP RESISTIVITY (DIL)
~PARAMETER INFORMATION
#MNEM.UNIT           DATA             DESCRIPTION OF MNEMONIC
#---------         -----------     ------------------------------
GL  .M        699.516              : gl           - GROUND LEVEL ELEVATION
EREF.M        702.564              : kb           - ELEVATION OF DEPTH REFERENCE
DATM.M        699.516              : datum        - DATUM ELEVATION
TDD .M        559.308              : tdd          - TOTAL DEPTH DRILLER
RUN .         ONE                  : Run          - RUN NUMBER
ENG .         BILL                 : Engineer     - RECORDING ENGINEER
WIT .         JIM                  : Witness      - WITNESSED BY
MUD .         GEL                  : Mud_type     - MUD TYPE
MATR.         SANDSTONE            : Logunit      - NEUTRON MATRIX
TMAX.C        32.2222              : BHT          - MAXIMUM RECORDED TEMPERATURE
BHTD.M        559.308              : BHTDEP       - MAXIMUM RECORDED TEMPERATURE
MATR.         1                    : LOGUNIT      - NEUTRON MATRIX
RMT .C        25                   : MDTP         - TEMPERATURE OF MUD
NEUT.         1                    : NEUTRON      - NEUTRON TYPE
RESI.         0                    : RESIST       - RESISTIVITY TYPE
RMC .OHMM     0.25                 : RMC          - RESISTIVITY OF MUD CAKE
RMF .OHMM     0.25                 : RMF          - RESISTIVITY OF MUD FILTRATE
SUFT.C        15                   : SUFT         - SURFACE TEMPERATURE
~A  DEPTH       GR     PHID     PHIN     RESD
  310.896   90.474    0.233    0.600    3.240
  311.146   90.735    0.232    0.599    3.445
  311.396   92.316    0.240    0.601    3.554
  311.646   92.794    0.243    0.605    3.549
  311.896   92.797    0.236    0.604    3.547
  312.146   92.739    0.236    0.599    3.544
  312.396   91.706    0.247    0.598    3.604
  312.646   90.642    0.247    0.596    3.636
  312.896   91.120    0.247    0.594    3.754
  313.146   91.550    0.238    0.593    3.808
  313.396   92.025    0.226    0.602    3.885
  313.646   91.594    0.222    0.597    3.957
  313.896   91.504    0.219    0.595    4.076
  314.146   92.154    0.212    0.600    4.204
  314.396   93.315    0.214    0.605    4.249
  314.646   94.331    0.217    0.610    4.384
  314.896   94.517    0.229    0.605    4.404
  315.146   94.497    0.223    0.604    4.410
  315.396   95.521    0.224    0.613    4.324
  315.646   94.947    0.235    0.616    4.236
  315.896   92.399    0.253    0.625    4.250
  316.146   91.363    0.249    0.624    4.156
  316.396   88.959    0.242    0.627    4.162
  316.646   86.391    0.249    0.623    4.161
  316.896   85.331    0.253    0.614    4.160
  317.146   84.340    0.250    0.588    4.158
  317.396   83.385    0.234    0.602    4.155
  317.646   81.442    0.235    0.576    4.137
  317.896   79.028    0.250    0.541    4.078
  318.146   76.339    0.270    0.480    4.092
  318.396   73.694    0.296    0.376    4.521
  318.646   69.160    0.340    0.356    5.115
  318.896   67.202    0.370    0.342    5.762
  319.146   67.661    0.374    0.346    8.060
  319.396   68.234    0.363    0.351   14.690
  319.646   68.124    0.377    0.338   22.084
  319.896   69.453    0.399    0.346   24.611
  320.146   71.388    0.359    0.385   22.647
  320.396   73.366    0.328    0.410   19.046
  320.646   74.711    0.304    0.437   17.067
  320.896   74.459    0.290    0.461   14.635
  321.146   72.837    0.285    0.464   13.289
  321.396   72.411    0.290    0.473   12.285
  321.646   70.155    0.311    0.484   11.917
  321.896   67.966    0.323    0.509   11.296
  322.146   68.002    0.305    0.568   11.141
  322.396   69.242    0.292    0.582   11.144
  322.646   66.753    0.286    0.575   11.149
  322.896   63.580    0.292    0.558   11.504
  323.146   59.337    0.326    0.525   11.924
  323.396   54.358    0.344    0.498   12.673
  323.646   50.960    0.350    0.497   14.366
  323.896   49.630    0.341    0.506   16.476
  324.146   49.597    0.334    0.480   18.193
  324.396   50.245    0.339    0.484   19.492
  324.646   50.108    0.354    0.486   20.435
  324.896   49.120    0.356    0.491   20.359
  325.146   47.442    0.352    0.512   20.357
  325.396   46.498    0.351    0.518   20.352
  325.646   46.053    0.349    0.502   20.345
  325.896   45.587    0.347    0.493   20.337
  326.146   46.002    0.345    0.497   20.328
  326.396   47.073    0.341    0.497   20.603
  326.646   47.344    0.342    0.492   20.685
  326.896   47.754    0.351    0.506   20.691
  327.146   47.386    0.362    0.515   20.923
  327.396   47.316    0.354    0.513   20.967
  327.646   47.677    0.351    0.503   20.645
  327.896   50.845    0.355    0.497   21.079
  328.146   53.920    0.350    0.502   21.039
  328.396   55.806    0.355    0.515   21.066
  328.646   57.198    0.360    0.519   20.607
  328.896   54.685    0.350    0.527   20.639
  329.146   52.681    0.350    0.543   20.637
  329.396   52.615    0.355    0.548   20.658
  329.646   54.256    0.351    0.511   20.237
  329.896   55.982    0.342    0.498   20.245
  330.146   54.367    0.332    0.526   20.234
  330.396   53.042    0.331    0.548   20.226
  330.646   52.347    0.346    0.561   20.263
  330.896   52.289    0.365    0.575   19.830
  331.146   51.740    0.372    0.544   19.512
  331.396   52.327    0.365    0.510   19.319
  331.646   53.694    0.364    0.486   18.670
  331.896   55.136    0.361    0.484   17.849
  332.146   56.616    0.341    0.476   16.358
  332.396   59.685    0.311    0.455   15.271
  332.646   64.133    0.247    0.418   13.705
  332.896   68.529    0.164    0.377   12.620
  333.146   71.964    0.138    0.386   11.000
  333.396   76.589    0.177    0.444    9.664
  333.646   81.711    0.201    0.477    8.612
  333.896   89.373    0.205    0.497    7.926
  334.146   95.782    0.179    0.521    7.169
  334.396   99.125    0.177    0.554    6.630
  334.646  100.518    0.175    0.580    6.136
  334.896  101.346    0.178    0.586    5.786
  335.146  102.999    0.192    0.597    5.441
  335.396  105.839    0.199    0.616    5.179
  335.646  108.687    0.202    0.628    5.031
  335.896  110.606    0.190    0.592    4.881
  336.146  111.344    0.186    0.557    4.872
  336.396  112.399    0.179    0.548    4.978
  336.646  111.813    0.179    0.564    4.970
  336.896  109.507    0.198    0.565    4.839
  337.146  108.594    0.209    0.574    4.492
  337.396  108.173    0.198    0.596    4.378
  337.646  108.712    0.194    0.627    4.085
  337.896  109.924    0.197    0.643    3.809
  338.146  110.870    0.207    0.643    3.467
  338.396  111.681    0.244    0.641    3.258
  338.646  112.320    0.256    0.639    3.065
  338.896  112.363    0.241    0.587    3.127
  339.146  110.489    0.256    0.499    3.544
  339.396  106.918    0.269    0.476    4.120
  339.646  102.738    0.275    0.467    5.401
  339.896  100.084    0.261    0.473    7.674
  340.146   99.206    0.263    0.474    9.522
  340.396   98.132    0.254    0.499   10.337
  340.646   97.722    0.260    0.510   10.951
  340.896   94.304    0.274    0.522   11.107
  341.146   88.568    0.293    0.524   10.796
  341.396   85.163    0.289    0.512   10.235
  341.646   82.522    0.266    0.519    9.334
  341.896   83.969    0.241    0.537    8.429
  342.146   88.519    0.196    0.564    7.376
  342.396   91.655    0.137    0.586    6.868
  342.646   96.233    0.103    0.554    6.254
  342.896  101.927    0.180    0.541    5.925
  343.146  104.514    0.217    0.531    6.331
  343.396  104.187    0.239    0.549    7.505
  343.646  102.749    0.242    0.528    8.322
  343.896  100.402    0.256    0.502    9.023
  344.146   99.532    0.257    0.487    9.769
  344.396   98.229    0.255    0.494   10.032
  344.646   93.864    0.270    0.506   10.273
  344.896   91.739    0.282    0.487   10.258
  345.146   89.049    0.282    0.459   10.117
  345.396   89.882    0.262    0.445    9.743
  345.646   95.467    0.256    0.466    9.341
  345.896   99.578    0.255    0.488    8.710
  346.146  102.209    0.246    0.504    8.475
  346.396  103.847    0.240    0.508    8.213
  346.646   98.972    0.235    0.507    8.037
  346.896   95.362    0.244    0.515    7.918
  347.146   90.197    0.254    0.518    7.897
  347.396   78.068    0.282    0.493    8.119
  347.646   70.350    0.304    0.477    8.564
  347.896   64.523    0.309    0.466    9.339
  348.146   65.388    0.312    0.451   10.609
  348.396   68.681    0.309    0.437   11.206
  348.646   71.439    0.302    0.424   11.689
  348.896   76.981    0.296    0.430   12.035
  349.146   81.593    0.288    0.442   12.252
  349.396   87.423    0.276    0.466   12.014
  349.646   92.525    0.264    0.483   10.965
  349.896  100.770    0.239    0.512    9.904
  350.146  104.728    0.226    0.488    8.474
  350.396  104.812    0.216    0.484    7.738
  350.646  104.823    0.208    0.529    6.723
  350.896  105.074    0.200    0.554    6.116
  351.146  105.391    0.210    0.569    5.428
  351.396  104.971    0.223    0.585    5.205
  351.646  103.946    0.235    0.578    5.024
  351.896  102.966    0.245    0.582    4.967
  352.146  101.466    0.248    0.589    5.055
  352.396   98.936    0.240    0.607    5.181
  352.646   97.633    0.249    0.618    5.330
  352.896   96.062    0.260    0.606    5.613
  353.146   93.104    0.270    0.577    5.767
  353.396   91.707    0.264    0.566    5.932
  353.646   90.689    0.263    0.533    6.221
  353.896   89.579    0.260    0.523    6.677
  354.146   86.008    0.255    0.517    6.961
