~VERSION INFORMATION
VERS.                2.00:   CWLS LOG ASCII STANDARD -VERSION 2.0
WRAP.                  NO:
~WELL INFORMATION BLOCK
#MNEM.UNIT           DATA                    DESCRIPTION OF MNEMONIC
#---------    -------------------            -------------------------------
# Generated from Intellog Unique Number	CC_80_83/WELL/2471
LOC .         00/10-22-083-08W4/0            : Location     - LOCATION
UWI .         00/10-22-083-08W4/0            : Uwi          - UNIQUE WELL ID
ENTR.         DW                             : Entered      - ENTERED BY
STRT.M             259.08:
STOP.M             511.83:
STEP.M               0.25:
NULL.             -999.25:
COMP.  :COMPANY
WELL.  ARC0 ET AL SURMONT:WELL
FLD.   :FIELD
LOC.   :LOCATION
CTRY.  :COUNTRY
PROV.  :PROVINCE
SRVC.  SCHLUMBERGER:SERVICE COMPANY
DATE.  :LOG DATE
UWI.   :UNIQUE WELL ID
~PARAMETER INFORMATION
#MNEM.UNIT           DATA             DESCRIPTION OF MNEMONIC
#---------         -----------     ------------------------------
GL  .M        732.13               : gl           - GROUND LEVEL ELEVATION
EREF.M        735.178              : kb           - ELEVATION OF DEPTH REFERENCE
DATM.M        735.178              : datum        - DATUM ELEVATION
TDD .M        515.722              : tdd          - TOTAL DEPTH DRILLER
RUN .         ONE                  : Run          - RUN NUMBER
ENG .         BILL                 : Engineer     - RECORDING ENGINEER
WIT .         JIM                  : Witness      - WITNESSED BY
MUD .         GEL                  : Mud_type     - MUD TYPE
MATR.         SANDSTONE            : Logunit      - NEUTRON MATRIX
TMAX.C        20                   : BHT          - MAXIMUM RECORDED TEMPERATURE
BHTD.M        515.722              : BHTDEP       - MAXIMUM RECORDED TEMPERATURE
MATR.         1                    : LOGUNIT      - NEUTRON MATRIX
RMT .C        25                   : MDTP         - TEMPERATURE OF MUD
NEUT.         1                    : NEUTRON      - NEUTRON TYPE
RESI.         0                    : RESIST       - RESISTIVITY TYPE
RMC .OHMM     0.25                 : RMC          - RESISTIVITY OF MUD CAKE
RMF .OHMM     0.25                 : RMF          - RESISTIVITY OF MUD FILTRATE
SUFT.C        15                   : SUFT         - SURFACE TEMPERATURE
~Curve Information Block
#MNEM UNIT       ERCB CURVE CODE    CURVE DESCRIPTION
#MNEM.UNIT         API CODE    Curve Description
#----------    ------------    --------------------
DEPT.M                     :   DEPTH
DPHI.V/V                   :   DPHI
DT  .us/m                  :   DT
GR  .API       00 310 00 00:   GR
ILD .Ohmm      00 120 00 00:   ILD
NPHI.V/V       00 330 00 00:   NPHI
RHOB.gm/c3                 :   RHOB
~A  Depth           DPHI          DT          GR         ILD        NPHI        RHOB
# ...
472.83              0.26     -999.25       29.91       39.55        0.28     -999.25
473.08              0.26     -999.25       33.49       41.48        0.28     -999.25
473.33              0.26     -999.25       37.69       43.45        0.28     -999.25
473.58              0.26     -999.25       37.85       46.50        0.30     -999.25
473.83              0.26     -999.25       36.44       51.97        0.31     -999.25
474.08              0.26     -999.25       34.43       56.48        0.31     -999.25
474.33              0.25     -999.25       29.88       58.77        0.30     -999.25
474.58              0.25     -999.25       23.78       60.50        0.29     -999.25
474.83              0.26     -999.25       22.22       57.45        0.29     -999.25
475.08              0.26     -999.25       25.02       49.54        0.28     -999.25
475.33              0.27     -999.25       29.12       40.58        0.29     -999.25
475.58              0.27     -999.25       31.90       34.62        0.29     -999.25
475.83              0.28     -999.25       34.84       31.96        0.29     -999.25
476.08              0.29     -999.25       40.61       29.98        0.29     -999.25
476.33              0.29     -999.25       43.32       29.33        0.29     -999.25
476.58              0.29     -999.25       43.41       29.24        0.29     -999.25
476.83              0.29     -999.25       40.55       29.46        0.28     -999.25
477.08              0.29     -999.25       40.00       30.00        0.28     -999.25
477.33              0.29     -999.25       46.14       31.06        0.29     -999.25
477.58              0.30     -999.25       47.36       33.56        0.28     -999.25
477.83              0.31     -999.25       40.86       36.70        0.28     -999.25
478.08              0.31     -999.25       33.25       40.81        0.30     -999.25
478.33              0.32     -999.25       28.57       43.36        0.33     -999.25
478.58              0.32     -999.25       26.87       42.76        0.31     -999.25
478.83              0.33     -999.25       28.53       41.43        0.28     -999.25
479.08              0.34     -999.25       31.87       39.41        0.27     -999.25
479.33              0.34     -999.25       32.56       38.78        0.28     -999.25
479.58              0.33     -999.25       33.00       39.26        0.28     -999.25
479.83              0.34     -999.25       34.68       40.02        0.28     -999.25
480.08              0.35     -999.25       33.49       41.39        0.27     -999.25
480.33              0.36     -999.25       28.14       42.79        0.26     -999.25
480.58              0.36     -999.25       27.22       42.65        0.26     -999.25
480.83              0.38     -999.25       27.21       40.76        0.29     -999.25
481.08              0.39     -999.25       25.76       37.72        0.32     -999.25
481.33              0.38     -999.25       26.94       35.15        0.30     -999.25
481.58              0.38     -999.25       32.26       34.76        0.29     -999.25
481.83              0.36     -999.25       35.32       35.84        0.30     -999.25
482.08              0.35     -999.25       35.12       36.97        0.31     -999.25
482.33              0.34     -999.25       31.26       40.87        0.31     -999.25
482.58              0.35     -999.25       27.55       47.34        0.32     -999.25
482.83              0.35     -999.25       27.59       52.21        0.32     -999.25
483.08              0.35     -999.25       28.04       53.92        0.30     -999.25
483.33              0.35     -999.25       29.72       52.70        0.29     -999.25
483.58              0.36     -999.25       32.42       45.43        0.30     -999.25
483.83              0.36     -999.25       34.25       32.30        0.30     -999.25
484.08              0.34     -999.25       34.29       20.79        0.27     -999.25
484.33              0.33     -999.25       41.45       16.88        0.24     -999.25
484.58              0.32     -999.25       67.23       14.16        0.26     -999.25
484.83              0.31     -999.25       71.21       12.71        0.27     -999.25
485.08              0.30     -999.25       61.89       12.08        0.26     -999.25
485.33              0.32     -999.25       58.76       12.08        0.25     -999.25
485.58              0.33     -999.25       62.20       12.69        0.24     -999.25
485.83              0.34     -999.25       70.45       12.66        0.23     -999.25
486.08              0.34     -999.25       77.62       12.64        0.22     -999.25
486.33              0.34     -999.25       81.60       12.60        0.21     -999.25
486.58              0.35     -999.25       75.63       12.11        0.21     -999.25
486.83              0.35     -999.25       65.74       11.34        0.22     -999.25
487.08              0.35     -999.25       65.87       10.85        0.23     -999.25
487.33              0.35     -999.25       68.42       10.53        0.25     -999.25
487.58              0.35     -999.25       71.51       10.06        0.26     -999.25
487.83              0.34     -999.25       80.91        9.71        0.28     -999.25
488.08              0.34     -999.25       88.89        9.72        0.29     -999.25
488.33              0.33     -999.25       87.82        9.89        0.27     -999.25
488.58              0.33     -999.25       84.89       10.03        0.26     -999.25
488.83              0.32     -999.25       76.84       10.49        0.26     -999.25
489.08              0.29     -999.25       71.48       10.98        0.28     -999.25
489.33              0.25     -999.25       70.80       11.67        0.29     -999.25
489.58              0.20     -999.25       70.56       12.67        0.28     -999.25
489.83              0.08     -999.25       68.23       13.69        0.29     -999.25
490.08              0.12     -999.25       64.67       14.61        0.29     -999.25
490.33              0.16     -999.25       61.71       15.02        0.30     -999.25
490.58              0.20     -999.25       60.34       14.89        0.29     -999.25
490.83              0.23     -999.25       60.59       14.71        0.28     -999.25
491.08              0.24     -999.25       62.68       14.74        0.28     -999.25
491.33              0.24     -999.25       66.31       14.73        0.27     -999.25
491.58              0.27     -999.25       67.73       14.90        0.29     -999.25
491.83              0.30     -999.25       63.40       15.49        0.30     -999.25
492.08              0.32     -999.25       57.99       16.35        0.31     -999.25
492.33              0.35     -999.25       55.61       17.58        0.31     -999.25
492.58              0.35     -999.25       55.46       18.95        0.31     -999.25
492.83              0.35     -999.25       56.12       19.52        0.31     -999.25
493.08              0.36     -999.25       54.17       20.27        0.31     -999.25
493.33              0.37     -999.25       51.04       20.08        0.31     -999.25
493.58              0.37     -999.25       49.69       19.45        0.30     -999.25
493.83              0.37     -999.25       51.78       19.17        0.28     -999.25
494.08              0.37     -999.25       55.94       18.55        0.26     -999.25
494.33              0.37     -999.25       57.75       18.02        0.27     -999.25
494.58              0.36     -999.25       57.91       17.14        0.28     -999.25
494.83              0.35     -999.25       55.80       16.85        0.28     -999.25
495.08              0.35     -999.25       52.86       17.32        0.28     -999.25
495.33              0.35     -999.25       50.90       17.91        0.28     -999.25
495.58              0.35     -999.25       49.62       19.05        0.29     -999.25
495.83              0.35     -999.25       53.73       20.70        0.28     -999.25
496.08              0.35     -999.25       51.19       21.73        0.27     -999.25
496.33              0.34     -999.25       47.66       22.19        0.28     -999.25
