~VERSION INFORMATION
 VERS.                 2.0:   CWLS LOG ASCII STANDARD -VERSION 2.0
 WRAP.                  NO:   ONE LINE PER DEPTH STEP
~WELL INFORMATION BLOCK
#MNEM.UNIT           DATA                    DESCRIPTION OF MNEMONIC
#---------    -------------------            -------------------------------
# Generated from Intellog Unique Number	CN_94_101/WELL/2580
WELL.         PARAMOUNT RESOURCES LTD.       : Well_name    - WELL
LOC .         00/11-16-094-19W4/0            : Location     - LOCATION
UWI .         00/11-16-094-19W4/0            : Uwi          - UNIQUE WELL ID
ENTR.         JOETTE                         : Entered      - ENTERED BY
SRVC.         COMPUTALOG                     : Scn          - SERVICE COMPANY
DATE.         06/12/92                       : Date         - LOG DATE
STRT.M        125                            : top_depth    - START DEPTH
STOP.M        340                            : bot_depth    - STOP DEPTH
STEP.M        0.25                           : increment    - STEP LENGTH
 NULL. -999.2500:NULL Value
~CURVE INFORMATION BLOCK
#MNEM UNIT       ERCB CURVE CODE    CURVE DESCRIPTION
#-----------   ------------------   ----------------------------------
DEPT.M        00 001 00 00         : DEPTH        - DEPTH
GR  .API      00 310 00 00         : GR           - GAMMA RAY
NPHI.V/V      00 330 00 00         : PHIN         - NEUTRON POROSITY (SANDSTONE)
ILD .OHMM     00 120 00 00         : RESD         - DEEP RESISTIVITY (DIL)
~PARAMETER INFORMATION
#MNEM.UNIT           DATA             DESCRIPTION OF MNEMONIC
#---------         -----------     ------------------------------
GL  .M        609                  : gl           - GROUND LEVEL ELEVATION
EREF.M        612.45               : kb           - ELEVATION OF DEPTH REFERENCE
DATM.M        612.45               : datum        - DATUM ELEVATION
TDD .M        336.2                : tdd          - TOTAL DEPTH DRILLER
RUN .         ONE                  : Run          - RUN NUMBER
ENG .         BILL                 : Engineer     - RECORDING ENGINEER
WIT .         JIM                  : Witness      - WITNESSED BY
MUD .         GEL                  : Mud_type     - MUD TYPE
MATR.         SANDSTONE            : Logunit      - NEUTRON MATRIX
TMAX.C        34                   : BHT          - MAXIMUM RECORDED TEMPERATURE
BHTD.M        336.2                : BHTDEP       - MAXIMUM RECORDED TEMPERATURE
RMT .C        23.3                 : MDTP         - TEMPERATURE OF MUD
MUDD.KG/M     1130                 : MWT          - MUD DENSITY
NEUT.         1                    : NEUTRON      - NEUTRON TYPE
RESI.         0                    : RESIST       - RESISTIVITY TYPE
RM  .OHMM     4.4                  : RM           - RESISTIVITY OF MUD
RMC .OHMM     4.4                  : RMC          - RESISTIVITY OF MUD CAKE
RMF .OHMM     4.4                  : RMF          - RESISTIVITY OF MUD FILTRATE
SUFT.C        4                    : SUFT         - SURFACE TEMPERATURE
~A  DEPTH       GR     PHIN     RESD
# ...
  233.500   84.159    0.513    5.640
  233.750   84.807    0.506    5.970
  234.000   84.841    0.508    6.201
  234.250   89.858    0.516    6.690
  234.500   99.884    0.519    7.082
  234.750   94.278    0.513    7.218
  235.000   88.052    0.502    7.498
  235.250   86.832    0.492    7.086
  235.500   88.104    0.490    6.571
  235.750   86.253    0.491    5.867
  236.000   88.151    0.484    5.239
  236.250   87.555    0.509    4.859
  236.500   76.325    0.529    4.591
  236.750   78.228    0.526    4.422
  237.000   79.501    0.538    4.507
  237.250   77.644    0.544    4.595
  237.500   69.543    0.539    4.596
  237.750   62.699    0.531    4.596
  238.000   60.847    0.524    4.511
  238.250   61.501    0.519    4.344
  238.500   58.400    0.515    3.954
  238.750   55.293    0.493    3.807
  239.000   52.823    0.477    3.667
  239.250   54.101    0.442    3.738
  239.500   54.738    0.416    3.882
  239.750   55.397    0.426    4.110
  240.000   52.915    0.478    4.433
  240.250   52.319    0.476    4.967
  240.500   54.217    0.468    5.566
  240.750   57.364    0.462    5.781
  241.000   61.136    0.459    6.985
  241.250   65.534    0.454    7.826
  241.500   70.556    0.460    8.603
  241.750   76.208    0.472   10.011
  242.000   81.224    0.479   11.430
  242.250  102.498    0.488   12.565
  242.500   96.273    0.479   14.077
  242.750   80.050    0.468   15.186
  243.000   70.700    0.476   14.083
  243.250   73.847    0.496   13.060
  243.500   80.744    0.499   14.088
  243.750   88.271    0.492   16.086
  244.000   83.920    0.479   16.090
  244.250   69.572    0.467   15.790
  244.500   60.222    0.455   13.577
  244.750   58.376    0.447   11.240
  245.000   57.775    0.436    9.848
  245.250   52.174    0.421    8.468
  245.500   53.447    0.441    7.852
  245.750   53.470    0.460    7.146
  246.000   48.488    0.477    6.626
  246.250   49.142    0.478    6.030
  246.500   54.164    0.473    5.808
  246.750   59.811    0.479    5.808
  247.000   64.833    0.494    5.810
  247.250   69.230    0.509    6.267
  247.500   74.888    0.508    6.761
  247.750   76.786    0.509    7.719
  248.000   78.684    0.528    8.814
  248.250   75.577    0.534   10.255
  248.500   63.728    0.527   14.145
  248.750   68.125    0.513   15.259
  249.000   75.658    0.515   15.554
  249.250   75.056    0.532   16.156
  249.500   76.954    0.547   16.468
  249.750   79.476    0.544   15.860
  250.000   79.499    0.520    9.889
  250.250   76.392    0.511    7.172
  250.500   70.803    0.518    6.907
  250.750   68.952    0.512    5.718
  251.000   67.106    0.504    4.734
  251.250   66.493    0.495    4.070
  251.500   66.516    0.494    3.995
  251.750   66.539    0.492    4.310
  252.000   65.324    0.493    4.649
  252.250   64.092    0.498    4.921
  252.500   62.240    0.510    5.112
  252.750   61.639    0.523    5.411
  253.000   66.041    0.523    5.621
  253.250   66.684    0.497    5.950
  253.500   62.339    0.484    6.065
  253.750   62.981    0.474    6.066
  254.000   58.636    0.473    5.954
  254.250   55.540    0.475    5.955
  254.500   59.312    0.483    6.424
  254.750   63.710    0.490    7.335
  255.000   66.851    0.492    7.764
  255.250   63.750    0.482    8.065
  255.500   64.398    0.479    7.916
  255.750   65.677    0.485    7.769
  256.000   69.455    0.480    7.771
  256.250   72.596    0.479    8.227
  256.500   75.119    0.479    8.708
  256.750   68.269    0.480    9.573
  257.000   65.173    0.482   10.725
  257.250   66.446    0.484   11.570
  257.500   71.474    0.490   10.934
  257.750   74.621    0.497   10.139
  258.000   77.138    0.502    9.766
  258.250   72.787    0.504    9.767
  258.500   65.942    0.503    9.957
  258.750   64.710    0.503    9.958
  259.000   69.113    0.506   10.150
  259.250   72.266    0.508   10.346
  259.500   74.164    0.508   10.155
  259.750   71.057    0.502    9.597
  260.000   66.081    0.494    9.069
  260.250   64.860    0.484    8.570
  260.500   63.634    0.479    7.799
  260.750   59.283    0.484    7.370
  261.000   63.055    0.483    6.965
  261.250   55.586    0.482    6.103
  261.500   57.478    0.488    5.347
  261.750   62.500    0.495    4.775
  262.000   68.771    0.502    4.106
  262.250   75.049    0.505    3.736
  262.500   66.324    0.509    3.666
  262.750   60.729    0.525    4.108
  263.000   65.120    0.544    4.780
  263.250   68.893    0.540    5.776
  263.500   70.790    0.531    6.471
  263.750   69.570    0.518    7.673
  264.000   71.467    0.494    8.596
  264.250   71.490    0.476    9.273
  264.500   65.890    0.459    9.816
  264.750   62.164    0.457   10.006
  265.000   65.311    0.465   10.593
  265.250   72.213    0.471   10.796
  265.500   69.737    0.476   10.799
  265.750   66.636    0.470   10.801
  266.000   68.534    0.467   10.402
  266.250   70.431    0.474   10.209
  266.500   73.585    0.466    9.649
  266.750   74.857    0.464    8.780
  267.000   73.636    0.469    7.840
  267.250   75.534    0.464    6.614
  267.500   76.807    0.460    6.134
  267.750   73.075    0.469    6.743
  268.000   70.599    0.473    7.555
  268.250   72.497    0.470    9.129
  268.500   73.150    0.470    9.848
  268.750   71.299    0.477    9.133
  269.000   81.945    0.481    8.469
  269.250   86.972    0.485    7.707
  269.500   83.240    0.488    7.146
  269.750   81.401    0.501    6.628
  270.000   84.542    0.505    6.264
  270.250   83.941    0.508    6.265
  270.500   78.346    0.505    6.266
  270.750   75.864    0.496    6.267
  271.000   77.761    0.484    6.151
  271.250   80.284    0.472    6.037
  271.500   84.068    0.455    5.814
  271.750   84.716    0.446    5.706
  272.000   83.489    0.450    5.496
  272.250   81.013    0.455    5.194
  272.500   77.281    0.456    4.817
  272.750   72.305    0.449    4.639
  273.000   66.080    0.446    4.552
  273.250   61.110    0.449    4.468
  273.500   64.257    0.473    4.469
  273.750   68.654    0.487    4.731
  274.000   69.927    0.481    5.104
  274.250   66.826    0.488    5.402
  274.500   69.354    0.500    5.939
  274.750   68.128    0.499    6.781
  275.000   65.651    0.494    7.598
  275.250   72.548    0.492    8.042
  275.500   65.073    0.493    8.842
  275.750   69.476    0.500    9.012
  276.000   73.242    0.498    9.541
  276.250   74.526    0.494    9.542
  276.500   73.919    0.490    9.543
  276.750   73.317    0.481    9.546
  277.000   72.721    0.475    9.369
  277.250   72.120    0.472    9.196
  277.500   73.392    0.480    9.026
  277.750   75.290    0.500    9.026
  278.000   72.189    0.492    8.694
  278.250   75.961    0.497    8.533
  278.500   76.609    0.486    8.217
  278.750   70.384    0.473    7.766
  279.000   69.157    0.473    7.479
  279.250   71.061    0.478    7.203
  279.500   71.703    0.486    7.070
  279.750   68.602    0.487    6.939
  280.000   73.635    0.487    6.940
  280.250   76.777    0.488    7.073
  280.500   80.549    0.491    7.347
  280.750   84.952    0.492    7.927
  281.000   87.474    0.487    8.234
  281.250   84.998    0.473    8.553
  281.500   80.647    0.477    8.885
  281.750   77.546    0.475    9.056
  282.000   76.319    0.470    9.058
  282.250   75.718    0.466    9.059
  282.500   70.742    0.464    8.891
  282.750   71.396    0.468    8.726
  283.000   73.912    0.498    8.728
  283.250   72.697    0.518    8.566
  283.500   70.215    0.504    8.250
  283.750   71.488    0.494    8.097
  284.000   75.260    0.484    8.099
  284.250   75.284    0.480    7.800
  284.500   72.182    0.481    7.802
  284.750   70.956    0.486    7.657
  285.000   70.996    0.496    7.515
  285.250   71.008    0.502    7.517
  285.500   72.906    0.503    7.239
  285.750   76.689    0.511    7.105
  286.000   77.326    0.528    6.973
  286.250   76.099    0.511    6.716
  286.500   72.385    0.497    6.592
  286.750   69.903    0.494    6.348
  287.000   62.427    0.486    6.114
  287.250   65.575    0.473    6.115
  287.500   71.222    0.479    6.233
