~VERSION INFORMATION
 VERS.                 2.0:   CWLS LOG ASCII STANDARD -VERSION 2.0
 WRAP.                  NO:   ONE LINE PER DEPTH STEP
~WELL INFORMATION BLOCK
#MNEM.UNIT           DATA                    DESCRIPTION OF MNEMONIC
#---------    -------------------            -------------------------------
# Generated from Intellog Unique Number	CN_94_101/WELL/3442
WELL.         PACIFIC PETROLEUMS LTD.        : Well_name    - WELL
LOC .         00/10-08-095-21W4/0            : Location     - LOCATION
UWI .         00/10-08-095-21W4/0            : Uwi          - UNIQUE WELL ID
ENTR.         J                              : Entered      - ENTERED BY
SRVC.         SCHLUMBERGER                   : Scn          - SERVICE COMPANY
DATE.         07/28/92                       : Date         - LOG DATE
STRT.F        1250                           : top_depth    - START DEPTH
STOP.F        1710.14                        : bot_depth    - STOP DEPTH
STEP.F        0.82                           : increment    - STEP LENGTH
 NULL. -999.2500:NULL Value
~CURVE INFORMATION BLOCK
#MNEM UNIT       ERCB CURVE CODE    CURVE DESCRIPTION
#-----------   ------------------   ----------------------------------
DEPT.F        00 001 00 00         : DEPTH        - DEPTH
ILD .OHMM     00 120 00 00         : RESD         - DEEP RESISTIVITY (DIL)
GR  .API      00 310 00 00         : GR           - GAMMA RAY
NPHI.V/V      00 330 00 00         : PHIN         - NEUTRON POROSITY (SANDSTONE)
DPHI.V/V      00 890 00 00         : PHID         - DENSITY POROSITY (SANDSTONE)
~PARAMETER INFORMATION
#MNEM.UNIT           DATA             DESCRIPTION OF MNEMONIC
#---------         -----------     ------------------------------
GL  .F        2678                 : gl           - GROUND LEVEL ELEVATION
EREF.F        7690                 : kb           - ELEVATION OF DEPTH REFERENCE
DATM.F        7690                 : datum        - DATUM ELEVATION
TDD .F        1720                 : tdd          - TOTAL DEPTH DRILLER
RUN .         ONE                  : Run          - RUN NUMBER
ENG .         BILL                 : Engineer     - RECORDING ENGINEER
WIT .         JIM                  : Witness      - WITNESSED BY
MUD .         GEL                  : Mud_type     - MUD TYPE
MATR.         SANDSTONE            : Logunit      - NEUTRON MATRIX
TMAX.F        48                   : BHT          - MAXIMUM RECORDED TEMPERATURE
BHTD.F        1720                 : BHTDEP       - MAXIMUM RECORDED TEMPERATURE
RMT .F        48                   : MDTP         - TEMPERATURE OF MUD
MUDD.LB/G     9.4                  : MWT          - MUD DENSITY
NEUT.         1                    : NEUTRON      - NEUTRON TYPE
RESI.         0                    : RESIST       - RESISTIVITY TYPE
RM  .OHMM     2.65                 : RM           - RESISTIVITY OF MUD
RMC .OHMM     2.65                 : RMC          - RESISTIVITY OF MUD CAKE
RMF .OHMM     2.65                 : RMF          - RESISTIVITY OF MUD FILTRATE
SUFT.F        39.2                 : SUFT         - SURFACE TEMPERATURE
~A  DEPTH     RESD       GR     PHIN     PHID
# ...
 1392.720    5.922   86.711    0.492    0.166
 1393.540    7.132   87.872    0.489    0.167
 1394.360    7.534   93.440    0.495    0.163
 1395.180    5.456   97.130    0.510    0.155
 1396.000    5.242   98.917    0.524    0.169
 1396.820    6.196   98.825    0.525    0.182
 1397.640    6.542  102.492    0.538    0.163
 1398.460    6.286  107.388    0.556    0.174
 1399.280    5.928  107.923    0.564    0.193
 1400.100    5.805  107.204    0.556    0.187
 1400.920    6.014  107.113    0.541    0.195
 1401.740    6.114  103.912    0.528    0.193
 1402.560    6.213   98.763    0.490    0.193
 1403.380    6.200   97.419    0.481    0.197
 1404.200    6.186   96.701    0.461    0.201
 1405.020    6.172   94.707    0.456    0.186
 1405.840    6.159   93.408    0.458    0.182
 1406.660    6.505   90.788    0.456    0.198
 1407.480    7.401   88.191    0.458    0.212
 1408.300    8.272   86.823    0.481    0.211
 1409.120    9.246   89.863    0.506    0.200
 1409.940   10.518   91.070    0.521    0.196
 1410.760    9.558   92.858    0.526    0.201
 1411.580    7.053   92.116    0.512    0.204
 1412.400    4.922   92.025    0.503    0.191
 1413.220    6.155   93.812    0.503    0.190
 1414.040    7.550   94.950    0.510    0.198
 1414.860    6.484   94.278    0.518    0.195
 1415.680    5.260   90.405    0.524    0.183
 1416.500    5.766   85.928    0.519    0.172
 1417.320    7.487   79.550    0.526    0.142
 1418.140    6.673   78.205    0.516    0.108
 1418.960    9.891   81.895    0.516    0.061
 1419.780   13.337   96.210    0.580    0.144
 1420.600    6.148  101.778    0.597    0.191
 1421.420    3.758  104.795    0.607    0.198
 1422.240    3.680  106.583    0.606    0.175
 1423.060    4.189  109.019    0.601    0.167
 1423.880    4.178  110.157    0.600    0.179
 1424.700    4.093  109.439    0.605    0.192
 1425.520    4.159  108.118    0.604    0.192
 1426.350    4.562  105.520    0.570    0.181
 1427.170    5.093  102.297    0.549    0.158
 1427.990    5.082   97.148    0.530    0.153
 1428.810    5.170   93.924    0.514    0.153
 1429.630    6.469   91.930    0.507    0.164
 1430.450    8.244   92.511    0.493    0.184
 1431.270    5.645   95.551    0.497    0.203
 1432.090    6.929   99.821    0.514    0.200
 1432.910    8.037  100.982    0.525    0.201
 1433.730    6.898  100.913    0.537    0.207
 1434.550    6.383  100.195    0.537    0.202
 1435.370    6.020   97.598    0.535    0.177
 1436.190    6.476   95.627    0.548    0.178
 1437.010    5.661  100.546    0.551    0.190
 1437.830    5.042  105.442    0.552    0.192
 1438.650    4.845  108.505    0.559    0.179
 1439.470    5.115  109.666    0.550    0.179
 1440.290    5.198  108.322    0.544    0.182
 1441.110    5.192  110.736    0.558    0.168
 1441.930    5.084  113.172    0.571    0.158
 1442.750    4.979  114.960    0.575    0.171
 1443.570    4.870  114.845    0.578    0.192
 1444.390    4.861  112.851    0.576    0.193
 1445.210    4.851  109.627    0.572    0.195
 1446.030    4.932  106.427    0.567    0.204
 1446.850    5.113  103.203    0.549    0.213
 1447.670    5.395  101.209    0.529    0.190
 1448.490    5.589  101.117    0.532    0.169
 1449.310    6.243  101.675    0.542    0.180
 1450.130    6.848  103.462    0.551    0.182
 1450.950    6.837  105.250    0.561    0.182
 1451.770    5.543  106.411    0.571    0.185
 1452.590    5.227  105.043    0.573    0.190
 1453.410    5.314  100.567    0.568    0.197
 1454.230    5.107   95.441    0.528    0.193
 1455.050    5.494   94.119    0.513    0.193
 1455.870    7.274   90.873    0.502    0.209
 1456.690    8.597   88.275    0.509    0.211
 1457.510    7.808   86.305    0.511    0.212
 1458.330   13.446   84.334    0.499    0.190
 1459.150   16.204   82.363    0.474    0.127
 1459.970    9.016   79.139    0.451    0.044
 1460.790    9.884   80.300    0.429    0.080
 1461.610   19.430   90.253    0.432    0.106
 1462.430    8.790   97.678    0.529    0.151
 1463.250    4.449  106.982    0.546    0.156
 1464.070    4.877  111.298    0.546    0.142
 1464.900    5.149  114.964    0.551    0.143
 1465.720    5.045  114.872    0.557    0.141
 1466.540    4.940  112.275    0.565    0.131
 1467.360    5.115  114.689    0.566    0.142
 1468.180    5.400  117.103    0.563    0.172
 1469.000    5.288  116.384    0.559    0.175
 1469.820    4.986  113.787    0.553    0.170
 1470.640    5.264  109.891    0.550    0.138
 1471.460    5.253  109.173    0.549    0.137
 1472.280    5.343  109.081    0.552    0.146
 1473.100    5.332  112.121    0.555    0.157
 1473.920    5.221  113.932    0.550    0.144
 1474.740    5.109  115.093    0.538    0.122
 1475.560    5.293  114.375    0.523    0.128
 1476.380    5.698  111.777    0.506    0.138
 1477.200    5.579  107.927    0.477    0.155
 1478.020    6.977  103.451    0.459    0.159
 1478.840    8.731   99.578    0.445    0.164
 1479.660   10.510   99.463    0.427    0.170
 1480.480    9.911   98.768    0.434    0.167
 1481.300    9.889   96.171    0.437    0.167
 1482.120   10.060   93.573    0.425    0.177
 1482.940   10.038   92.855    0.416    0.171
 1483.760    9.640   93.993    0.408    0.173
 1484.580    9.993   93.275    0.403    0.171
 1485.400   11.591   91.930    0.406    0.172
 1486.220   10.925   91.212    0.425    0.171
 1487.040   10.697   93.023    0.442    0.181
 1487.860   11.083   98.545    0.462    0.193
 1488.680   11.930  101.608    0.480    0.189
 1489.500   13.579  106.528    0.492    0.170
 1490.320   14.061  108.964    0.511    0.163
 1491.140   12.532  108.850    0.517    0.171
 1491.960    9.982  107.482    0.504    0.166
 1492.780    5.451  104.885    0.481    0.158
 1493.600    5.232  103.563    0.454    0.152
 1494.420    5.427   97.834    0.448    0.157
 1495.240    5.838   96.490    0.438    0.164
 1496.060    6.645   96.375    0.443    0.163
 1496.880    8.629   98.788    0.481    0.160
 1497.700    8.292  101.829    0.512    0.163
 1498.520    6.354  101.088    0.526    0.163
 1499.340    5.660   99.140    0.534    0.169
 1500.160    5.653   94.663    0.526    0.190
 1500.980    5.748   88.911    0.496    0.230
 1501.800    6.543   85.687    0.478    0.265
 1502.620    9.161   81.837    0.459    0.283
 1503.440   15.491   78.614    0.446    0.275
 1504.270   13.048   75.993    0.452    0.267
 1505.090   15.715   75.925    0.479    0.265
 1505.910   18.229   76.436    0.497    0.269
 1506.730   20.749   78.201    0.498    0.256
 1507.550   22.335   79.385    0.498    0.234
 1508.370   23.567   80.569    0.501    0.193
 1509.190   19.480   82.982    0.512    0.231
 1510.010   21.355   92.309    0.529    0.238
 1510.830   20.910   95.326    0.543    0.227
 1511.650    6.615   95.861    0.548    0.215
 1512.470    4.443   95.143    0.548    0.218
 1513.290    5.154   95.051    0.545    0.222
 1514.110    5.650   96.838    0.542    0.226
 1514.930    5.637   97.373    0.533    0.229
 1515.750    5.732   96.678    0.521    0.225
 1516.570    5.935   94.080    0.512    0.212
 1517.390    5.293   91.483    0.508    0.199
 1518.210    5.588   89.489    0.516    0.192
 1519.030    6.733   88.702    0.515    0.196
 1519.850    7.665   88.633    0.506    0.197
 1520.670    7.648   89.191    0.495    0.196
 1521.490    7.077   89.122    0.474    0.187
 1522.310    6.926   89.030    0.472    0.202
 1523.130    9.703   88.939    0.494    0.196
 1523.950    9.150   93.231    0.509    0.182
 1524.770    8.003   95.622    0.511    0.192
 1525.590    7.836   94.278    0.506    0.205
 1526.410    7.673   92.910    0.501    0.216
 1527.230    7.656   91.612    0.493    0.183
 1528.050    7.639   88.991    0.488    0.198
 1528.870    7.618   85.768    0.489    0.206
 1529.690    7.745   83.820    0.504    0.221
 1530.510    7.875   79.947    0.503    0.230
 1531.330    7.426   78.602    0.499    0.240
 1532.150    7.402   76.631    0.491    0.259
 1532.970    8.127   75.287    0.486    0.282
 1533.790   12.269   74.569    0.483    0.284
 1534.610   13.450   73.850    0.476    0.279
