~VERSION INFORMATION
 VERS.                 2.0:   CWLS LOG ASCII STANDARD -VERSION 2.0
 WRAP.                  NO:   ONE LINE PER DEPTH STEP
~WELL INFORMATION BLOCK
#MNEM.UNIT           DATA                    DESCRIPTION OF MNEMONIC
#---------    -------------------            -------------------------------
# Generated from Intellog Unique Number	CC_80_83/WELL/2329
NULL.         -999.25                        : NULL_VALUE
WELL.         HOMESTEAD ET AL COWPAR         : Well_name    - WELL
LOC .         10-02-082-05W4                 : Location     - LOCATION          
UWI .         00/10-02-082-05W4/0            : Uwi          - UNIQUE WELL ID    
ENTR.         DW                             : Entered      - ENTERED BY        
DATE.         18 FEB 75                      : Date         - LOG DATE
SRVC.         SCHLUMBERGER                   : Scn          - SERVICE COMPANY   
STRT.M        60.96                          : top_depth    - START DEPTH       
STOP.M        268.222                        : bot_depth    - STOP DEPTH        
STEP.M        0.3048                         : increment    - STEP LENGTH       
~CURVE INFORMATION BLOCK
#MNEM UNIT       ERCB CURVE CODE    CURVE DESCRIPTION
#-----------   ------------------   ----------------------------------
DEPT.M        00 001 00 00         : DEPTH        - DEPTH                       
DPHI.V/V      00 890 00 00         : PHID         - DENSITY POROSITY (LIMESTONE)
NPHI.V/V      00 330 00 00         : PHIN         - NEUTRON POROSITY (LIMESTONE)
GR  .API      00 310 00 00         : GR           - GAMMA RAY                   
ILD .OHMM     00 120 00 00         : RESD         - DEEP RESISTIVITY (DIL)      
~PARAMETER INFORMATION       
#MNEM.UNIT           DATA             DESCRIPTION OF MNEMONIC
#---------         -----------     ------------------------------
GL  .M        455.981              : gl           - GROUND LEVEL ELEVATION      
EREF.M        459.638              : kb           - ELEVATION OF DEPTH REFERENCE
DATM.M        459.638              : datum        - DATUM ELEVATION             
TDD .M        282.55               : tdd          - TOTAL DEPTH DRILLER         
RUN .         ONE                  : Run          - RUN NUMBER                  
ENG .         BILL                 : Engineer     - RECORDING ENGINEER          
WIT .         JIM                  : Witness      - WITNESSED BY                
MUD .         GEL                  : Mud_type     - MUD TYPE                    
MATR.         LIMESTONE            : Logunit      - NEUTRON MATRIX              
TMAX.C        19.4444              : BHT          - MAXIMUM RECORDED TEMPERATURE
BHTD.M        282.55               : BHTDEP       - MAXIMUM RECORDED TEMPERATURE
MATR.         1                    : LOGUNIT      - NEUTRON MATRIX              
RMT .C        25                   : MDTP         - TEMPERATURE OF MUD          
NEUT.         1                    : NEUTRON      - NEUTRON TYPE                
RESI.         0                    : RESIST       - RESISTIVITY TYPE            
RMC .OHMM     0.25                 : RMC          - RESISTIVITY OF MUD CAKE     
RMF .OHMM     0.25                 : RMF          - RESISTIVITY OF MUD FILTRATE 
SUFT.C        15                   : SUFT         - SURFACE TEMPERATURE         
~A  DEPTH     PHID     PHIN       GR     RESD
# ...
  167.030    0.229    0.513   88.534    9.842
  167.335    0.228    0.478   88.527    8.958
  167.640    0.223    0.460   95.931    8.153
  167.944    0.218    0.498  100.863    7.705
  168.249    0.205    0.489   98.387    7.561
  168.554    0.205    0.451   93.441    7.851
  168.859    0.227    0.444   89.731    8.626
  169.164    0.240    0.461   86.636    9.840
  169.468    0.247    0.471   86.630   10.610
  169.773    0.250    0.457   87.859   10.609
  170.078    0.248    0.451   92.792   10.411
  170.383    0.252    0.449   99.578    6.146
  170.688    0.249    0.451  103.893    5.387
  170.992    0.224    0.523   97.712    4.812
  171.297    0.232    0.563   97.704    4.812
  171.602    0.239    0.533   98.935    4.996
  171.907    0.237    0.513  104.483    4.996
  172.212    0.232    0.508  105.713    4.903
  172.516    0.207    0.524  100.768    4.996
  172.821    0.228    0.545   95.823    5.386
  173.126    0.233    0.533   86.554    5.807
  173.431    0.254    0.508   83.461    6.144
  173.736    0.286    0.481   90.246    5.917
  174.040    0.258    0.472   97.030    5.090
  174.345    0.213    0.525  100.112    4.061
  174.650    0.249    0.593   96.400    3.838
  174.955    0.234    0.589   91.454    3.985
  175.260    0.237    0.467   95.768    5.186
  175.564    0.242    0.451   97.000    7.142
  175.869    0.247    0.440   93.906    9.471
  176.174    0.222    0.413   79.082   10.211
  176.479    0.202    0.405   82.163   10.021
  176.783    0.210    0.453   83.389    8.783
  177.088    0.222    0.472   82.766    6.877
  177.393    0.236    0.512   77.204    6.499
  177.698    0.296    0.518   72.874    6.876
  178.003    0.299    0.493   75.956    7.994
  178.307    0.299    0.465   78.419    9.649
  178.612    0.302    0.469   79.028   10.802
  178.917    0.276    0.449   80.258   11.007
  179.222    0.222    0.464   85.809   10.209
  179.527    0.023    0.419   93.829    8.948
  179.831    0.040    0.427   99.379    7.992
  180.136    0.208    0.507   99.989    7.843
  180.441    0.211    0.504   98.132    7.274
  180.746    0.219    0.476   94.419    7.274
  181.051    0.237    0.459   93.178    7.274
  181.355    0.216    0.463   92.555    7.552
  181.660    0.220    0.442   93.165    7.842
  181.965    0.198    0.460   93.778    8.455
  182.270    0.204    0.440   96.857    8.615
  182.575    0.245    0.427   97.470    8.615
  182.879    0.227    0.464   96.845    8.454
  183.184    0.217    0.463   89.430    7.410
  183.489    0.209    0.455   85.718    6.139
  183.794    0.240    0.471   82.627    4.629
  184.099    0.282    0.508   78.916    3.177
  184.403    0.294    0.560   79.526    2.534
  184.708    0.285    0.555   82.607    2.350
  185.013    0.279    0.595   81.983    2.350
  185.318    0.300    0.598   81.977    2.487
  185.623    0.285    0.593   84.441    2.784
  185.927    0.263    0.592   80.112    3.236
  186.232    0.230    0.545   79.487    3.907
  186.537    0.220    0.506   80.716    4.627
  186.842    0.234    0.506   83.177    5.181
  187.146    0.208    0.483   83.790    6.253
  187.451    0.203    0.441   83.166    6.870
  187.756    0.197    0.415   86.865    7.407
  188.061    0.188    0.412   94.267    7.133
  188.366    0.228    0.421  100.435    6.493
  188.670    0.205    0.457   99.812    4.714
  188.975    0.216    0.531   91.778    4.132
  189.280    0.226    0.518   94.241    3.905
  189.585    0.215    0.516   95.470    3.761
  189.890    0.229    0.528   95.463    3.691
  190.194    0.245    0.531   99.162    3.691
  190.499    0.223    0.532   99.155    3.691
  190.804    0.213    0.522   90.506    3.832
  191.109    0.210    0.489   86.178    4.055
  191.414    0.220    0.509   89.875    4.131
  191.718    0.221    0.501   94.189    4.210
  192.023    0.222    0.530   95.420    4.131
  192.328    0.214    0.514   94.796    4.131
  192.633    0.214    0.509   95.405    4.131
  192.938    0.204    0.527   90.460    4.289
  193.242    0.199    0.518   89.218    4.713
  193.547    0.224    0.499   91.062    5.177
  193.852    0.256    0.451   91.675    6.133
  194.157    0.228    0.435   92.904    6.133
  194.462    0.215    0.437   91.046    5.796
  194.766    0.180    0.464   85.483    5.906
  195.071    0.219    0.488   83.007    6.132
  195.376    0.192    0.499   78.679    6.737
  195.681    0.186    0.378   78.055    7.543
  195.986    0.129    0.349   82.369    7.980
  196.290    0.197    0.429   79.894    8.132
  196.595    0.244    0.469   69.392    7.980
  196.900    0.265    0.408   63.828    7.685
  197.205    0.249    0.423   59.499    7.127
  197.509    0.276    0.389   61.963    6.366
  197.814    0.308    0.404   66.896    5.794
  198.119    0.307    0.458   72.447    4.891
  198.424    0.307    0.484   77.997    3.758
  198.729    0.281    0.487   86.017    3.552
  199.033    0.304    0.558   86.010    3.902
  199.338    0.285    0.590   77.361    4.799
  199.643    0.318    0.405   72.415    5.475
  199.948    0.290    0.370   74.878    6.486
  200.253    0.275    0.381   75.489    7.399
  200.557    0.277    0.436   76.101    7.682
  200.862    0.274    0.425   83.503    7.398
  201.167    0.261    0.458   79.792    7.125
  201.472    0.264    0.467   80.401    7.125
  201.777    0.255    0.388   86.570    7.125
  202.081    0.213    0.385   89.650    7.398
  202.386    0.198    0.405   87.792    7.681
  202.691    0.198    0.412   87.168    7.681
  202.996    0.212    0.414   89.631    7.681
  203.301    0.185    0.409   90.860    7.681
  203.605    0.178    0.402   90.854    7.680
  203.910    0.174    0.415   93.318    7.680
  204.215    0.179    0.439  104.425    7.396
  204.520    0.187    0.449  106.271    7.258
  204.825    0.199    0.462   97.620    6.990
  205.129    0.191    0.497   98.232    6.989
  205.434    0.211    0.468  105.633    6.731
  205.739    0.199    0.477  106.863    6.605
  206.044    0.169    0.498  104.387    6.361
  206.349    0.168    0.480  106.232    6.361
  206.653    0.192    0.470  104.373    6.012
  206.958    0.179    0.473   94.488    5.789
  207.263    0.179    0.465   76.577    5.471
  207.568    0.221    0.460   67.308    5.369
  207.872    0.273    0.445   66.068    5.369
  208.177    0.253    0.427   71.001    5.575
  208.482    0.262    0.411   76.552    5.789
  208.787    0.263    0.388   84.572    6.010
  209.092    0.225    0.384   95.061    6.125
  209.396    0.193    0.453  107.403    6.124
  209.701    0.172    0.482  106.778    6.010
  210.006    0.191    0.476  104.918    5.898
  210.311    0.204    0.471  105.530    5.788
  210.616    0.189    0.461  105.526    5.574
  210.920    0.182    0.480  103.666    5.470
  211.225    0.183    0.446   93.164    5.267
  211.530    0.182    0.409   86.983    5.169
  211.835    0.175    0.392   81.419    4.978
  212.140    0.172    0.386   80.795    4.794
  212.444    0.183    0.402   80.173    4.617
  212.749    0.204    0.410   75.227    4.530
  213.054    0.214    0.379   76.456    4.530
  213.359    0.185    0.355   81.388    4.530
  213.664    0.191    0.391   88.174    4.530
  213.968    0.178    0.426   92.489    4.445
  214.273    0.199    0.405   86.927    4.281
  214.578    0.217    0.365   79.511    3.970
  214.883    0.196    0.344   82.591    3.896
  215.188    0.198    0.346   89.376    3.824
  215.492    0.188    0.347   91.840    3.823
  215.797    0.174    0.353   88.127    3.823
  216.102    0.198    0.347   85.653    3.823
  216.407    0.210    0.354   85.647    3.752
  216.712    0.214    0.373   89.961    3.613
  217.016    0.195    0.349   89.954    3.546
  217.321    0.194    0.384   86.245    3.479
  217.626    0.188    0.396   81.917    3.288
  217.931    0.193    0.384   80.058    3.050
  218.236    0.215    0.362   76.965    2.623
  218.540    0.209    0.353   72.018    2.343
  218.845    0.229    0.359   67.691    1.978
  219.150    0.234    0.383   58.423    1.905
  219.455    0.246    0.400   56.565    1.941
  219.759    0.253    0.347   83.107    2.574
