~VERSION INFORMATION
 VERS.                 2.0:   CWLS LOG ASCII STANDARD -VERSION 2.0
 WRAP.                  NO:   ONE LINE PER DEPTH STEP
~WELL INFORMATION BLOCK
#MNEM.UNIT           DATA                    DESCRIPTION OF MNEMONIC
#---------    -------------------            -------------------------------
# Generated from Intellog Unique Number	CW_76_78/WELL/2578
WELL.         10-20-078-24W4                 : Well_name    - WELL
LOC .         00/10-20-078-24W4/0            : Location     - LOCATION
UWI .         00/10-20-078-24W4/0            : Uwi          - UNIQUE WELL ID
ENTR.         MAX                            : Entered      - ENTERED BY
SRVC.         SCHLUMBERGER                   : Scn          - SERVICE COMPANY
STRT.M        274.32                         : top_depth    - START DEPTH
STOP.M        518.07                         : bot_depth    - STOP DEPTH
STEP.M        0.25                           : increment    - STEP LENGTH
 NULL. -999.2500:NULL Value
~CURVE INFORMATION BLOCK
#MNEM UNIT       ERCB CURVE CODE    CURVE DESCRIPTION
#-----------   ------------------   ----------------------------------
DEPT.M        00 001 00 00         : DEPTH        - DEPTH
ILD .OHMM     00 120 00 00         : RESD         - DEEP RESISTIVITY (DIL)
NPHI.V/V      00 330 00 00         : PHIN         - NEUTRON POROSITY (SANDSTONE)
DPHI.V/V      00 890 00 00         : PHID         - DENSITY POROSITY (SANDSTONE)
CALI.MM       00 280 01 00         : CAL          - CALIPER
GR  .API      00 310 00 00         : GR           - GAMMA RAY
~PARAMETER INFORMATION
#MNEM.UNIT           DATA             DESCRIPTION OF MNEMONIC
#---------         -----------     ------------------------------
GL  .M        588.874              : gl           - GROUND LEVEL ELEVATION
EREF.M        592.836              : kb           - ELEVATION OF DEPTH REFERENCE
DATM.M        588.874              : datum        - DATUM ELEVATION
TDD .M        536.448              : tdd          - TOTAL DEPTH DRILLER
RUN .         ONE                  : Run          - RUN NUMBER
ENG .         BILL                 : Engineer     - RECORDING ENGINEER
WIT .         JIM                  : Witness      - WITNESSED BY
MUD .         GEL                  : Mud_type     - MUD TYPE
MATR.         SANDSTONE            : Logunit      - NEUTRON MATRIX
TMAX.C        16.6667              : BHT          - MAXIMUM RECORDED TEMPERATURE
BHTD.M        536.448              : BHTDEP       - MAXIMUM RECORDED TEMPERATURE
RMT .C        19.4444              : MDTP         - TEMPERATURE OF MUD
MUDD.KG/M     9300                 : MWT          - MUD DENSITY
NEUT.         1                    : NEUTRON      - NEUTRON TYPE
RESI.         0                    : RESIST       - RESISTIVITY TYPE
RM  .OHMM     3.82                 : RM           - RESISTIVITY OF MUD
RMC .OHMM     0                    : RMC          - RESISTIVITY OF MUD CAKE
RMF .OHMM     3.9                  : RMF          - RESISTIVITY OF MUD FILTRATE
SUFT.C        -20.5556             : SUFT         - SURFACE TEMPERATURE
~A  DEPTH     RESD     PHIN     PHID      CAL       GR
  274.320    2.886    0.557    0.236  207.018   93.342
  274.570    3.126    0.531    0.227  208.458   88.362
  274.820    3.672    0.482    0.223  209.899   83.966
  275.070    4.197    0.448    0.221  211.349   75.775
  275.320    3.904    0.459    0.204  211.304   77.209
  275.570    3.534    0.567    0.221  212.255   80.979
  275.820    3.142    0.593    0.244  213.207   84.752
  276.070    2.819    0.613    0.254  211.199   89.100
  276.320    2.333    0.606    0.269  209.183   89.954
  276.570    2.111    0.601    0.279  210.134   89.644
  276.820    2.206    0.593    0.273  211.086   86.703
  277.070    2.785    0.568    0.260  212.033   81.139
  277.320    4.856    0.512    0.264  205.576   70.615
  277.570    7.140    0.508    0.266  203.070   63.593
  277.820   10.784    0.489    0.275  203.029   60.363
  278.070   16.144    0.472    0.263  205.457   60.047
  278.320   21.503    0.464    0.252  207.895   62.068
  278.570   25.483    0.473    0.275  210.818   69.630
  278.820   24.787    0.480    0.279  214.239   69.897
  279.070   22.641    0.475    0.279  214.207   65.792
  279.320   20.678    0.467    0.278  213.677   63.727
  279.570   20.843    0.466    0.280  214.619   63.411
  279.820   24.930    0.483    0.283  215.566   61.056
  280.070   30.354    0.498    0.280  216.033   59.284
  280.320   33.181    0.506    0.275  214.999   57.807
  280.570   37.937    0.492    0.283  213.486   57.197
  280.820   37.909    0.455    0.295  210.482   58.050
  281.070   36.214    0.442    0.298  207.980   58.899
  281.320   33.675    0.427    0.295  204.971   58.885
  281.570   32.169    0.404    0.272  203.952   57.694
  281.820   31.558    0.354    0.246  204.903   55.042
  282.070   30.990    0.273    0.178  206.344   53.276
  282.320   32.380    0.198    0.054  206.303   50.038
  282.570   40.865    0.161    0.016  204.790   47.981
  282.820   58.490    0.143    0.001  202.778   45.623
  283.070   74.491    0.131   -0.007  201.726   44.141
  283.320   90.695    0.119   -0.017  200.226   42.952
  283.570  103.697    0.116   -0.027  198.708   42.059
  283.820  110.332    0.127   -0.024  196.683   40.282
  284.070  114.292    0.130   -0.017  197.648   40.554
  284.320  119.440    0.121   -0.021  200.081   42.575
  284.570  123.704    0.111   -0.029  201.028   44.303
  284.820  126.999    0.106   -0.034  201.481   43.696
  285.070  132.719    0.105   -0.036  202.922   45.422
  285.320  137.457    0.111   -0.036  203.882   44.820
  285.570  130.161    0.126   -0.032  204.834   45.090
  285.820  111.637    0.141   -0.025  205.282   46.524
  286.070   88.314    0.171   -0.002  205.251   47.669
  286.320   61.610    0.280    0.033  204.222   49.104
  286.570   47.448    0.354    0.077  202.196   50.249
  286.820   38.219    0.407    0.210  202.174   51.977
  287.070   32.780    0.449    0.257  202.137   54.867
  287.320   29.409    0.466    0.273  202.595   56.601
  287.570   25.449    0.459    0.271  202.554   58.038
  287.820   22.227    0.467    0.270  202.019   57.428
  288.070   19.582    0.475    0.266  202.472   57.698
  288.320   18.375    0.464    0.258  202.445   60.010
  288.570   17.397    0.465    0.258  203.383   60.283
  288.820   17.230    0.463    0.249  203.850   59.384
  289.070   17.230    0.455    0.239  203.804   57.904
  289.320   16.890    0.455    0.242  203.269   57.299
  289.570   16.433    0.471    0.233  201.751   57.859
  289.820   15.558    0.478    0.224  200.238   60.462
  290.070   14.212    0.485    0.240  199.214   61.022
  290.320   11.973    0.482    0.261  199.177   63.625
  290.570   10.549    0.478    0.246  200.124   65.356
  290.820   10.168    0.490    0.232  200.582   65.330
  291.070   10.168    0.483    0.228  200.541   62.975
  291.320   10.243    0.467    0.230  200.994   62.664
  291.570   10.902    0.463    0.251  202.444   62.351
  291.820   13.272    0.446    0.236  203.391   60.574
  292.070   13.872    0.410    0.211  203.844   59.389
  292.320   15.300    0.338    0.174  203.817   57.906
  292.570   15.566    0.296    0.146  204.768   57.299
  292.820   14.605    0.336    0.130  204.727   58.150
  293.070   11.978    0.399    0.225  204.691   60.173
  293.320   10.743    0.437    0.220  204.156   63.943
  293.570   10.544    0.474    0.194  204.124   64.796
  293.820   10.728    0.460    0.230  204.582   61.567
  294.070   11.517    0.424    0.202  204.042   58.917
  294.320   12.476    0.380    0.175  202.524   60.643
  294.570   12.694    0.377    0.167  201.990   62.955
  294.820   12.019    0.436    0.191  202.452   64.684
  295.070   10.309    0.446    0.240  203.893   65.832
  295.320    8.921    0.451    0.246  204.350   66.683
  295.570    8.222    0.468    0.235  204.318   68.700
  295.820    7.855    0.494    0.232  204.277   71.304
  296.070    7.920    0.501    0.233  204.730   72.449
  296.320    8.202    0.502    0.225  205.193   71.258
  296.570    9.720    0.470    0.213  205.152   66.864
  296.820   10.159    0.420    0.196  205.111   62.176
  297.070   10.909    0.387    0.183  205.074   59.524
  297.320   12.699    0.368    0.146  205.038   60.961
  297.570   14.005    0.356    0.130  204.993   63.859
  297.820   13.379    0.380    0.130  204.956   67.918
  298.070   11.791    0.416    0.168  204.925   71.692
  298.320    8.838    0.456    0.195  205.378   75.754
  298.570    7.930    0.446    0.204  205.835   83.021
  298.820    7.575    0.451    0.205  206.791   88.542
  299.070    7.575    0.458    0.213  209.709   93.479
  299.320    7.493    0.452    0.190  212.645  101.333
  299.570    7.624    0.461    0.203  214.086  103.059
  299.820    7.828    0.458    0.208  214.535   96.040
  300.070    8.480    0.451    0.179  215.001   88.432
  300.320    9.352    0.441    0.184  213.483   84.327
  300.570    9.687    0.424    0.193  210.470   78.177
  300.820    9.508    0.420    0.181  208.458   74.072
  301.070    9.164    0.416    0.207  207.443   73.462
  301.320    9.075    0.412    0.233  208.875   79.274
  301.570    9.069    0.422    0.230  211.308   82.464
  301.820    9.060    0.439    0.219  213.741   88.568
  302.070    9.135    0.433    0.230  213.714   92.921
  302.320    9.130    0.436    0.238  211.693   93.775
  302.570    9.122    0.449    0.243  210.170   92.582
  302.820    8.952    0.448    0.255  209.649   93.727
  303.070    8.786    0.440    0.268  208.620   96.625
  303.320    8.469    0.445    0.275  207.592   99.812
  303.570    8.092    0.456    0.248  207.555  101.832
  303.820    7.258    0.460    0.223  207.514  105.308
  304.070    6.689    0.469    0.194  207.483  109.365
  304.320    6.566    0.473    0.161  207.917  108.763
  304.570    6.560    0.477    0.165  209.376  106.994
  304.820    6.497    0.476    0.189  211.316  102.011
  305.070    6.096    0.473    0.206  213.260   95.278
  305.320    5.568    0.472    0.216  214.211   98.760
  305.570    5.086    0.478    0.184  211.701  105.444
  305.820    4.562    0.490    0.184  208.207  113.584
  306.070    4.093    0.528    0.178  205.692  118.818
  306.320    3.639    0.530    0.170  204.672  116.464
  306.570    3.323    0.554    0.135  204.147  113.814
  306.820    3.321    0.551    0.147  204.106  118.460
  307.070    3.534    0.535    0.188  204.559  116.974
  307.320    4.341    0.499    0.229  204.491  111.117
  307.570    5.286    0.473    0.237  204.477  109.348
  307.820    6.553    0.445    0.266  204.441  105.246
  308.070    7.627    0.462    0.270  204.907  100.555
  308.320    8.879    0.472    0.234  205.859   99.367
  308.570    9.196    0.473    0.226  207.794   97.884
  308.820    8.946    0.468    0.222  208.247   96.115
  309.070    8.700    0.462    0.215  209.194   89.091
  309.320    8.539    0.488    0.212  208.659   85.569
  309.570    8.608    0.533    0.235  206.656   82.628
  309.820    8.997    0.517    0.279  204.639   76.190
  310.070   10.955    0.478    0.288  204.109   72.957
  310.320   11.551    0.466    0.289  204.109   71.183
  310.570   12.404    0.492    0.279  204.027   71.164
