~VERSION INFORMATION
 VERS.                 2.0:   CWLS LOG ASCII STANDARD -VERSION 2.0
 WRAP.                  NO:   ONE LINE PER DEPTH STEP
~WELL INFORMATION BLOCK
#MNEM.UNIT           DATA                    DESCRIPTION OF MNEMONIC
#---------    -------------------            -------------------------------
# Generated from Intellog Unique Number	CS_73_76/WELL/3238
WELL.         10-20-075-18W4                 : Well_name    - WELL
LOC .         00/10-20-075-18W4/0            : Location     - LOCATION
UWI .         00/10-20-075-18W4/0            : Uwi          - UNIQUE WELL ID
ENTR.         SP                             : Entered      - ENTERED BY
SRVC.         SCHLUMBERGER                   : Scn          - SERVICE COMPANY
STRT.M        237.744                        : top_depth    - START DEPTH
STOP.M        441.744                        : bot_depth    - STOP DEPTH
STEP.M        0.25                           : increment    - STEP LENGTH
 NULL. -999.2500:NULL Value
~CURVE INFORMATION BLOCK
#MNEM UNIT       ERCB CURVE CODE    CURVE DESCRIPTION
#-----------   ------------------   ----------------------------------
DEPT.M        00 001 00 00         : DEPTH        - DEPTH
GR  .API      00 310 00 00         : GR           - GAMMA RAY
DPHI.V/V      00 890 00 00         : PHID         - DENSITY POROSITY (SANDSTONE)
NPHI.V/V      00 330 00 00         : PHIN         - NEUTRON POROSITY (SANDSTONE)
ILD .OHMM     00 120 00 00         : RESD         - DEEP RESISTIVITY (DIL)
~PARAMETER INFORMATION
#MNEM.UNIT           DATA             DESCRIPTION OF MNEMONIC
#---------         -----------     ------------------------------
GL  .M        580.644              : gl           - GROUND LEVEL ELEVATION
EREF.M        583.692              : kb           - ELEVATION OF DEPTH REFERENCE
DATM.M        580.644              : datum        - DATUM ELEVATION
TDD .M        448.056              : tdd          - TOTAL DEPTH DRILLER
RUN .         ONE                  : Run          - RUN NUMBER
ENG .         BILL                 : Engineer     - RECORDING ENGINEER
WIT .         JIM                  : Witness      - WITNESSED BY
MUD .         GEL                  : Mud_type     - MUD TYPE
MATR.         SANDSTONE            : Logunit      - NEUTRON MATRIX
TMAX.C        10.5556              : BHT          - MAXIMUM RECORDED TEMPERATURE
BHTD.M        448.056              : BHTDEP       - MAXIMUM RECORDED TEMPERATURE
MATR.         1                    : LOGUNIT      - NEUTRON MATRIX
RMT .C        25                   : MDTP         - TEMPERATURE OF MUD
NEUT.         1                    : NEUTRON      - NEUTRON TYPE
RESI.         0                    : RESIST       - RESISTIVITY TYPE
RMC .OHMM     0.25                 : RMC          - RESISTIVITY OF MUD CAKE
RMF .OHMM     0.25                 : RMF          - RESISTIVITY OF MUD FILTRATE
SUFT.C        15                   : SUFT         - SURFACE TEMPERATURE
~A  DEPTH       GR     PHID     PHIN     RESD
# ...
  368.244   87.016    0.235    0.453    6.963
  368.494   89.623    0.225    0.455    6.964
  368.744   91.085    0.216    0.457    6.968
  368.994   89.415    0.211    0.458    6.986
  369.244   88.960    0.202    0.460    7.099
  369.494   89.733    0.197    0.459    7.100
  369.744   89.664    0.196    0.454    7.107
  369.994   88.729    0.204    0.452    7.248
  370.244   87.306    0.211    0.451    7.086
  370.494   86.105    0.214    0.451    7.100
  370.744   86.483    0.203    0.461    7.007
  370.994   88.373    0.194    0.469    6.949
  371.244   89.100    0.205    0.476    6.724
  371.494   90.314    0.214    0.465    6.586
  371.744   92.938    0.213    0.456    6.341
  371.994   93.251    0.207    0.455    6.156
  372.244   92.671    0.200    0.457    5.793
  372.494   91.311    0.212    0.457    5.574
  372.744   90.205    0.207    0.461    5.333
  372.994   91.327    0.203    0.455    5.419
  373.244   94.023    0.201    0.445    6.707
  373.494   98.006    0.209    0.455    8.819
  373.744  102.411    0.226    0.409   12.951
  373.994   93.847    0.205    0.337   16.784
  374.244   83.707    0.171    0.234   21.649
  374.494   63.713    0.122    0.284   23.754
  374.744   57.722    0.157    0.376   20.375
  374.994   56.276    0.257    0.391   16.346
  375.244   54.743    0.289    0.402   13.124
  375.494   52.254    0.325    0.413   11.041
  375.744   50.633    0.327    0.417    8.510
  375.994   49.760    0.312    0.413    7.732
  376.244   49.754    0.303    0.417    6.935
  376.494   50.679    0.309    0.426    6.512
  376.744   50.972    0.303    0.424    6.259
  376.994   51.012    0.316    0.422    6.145
  377.244   51.349    0.312    0.422    6.152
  377.494   52.149    0.313    0.426    6.152
  377.744   53.829    0.309    0.429    6.084
  377.994   53.937    0.303    0.435    6.046
  378.244   53.951    0.299    0.430    6.043
  378.494   54.195    0.300    0.429    6.044
  378.744   55.155    0.301    0.430    6.045
  378.994   55.532    0.301    0.429    6.045
  379.244   57.134    0.308    0.440    6.046
  379.494   59.430    0.316    0.449    6.047
  379.744   61.782    0.321    0.458    6.047
  379.994   63.699    0.320    0.451    6.048
  380.244   64.651    0.317    0.448    6.049
  380.494   64.570    0.301    0.448    6.036
  380.744   65.289    0.304    0.453    6.162
  380.994   65.256    0.312    0.457    6.279
  381.244   64.534    0.308    0.449    6.016
  381.494   65.351    0.301    0.445    6.172
  381.744   66.796    0.295    0.444    6.163
  381.994   69.809    0.293    0.449    6.162
  382.244   72.187    0.281    0.446    6.154
  382.494   78.356    0.239    0.441    6.055
  382.744   82.225    0.223    0.448    5.854
  382.994   86.784    0.223    0.451    5.623
  383.244   89.312    0.229    0.462    5.201
  383.494   90.265    0.232    0.477    5.093
  383.744   90.216    0.227    0.485    4.867
  383.994   89.576    0.229    0.493    4.771
  384.244   87.618    0.226    0.501    4.779
  384.494   87.235    0.222    0.506    4.775
  384.744   87.287    0.232    0.516    4.908
  384.994   86.532    0.245    0.519    5.168
  385.244   85.186    0.256    0.500    5.301
  385.494   81.660    0.255    0.490    5.767
  385.744   78.152    0.259    0.479    6.434
  385.994   75.315    0.258    0.475    7.039
  386.244   72.909    0.241    0.475    7.429
  386.494   70.539    0.218    0.440    7.691
  386.744   68.916    0.194    0.396    7.634
  386.994   69.051    0.161    0.390    7.028
  387.244   71.070    0.190    0.428    6.432
  387.494   74.013    0.220    0.468    6.000
  387.744   75.993    0.253    0.482    5.712
  387.994   75.881    0.277    0.479    5.549
  388.244   76.984    0.273    0.479    5.543
  388.494   74.946    0.274    0.482    5.541
  388.744   71.884    0.274    0.474    5.541
  388.994   71.983    0.283    0.466    5.531
  389.244   72.292    0.282    0.464    5.644
  389.494   72.143    0.277    0.464    5.535
  389.744   72.391    0.270    0.472    5.543
  389.994   74.684    0.264    0.486    5.545
  390.244   77.627    0.257    0.490    5.545
  390.494   79.536    0.253    0.474    5.546
  390.744   79.943    0.248    0.478    5.546
  390.994   80.655    0.235    0.471    5.547
  391.244   79.935    0.244    0.470    5.549
  391.494   80.960    0.253    0.467    5.541
  391.744   82.451    0.255    0.463    5.664
  391.994   81.576    0.255    0.461    5.659
  392.244   79.259    0.248    0.467    5.833
  392.494   81.100    0.243    0.468    6.225
  392.744   83.041    0.247    0.461    6.548
  392.994   82.748    0.245    0.468    6.864
  393.244   80.164    0.236    0.452    7.185
  393.494   78.892    0.211    0.420    7.303
  393.744   80.592    0.187    0.390    7.162
  393.994   83.373    0.147    0.422    6.962
  394.244   85.395    0.191    0.453    6.556
  394.494   83.915    0.231    0.455    6.310
  394.744   82.535    0.230    0.464    6.073
  394.994   84.100    0.224    0.456    5.895
  395.244   84.839    0.223    0.460    5.762
  395.494   84.766    0.213    0.468    5.651
  395.744   84.162    0.205    0.480    5.565
  395.994   84.227    0.219    0.491    5.447
  396.244   87.742    0.226    0.488    5.460
  396.494   92.431    0.224    0.473    5.460
  396.744   96.552    0.201    0.467    5.457
  396.994   98.973    0.190    0.459    5.550
  397.244   99.133    0.196    0.455    5.652
  397.494   97.640    0.179    0.448    5.906
  397.744   95.563    0.187    0.441    6.167
  397.994   97.579    0.199    0.442    6.541
  398.244   99.761    0.200    0.459    7.099
  398.494  100.290    0.189    0.469    7.415
  398.744   98.976    0.187    0.452    7.825
  398.994   96.614    0.182    0.435    7.728
  399.244   92.578    0.189    0.414    7.604
  399.494   90.516    0.207    0.406    7.444
  399.744   89.547    0.225    0.419    7.461
  399.994   87.592    0.227    0.437    7.461
  400.244   84.435    0.214    0.421    7.462
  400.494   80.252    0.179    0.415    7.462
  400.744   76.970    0.200    0.440    7.453
  400.994   73.821    0.211    0.425    7.629
  401.244   74.951    0.178    0.395    7.833
  401.494   82.038    0.150    0.421    8.459
  401.744   85.973    0.179    0.449    9.349
  401.994   83.924    0.160    0.439   10.090
  402.244   81.427    0.126    0.398   10.685
  402.494   77.611    0.105    0.364   10.378
  402.744   74.556    0.085    0.327    9.219
  402.994   73.723    0.090    0.360    8.033
  403.244   77.970    0.147    0.397    7.365
  403.494   84.545    0.173    0.426    6.925
  403.744   88.161    0.191    0.446    6.691
  403.994   90.547    0.181    0.459    6.701
  404.244   91.332    0.176    0.464    6.762
  404.494   91.299    0.183    0.445    6.831
  404.744   91.196    0.171    0.438    7.050
  404.994   92.942    0.165    0.451    7.276
  405.244   95.527    0.189    0.441    7.347
  405.494   97.121    0.198    0.440    7.491
  405.744   97.222    0.184    0.439    7.498
  405.994   97.237    0.163    0.424    7.221
  406.244   97.557    0.159    0.420    7.021
  406.494   98.583    0.174    0.428    6.655
  406.744   99.065    0.180    0.431    6.596
  406.994   96.597    0.193    0.427    6.273
  407.244   93.427    0.178    0.420    6.099
  407.494   91.522    0.183    0.417    6.011
  407.744   91.596    0.184    0.419    6.064
  407.994   94.314    0.163    0.414    6.130
  408.244   94.840    0.174    0.422    6.257
  408.494   94.489    0.159    0.425    6.128
  408.744   93.056    0.141    0.422    5.791
  408.994   95.500    0.186    0.438    4.809
  409.244   96.826    0.205    0.451    3.975
  409.494   96.676    0.188    0.464    3.377
  409.744   96.065    0.215    0.483    2.933
  409.994   95.459    0.224    0.512    2.600
  410.244   93.423    0.256    0.548    2.382
  410.494   90.666    0.248    0.563    2.280
  410.744   88.775    0.234    0.556    2.293
  410.994   90.130    0.240    0.543    2.430
  411.244   93.472    0.215    0.531    2.667
  411.494   93.618    0.223    0.519    2.909
