~VERSION INFORMATION
 VERS.                 2.0:   CWLS LOG ASCII STANDARD -VERSION 2.0
 WRAP.                  NO:   ONE LINE PER DEPTH STEP
~WELL INFORMATION BLOCK
#MNEM.UNIT           DATA                    DESCRIPTION OF MNEMONIC
#---------    -------------------            -------------------------------
# Generated from Intellog Unique Number	CS_67_68/WELL/805
WELL.         TOTAL PETROLEUM (N.A.)         : Well_name    - WELL
LOC .         00/10-15-068-16W4/0            : Location     - LOCATION
UWI .         00/10-15-068-16W4/0            : Uwi          - UNIQUE WELL ID
ENTR.         SP                             : Entered      - ENTERED BY
SRVC.         SCHLUMBERGER                   : Scn          - SERVICE COMPANY
STRT.M        280                            : top_depth    - START DEPTH
STOP.M        490                            : bot_depth    - STOP DEPTH
STEP.M        0.25                           : increment    - STEP LENGTH
 NULL. -999.2500:NULL Value
~CURVE INFORMATION BLOCK
#MNEM UNIT       ERCB CURVE CODE    CURVE DESCRIPTION
#-----------   ------------------   ----------------------------------
DEPT.M        00 001 00 00         : DEPTH        - DEPTH
ILD .OHMM     00 120 00 00         : RESD         - DEEP RESISTIVITY (DIL)
DPHI.V/V      00 890 00 00         : PHID         - DENSITY POROSITY (LIMESTONE)
NPHI.V/V      00 330 00 00         : PHIN         - NEUTRON POROSITY (LIMESTONE)
GR  .API      00 310 00 00         : GR           - GAMMA RAY
~PARAMETER INFORMATION
#MNEM.UNIT           DATA             DESCRIPTION OF MNEMONIC
#---------         -----------     ------------------------------
GL  .M        547.15               : gl           - GROUND LEVEL ELEVATION
EREF.M        550                  : kb           - ELEVATION OF DEPTH REFERENCE
DATM.M        547.15               : datum        - DATUM ELEVATION
TDD .M        490                  : tdd          - TOTAL DEPTH DRILLER
RUN .         ONE                  : Run          - RUN NUMBER
ENG .         BILL                 : Engineer     - RECORDING ENGINEER
WIT .         JIM                  : Witness      - WITNESSED BY
MUD .         GEL                  : Mud_type     - MUD TYPE
MATR.         LIMESTONE            : Logunit      - NEUTRON MATRIX
TMAX.C        26                   : BHT          - MAXIMUM RECORDED TEMPERATURE
BHTD.M        490                  : BHTDEP       - MAXIMUM RECORDED TEMPERATURE
MATR.         1                    : LOGUNIT      - NEUTRON MATRIX
RMT .C        25                   : MDTP         - TEMPERATURE OF MUD
NEUT.         1                    : NEUTRON      - NEUTRON TYPE
RESI.         0                    : RESIST       - RESISTIVITY TYPE
RMC .OHMM     0.25                 : RMC          - RESISTIVITY OF MUD CAKE
RMF .OHMM     0.25                 : RMF          - RESISTIVITY OF MUD FILTRATE
SUFT.C        15                   : SUFT         - SURFACE TEMPERATURE
~A  DEPTH     RESD     PHID     PHIN       GR
# ...
  410.500    5.181    0.136    0.297   73.228
  410.750    5.805    0.152    0.308   89.740
  411.000    5.309    0.136    0.327   96.774
  411.250    5.106    0.160    0.345  100.934
  411.500    4.839    0.182    0.366  102.403
  411.750    4.715    0.159    0.381  101.121
  412.000    4.646    0.144    0.387   98.616
  412.250    4.629    0.133    0.362   95.316
  412.500    4.639    0.169    0.342   93.666
  412.750    4.648    0.161    0.338   97.337
  413.000    4.631    0.162    0.347   97.217
  413.250    4.632    0.167    0.356   94.895
  413.500    4.624    0.144    0.365   93.490
  413.750    4.616    0.126    0.378   97.283
  414.000    4.617    0.158    0.370   99.915
  414.250    4.626    0.171    0.362  102.301
  414.500    4.627    0.147    0.356  103.159
  414.750    4.636    0.165    0.352  100.898
  415.000    4.628    0.177    0.357  101.451
  415.250    4.620    0.162    0.358  100.474
  415.500    4.595    0.138    0.358   95.828
  415.750    4.579    0.159    0.372   94.546
  416.000    4.614    0.164    0.356   97.361
  416.250    4.640    0.176    0.346   99.931
  416.500    4.693    0.183    0.359   96.019
  416.750    4.720    0.166    0.374   93.820
  417.000    4.765    0.172    0.364   96.329
  417.250    4.766    0.162    0.353   99.816
  417.500    4.758    0.159    0.365  101.897
  417.750    4.803    0.166    0.375  103.733
  418.000    4.849    0.191    0.362   99.271
  418.250    4.867    0.192    0.348   97.989
  418.500    4.942    0.195    0.348   99.886
  418.750    4.970    0.195    0.345  101.906
  419.000    4.980    0.168    0.341  102.703
  419.250    4.962    0.178    0.336  104.355
  419.500    4.880    0.161    0.337  103.073
  419.750    4.489    0.143    0.322   99.712
  420.000    4.007    0.107    0.343   98.062
  420.250    3.538    0.186    0.382   94.273
  420.500    2.998    0.272    0.365   88.710
  420.750    2.676    0.325    0.386   89.263
  421.000    2.349    0.335    0.425   92.016
  421.250    2.197    0.313    0.421   93.180
  421.500    2.141    0.299    0.436   92.753
  421.750    2.307    0.272    0.451   90.799
  422.000    2.619    0.271    0.477   93.674
  422.250    2.870    0.263    0.477   95.816
  422.500    3.338    0.242    0.502   96.124
  422.750    3.610    0.237    0.485   96.065
  423.000    4.029    0.256    0.441   93.009
  423.250    4.540    0.265    0.373   88.363
  423.500    4.956    0.155    0.391   85.246
  423.750    5.203    0.038    0.420   87.694
  424.000    5.351    0.007    0.372   84.150
  424.250    5.263    0.026    0.307   82.011
  424.500    4.996    0.131    0.294   82.869
  424.750    4.779    0.081    0.312   86.356
  425.000    4.553    0.109    0.341   89.722
  425.250    4.323    0.241    0.364   93.270
  425.500    4.228    0.217    0.330   90.153
  425.750    4.181    0.221    0.365   90.766
  426.000    4.159    0.246    0.408   95.171
  426.250    4.175    0.221    0.394   97.924
  426.500    4.199    0.246    0.346   98.171
  426.750    3.986    0.239    0.342   97.011
  427.000    3.987    0.235    0.354   99.275
  427.250    3.965    0.204    0.367   99.399
  427.500    3.907    0.202    0.341   95.304
  427.750    3.807    0.192    0.342   97.079
  428.000    3.668    0.208    0.401   99.344
  428.250    3.374    0.208    0.414   99.651
  428.500    3.325    0.174    0.399   99.714
  428.750    3.252    0.146    0.377   94.090
  429.000    3.151    0.246    0.358   98.006
  429.250    3.099    0.209    0.374  103.450
  429.500    3.076    0.198    0.390  108.527
  429.750    3.129    0.216    0.387  109.630
  430.000    3.248    0.227    0.336  107.246
  430.250    3.372    0.222    0.326  104.619
  430.500    3.593    0.234    0.358  107.067
  430.750    3.800    0.226    0.395  107.007
  431.000    3.974    0.200    0.372   99.610
  431.250    4.019    0.088    0.249   90.745
  431.500    3.938    0.098    0.366   94.110
  431.750    3.643    0.180    0.411  106.770
  432.000    3.458    0.213    0.434  114.415
  432.250    3.283    0.209    0.464  116.374
  432.500    3.025    0.210    0.502  115.031
  432.750    3.591    0.225    0.464  114.910
  433.000    4.575    0.205    0.330  100.297
  433.250    5.733    0.203    0.282   80.731
  433.500    7.359    0.205    0.271   76.575
  433.750    8.606    0.188    0.290   77.861
  434.000    9.239    0.197    0.330   78.658
  434.250    8.919    0.200    0.354   83.919
  434.500    8.436    0.188    0.318   86.856
  434.750    7.831    0.175    0.340   88.080
  435.000    7.532    0.245    0.355   85.636
  435.250    8.535    0.181    0.332   80.195
  435.500    9.110    0.154    0.298   75.734
  435.750   10.361    0.175    0.271   71.883
  436.000   11.566    0.194    0.243   69.622
  436.250   12.769    0.217    0.229   67.178
  436.500   13.606    0.241    0.245   65.284
  436.750   13.633    0.230    0.253   65.959
  437.000   13.235    0.219    0.264   66.266
  437.250   13.041    0.204    0.272   66.513
  437.500   13.067    0.096    0.285   67.126
  437.750   13.743    0.043    0.302   65.721
  438.000   15.719    0.004    0.246   45.972
  438.250   16.135   -0.009    0.168   40.837
  438.500   16.167    0.025    0.169   51.479
  438.750   14.677    0.083    0.204   68.113
  439.000   13.127    0.115    0.259   80.651
  439.250   11.611    0.058    0.253   90.009
  439.500   10.920    0.041    0.307   93.312
  439.750   10.582    0.075    0.351   91.174
  440.000   10.603    0.044    0.269   85.367
  440.250   11.131    0.005    0.234   74.362
  440.500   11.512    0.023    0.258   82.313
  440.750   10.707    0.062    0.283   86.840
  441.000    8.282    0.058    0.232   93.812
  441.250    7.660    0.081    0.238  106.778
  441.500    7.006    0.112    0.303  118.276
  441.750    7.835    0.117    0.315  125.371
  442.000    9.529    0.065    0.292  102.442
  442.250   10.363    0.038    0.260   91.192
  442.500   12.008    0.039    0.259   87.342
  442.750   13.256    0.020    0.247   84.164
  443.000   13.786    0.031    0.201   82.637
  443.250   12.470    0.049    0.290   94.685
  443.500   12.264    0.069    0.285   89.611
  443.750   13.792    0.023    0.206   68.211
  444.000   15.951   -0.005    0.144   50.846
  444.250   17.478   -0.015    0.118   44.244
  444.500   19.366   -0.019    0.112   46.203
  444.750   20.255   -0.010    0.134   51.035
  445.000   18.388    0.012    0.145   60.943
  445.250   16.263    0.050    0.150   72.991
  445.500   15.730    0.097    0.263   79.597
  445.750   15.674    0.039    0.296   79.599
  446.000   15.705   -0.011    0.253   68.594
  446.250   15.884   -0.007    0.200   64.682
  446.500   16.005    0.070    0.190   65.234
  446.750   15.889    0.046    0.188   64.197
  447.000   15.685    0.032    0.204   62.242
  447.250   15.370    0.012    0.206   64.017
  447.500   15.117    0.014    0.213   66.954
  447.750   15.260    0.062    0.236   65.060
  448.000   15.434    0.059    0.267   68.303
  448.250   15.639    0.041    0.291   73.992
  448.500   15.817    0.075    0.258   71.486
  448.750   15.849    0.126    0.228   75.708
  449.000   15.851    0.150    0.304   79.378
  449.250   15.678    0.150    0.335   72.959
  449.500   15.420    0.069    0.329   66.785
  449.750   15.307    0.039    0.291   62.384
  450.000   15.083   -0.009    0.236   59.940
  450.250   14.890    0.093    0.223   59.147
  450.500   15.003    0.078    0.230   57.681
  450.750   15.259    0.056    0.239   56.215
  451.000   15.930    0.061    0.243   54.444
  451.250   16.942    0.062    0.240   52.795
  451.500   17.985    0.054    0.226   51.268
  451.750   18.950    0.038    0.208   47.050
  452.000   20.005    0.027    0.195   43.933
  452.250   21.001    0.031    0.179   46.259
  452.500   21.964    0.036    0.167   50.908
  452.750   22.590    0.039    0.152   53.050
  453.000   22.847    0.026    0.133   55.742
  453.250   22.262    0.045    0.136   57.579
  453.500   20.861    0.023    0.143   54.217
  453.750   21.656    0.041    0.148   57.705
