~VERSION INFORMATION
 VERS.                 2.0:   CWLS LOG ASCII STANDARD -VERSION 2.0
 WRAP.                  NO:   ONE LINE PER DEPTH STEP
~WELL INFORMATION BLOCK
#MNEM.UNIT           DATA                    DESCRIPTION OF MNEMONIC
#---------    -------------------            -------------------------------
# Generated from Intellog Unique Number	CW_79_81/WELL/2468
WELL.         10-18-080-20W4                 : Well_name    - WELL
LOC .         00/10-18-080-20W4/0            : Location     - LOCATION
UWI .         00/10-18-080-20W4/0            : Uwi          - UNIQUE WELL ID
ENTR.         MAX                            : Entered      - ENTERED BY
SRVC.         SCHLUMBERGER                   : Scn          - SERVICE COMPANY
STRT.M        152.4                          : top_depth    - START DEPTH
STOP.M        408.15                         : bot_depth    - STOP DEPTH
STEP.M        0.25                           : increment    - STEP LENGTH
 NULL. -999.2500:NULL Value
~CURVE INFORMATION BLOCK
#MNEM UNIT       ERCB CURVE CODE    CURVE DESCRIPTION
#-----------   ------------------   ----------------------------------
DEPT.M        00 001 00 00         : DEPTH        - DEPTH
ILD .OHMM     00 120 00 00         : RESD         - DEEP RESISTIVITY (DIL)
NPHI.V/V      00 330 00 00         : PHIN         - NEUTRON POROSITY (SANDSTONE)
DPHI.V/V      00 890 00 00         : PHID         - DENSITY POROSITY (SANDSTONE)
GR  .API      00 310 00 00         : GR           - GAMMA RAY
CALI.MM       00 280 01 00         : CAL          - CALIPER
~PARAMETER INFORMATION
#MNEM.UNIT           DATA             DESCRIPTION OF MNEMONIC
#---------         -----------     ------------------------------
GL  .M        579.272              : gl           - GROUND LEVEL ELEVATION
EREF.M        582.778              : kb           - ELEVATION OF DEPTH REFERENCE
DATM.M        579.272              : datum        - DATUM ELEVATION
TDD .M        411.48               : tdd          - TOTAL DEPTH DRILLER
RUN .         ONE                  : Run          - RUN NUMBER
ENG .         BILL                 : Engineer     - RECORDING ENGINEER
WIT .         JIM                  : Witness      - WITNESSED BY
MUD .         GEL                  : Mud_type     - MUD TYPE
MATR.         SANDSTONE            : Logunit      - NEUTRON MATRIX
TMAX.C        23.3333              : BHT          - MAXIMUM RECORDED TEMPERATURE
BHTD.M        411.48               : BHTDEP       - MAXIMUM RECORDED TEMPERATURE
MATR.         1                    : LOGUNIT      - NEUTRON MATRIX
RMT .C        10                   : MDTP         - TEMPERATURE OF MUD
NEUT.         1                    : NEUTRON      - NEUTRON TYPE
RESI.         0                    : RESIST       - RESISTIVITY TYPE
RMC .OHMM     7.01                 : RMC          - RESISTIVITY OF MUD CAKE
RMF .OHMM     3.48                 : RMF          - RESISTIVITY OF MUD FILTRATE
SUFT.C        -15                  : SUFT         - SURFACE TEMPERATURE
~A  DEPTH     RESD     PHIN     PHID       GR      CAL
# ...
  225.400    7.264    0.472    0.212  122.370  211.553
  225.650    6.885    0.492    0.204  126.934  213.073
  225.900    6.536    0.515    0.204  130.452  214.373
  226.150    6.213    0.536    0.196  132.877  215.223
  226.400    5.677    0.544    0.181  134.577  216.377
  226.650    5.109    0.552    0.166  136.516  217.428
  226.900    4.558    0.565    0.167  138.875  218.276
  227.150    3.991    0.579    0.203  141.110  219.308
  227.400    3.904    0.562    0.184  141.381  220.197
  227.650    3.907    0.544    0.185  138.285  220.629
  227.900    3.933    0.529    0.177  135.907  220.768
  228.150    3.936    0.523    0.166  136.289  220.806
  228.400    3.889    0.528    0.168  138.471  220.843
  228.650    3.734    0.541    0.204  138.346  220.893
  228.900    3.518    0.564    0.210  137.622  220.921
  229.150    3.370    0.572    0.228  135.721  221.368
  229.400    3.318    0.569    0.240  132.564  221.813
  229.650    3.416    0.544    0.245  127.070  221.040
  229.900    3.696    0.503    0.247  121.216  219.149
  230.150    4.333    0.471    0.253  120.593  218.239
  230.400    5.434    0.457    0.243  123.362  221.658
  230.650    6.411    0.471    0.251  126.504  222.106
  230.900    7.051    0.475    0.232  128.386  221.941
  231.150    7.246    0.478    0.218  129.247  221.774
  231.400    7.038    0.483    0.218  129.268  221.605
  231.650    6.419    0.496    0.223  127.472  220.496
  231.900    5.826    0.500    0.228  121.999  218.847
  232.150    5.580    0.494    0.236  116.742  217.260
  232.400    5.616    0.491    0.245  107.170  214.754
  232.650    6.168    0.492    0.268   94.480  209.713
  232.900    7.394    0.496    0.298   82.209  204.066
  233.150    9.565    0.496    0.320   76.292  203.550
  233.400   14.081    0.493    0.350   76.564  204.858
  233.650   19.294    0.493    0.348   76.587  203.677
  233.900   24.608    0.500    0.351   76.426  206.151
  234.150   29.279    0.508    0.353   77.044  210.252
  234.400   33.083    0.512    0.354   78.264  214.047
  234.650   36.187    0.508    0.356   78.471  216.129
  234.900   37.636    0.496    0.355   76.997  218.287
  235.150   37.939    0.488    0.353   74.381  219.540
  235.400   37.418    0.486    0.355   72.302  221.407
  235.650   36.913    0.488    0.357   71.124  223.069
  235.900   36.946    0.489    0.355   70.967  224.119
  236.150   38.146    0.475    0.353   71.813  224.570
  236.400   39.968    0.467    0.351   72.331  224.605
  236.650   40.888    0.481    0.356   74.034  224.244
  236.900   38.479    0.485    0.352   73.396  223.871
  237.150   33.478    0.479    0.352   71.738  223.091
  237.400   28.562    0.475    0.356   70.141  221.908
  237.650   25.427    0.492    0.360   69.346  220.654
  237.900   24.317    0.515    0.362   68.872  220.266
  238.150   24.162    0.498    0.359   69.856  219.897
  238.400   24.403    0.494    0.347   70.478  219.221
  238.650   24.784    0.489    0.334   71.338  218.242
  238.900   24.942    0.478    0.323   72.675  217.162
  239.150   24.278    0.482    0.309   74.032  216.396
  239.400   23.572    0.522    0.321   72.308  216.439
  239.650   23.593    0.522    0.362   74.005  216.067
  239.900   24.137    0.513    0.374   74.446  216.309
  240.150   24.875    0.507    0.374   74.229  216.755
  240.400   25.767    0.508    0.373   74.192  217.198
  240.650   27.442    0.507    0.371   75.214  217.644
  240.900   28.982    0.505    0.371   74.240  217.675
  241.150   29.865    0.501    0.368   73.781  217.713
  241.400   30.276    0.503    0.362   73.684  217.756
  241.650   29.966    0.505    0.355   73.706  217.589
  241.900   29.021    0.505    0.350   73.547  217.314
  242.150   27.465    0.507    0.351   72.706  217.447
  242.400   25.874    0.518    0.348   71.972  217.905
  242.650   25.899    0.507    0.350   70.078  217.947
  242.900   26.492    0.497    0.350   68.540  217.066
  243.150   27.689    0.493    0.346   67.121  216.898
  243.400   29.737    0.492    0.339   65.582  218.462
  243.650   33.950    0.489    0.342   63.541  223.009
  243.900   37.846    0.485    0.341   62.814  227.278
  244.150   41.610    0.481    0.335   62.117  227.722
  244.400   44.105    0.477    0.341   63.038  229.378
  244.650   45.954    0.472    0.350   64.019  231.037
  244.900   47.624    0.468    0.355   64.400  231.785
  245.150   49.391    0.468    0.353   64.281  230.171
  245.400   50.971    0.483    0.355   63.550  225.976
  245.650   51.767    0.490    0.360   64.049  221.546
  245.900   50.873    0.499    0.360   64.551  216.205
  246.150   48.897    0.502    0.361   64.573  211.571
  246.400   45.773    0.497    0.363   63.816  208.051
  246.650   39.217    0.484    0.365   61.814  204.430
  246.900   31.870    0.483    0.362   60.088  202.346
  247.150   26.264    0.484    0.360   58.911  199.544
  247.400   22.872    0.477    0.357   57.912  197.654
  247.650   20.860    0.471    0.355   57.453  196.469
  247.900   19.704    0.471    0.354   57.473  195.690
  248.150   18.932    0.476    0.359   57.850  194.756
  248.400   18.527    0.475    0.364   59.624  193.946
  248.650   18.403    0.465    0.367   61.083  193.577
  248.900   18.385    0.459    0.366   62.184  193.516
  249.150   18.335    0.455    0.360   63.526  193.553
  249.400   18.152    0.455    0.355   65.226  193.587
  249.650   17.469    0.460    0.360   67.429  193.628
  249.900   16.091    0.481    0.359   69.951  193.663
  250.150   14.850    0.487    0.353   71.654  194.517
  250.400   13.866    0.492    0.346   72.453  195.974
  250.650   13.145    0.495    0.343   72.593  197.431
  250.900   12.642    0.496    0.346   72.255  198.180
  251.150   12.235    0.492    0.351   71.413  197.247
  251.400   11.970    0.487    0.352   70.689  196.432
  251.650   11.815    0.486    0.349   69.989  195.657
  251.900   11.650    0.487    0.343   69.110  194.578
  252.150   11.487    0.485    0.336   68.771  193.194
  252.400   11.350    0.480    0.332   69.274  191.911
  252.650   11.279    0.476    0.344   70.501  191.545
  252.900   11.290    0.479    0.359   70.519  191.580
  253.150   11.382    0.491    0.359   69.822  191.622
  253.400   11.415    0.496    0.356   68.047  191.660
  253.650   11.425    0.495    0.352   67.230  191.899
  253.900   11.433    0.493    0.349   67.670  192.339
  254.150   11.445    0.493    0.344   67.787  192.873
  254.400   11.456    0.490    0.337   67.058  193.343
  254.650   11.549    0.482    0.328   65.401  193.783
  254.900   11.772    0.476    0.334   63.385  193.921
  255.150   12.044    0.470    0.335   63.528  193.957
  255.400   12.301    0.468    0.326   64.810  193.991
  255.650   12.496    0.481    0.325   62.426  194.032
  255.900   12.508    0.495    0.346   61.198  194.071
  256.150   12.427    0.486    0.346   63.139  194.116
  256.400   12.211    0.482    0.344   63.279  194.150
  256.650   12.002    0.484    0.341   61.741  194.387
  256.900   11.816    0.490    0.336   58.884  194.931
  257.150   11.537    0.484    0.330   54.962  195.871
  257.400   11.372    0.480    0.331   53.239  196.337
  257.650   11.216    0.481    0.341   54.458  196.773
  257.900   11.124    0.479    0.350   55.681  196.913
  258.150   11.175    0.472    0.358   55.823  196.954
  258.400   11.372    0.463    0.363   55.124  196.994
  258.650   11.671    0.456    0.362   55.403  197.118
  258.900   11.859    0.453    0.363   56.672  197.573
  259.150   11.785    0.480    0.366   58.853  197.610
  259.400   11.582    0.497    0.362   61.574  197.654
  259.650   11.550    0.501    0.348   63.273  197.691
  259.900   11.710    0.498    0.329   63.412  197.723
  260.150   11.866    0.499    0.325   62.382  197.684
  260.400   12.146    0.502    0.341   61.905  197.300
  260.650   12.790    0.501    0.348   62.165  197.338
  260.900   13.113    0.500    0.346   62.065  197.375
  261.150   13.172    0.499    0.343   61.846  197.208
  261.400   13.064    0.496    0.344   61.629  196.938
  261.650   12.870    0.486    0.355   61.465  196.982
