~VERSION INFORMATION
 VERS.                 2.0:   CWLS LOG ASCII STANDARD -VERSION 2.0
 WRAP.                  NO:   ONE LINE PER DEPTH STEP
~WELL INFORMATION BLOCK
#MNEM.UNIT           DATA                    DESCRIPTION OF MNEMONIC
#---------    -------------------            -------------------------------
# Generated from Intellog Unique Number	CC_80_83/WELL/2424
NULL.         -999.25                        : NULL_VALUE
WELL.         NOVALTA INVERNESS              : Well_name    - WELL
LOC .         11-35-081-04W4                 : Location     - LOCATION          
UWI .         00/11-35-081-04W400            : Uwi          - UNIQUE WELL ID    
ENTR.         DW                             : Entered      - ENTERED BY        
SRVC.         SCHLUMBERGER                   : Scn          - SERVICE COMPANY   
DATE.         12 JAN 82                      : Date         - LOG DATE
STRT.M        100                            : top_depth    - START DEPTH       
STOP.M        265.001                        : bot_depth    - STOP DEPTH        
STEP.M        0.3                            : increment    - STEP LENGTH       
~CURVE INFORMATION BLOCK
#MNEM UNIT       ERCB CURVE CODE    CURVE DESCRIPTION
#-----------   ------------------   ----------------------------------
DEPT.M        00 001 00 00         : DEPTH        - DEPTH                       
DPHI.V/V      00 890 00 00         : PHID         - DENSITY POROSITY (LIMESTONE)
NPHI.V/V      00 330 00 00         : PHIN         - NEUTRON POROSITY (LIMESTONE)
GR  .API      00 310 00 00         : GR           - GAMMA RAY                   
ILD .OHMM     00 120 00 00         : RESD         - DEEP RESISTIVITY (DIL)      
~PARAMETER INFORMATION       
#MNEM.UNIT           DATA             DESCRIPTION OF MNEMONIC
#---------         -----------     ------------------------------
GL  .M        456.1                : gl           - GROUND LEVEL ELEVATION      
EREF.M        459.5                : kb           - ELEVATION OF DEPTH REFERENCE
DATM.M        459.5                : datum        - DATUM ELEVATION             
TDD .M        276                  : tdd          - TOTAL DEPTH DRILLER         
RUN .         ONE                  : Run          - RUN NUMBER                  
ENG .         BILL                 : Engineer     - RECORDING ENGINEER          
WIT .         JIM                  : Witness      - WITNESSED BY                
MUD .         GEL                  : Mud_type     - MUD TYPE                    
MATR.         LIMESTONE            : Logunit      - NEUTRON MATRIX              
TMAX.C        12.7                 : BHT          - MAXIMUM RECORDED TEMPERATURE
BHTD.M        277                  : BHTDEP       - MAXIMUM RECORDED TEMPERATURE
MATR.         1                    : LOGUNIT      - NEUTRON MATRIX              
RMT .C        25                   : MDTP         - TEMPERATURE OF MUD          
NEUT.         1                    : NEUTRON      - NEUTRON TYPE                
RESI.         0                    : RESIST       - RESISTIVITY TYPE            
RMC .OHMM     0.25                 : RMC          - RESISTIVITY OF MUD CAKE     
RMF .OHMM     0.25                 : RMF          - RESISTIVITY OF MUD FILTRATE 
SUFT.C        15                   : SUFT         - SURFACE TEMPERATURE         
~A  DEPTH     PHID     PHIN       GR     RESD
# ...
  204.401    0.245    0.358   37.614    1.598
  204.701    0.245    0.363   38.243    1.567
  205.001    0.239    0.357   45.097    1.565
  205.301    0.247    0.355   48.840    1.563
  205.601    0.274    0.358   40.135    1.532
  205.901    0.281    0.346   35.166    1.531
  206.201    0.262    0.335   33.305    1.530
  206.501    0.226    0.350   34.558    1.471
  206.801    0.121    0.322   32.077    1.442
  207.101    0.187    0.332   36.440    1.385
  207.401    0.244    0.421   54.496    1.358
  207.701    0.200    0.427   42.681    1.357
  208.001    0.161    0.401   44.555    1.330
  208.301    0.257    0.361   44.563    1.329
  208.601    0.238    0.387   42.704    1.405
  208.901    0.232    0.368   43.956    1.404
  209.201    0.237    0.377   41.475    1.404
  209.501    0.264    0.382   34.638    1.429
  209.801    0.233    0.376   32.157    1.427
  210.101    0.205    0.361   32.788    1.399
  210.401    0.208    0.342   34.038    1.397
  210.701    0.226    0.337   33.426    1.396
  211.001    0.238    0.337   32.187    1.369
  211.301    0.207    0.341   31.575    1.367
  211.601    0.206    0.354   32.825    1.340
  211.901    0.224    0.365   32.834    1.339
  212.201    0.229    0.372   31.599    1.312
  212.501    0.244    0.355   32.851    1.311
  212.801    0.244    0.364   34.725    1.285
  213.101    0.259    0.377   33.490    1.284
  213.401    0.282    0.377   31.630    1.282
  213.701    0.277    0.371   31.016    1.282
  214.001    0.185    0.355   31.023    1.256
  214.301    0.144    0.330   35.386    1.231
  214.601    0.236    0.328   40.995    1.206
  214.901    0.262    0.344   39.136    1.205
  215.201    0.167    0.360   34.788    1.204
  215.501    0.230    0.371   33.551    1.180
  215.801    0.254    0.350   34.182    1.179
  216.101    0.215    0.340   29.833    1.178
  216.401    0.206    0.353   37.310    1.177
  216.701    0.223    0.385   31.096    1.154
  217.001    0.235    0.355   31.725    1.152
  217.301    0.236    0.346   33.598    1.130
  217.601    0.228    0.350   31.119    1.107
  217.901    0.248    0.338   31.125    1.106
  218.201    0.274    0.343   36.734    1.084
  218.501    0.253    0.365   36.121    1.083
  218.801    0.253    0.368   33.639    1.082
  219.101    0.225    0.359   35.514    1.060
  219.401    0.222    0.356   33.656    1.059
  219.701    0.225    0.351   31.797    1.059
  220.001    0.191    0.349   33.047    1.057
  220.301    0.225    0.349   34.301    1.056
  220.601    0.246    0.349   33.063    1.076
  220.901    0.224    0.353   36.184    1.075
  221.201    0.230    0.360   31.836    1.074
  221.501    0.246    0.351   36.201    1.053
  221.801    0.247    0.365   38.696    1.051
  222.101    0.139    0.375   36.838    1.051
  222.401    0.132    0.361   38.712    1.155
  222.701    0.194    0.365   49.300    1.319
  223.001    0.183    0.379   66.111    1.477
  223.301    0.155    0.407   64.874    1.534
  223.601    0.216    0.401   48.079    1.446
  223.901    0.283    0.381   36.885    1.391
  224.201    0.260    0.378   34.404    1.239
  224.501    0.237    0.374   38.145    1.147
  224.801    0.292    0.374   41.887    1.103
  225.101    0.281    0.379   37.539    1.080
  225.401    0.229    0.368   32.570    1.079
  225.701    0.203    0.359   34.444    1.078
  226.001    0.188    0.384   37.564    1.098
  226.301    0.134    0.390   38.194    1.097
  226.601    0.193    0.374   36.956    1.096
  226.901    0.241    0.362   37.587    1.075
  227.201    0.200    0.365   35.730    1.053
  227.501    0.165    0.372   34.492    1.033
  227.801    0.213    0.379   34.500    1.011
  228.101    0.190    0.373   36.375    1.010
  228.401    0.153    0.347   39.494    1.010
  228.701    0.129    0.336   41.990    1.028
  229.001    0.179    0.341   43.867    1.027
  229.301    0.225    0.363   42.630    1.026
  229.601    0.209    0.377   38.903    1.006
  229.901    0.196    0.390   28.953    0.986
  230.201    0.286    0.426   29.586    0.985
  230.501    0.297    0.420   30.837    0.965
  230.801    0.307    0.401   28.979    0.946
  231.101    0.270    0.369   27.743    0.928
  231.401    0.242    0.358   29.615    0.927
  231.701    0.224    0.388   33.359    0.908
  232.001    0.251    0.372   33.366    0.907
  232.301    0.234    0.357   31.506    0.906
  232.601    0.175    0.387   30.271    0.923
  232.901    0.239    0.394   35.257    0.977
  233.201    0.229    0.387   51.444    1.227
  233.501    0.206    0.424   77.590    1.797
  233.801    0.173    0.398   66.398    2.346
  234.101    0.158    0.317   60.181    2.732
  234.401    0.249    0.338   63.923    2.890
  234.701    0.210    0.447   87.579    2.999
  235.001    0.174    0.423   96.300    3.173
  235.301    0.120    0.403   91.329    3.294
  235.601    0.113    0.390   83.248    3.049
  235.901    0.174    0.486   67.698    2.286
  236.201    0.188    0.461   48.413    1.923
  236.501    0.245    0.374   30.995    1.814
  236.801    0.240    0.295   27.893    1.744
  237.101    0.224    0.290   29.766    1.677
  237.401    0.258    0.342   38.490    1.644
  237.701    0.259    0.362   39.117    1.551
  238.001    0.228    0.342   37.258    1.520
  238.301    0.222    0.326   41.000    1.548
  238.601    0.212    0.345   49.100    1.638
  238.901    0.227    0.368   52.841    1.766
  239.201    0.184    0.394   55.962    1.799
  239.501    0.164    0.407   53.479    1.697
  239.801    0.202    0.348   36.061    1.540
  240.101    0.205    0.350   37.936    1.481
  240.401    0.227    0.359   39.188    1.452
  240.701    0.245    0.351   40.442    1.451
  241.001    0.197    0.341   46.051    1.449
  241.301    0.182    0.338   42.947    1.593
  241.601    0.234    0.347   41.087    1.685
  241.901    0.245    0.343   41.718    1.782
  242.201    0.207    0.324   52.928    1.816
  242.501    0.156    0.386   57.292    1.780
  242.801    0.224    0.384   54.811    1.711
  243.101    0.251    0.371   46.728    1.646
  243.401    0.266    0.346   34.911    1.466
  243.701    0.265    0.327   33.676    1.382
  244.001    0.234    0.325   38.039    1.355
  244.301    0.227    0.340   43.648    1.354
  244.601    0.235    0.345   46.768    1.638
  244.901    0.203    0.343   49.888    1.766
  245.201    0.196    0.345   58.608    1.868
  245.501    0.266    0.350   62.350    1.763
  245.801    0.240    0.386   43.065    1.347
  246.101    0.193    0.399   32.494    1.224
  246.401    0.217    0.399   35.614    1.133
  246.701    0.269    0.376   43.090    1.153
  247.001    0.262    0.366   54.922    1.220
  247.301    0.238    0.391   66.754    1.504
  247.602    0.245    0.396   69.876    1.685
  247.902    0.231    0.392   70.504    1.749
  248.202    0.151    0.409   68.023    1.748
  248.502    0.191    0.392   54.339    1.648
  248.802    0.223    0.376   40.656    1.585
  249.102    0.233    0.352   45.020    1.677
  249.402    0.209    0.326   60.586    1.953
  249.702    0.183    0.496  111.625    2.317
  250.002    0.167    0.520  110.389    2.912
  250.302    0.178    0.454  101.685    3.022
  250.602    0.178    0.423   94.224    2.962
  250.902    0.151    0.431   89.253    2.795
  251.202    0.140    0.457   89.883    2.489
  251.502    0.201    0.438   87.403    2.304
  251.802    0.223    0.411   78.697    2.215
  252.102    0.222    0.375   73.106    2.213
  252.402    0.237    0.388   71.869    2.210
  252.702    0.226    0.400   73.120    2.209
  253.002    0.200    0.402   90.553    2.475
  253.302    0.197    0.400   87.450    2.668
  253.602    0.193    0.383   76.256    2.718
  253.902    0.188    0.366   75.021    2.715
  254.202    0.119    0.356   71.916    2.562
  254.502    0.120    0.364   62.589    2.196
  254.802    0.208    0.390   53.884    1.994
  255.102    0.236    0.398   57.626    1.954
  255.402    0.234    0.376   76.925    1.915
  255.702    0.212    0.382   70.089    1.842
  256.002    0.200    0.416   38.979    1.520
  256.302    0.241    0.436   26.541    1.303
