~VERSION INFORMATION
 VERS.                 2.0:   CWLS LOG ASCII STANDARD -VERSION 2.0
 WRAP.                  NO:   ONE LINE PER DEPTH STEP
~WELL INFORMATION BLOCK
#MNEM.UNIT           DATA                    DESCRIPTION OF MNEMONIC
#---------    -------------------            -------------------------------
# Generated from Intellog Unique Number	CW_76_78/WELL/2581
WELL.         10-34-078-23W4                 : Well_name    - WELL
LOC .         00/10-34-078-23W4/0            : Location     - LOCATION
UWI .         00/10-34-078-23W4/0            : Uwi          - UNIQUE WELL ID
ENTR.         MAX                            : Entered      - ENTERED BY
SRVC.         SCHLUMBERGER                   : Scn          - SERVICE COMPANY
STRT.M        240.792                        : top_depth    - START DEPTH
STOP.M        488.792                        : bot_depth    - STOP DEPTH
STEP.M        0.25                           : increment    - STEP LENGTH
 NULL. -999.2500:NULL Value
~CURVE INFORMATION BLOCK
#MNEM UNIT       ERCB CURVE CODE    CURVE DESCRIPTION
#-----------   ------------------   ----------------------------------
DEPT.M        00 001 00 00         : DEPTH        - DEPTH
ILD .OHMM     00 120 00 00         : RESD         - DEEP RESISTIVITY (DIL)
NPHI.V/V      00 330 00 00         : PHIN         - NEUTRON POROSITY (SANDSTONE)
DPHI.V/V      00 890 00 00         : PHID         - DENSITY POROSITY (SANDSTONE)
CALI.MM       00 280 01 00         : CAL          - CALIPER
GR  .API      00 310 00 00         : GR           - GAMMA RAY
~PARAMETER INFORMATION
#MNEM.UNIT           DATA             DESCRIPTION OF MNEMONIC
#---------         -----------     ------------------------------
GL  .M        571.683              : gl           - GROUND LEVEL ELEVATION
EREF.M        574.731              : kb           - ELEVATION OF DEPTH REFERENCE
DATM.M        574.731              : datum        - DATUM ELEVATION
TDD .M        494.995              : tdd          - TOTAL DEPTH DRILLER
RUN .         ONE                  : Run          - RUN NUMBER
ENG .         BILL                 : Engineer     - RECORDING ENGINEER
WIT .         JIM                  : Witness      - WITNESSED BY
MUD .         GEL                  : Mud_type     - MUD TYPE
MATR.         SANDSTONE            : Logunit      - NEUTRON MATRIX
TMAX.F        79                   : BHT          - MAXIMUM RECORDED TEMPERATURE
BHTD.F        1624                 : BHTDEP       - MAXIMUM RECORDED TEMPERATURE
RMT .F        69                   : MDTP         - TEMPERATURE OF MUD
MUDD.LB/G     9.9                  : MWT          - MUD DENSITY
NEUT.         1                    : NEUTRON      - NEUTRON TYPE
RESI.         0                    : RESIST       - RESISTIVITY TYPE
RM  .OHMM     3.5                  : RM           - RESISTIVITY OF MUD
RMC .OHMM     4.1                  : RMC          - RESISTIVITY OF MUD CAKE
RMF .OHMM     2.85                 : RMF          - RESISTIVITY OF MUD FILTRATE
SUFT.F        25                   : SUFT         - SURFACE TEMPERATURE
~A  DEPTH     RESD     PHIN     PHID      CAL       GR
# ...
  313.792   19.420    0.484    0.357  196.633   56.413
  314.042   19.354    0.493    0.345  194.630   54.938
  314.292   19.282    0.490    0.338  193.625   54.049
  314.542   19.239    0.491    0.335  192.622   54.926
  314.792   19.138    0.475    0.332  192.607   55.510
  315.042   19.102    0.477    0.326  192.104   56.093
  315.292   19.052    0.478    0.331  192.594   55.793
  315.542   19.010    0.484    0.339  193.582   54.318
  315.792   18.939    0.482    0.333  194.568   51.960
  316.042   18.882    0.486    0.332  196.054   51.367
  316.292   18.818    0.476    0.326  196.544   51.950
  316.542   18.769    0.490    0.318  198.029   52.239
  316.792   18.885    0.506    0.326  200.012   52.822
  317.042   18.828    0.511    0.329  200.999   55.169
  317.292   18.944    0.494    0.333  199.995   59.575
  317.542   19.054    0.477    0.338  198.493   60.746
  317.792   19.340    0.476    0.338  195.992   60.740
  318.042   19.631    0.479    0.334  193.993   61.030
  318.292   19.766    0.476    0.325  191.993   63.377
  318.542   20.425    0.475    0.329  191.993   65.431
  318.792   20.756    0.473    0.334  191.477   62.778
  319.042   21.456    0.483    0.333  191.965   61.009
  319.292   22.171    0.483    0.325  193.946   58.945
  319.542   22.325    0.478    0.330  194.935   57.764
  319.792   22.454    0.470    0.328  193.931   57.464
  320.042   22.395    0.485    0.330  192.926   57.752
  320.292   21.511    0.488    0.329  192.419   60.394
  320.542   20.677    0.472    0.318  192.419   60.684
  320.792   19.875    0.463    0.316  191.900   61.854
  321.042   19.456    0.479    0.334  191.396   63.026
  321.292   19.215    0.501    0.341  190.889   62.138
  321.542   21.191    0.501    0.337  190.383   61.251
  321.792   24.678    0.485    0.344  190.376   60.952
  322.042   28.488    0.472    0.346  191.859   60.652
  322.292   33.481    0.473    0.330  192.847   58.882
  322.542   39.005    0.437    0.308  194.831   55.349
  322.792   46.244    0.377    0.180  196.813   52.992
  323.042   53.404    0.229    0.084  197.302   53.867
  323.292   62.764    0.173    0.057  197.791   54.451
  323.542   66.102    0.153    0.046  197.283   55.328
  323.792   64.711    0.141    0.039  197.274   57.381
  324.042   44.325    0.144    0.026  197.267   60.023
  324.292   26.222    0.190    0.022  197.258   63.547
  324.542   22.170    0.259    0.023  196.751   67.365
  324.792   18.405    0.315    0.153  196.245   72.652
  325.042   15.848    0.371    0.183  194.741   78.235
  325.292   14.149    0.393    0.200  193.239   83.229
  325.542   13.233    0.441    0.219  191.737   86.165
  325.792   12.836    0.485    0.260  190.732   84.100
  326.042   12.793    0.509    0.266  190.226   81.742
  326.292   13.230    0.507    0.270  189.716   79.973
  326.542   14.062    0.498    0.279  189.708   79.674
  326.792   13.765    0.493    0.285  189.708   82.019
  327.042   12.992    0.487    0.289  189.688   84.074
  327.292   11.926    0.476    0.295  190.181   85.834
  327.542   11.256    0.468    0.284  190.181   87.887
  327.792   10.808    0.491    0.274  190.658   91.411
  328.042   10.588    0.507    0.265  191.648   94.052
  328.292   10.556    0.511    0.243  192.137   91.988
  328.542   10.617    0.489    0.235  192.137   90.512
  328.792   10.683    0.490    0.251  192.119   89.918
  329.042   10.749    0.498    0.251  192.111   89.621
  329.292   10.910    0.495    0.238  192.102   91.085
  329.542   10.973    0.492    0.222  192.590   94.314
  329.792   10.973    0.489    0.214  192.590   94.603
  330.042   10.904    0.476    0.217  193.565   94.304
  330.292   10.979    0.464    0.223  194.557   94.594
  330.542   10.934    0.460    0.227  195.544   96.058
  330.792   10.905    0.458    0.235  196.530   98.112
  331.042   10.774    0.502    0.226  197.019  101.047
  331.292   10.455    0.497    0.224  197.510  103.689
  331.542    9.857    0.487    0.217  197.998  101.625
  331.792    9.561    0.515    0.214  198.488  100.149
  332.042    9.450    0.525    0.220  198.478   99.260
  332.292    9.421    0.502    0.224  197.971   98.374
  332.542    9.739    0.496    0.235  196.967   97.782
  332.792   10.261    0.501    0.237  196.957   95.423
  333.042   10.906    0.523    0.237  196.950   93.066
  333.292   11.478    0.512    0.237  196.443   90.707
  333.542   11.553    0.481    0.239  196.443   89.232
  333.792   11.553    0.460    0.226  194.928   88.933
  334.042   11.358    0.421    0.193  192.931   92.751
  334.292   11.140    0.504    0.204  191.426   96.862
  334.542   10.502    0.506    0.263  190.424   97.740
  334.792   10.191    0.493    0.257  190.424  100.087
  335.042    9.793    0.501    0.266  189.407   98.906
  335.292    9.587    0.495    0.274  189.400   96.548
  335.542    9.474    0.498    0.246  189.393   92.426
  335.792    9.353    0.495    0.254  189.378   90.361
  336.042    9.070    0.492    0.255  189.375   92.414
  336.292    8.967    0.497    0.240  189.864   93.880
  336.542    8.692    0.492    0.233  189.855   95.933
  336.792    8.428    0.500    0.249  190.343   94.459
  337.042    8.330    0.495    0.254  190.334   92.983
  337.292    8.302    0.497    0.258  190.825   92.977
  337.542    8.507    0.492    0.257  190.825   90.619
  337.792    9.209    0.485    0.225  190.804   89.438
  338.042    9.881    0.518    0.215  191.297   87.374
  338.292   10.790    0.543    0.250  191.783   85.016
  338.542   11.578    0.530    0.253  191.783   80.894
  338.792   12.533    0.533    0.253  191.765   77.948
  339.042   13.080    0.498    0.230  191.758   77.649
  339.292   12.568    0.436    0.203  191.749   78.232
  339.542   11.862    0.391    0.163  191.740   79.403
  339.792   11.093    0.355    0.148  192.230   81.163
  340.042   10.183    0.412    0.133  193.715   85.275
  340.292    9.437    0.460    0.177  195.200   92.032
  340.542    8.739    0.507    0.214  196.186   95.556
  340.792    8.170    0.516    0.250  196.677   98.786
  341.042    7.998    0.502    0.232  197.165  101.134
  341.292    7.756    0.516    0.223  197.655  102.599
  341.542    7.730    0.513    0.232  198.145  103.182
  341.792    7.712    0.511    0.231  198.134  102.882
  342.042    7.760    0.504    0.244  196.632  100.230
  342.292    7.873    0.491    0.263  194.632   91.991
  342.542    7.997    0.486    0.265  191.635   88.751
  342.792    8.192    0.482    0.266  188.141   85.806
  343.042    8.395    0.490    0.267  186.637   85.798
  343.292    8.605    0.494    0.267  186.130   84.619
  343.542    9.056    0.493    0.277  186.121   81.085
  343.792    9.365    0.499    0.286  186.121   77.256
  344.042    9.510    0.499    0.293  186.601   76.957
  344.292    9.660    0.502    0.282  187.590   77.834
  344.542    9.808    0.511    0.280  187.581   75.476
  344.792    9.869    0.501    0.275  187.566   74.294
  345.042    9.839    0.501    0.268  188.062   75.760
  345.292    9.799    0.494    0.267  188.062   77.813
  345.542    9.799    0.488    0.280  188.039   78.984
  345.792    9.737    0.488    0.286  187.538   77.214
  346.042    9.535    0.499    0.285  187.538   76.916
  346.292    9.331    0.502    0.284  187.518   82.792
  346.542    9.142    0.494    0.282  187.012   88.079
  346.792    8.781    0.492    0.272  187.012   89.839
  347.042    8.596    0.492    0.281  186.991   90.422
  347.292    8.495    0.495    0.284  186.986   89.827
  347.542    8.623    0.499    0.269  186.986   88.647
  347.792    9.078    0.525    0.265  187.464   88.642
  348.042    9.471    0.519    0.264  188.453   85.990
  348.292    9.801    0.505    0.283  188.437   85.690
  348.542   10.132    0.497    0.296  189.429   86.567
  348.792   10.382    0.506    0.283  189.423   85.092
  349.042   10.450    0.518    0.260  189.911   84.793
  349.292   10.415    0.484    0.237  189.905   89.199
  349.542   10.384    0.463    0.232  189.397   93.310
  349.792   10.448    0.464    0.268  189.389   91.246
  350.042   10.899    0.468    0.236  189.380   88.007
