~VERSION INFORMATION
 VERS.                 2.0:   CWLS LOG ASCII STANDARD -VERSION 2.0
 WRAP.                  NO:   ONE LINE PER DEPTH STEP
~WELL INFORMATION BLOCK
#MNEM.UNIT           DATA                    DESCRIPTION OF MNEMONIC
#---------    -------------------            -------------------------------
# Generated from Intellog Unique Number	CN_91_93/WELL/3241
WELL.         PARAMOUNT RESOURCES LTD.       : Well_name    - WELL
LOC .         00/10-18-092-20W4/0            : Location     - LOCATION
UWI .         00/10-18-092-20W4/0            : Uwi          - UNIQUE WELL ID
ENTR.         JOETTE                         : Entered      - ENTERED BY
SRVC.         COMPUTALOG                     : Scn          - SERVICE COMPANY
DATE.         04/14/92                       : Date         - LOG DATE
STRT.M        90                             : top_depth    - START DEPTH
STOP.M        230                            : bot_depth    - STOP DEPTH
STEP.M        0.25                           : increment    - STEP LENGTH
 NULL. -999.2500:NULL Value
~CURVE INFORMATION BLOCK
#MNEM UNIT       ERCB CURVE CODE    CURVE DESCRIPTION
#-----------   ------------------   ----------------------------------
DEPT.M        00 001 00 00         : DEPTH        - DEPTH
CALI.MM       00 280 01 00         : CAL          - CALIPER
GR  .API      00 310 00 00         : GR           - GAMMA RAY
NPHI.V/V      00 330 00 00         : PHIN         - NEUTRON POROSITY (SANDSTONE)
DPHI.V/V      00 890 00 00         : PHID         - DENSITY POROSITY (SANDSTONE)
ILD .OHMM     00 120 00 00         : RESD         - DEEP RESISTIVITY (DIL)
~PARAMETER INFORMATION
#MNEM.UNIT           DATA             DESCRIPTION OF MNEMONIC
#---------         -----------     ------------------------------
GL  .M        533.15               : gl           - GROUND LEVEL ELEVATION
EREF.M        536.95               : kb           - ELEVATION OF DEPTH REFERENCE
DATM.M        536.95               : datum        - DATUM ELEVATION
TDD .M        230.7                : tdd          - TOTAL DEPTH DRILLER
RUN .         ONE                  : Run          - RUN NUMBER
ENG .         BILL                 : Engineer     - RECORDING ENGINEER
WIT .         JIM                  : Witness      - WITNESSED BY
MUD .         GEL                  : Mud_type     - MUD TYPE
MATR.         SANDSTONE            : Logunit      - NEUTRON MATRIX
TMAX.C        119                  : BHT          - MAXIMUM RECORDED TEMPERATURE
BHTD.M        230.7                : BHTDEP       - MAXIMUM RECORDED TEMPERATURE
RMT .C        12                   : MDTP         - TEMPERATURE OF MUD
MUDD.KG/M     1070                 : MWT          - MUD DENSITY
NEUT.         1                    : NEUTRON      - NEUTRON TYPE
RESI.         0                    : RESIST       - RESISTIVITY TYPE
RM  .OHMM     3                    : RM           - RESISTIVITY OF MUD
RMC .OHMM     3                    : RMC          - RESISTIVITY OF MUD CAKE
RMF .OHMM     3                    : RMF          - RESISTIVITY OF MUD FILTRATE
SUFT.C        4                    : SUFT         - SURFACE TEMPERATURE
~A  DEPTH      CAL       GR     PHIN     PHID     RESD
# ...
  126.500  226.616   94.707    0.408    0.162    6.925
  126.750  227.707   97.761    0.390    0.121    7.339
  127.000  227.741   92.380    0.434    0.126    7.484
  127.250  227.828   91.819    0.445    0.173    7.486
  127.500  228.918  100.295    0.443    0.216    7.490
  127.750  227.949  106.361    0.436    0.208    7.351
  128.000  227.049  102.186    0.431    0.199    7.353
  128.250  226.096   96.815    0.432    0.209    7.217
  128.500  225.161   93.845    0.469    0.215    7.082
  128.750  225.248   98.103    0.528    0.210    6.821
  129.000  225.283  100.544    0.513    0.213    6.693
  129.250  223.344  101.188    0.496    0.214    6.569
  129.500  225.421   96.410    0.482    0.206    6.571
  129.750  230.511   89.825    0.415    0.166    6.964
  130.000  231.619   86.262    0.398    0.129    7.237
  130.250  231.688   85.088    0.368    0.159    7.668
  130.500  230.736   84.527    0.386    0.172    8.125
  130.750  226.806   88.183    0.409    0.208    8.127
  131.000  224.867   93.647    0.446    0.227    7.978
  131.250  222.911   96.711    0.472    0.229    7.828
  131.500  221.976   94.935    0.441    0.233    7.831
  131.750  222.028   93.169    0.471    0.226    7.988
  132.000  223.136   93.211    0.485    0.160    8.144
  132.250  223.187   93.263    0.436    0.093    8.466
  132.500  223.257   90.884    0.389    0.177    8.633
  132.750  223.326   86.106    0.404    0.204    8.312
  133.000  224.416   86.147    0.426    0.224    7.556
  133.250  227.498   94.042    0.478    0.233    6.611
  133.500  228.554   98.892    0.557    0.241    5.784
  133.750  228.658  104.356    0.536    0.225    5.260
  134.000  227.706  106.807    0.467    0.220    5.261
  134.250  225.767   98.415    0.437    0.226    5.164
  134.500  223.810   97.864    0.402    0.235    5.265
  134.750  222.876  103.317    0.429    0.237    5.268
  135.000  222.945  109.394    0.400    0.232    5.690
  135.250  222.027  105.208    0.326    0.192    5.913
  135.500  222.096   95.610    0.321    0.149    6.267
  135.750  222.183   90.832    0.367    0.067    6.513
  136.000  222.218   92.078    0.515    0.096    6.270
  136.250  223.308   96.960    0.546    0.177    5.701
  136.500  224.364   99.391    0.567    0.220    5.283
  136.750  225.455  103.047    0.600    0.236    5.186
  137.000  227.532  107.918    0.568    0.205    5.187
  137.250  228.605  111.575    0.545    0.175    5.392
  137.500  229.679  109.809    0.539    0.140    5.936
  137.750  229.748  105.633    0.416    0.225    6.052
  138.000  229.800  106.288    0.408    0.222    6.664
  138.250  229.886  103.909    0.443    0.130    6.794
  138.500  229.956   98.528    0.416    0.133    6.797
  138.750  230.008   95.547    0.407    0.168    6.299
  139.000  229.090   96.191    0.398    0.209    6.064
  139.250  229.159  102.278    0.415    0.199    5.729
  139.500  229.246  102.320    0.421    0.191    5.622
  139.750  229.298  102.964    0.503    0.198    5.625
  140.000  229.401  106.620    0.451    0.208    5.735
  140.250  229.453  109.674    0.421    0.199    5.962
  140.500  230.527  105.488    0.451    0.201    6.198
  140.750  231.583  107.337    0.452    0.210    6.319
  141.000  232.673  110.993    0.434    0.231    6.568
  141.250  231.738  107.430    0.452    0.224    6.698
  141.500  230.803  103.846    0.511    0.162    6.702
  141.750  229.869  103.285    0.527    0.133    6.704
  142.000  228.916  103.337    0.518    0.095    6.969
  142.250  227.982  102.776    0.457    0.096    7.243
  142.500  227.047   99.795    0.392    0.125    7.822
  142.750  227.151   95.620    0.388    0.137    8.288
  143.000  227.185   90.852    0.422    0.173    8.617
  143.250  226.285   87.268    0.430    0.205    8.618
  143.500  226.337   83.093    0.438    0.135    8.298
  143.750  226.423   87.954    0.428    0.080    7.690
  144.000  226.458   90.405    0.428    0.161    6.991
  144.250  227.531   88.037    0.394    0.218    6.731
  144.500  227.618   88.681    0.381    0.206    6.482
  144.750  228.691   94.155    0.459    0.217    6.483
  145.000  228.760   96.596    0.488    0.230    6.363
  145.250  229.834  100.252    0.502    0.212    6.366
  145.500  229.920  106.941    0.477    0.213    6.369
  145.750  230.959  103.358    0.439    0.212    6.016
  146.000  231.045  105.207    0.474    0.199    5.792
  146.250  233.140  109.465    0.455    0.125    5.685
  146.500  234.213  113.122    0.451    0.091    6.023
  146.750  235.287  112.561    0.418    0.170    6.630
  147.000  231.339  105.975    0.456    0.205    7.299
  147.250  226.371   98.185    0.481    0.232    8.036
  147.500  224.415   95.214    0.504    0.234    8.354
  147.750  223.497   96.461    0.455    0.199    8.356
  148.000  222.562   90.467    0.433    0.147    8.202
  148.250  222.666   86.292    0.397    0.068    7.896
  148.500  222.718   84.526    0.380    0.007    7.459
  148.750  222.787   83.965    0.359    0.035    7.181
  149.000  222.856   84.017    0.333    0.070    6.783
  149.250  224.934   85.866    0.419    0.110    6.408
  149.500  225.990   90.124    0.426    0.120    6.169
  149.750  227.080   96.191    0.431    0.163    5.940
  150.000  227.132  104.666    0.406    0.185    5.830
  150.250  228.240  110.732    0.393    0.179    5.832
  150.500  228.275  113.184    0.405    0.152    5.947
  150.750  227.357  114.430    0.441    0.155    6.064
  151.000  227.444  117.505    0.486    0.180    6.303
  151.250  226.474  114.524    0.524    0.184    6.552
  151.500  224.553  110.950    0.539    0.175    6.556
  151.750  224.605  111.594    0.505    0.131    6.434
  152.000  224.691  116.456    0.400    0.118    6.194
  152.250  224.760  120.112    0.399    0.210    5.631
  152.500  224.812  112.924    0.490    0.236    4.927
  152.750  224.881  114.773    0.539    0.251    5.220
  153.000  224.968  111.210    0.529    0.220    6.087
  153.250  225.037  110.639    0.486    0.208    6.962
  153.500  226.110  110.078    0.430    0.252    8.598
  153.750  226.197  101.072    0.416    0.228   10.217
  154.000  226.232   89.667    0.396    0.208   12.377
  154.250  227.339   84.889    0.378    0.205   13.116
  154.500  227.374   86.738    0.348    0.237   13.121
  154.750  227.461   86.177    0.329    0.268   12.879
  155.000  227.513   83.206    0.340    0.256   12.881
  155.250  226.595   81.451    0.368    0.190   13.389
  155.500  225.677   79.685    0.379    0.126   15.026
  155.750  224.743   77.919    0.351    0.080   16.863
  156.000  223.790   73.131    0.316    0.120   22.052
  156.250  223.860   65.340    0.291    0.134   22.485
  156.500  222.925   58.755    0.272    0.125   22.928
  156.750  222.024   59.399    0.287    0.158   23.383
  157.000  222.059   65.465    0.348    0.184   19.691
  157.250  224.171   74.543    0.418    0.196   14.501
  157.500  225.210   84.224    0.426    0.203   11.753
  157.750  228.309   96.927    0.431    0.212    9.345
  158.000  230.369  103.596    0.403    0.205    9.172
  158.250  232.481  103.035    0.382    0.197    9.717
  158.500  232.515   96.460    0.377    0.210   10.103
  158.750  229.572   92.876    0.404    0.210    9.914
  159.000  225.642   94.725    0.445    0.206    9.013
  159.250  224.707  100.189    0.515    0.200    8.353
  159.500  227.789  103.253    0.516    0.196    9.020
  159.750  230.870  100.282    0.438    0.128   11.139
  160.000  231.926   93.686    0.341    0.140   12.741
  160.250  230.005   81.679    0.312    0.127   14.855
  160.500  228.049   72.071    0.311    0.226   16.671
  160.750  225.123   65.485    0.339    0.234   16.998
  161.000  224.188   67.937    0.390    0.250   16.686
  161.250  223.270   73.421    0.439    0.191   16.064
  161.500  223.322   75.270    0.472    0.248   14.606
  161.750  223.374   75.301    0.503    0.279   14.060
  162.000  223.478   74.138    0.429    0.223   14.066
  162.250  223.530   72.974    0.364    0.199   14.622
  162.500  223.582   73.618    0.360    0.249   15.793
  162.750  223.668   71.260    0.375    0.262   15.796
