~VERSION INFORMATION
 VERS.                 2.0:   CWLS LOG ASCII STANDARD -VERSION 2.0
 WRAP.                  NO:   ONE LINE PER DEPTH STEP
~WELL INFORMATION BLOCK
#MNEM.UNIT           DATA                    DESCRIPTION OF MNEMONIC
#---------    -------------------            -------------------------------
# Generated from Intellog Unique Number	CS_69_70/WELL/904
NULL.         -999.25                        : NULL_VALUE
WELL.         MAYNARD EXPLORATION            : Well_name    - WELL              
LOC .         00/16-33-070-15W4/0            : Location     - LOCATION          
UWI .         00/16-33-070-15W4/0            : Uwi          - UNIQUE WELL ID    
ENTR.         SP                             : Entered      - ENTERED BY        
SRVC.         SCHLUMBERGER                   : Scn          - SERVICE COMPANY   
STRT.M        265                            : top_depth    - START DEPTH       
STOP.M        476                            : bot_depth    - STOP DEPTH        
STEP.M        0.25                           : increment    - STEP LENGTH       
~CURVE INFORMATION BLOCK
#MNEM UNIT       ERCB CURVE CODE    CURVE DESCRIPTION
#-----------   ------------------   ----------------------------------
DEPT.M        00 001 00 00         : DEPTH        - DEPTH                       
ILD .OHMM     00 120 00 00         : RESD         - DEEP RESISTIVITY (DIL)      
DPHI.V/V      00 890 00 00         : PHID         - DENSITY POROSITY (LIMESTONE)
NPHI.V/V      00 330 00 00         : PHIN         - NEUTRON POROSITY (LIMESTONE)
GR  .API      00 310 00 00         : GR           - GAMMA RAY                   
~PARAMETER INFORMATION       
#MNEM.UNIT           DATA             DESCRIPTION OF MNEMONIC
#---------         -----------     ------------------------------
GL  .M        570.01               : gl           - GROUND LEVEL ELEVATION      
EREF.M        573.21               : kb           - ELEVATION OF DEPTH REFERENCE
DATM.M        570.01               : datum        - DATUM ELEVATION             
TDD .M        486                  : tdd          - TOTAL DEPTH DRILLER         
RUN .         ONE                  : Run          - RUN NUMBER                  
ENG .         BILL                 : Engineer     - RECORDING ENGINEER          
WIT .         JIM                  : Witness      - WITNESSED BY                
MUD .         GEL                  : Mud_type     - MUD TYPE                    
MATR.         LIMESTONE            : Logunit      - NEUTRON MATRIX              
TMAX.C        21                   : BHT          - MAXIMUM RECORDED TEMPERATURE
BHTD.M        486                  : BHTDEP       - MAXIMUM RECORDED TEMPERATURE
MATR.         1                    : LOGUNIT      - NEUTRON MATRIX              
RMT .C        25                   : MDTP         - TEMPERATURE OF MUD          
NEUT.         1                    : NEUTRON      - NEUTRON TYPE                
RESI.         0                    : RESIST       - RESISTIVITY TYPE            
RMC .OHMM     0.25                 : RMC          - RESISTIVITY OF MUD CAKE     
RMF .OHMM     0.25                 : RMF          - RESISTIVITY OF MUD FILTRATE 
SUFT.C        15                   : SUFT         - SURFACE TEMPERATURE         
~A  DEPTH     RESD     PHID     PHIN       GR
# ...
  395.500    3.272    0.241    0.430   90.403
  395.750    3.297    0.249    0.437   93.199
  396.000    3.331    0.250    0.433   94.353
  396.250    3.357    0.239    0.425   90.340
  396.500    3.358    0.230    0.419   85.049
  396.750    3.367    0.227    0.414   81.948
  397.000    3.361    0.237    0.407   84.987
  397.250    3.361    0.243    0.402   83.831
  397.500    3.379    0.250    0.397   81.763
  397.750    3.388    0.254    0.398   82.127
  398.000    3.414    0.259    0.405   82.430
  398.250    3.431    0.253    0.411   82.126
  398.500    3.433    0.250    0.413   80.362
  398.750    3.417    0.256    0.412   77.990
  399.000    3.377    0.261    0.408   75.496
  399.250    3.305    0.254    0.406   73.854
  399.500    3.290    0.254    0.402   73.670
  399.750    3.348    0.246    0.399   74.825
  400.000    3.431    0.235    0.395   76.891
  400.250    3.441    0.228    0.392   81.755
  400.500    3.385    0.222    0.387   83.335
  400.750    3.321    0.220    0.386   86.314
  401.000    3.256    0.234    0.388   88.867
  401.250    3.110    0.260    0.407   90.569
  401.500    2.827    0.283    0.453   91.541
  401.750    2.738    0.289    0.464   93.607
  402.000    2.682    0.274    0.482   95.917
  402.250    2.707    0.260    0.472   98.287
  402.500    2.790    0.254    0.454   99.320
  402.750    2.889    0.256    0.469   99.928
  403.000    2.971    0.253    0.473  100.170
  403.250    3.022    0.248    0.485   99.744
  403.500    3.039    0.241    0.496   98.405
  403.750    3.008    0.240    0.505   97.858
  404.000    2.943    0.248    0.492   98.343
  404.250    2.855    0.254    0.483  100.653
  404.500    2.775    0.255    0.480  103.206
  404.750    2.719    0.251    0.477  106.853
  405.000    2.695    0.253    0.470  108.190
  405.250    2.639    0.260    0.459  105.393
  405.500    2.583    0.264    0.467  101.197
  405.750    2.552    0.261    0.460   96.332
  406.000    2.553    0.264    0.456   93.960
  406.250    2.620    0.271    0.458   94.567
  406.500    2.710    0.265    0.441   92.438
  406.750    2.874    0.192    0.417   87.391
  407.000    3.193    0.141    0.393   83.924
  407.250    3.659    0.136    0.373   78.330
  407.500    3.970    0.145    0.366   74.803
  407.750    4.705    0.133    0.284   69.512
  408.000    5.098    0.007    0.264   64.890
  408.250    5.514    0.023    0.254   65.680
  408.500    5.809    0.075    0.266   73.948
  408.750    5.769    0.141    0.288   81.487
  409.000    5.208    0.182    0.325   84.101
  409.250    4.728    0.213    0.365   81.182
  409.500    4.460    0.240    0.382   79.844
  409.750    4.233    0.263    0.393   80.086
  410.000    4.088    0.276    0.406   82.395
  410.250    3.999    0.252    0.414   83.307
  410.500    3.911    0.203    0.415   85.860
  410.750    3.912    0.180    0.417   86.954
  411.000    3.914    0.189    0.416   87.379
  411.250    3.980    0.194    0.414   87.621
  411.500    3.817    0.197    0.408   87.377
  411.750    3.859    0.203    0.410   86.647
  412.000    3.901    0.207    0.415   84.457
  412.250    3.935    0.211    0.422   83.727
  412.500    3.952    0.212    0.421   86.949
  412.750    3.977    0.211    0.432   88.590
  413.000    3.979    0.205    0.419   90.899
  413.250    3.980    0.200    0.420   91.324
  413.500    3.957    0.197    0.418   91.993
  413.750    3.950    0.192    0.413   95.032
  414.000    3.926    0.187    0.408   97.220
  414.250    3.911    0.182    0.401   97.584
  414.500    3.904    0.175    0.396   97.523
  414.750    3.930    0.174    0.391   97.157
  415.000    3.972    0.173    0.390   95.028
  415.250    4.022    0.181    0.394   95.210
  415.500    4.080    0.192    0.400   98.128
  415.750    4.114    0.207    0.408   98.918
  416.000    4.115    0.224    0.415   98.978
  416.250    4.075    0.242    0.419   99.342
  416.500    4.011    0.234    0.423   99.341
  416.750    3.898    0.227    0.425   98.611
  417.000    3.858    0.219    0.423   96.056
  417.250    3.770    0.205    0.422   89.002
  417.500    3.730    0.164    0.400   83.894
  417.750    3.715    0.127    0.377   80.793
  418.000    3.700    0.153    0.354   80.427
  418.250    3.701    0.186    0.369   83.162
  418.500    3.694    0.206    0.394   85.715
  418.750    3.679    0.210    0.400   86.748
  419.000    3.639    0.219    0.393   88.267
  419.250    3.599    0.210    0.387   87.294
  419.500    3.601    0.183    0.382   82.247
  419.750    3.601    0.160    0.383   85.225
  420.000    3.603    0.176    0.390   89.359
  420.250    3.523    0.182    0.393   92.156
  420.500    3.434    0.178    0.399   92.580
  420.750    3.272    0.197    0.410   93.674
  421.000    2.972    0.218    0.421   95.436
  421.250    2.810    0.235    0.429   97.807
  421.500    2.672    0.245    0.441   99.083
  421.750    2.510    0.254    0.461  101.150
  422.000    2.324    0.254    0.482  103.399
  422.250    2.219    0.249    0.493  104.979
  422.500    2.244    0.256    0.466  105.161
  422.750    2.351    0.237    0.446   97.925
  423.000    2.670    0.216    0.427   86.797
  423.250    3.406    0.204    0.358   81.202
  423.500    3.994    0.169    0.309   73.845
  423.750    4.500    0.060    0.281   69.223
  424.000    5.137    0.048    0.267   71.168
  424.250    5.546    0.127    0.304   76.396
  424.500    5.286    0.176    0.360   86.063
  424.750    4.758    0.200    0.380   92.994
  425.000    4.424    0.207    0.385   93.966
  425.250    4.270    0.195    0.375   91.290
  425.500    4.581    0.166    0.356   88.796
  425.750    5.292    0.133    0.308   83.567
  426.000    6.002    0.036    0.268   75.418
  426.250    6.664    0.008    0.223   67.270
  426.500    7.187    0.074    0.242   73.045
  426.750    7.139    0.148    0.332   77.301
  427.000    6.227    0.190    0.359   81.921
  427.250    5.617    0.208    0.373   84.413
  427.500    5.251    0.189    0.371   87.149
  427.750    4.893    0.162    0.372   89.154
  428.000    4.658    0.141    0.373   90.127
  428.250    4.561    0.127    0.376   91.221
  428.500    4.383    0.151    0.380   94.503
  428.750    4.254    0.177    0.390  100.278
  429.000    4.051    0.196    0.401  103.744
  429.250    3.791    0.192    0.407  105.263
  429.500    3.548    0.167    0.415  103.621
  429.750    3.329    0.147    0.412  101.066
  430.000    3.306    0.139    0.419  101.734
  430.250    3.258    0.160    0.429  103.436
  430.500    3.218    0.151    0.425   98.024
  430.750    3.186    0.156    0.422   96.989
  431.000    3.139    0.168    0.426   98.691
  431.250    3.116    0.179    0.427  101.427
  431.500    3.092    0.186    0.429  102.946
  431.750    3.053    0.185    0.437  103.188
  432.000    3.029    0.182    0.442  104.343
  432.250    3.030    0.180    0.436  105.133
  432.500    3.056    0.178    0.424  104.463
  432.750    3.081    0.185    0.417  100.085
  433.000    3.107    0.192    0.414   94.794
  433.250    3.165    0.184    0.417   93.638
  433.500    3.191    0.173    0.419   95.826
  433.750    3.200    0.177    0.420   99.717
  434.000    3.193    0.188    0.422  102.878
  434.250    3.162    0.191    0.433  107.315
  434.500    3.114    0.182    0.447  108.713
  434.750    3.058    0.177    0.441  110.172
  435.000    3.059    0.174    0.438  108.408
  435.250    3.060    0.153    0.445   98.193
  435.500    3.094    0.135    0.414   99.043
  435.750    3.111    0.158    0.411  107.798
  436.000    3.112    0.188    0.426  113.026
  436.250    2.983    0.201    0.446  114.910
  436.500    2.894    0.210    0.466  115.518
  436.750    2.806    0.220    0.441  104.573
  437.000    2.864    0.219    0.372   76.542
  437.250    3.721    0.187    0.339   71.555
  437.500    4.644    0.110    0.320   71.433
  437.750    6.055    0.049    0.296   72.162
  438.000    7.386    0.084    0.284   76.235
  438.250    8.267    0.132    0.291   71.796
  438.500    9.426    0.171    0.300   65.836
  438.750   10.471    0.193    0.309   65.410
