~VERSION INFORMATION
 VERS.                 2.0:   CWLS LOG ASCII STANDARD -VERSION 2.0
 WRAP.                  NO:   ONE LINE PER DEPTH STEP
~WELL INFORMATION BLOCK
#MNEM.UNIT           DATA                    DESCRIPTION OF MNEMONIC
#---------    -------------------            -------------------------------
# Generated from Intellog Unique Number	CW_73_75/WELL/2750
WELL.         QUINTANA CEGO BLANCHE 14-15    : Well_name    - WELL
LOC .         00/14-15-073-03W5/0            : Location     - LOCATION
UWI .         00/14-15-073-03W5/0            : Uwi          - UNIQUE WELL ID
ENTR.         JAYE                           : Entered      - ENTERED BY
SRVC.         SCHLUMBERGER                   : Scn          - SERVICE COMPANY
DATE.         31 JAN 81                      : Date         - LOG DATE
STRT.M        400                            : top_depth    - START DEPTH
STOP.M        640                            : bot_depth    - STOP DEPTH
STEP.M        0.25                           : increment    - STEP LENGTH
 NULL. -999.2500:NULL Value
~CURVE INFORMATION BLOCK
#MNEM UNIT       ERCB CURVE CODE    CURVE DESCRIPTION
#-----------   ------------------   ----------------------------------
DEPT.M        00 001 00 00         : DEPTH        - DEPTH
DPHI.V/V      00 890 00 00         : PHID         - DENSITY POROSITY (SANDSTONE)
NPHI.V/V      00 330 00 00         : PHIN         - NEUTRON POROSITY (SANDSTONE)
GR  .API      00 310 00 00         : GR           - GAMMA RAY
CALI.MM       00 280 01 00         : CAL          - CALIPER
ILD .OHMM     00 120 00 00         : RESD         - DEEP RESISTIVITY (DIL)
~PARAMETER INFORMATION
#MNEM.UNIT           DATA             DESCRIPTION OF MNEMONIC
#---------         -----------     ------------------------------
GL  .M        608.48               : gl           - GROUND LEVEL ELEVATION
EREF.M        612.88               : kb           - ELEVATION OF DEPTH REFERENCE
DATM.M        608.48               : datum        - DATUM ELEVATION
TDD .M        1585                 : tdd          - TOTAL DEPTH DRILLER
RUN .         ONE                  : Run          - RUN NUMBER
ENG .         VERKAIK              : Engineer     - RECORDING ENGINEER
WIT .         WALSH                : Witness      - WITNESSED BY
BASE.         EDM                  : Branch       - HOME BASE OF LOGGING UNIT
MUD .         GEL CHEM             : Mud_type     - MUD TYPE
MATR.         SANDSTONE            : Logunit      - NEUTRON MATRIX
TMAX.C        47.8                 : BHT          - MAXIMUM RECORDED TEMPERATURE
BHTD.M        1585                 : BHTDEP       - MAXIMUM RECORDED TEMPERATURE
RMT .C        16.7                 : MDTP         - TEMPERATURE OF MUD
MUDD.KG/M     1070                 : MWT          - MUD DENSITY
NEUT.         1                    : NEUTRON      - NEUTRON TYPE
RESI.         0                    : RESIST       - RESISTIVITY TYPE
RM  .OHMM     0.52                 : RM           - RESISTIVITY OF MUD
RMC .OHMM     0                    : RMC          - RESISTIVITY OF MUD CAKE
RMF .OHMM     0.5                  : RMF          - RESISTIVITY OF MUD FILTRATE
SUFT.C        0                    : SUFT         - SURFACE TEMPERATURE
~A  DEPTH     PHID     PHIN       GR      CAL     RESD
# ...
  582.500    0.078    0.290   76.272  287.808    8.594
  582.750    0.093    0.317   85.052  288.526    8.185
  583.000    0.101    0.320   82.152  288.297    7.751
  583.250    0.103    0.315   80.351  286.250    7.494
  583.500    0.114    0.353   82.638  284.596    7.044
  583.750    0.143    0.378   81.830  284.168    6.546
  584.000    0.137    0.368   80.345  287.668    6.258
  584.250    0.125    0.366   82.017  293.256    6.051
  584.500    0.130    0.358   84.426  297.053    6.018
  584.750    0.135    0.363   86.838  299.307    6.123
  585.000    0.140    0.402   87.886  300.137    6.252
  585.250    0.145    0.394   87.201  300.446    6.519
  585.500    0.147    0.400   84.170  300.224    6.694
  585.750    0.140    0.408   82.499  298.690    6.772
  586.000    0.125    0.415   80.948  294.870    6.799
  586.250    0.107    0.418   79.336  291.555    6.878
  586.500    0.133    0.399   78.405  290.943    6.932
  586.750    0.140    0.388   78.341  296.501    6.947
  587.000    0.137    0.376   82.299  299.903    6.935
  587.250    0.141    0.363   85.454  300.628    6.885
  587.500    0.131    0.348   77.470  298.567    6.822
  587.750    0.124    0.368   77.037  296.719    6.760
  588.000    0.118    0.395   78.832  295.661    6.736
  588.250    0.103    0.373   81.861  293.717    6.674
  588.500    0.095    0.353   82.720  292.364    6.588
  588.750    0.116    0.355   83.834  293.188    6.577
  589.000    0.132    0.365   86.615  295.142    6.691
  589.250    0.137    0.360   83.213  296.692    6.963
  589.500    0.127    0.366   84.137  297.192    7.246
  589.750    0.136    0.370   87.599  297.284    7.526
  590.000    0.149    0.368   91.310  296.879    7.585
  590.250    0.105    0.363   87.350  296.358    7.265
  590.500    0.086    0.346   81.471  296.053    5.529
  590.750    0.057    0.329   80.477  296.967    2.980
  591.000    0.135    0.317   84.251  299.044    1.861
  591.250    0.181    0.547   89.135  301.708    1.530
  591.500    0.297    0.584   83.757  314.069    1.334
  591.750    0.451    0.602   74.099  329.842    1.246
  592.000    0.464    0.599   68.096  317.467    1.233
  592.250    0.479    0.576   71.313  315.825    1.256
  592.500    0.406    0.550   77.433  309.105    1.322
  592.750    0.312    0.558   79.967  303.641    1.442
  593.000    0.342    0.571   78.171  309.523    1.640
  593.250    0.413    0.582   79.779  318.896    2.007
  593.500    0.431    0.556   80.397  313.844    2.594
  593.750    0.295    0.502   80.579  304.462    3.397
  594.000    0.115    0.403   81.447  300.757    4.064
  594.250    0.096    0.365   79.590  299.186    4.754
  594.500    0.116    0.367   77.795  302.176    5.166
  594.750    0.182    0.419   81.871  308.468    4.650
  595.000    0.194    0.441   83.660  313.000    4.487
  595.250    0.193    0.465   83.227  312.070    4.565
  595.500    0.171    0.458   85.268  308.455    4.759
  595.750    0.180    0.428   85.393  308.558    5.037
  596.000    0.194    0.406   85.076  311.550    5.001
  596.250    0.192    0.444   88.540  315.251    4.604
  596.500    0.186    0.463   88.849  319.161    4.764
  596.750    0.086    0.445   82.288  312.867    5.080
  597.000    0.041    0.404   76.966  300.706    4.968
  597.250    0.111    0.403   74.118  298.335    4.539
  597.500    0.279    0.494   76.839  311.938    4.085
  597.750    0.334    0.555   82.529  327.807    3.980
  598.000    0.233    0.531   88.091  318.008    4.080
  598.250    0.133    0.437   88.709  306.057    4.318
  598.500    0.087    0.346   82.089  296.376    4.773
  598.750    0.032    0.391   76.395  289.864    5.285
  599.000    0.236    0.468   76.645  292.121    4.624
  599.250    0.358    0.519   82.082  301.189    4.396
  599.500    0.241    0.497   87.342  300.359    4.750
  599.750    0.138    0.347   89.198  297.675    5.411
  600.000    0.109    0.330   87.089  295.819    6.200
  600.250    0.088    0.318   90.246  294.065    6.611
  600.500    0.102    0.329   94.629  293.156    6.441
  600.750    0.117    0.342   97.168  293.231    6.123
  601.000    0.114    0.361   98.716  294.069    5.908
  601.250    0.123    0.393  101.497  295.084    5.564
  601.500    0.151    0.382  105.324  297.569    4.980
  601.750    0.180    0.402  102.104  301.272    4.593
  602.000    0.342    0.460   97.775  307.449    4.852
  602.250    0.304    0.493   94.743  318.983    5.643
  602.500    0.173    0.482   83.172  313.936    7.363
  602.750    0.136    0.263   75.439  302.901    8.976
  603.000    0.078    0.182   65.233  290.935   11.088
  603.250    0.042    0.148   56.197  281.553   13.442
  603.500    0.007    0.126   49.638  277.522   15.841
  603.750    0.005    0.115   45.741  276.390   17.247
  604.000   -0.003    0.116   48.767  279.073   14.977
  604.250   -0.006    0.133   54.710  284.121   13.919
  604.500    0.006    0.159   58.850  291.127   13.357
  604.750    0.028    0.188   61.878  284.527   12.890
  605.000    0.030    0.173   62.434  279.465   12.440
  605.250    0.017    0.166   61.753  276.062   12.027
  605.500    0.004    0.162   60.509  274.842   11.940
  605.750   -0.010    0.154   56.119  274.929   12.124
  606.000   -0.012    0.142   51.788  275.031   12.381
  606.250   -0.001    0.149   55.066  275.651   12.407
  606.500    0.014    0.170   59.459  275.849   12.179
  606.750    0.014    0.181   62.544  276.471   11.909
  607.000    0.029    0.184   64.834  276.996   11.646
  607.250    0.041    0.178   62.602  277.066   11.495
  607.500    0.027    0.172   58.764  275.625   11.412
  607.750    0.003    0.184   59.259  273.861   11.415
  608.000    0.048    0.202   62.786  270.678   11.332
  608.250    0.074    0.196   65.994  268.496   11.186
  608.500    0.116    0.206   68.902  269.634   10.876
  608.750    0.200    0.369   69.702  272.516   10.536
  609.000    0.324    0.386   70.631  274.880   10.322
  609.250    0.198    0.294   72.240  276.322   10.403
  609.500    0.036    0.233   73.900  276.627   10.683
  609.750    0.001    0.214   72.415  275.486   11.201
  610.000    0.057    0.206   60.418  273.419   12.036
  610.250    0.119    0.191   54.349  271.257   13.055
  610.500    0.109    0.161   46.369  260.840   13.766
  610.750    0.124    0.155   48.536  290.840   14.058
  611.000    0.174    0.281   53.480  316.709   14.275
  611.250    0.280    0.278   60.155  292.065   14.251
  611.500    0.148    0.239   63.497  267.939   14.254
  611.750    0.117    0.209   57.618  259.278   14.311
  612.000    0.090    0.185   50.130  257.116   14.532
  612.250    0.070    0.160   51.797  260.305   14.924
  612.500    0.062    0.152   54.275  273.083   15.737
  612.750    0.071    0.180   55.011  283.702   16.720
  613.000    0.059    0.180   51.297  267.198   17.630
  613.250    0.035    0.143   41.276  250.599   18.484
  613.500    0.015    0.115   36.015  245.343   19.528
  613.750   -0.004    0.111   38.363  245.438   20.436
  614.000    0.048    0.135   44.487  246.362   20.634
  614.250    0.113    0.169   49.682  247.912   19.395
  614.500    0.121    0.191   53.019  248.937   18.402
  614.750    0.082    0.189   48.438  250.297   17.037
  615.000    0.082    0.174   49.675  251.408   15.334
  615.250    0.072    0.171   52.097  252.634   13.828
  615.500    0.054    0.181   54.496  253.891   12.516
  615.750    0.114    0.202   58.704  255.110   10.951
  616.000    0.161    0.226   67.049  258.095    9.314
  616.250    0.215    0.324   85.727  264.892    8.738
  616.500    0.248    0.369   80.409  266.226    9.076
  616.750    0.178    0.313   67.229  257.675    9.606
  617.000    0.100    0.199   58.194  248.912   10.400
  617.250    0.074    0.150   44.649  247.245   11.112
  617.500    0.077    0.170   46.940  247.664   11.783
  617.750    0.107    0.205   61.715  249.209   11.943
  618.000    0.120    0.222   76.066  251.781   11.900
  618.250    0.096    0.208   85.034  254.560   11.441
  618.500    0.089    0.219   83.301  255.685   11.021
  618.750    0.083    0.198   74.760  255.788   10.615
