~VERSION INFORMATION
 VERS.                 2.0:   CWLS LOG ASCII STANDARD -VERSION 2.0
 WRAP.                  NO:   ONE LINE PER DEPTH STEP
~WELL INFORMATION BLOCK
#MNEM.UNIT           DATA                    DESCRIPTION OF MNEMONIC
#---------    -------------------            -------------------------------
# Generated from Intellog Unique Number	CS_67_68/WELL/800
WELL.         INTER-CITY MANUFACTURING       : Well_name    - WELL
LOC .         00/10-03-068-13W4/0            : Location     - LOCATION
UWI .         00/10-03-068-13W4/0            : Uwi          - UNIQUE WELL ID
ENTR.         SP                             : Entered      - ENTERED BY
SRVC.         SCHLUMBERGER                   : Scn          - SERVICE COMPANY
STRT.M        289.56                         : top_depth    - START DEPTH
STOP.M        463.310                        : bot_depth    - STOP DEPTH
STEP.M        0.25                           : increment    - STEP LENGTH
 NULL. -999.2500:NULL Value
~CURVE INFORMATION BLOCK
#MNEM UNIT       ERCB CURVE CODE    CURVE DESCRIPTION
#-----------   ------------------   ----------------------------------
DEPT.M        00 001 00 00         : DEPTH        - DEPTH
GR  .API      00 310 00 00         : GR           - GAMMA RAY
DPHI.V/V      00 890 00 00         : PHID         - DENSITY POROSITY (SANDSTONE)
NPHI.V/V      00 330 00 00         : PHIN         - NEUTRON POROSITY (SANDSTONE)
ILD .OHMM     00 120 00 00         : RESD         - DEEP RESISTIVITY (DIL)
~PARAMETER INFORMATION
#MNEM.UNIT           DATA             DESCRIPTION OF MNEMONIC
#---------         -----------     ------------------------------
GL  .M        582.473              : gl           - GROUND LEVEL ELEVATION
EREF.M        585.216              : kb           - ELEVATION OF DEPTH REFERENCE
DATM.M        582.473              : datum        - DATUM ELEVATION
TDD .M        466.344              : tdd          - TOTAL DEPTH DRILLER
RUN .         ONE                  : Run          - RUN NUMBER
ENG .         BILL                 : Engineer     - RECORDING ENGINEER
WIT .         JIM                  : Witness      - WITNESSED BY
MUD .         GEL                  : Mud_type     - MUD TYPE
MATR.         SANDSTONE            : Logunit      - NEUTRON MATRIX
TMAX.C        13.8889              : BHT          - MAXIMUM RECORDED TEMPERATURE
BHTD.M        466.344              : BHTDEP       - MAXIMUM RECORDED TEMPERATURE
MATR.         1                    : LOGUNIT      - NEUTRON MATRIX
RMT .C        25                   : MDTP         - TEMPERATURE OF MUD
NEUT.         1                    : NEUTRON      - NEUTRON TYPE
RESI.         0                    : RESIST       - RESISTIVITY TYPE
RMC .OHMM     0.25                 : RMC          - RESISTIVITY OF MUD CAKE
RMF .OHMM     0.25                 : RMF          - RESISTIVITY OF MUD FILTRATE
SUFT.C        15                   : SUFT         - SURFACE TEMPERATURE
~A  DEPTH       GR     PHID     PHIN     RESD
  289.560  102.122    0.192    0.503    2.812
  289.810  100.815    0.200    0.510    2.720
  290.060   96.432    0.200    0.487    2.640
  290.310   94.080    0.195    0.500    2.588
  290.560   95.971    0.196    0.486    2.559
  290.810   98.874    0.205    0.490    2.567
  291.060  100.238    0.189    0.476    2.579
  291.310  100.360    0.192    0.476    2.623
  291.560   98.652    0.197    0.487    2.669
  291.810   98.914    0.205    0.497    2.749
  292.060  100.094    0.205    0.501    2.797
  292.310   99.072    0.183    0.508    2.858
  292.560   98.231    0.211    0.489    2.904
  292.810   97.441    0.210    0.484    2.896
  293.060   96.291    0.205    0.486    2.827
  293.310   96.575    0.200    0.485    2.762
  293.560   97.302    0.168    0.489    2.689
  293.810   95.807    0.181    0.509    2.632
  294.060   91.505    0.134    0.484    2.603
  294.310   88.227    0.090    0.423    2.578
  294.560   83.664    0.085    0.396    2.654
  294.810   88.201    0.107    0.407    2.851
  295.060   94.392    0.163    0.417    3.058
  295.310   97.764    0.159    0.426    3.309
  295.560  100.288    0.164    0.422    3.525
  295.810   94.922    0.218    0.327    3.793
  296.060   83.166    0.278    0.254    4.117
  296.310   72.214    0.330    0.185    5.042
  296.560   60.878    0.380    0.155    6.146
  296.810   46.977    0.349    0.183    7.909
  297.060   47.266    0.326    0.211    9.805
  297.310   52.934    0.304    0.229   11.822
  297.560   58.985    0.289    0.247   12.880
  297.810   65.360    0.326    0.246   11.902
  298.060   69.870    0.357    0.202   10.458
  298.310   63.145    0.378    0.181    8.407
  298.560   56.996    0.387    0.165    7.256
  298.810   54.541    0.374    0.203    8.120
  299.060   57.659    0.365    0.225    8.893
  299.310   60.894    0.349    0.247    9.605
  299.560   64.270    0.328    0.276    9.484
  299.810   68.102    0.309    0.311    8.078
  300.060   70.833    0.293    0.346    6.608
  300.310   73.308    0.273    0.374    5.185
  300.560   74.283    0.260    0.404    3.926
  300.810   74.241    0.255    0.407    3.253
  301.060   76.352    0.257    0.397    2.906
  301.310   80.991    0.239    0.387    2.671
  301.560   83.895    0.225    0.384    2.538
  301.810   88.597    0.224    0.387    2.546
  302.060   91.662    0.207    0.388    2.600
  302.310   94.042    0.171    0.388    2.686
  302.560   96.027    0.119    0.394    2.857
  302.810   99.285    0.090    0.423    3.080
  303.060  100.967    0.093    0.443    3.272
  303.310  100.614    0.154    0.467    3.490
  303.560  104.833    0.198    0.494    3.619
  303.810  110.019    0.223    0.527    3.588
  304.060  109.967    0.224    0.543    3.256
  304.310  104.751    0.242    0.562    2.924
  304.560  100.631    0.276    0.480    2.616
  304.810   96.470    0.279    0.448    2.253
  305.060   93.055    0.255    0.422    2.085
  305.310   88.950    0.264    0.401    2.128
  305.560   85.069    0.286    0.380    2.227
  305.810   83.924    0.275    0.372    2.367
  306.060   83.298    0.246    0.398    2.513
  306.310   80.839    0.230    0.421    2.709
  306.560   78.562    0.241    0.429    2.889
  306.810   78.929    0.251    0.423    2.962
  307.060   81.170    0.246    0.428    2.901
  307.310   83.389    0.241    0.424    2.798
  307.560   85.948    0.230    0.426    2.763
  307.810   89.123    0.220    0.437    2.831
  308.060   91.033    0.208    0.441    2.931
  308.310   92.849    0.192    0.446    3.089
  308.560   94.002    0.179    0.452    3.220
  308.810   93.683    0.175    0.454    3.385
  309.060   94.141    0.185    0.466    3.561
  309.310  100.219    0.172    0.465    3.627
  309.560  103.092    0.187    0.453    3.602
  309.810  104.301    0.201    0.473    3.556
  310.060  107.729    0.189    0.482    3.515
  310.310  113.222    0.171    0.483    3.433
  310.560  116.423    0.161    0.496    3.316
  310.810  118.330    0.167    0.476    3.178
  311.060  116.021    0.175    0.453    3.074
  311.310  112.568    0.201    0.432    3.039
  311.560   99.392    0.215    0.411    3.095
  311.810   91.063    0.225    0.415    3.177
  312.060   86.012    0.259    0.401    3.245
  312.310   82.073    0.283    0.385    3.234
  312.560   79.693    0.298    0.386    2.980
  312.810   78.039    0.293    0.406    2.707
  313.060   78.483    0.289    0.405    2.396
  313.310   82.687    0.272    0.398    2.187
  313.560   87.007    0.263    0.409    1.998
  313.810   91.185    0.260    0.418    1.883
  314.060   85.990    0.270    0.419    1.981
  314.310   81.264    0.286    0.415    2.124
  314.560   79.053    0.281    0.413    2.249
  314.810   85.127    0.258    0.414    2.347
  315.060   87.024    0.239    0.426    2.407
  315.310   85.696    0.230    0.439    2.475
  315.560   88.076    0.226    0.450    2.537
  315.810   91.740    0.259    0.459    2.572
  316.060   93.263    0.280    0.465    2.615
  316.310   94.066    0.278    0.469    2.639
  316.560   93.484    0.303    0.472    2.624
  316.810   92.158    0.328    0.459    2.557
  317.060   94.453    0.322    0.460    2.477
  317.310   96.132    0.317    0.465    2.383
  317.560   97.409    0.311    0.469    2.330
  317.810   98.348    0.306    0.481    2.335
  318.060   98.975    0.294    0.478    2.365
  318.310  100.804    0.281    0.481    2.396
  318.560  102.464    0.279    0.467    2.406
  318.810  102.898    0.265    0.460    2.407
  319.060  101.985    0.254    0.462    2.403
  319.310  102.145    0.268    0.465    2.405
  319.560  109.489    0.284    0.450    2.399
  319.810  113.663    0.267    0.443    2.383
  320.060  114.244    0.256    0.460    2.384
  320.310  107.656    0.280    0.488    2.393
  320.560  103.418    0.288    0.480    2.415
  320.810   99.936    0.299    0.474    2.434
  321.060   97.014    0.295    0.471    2.438
  321.310   95.656    0.291    0.463    2.408
  321.560   97.386    0.298    0.459    2.360
  321.810   99.293    0.302    0.457    2.295
  322.060  101.049    0.283    0.455    2.279
  322.310  101.277    0.290    0.443    2.285
  322.560  101.138    0.310    0.437    2.316
  322.810  102.024    0.301    0.432    2.365
  323.060  102.712    0.293    0.433    2.421
  323.310  102.485    0.296    0.431    2.482
  323.560  100.128    0.309    0.426    2.531
  323.810  100.336    0.299    0.428    2.578
  324.060  104.505    0.301    0.438    2.603
  324.310  108.131    0.300    0.445    2.621
  324.560  106.252    0.296    0.438    2.663
  324.810  101.395    0.287    0.433    2.713
  325.060   98.287    0.292    0.436    2.787
  325.310   96.100    0.288    0.426    2.848
  325.560   95.810    0.285    0.429    2.880
  325.810  100.559    0.293    0.442    2.900
  326.060  103.350    0.302    0.449    2.892
  326.310  101.919    0.311    0.452    2.854
  326.560  101.355    0.293    0.453    2.812
  326.810  101.883    0.299    0.447    2.769
  327.060  101.252    0.306    0.442    2.732
  327.310   98.735    0.308    0.442    2.686
  327.560   97.886    0.302    0.459    2.643
  327.810  102.284    0.311    0.447    2.610
  328.060  104.852    0.308    0.433    2.586
  328.310  107.580    0.305    0.432    2.583
  328.560  110.462    0.315    0.453    2.577
  328.810  111.118    0.316    0.472    2.579
  329.060  103.162    0.311    0.472    2.569
  329.310   85.964    0.313    0.448    2.528
  329.560   75.663    0.320    0.432    2.443
  329.810   69.481    0.327    0.433    2.364
  330.060   66.038    0.324    0.445    2.281
  330.310   65.559    0.325    0.454    2.230
  330.560   67.292    0.330    0.459    2.194
  330.810   69.588    0.312    0.451    2.167
  331.060   70.721    0.303    0.437    2.149
  331.310   68.173    0.297    0.426    2.112
  331.560   66.088    0.303    0.422    2.076
  331.810   65.919    0.293    0.433    2.052
  332.060   66.270    0.288    0.427    2.031
  332.310   66.195    0.294    0.413    2.028
  332.560   65.122    0.305    0.409    2.031
  332.810   63.575    0.303    0.412    2.059
