~VERSION INFORMATION
 VERS.                 2.0:   CWLS LOG ASCII STANDARD -VERSION 2.0
 WRAP.                  NO:   ONE LINE PER DEPTH STEP
~WELL INFORMATION BLOCK
#MNEM.UNIT           DATA                    DESCRIPTION OF MNEMONIC
#---------    -------------------            -------------------------------
# Generated from Intellog Unique Number	CS_69_70/WELL/878
NULL.         -999.25                        : NULL_VALUE
WELL.         SULPETRO LIMITED               : Well_name    - WELL              
LOC .         00/10-32-070-10W4/0            : Location     - LOCATION          
UWI .         00/10-32-070-10W4/0            : Uwi          - UNIQUE WELL ID    
ENTR.         SP                             : Entered      - ENTERED BY        
SRVC.         SCHLUMBERGER                   : Scn          - SERVICE COMPANY   
STRT.M        315                            : top_depth    - START DEPTH       
STOP.M        540                            : bot_depth    - STOP DEPTH        
STEP.M        0.25                           : increment    - STEP LENGTH       
~CURVE INFORMATION BLOCK
#MNEM UNIT       ERCB CURVE CODE    CURVE DESCRIPTION
#-----------   ------------------   ----------------------------------
DEPT.M        00 001 00 00         : DEPTH        - DEPTH                       
DPHI.V/V      00 890 00 00         : PHID         - DENSITY POROSITY (LIMESTONE)
NPHI.V/V      00 330 00 00         : PHIN         - NEUTRON POROSITY (LIMESTONE)
GR  .API      00 310 00 00         : GR           - GAMMA RAY                   
ILD .OHMM     00 120 00 00         : RESD         - DEEP RESISTIVITY (DIL)      
~PARAMETER INFORMATION       
#MNEM.UNIT           DATA             DESCRIPTION OF MNEMONIC
#---------         -----------     ------------------------------
GL  .M        657.1                : gl           - GROUND LEVEL ELEVATION      
EREF.M        660.4                : kb           - ELEVATION OF DEPTH REFERENCE
DATM.M        657.1                : datum        - DATUM ELEVATION             
TDD .M        545                  : tdd          - TOTAL DEPTH DRILLER         
RUN .         ONE                  : Run          - RUN NUMBER                  
ENG .         BILL                 : Engineer     - RECORDING ENGINEER          
WIT .         JIM                  : Witness      - WITNESSED BY                
MUD .         GEL                  : Mud_type     - MUD TYPE                    
MATR.         LIMESTONE            : Logunit      - NEUTRON MATRIX              
TMAX.C        15                   : BHT          - MAXIMUM RECORDED TEMPERATURE
BHTD.M        545                  : BHTDEP       - MAXIMUM RECORDED TEMPERATURE
MATR.         1                    : LOGUNIT      - NEUTRON MATRIX              
RMT .C        25                   : MDTP         - TEMPERATURE OF MUD          
NEUT.         1                    : NEUTRON      - NEUTRON TYPE                
RESI.         0                    : RESIST       - RESISTIVITY TYPE            
RMC .OHMM     0.25                 : RMC          - RESISTIVITY OF MUD CAKE     
RMF .OHMM     0.25                 : RMF          - RESISTIVITY OF MUD FILTRATE 
SUFT.C        15                   : SUFT         - SURFACE TEMPERATURE         
~A  DEPTH     PHID     PHIN       GR     RESD
# ...
  489.000    0.282    0.388   67.791   12.827
  489.250    0.279    0.363   71.666   11.774
  489.500    0.277    0.371   74.270   10.569
  489.750    0.261    0.380   77.298    9.259
  490.000    0.249    0.390   80.023    7.800
  490.250    0.244    0.402   82.687    7.120
  490.500    0.240    0.402   88.501    6.734
  490.750    0.234    0.396   91.347    6.537
  491.000    0.233    0.395   87.108    6.370
  491.250    0.238    0.397   84.201    6.266
  491.500    0.244    0.401   87.410    6.210
  491.750    0.247    0.402   94.374    6.280
  492.000    0.239    0.407  101.399    6.189
  492.250    0.229    0.426  105.698    6.225
  492.500    0.219    0.426  107.272    6.261
  492.750    0.216    0.412  103.820    6.526
  493.000    0.221    0.402   94.676    6.788
  493.250    0.241    0.385   85.956    7.074
  493.500    0.259    0.373   69.302    7.539
  493.750    0.284    0.386   62.035    8.294
  494.000    0.290    0.403   65.850    8.515
  494.250    0.295    0.412   68.636    8.501
  494.500    0.278    0.408   72.935    7.833
  494.750    0.262    0.390   74.510    7.271
  495.000    0.254    0.384   76.084    6.915
  495.250    0.251    0.374   75.176    6.602
  495.500    0.258    0.357   72.572    6.457
  495.750    0.242    0.346   74.873    6.447
  496.000    0.215    0.334   80.686    6.460
  496.250    0.202    0.354   88.316    6.609
  496.500    0.188    0.365   93.403    6.722
  496.750    0.192    0.359   94.916    6.901
  497.000    0.202    0.363   91.707    7.593
  497.250    0.207    0.373   81.412    7.766
  497.500    0.238    0.367   69.119    8.108
  497.750    0.259    0.346   60.822    8.325
  498.000    0.217    0.339   65.303    8.389
  498.250    0.182    0.334   76.203    8.221
  498.500    0.164    0.334   82.986    7.848
  498.750    0.158    0.352   89.647    7.548
  499.000    0.159    0.371   92.856    7.508
  499.250    0.233    0.387   87.588    7.869
  499.500    0.274    0.350   81.108    8.277
  499.750    0.282    0.349   78.564    8.772
  500.000    0.235    0.355   87.648    8.452
  500.250    0.216    0.363   98.245    7.350
  500.500    0.202    0.367  108.903    6.548
  500.750    0.188    0.379  114.050    5.845
  501.000    0.177    0.394  115.564    5.150
  501.250    0.168    0.404  114.292    4.666
  501.500    0.147    0.419  111.809    4.413
  501.750    0.114    0.487  107.691    4.324
  502.000    0.091    0.507  104.966    4.269
  502.250    0.099    0.510  108.054    4.326
  502.500    0.136    0.510  109.084    4.922
  502.750    0.236    0.545  100.545    6.287
  503.000    0.270    0.528   80.137    8.335
  503.250    0.299    0.480   69.358   11.579
  503.500    0.323    0.388   45.740   18.297
  503.750    0.325    0.380   48.223   25.849
  504.000    0.308    0.384   50.221   37.068
  504.250    0.321    0.388   53.249   33.026
  504.500    0.329    0.390   54.097   24.414
  504.750    0.315    0.395   55.429   18.804
  505.000    0.312    0.392   56.579   13.875
  505.250    0.315    0.389   57.003   11.754
  505.500    0.313    0.385   57.185    9.398
  505.750    0.308    0.378   59.425    7.917
  506.000    0.299    0.369   62.574    7.321
  506.250    0.296    0.363   64.269    6.847
  506.500    0.293    0.368   66.449    6.623
  506.750    0.283    0.391   68.629    6.514
  507.000    0.270    0.382   72.323    6.479
  507.250    0.261    0.361   76.259    6.493
  507.500    0.269    0.357   78.560    6.494
  507.750    0.263    0.364   82.678    6.533
  508.000    0.244    0.368   86.614    6.558
  508.250    0.226    0.373   89.945    6.772
  508.500    0.203    0.373   95.879    6.939
  508.750    0.198    0.368   97.393    6.575
  509.000    0.189    0.364  101.692    6.726
  509.250    0.182    0.363  104.296    6.867
  509.500    0.192    0.385  107.021    6.959
  509.750    0.188    0.399  109.443    7.012
  510.000    0.182    0.397  110.230    7.040
  510.250    0.196    0.385  101.147    7.042
  510.500    0.202    0.375   92.184    7.044
  510.750    0.217    0.372   84.009    6.993
  511.000    0.230    0.373   79.043    6.929
  511.250    0.226    0.365   75.530    6.790
  511.500    0.199    0.355   73.168    6.691
  511.750    0.167    0.347   73.592    6.557
  512.000    0.157    0.343   78.497    6.437
  512.250    0.147    0.342   89.942    6.273
  512.500    0.136    0.391  100.419    6.216
  512.750    0.126    0.401  107.383    6.091
  513.000    0.133    0.414  110.592    6.289
  513.250    0.160    0.425  106.595    6.185
  513.500    0.193    0.420   97.269    6.175
  513.750    0.198    0.400   88.064    6.211
  514.000    0.186    0.385   84.552    6.318
  514.250    0.176    0.380   87.519    6.427
  514.500    0.181    0.377   92.545    6.525
  514.750    0.215    0.383   94.180    6.662
  515.000    0.220    0.385   92.969    6.764
  515.250    0.207    0.385   89.941    7.010
  515.500    0.207    0.385   90.062    7.305
  515.750    0.212    0.386   90.304    7.685
  516.000    0.202    0.384   89.819    8.144
  516.250    0.194    0.386   87.457    8.993
  516.500    0.197    0.403   83.218    9.765
  516.750    0.234    0.415   77.647   10.643
  517.000    0.266    0.424   73.408   11.322
  517.250    0.275    0.413   71.712   11.933
  517.500    0.272    0.396   71.046   12.413
  517.750    0.277    0.389   71.469   12.672
  518.000    0.284    0.384   70.379   11.874
  518.250    0.291    0.382   62.567   10.229
  518.500    0.303    0.387   56.875    8.846
  518.750    0.301    0.384   55.240    7.341
  519.000    0.294    0.374   55.058    5.772
  519.250    0.293    0.376   53.725    4.710
  519.500    0.315    0.384   48.154    4.119
  519.750    0.331    0.388   40.282    3.622
  520.000    0.343    0.388   34.226    3.325
  520.250    0.331    0.387   35.073    3.162
  520.500    0.319    0.384   36.648    3.093
  520.750    0.313    0.380   33.741    3.042
  521.000    0.314    0.375   30.410    3.003
  521.250    0.329    0.373   29.078    2.982
  521.500    0.322    0.375   29.683    2.950
  521.750    0.325    0.380   30.288    2.912
  522.000    0.333    0.383   31.439    2.907
  522.250    0.339    0.379   32.771    2.875
  522.500    0.345    0.376   34.043    2.839
  522.750    0.341    0.374   35.375    2.640
  523.000    0.325    0.371   36.222    2.596
  523.250    0.307    0.371   37.252    2.535
  523.500    0.306    0.373   37.433    2.484
  523.750    0.326    0.377   37.373    2.421
  524.000    0.341    0.378   36.585    2.363
  524.250    0.339    0.381   34.223    2.333
  524.500    0.336    0.396   32.104    2.269
  524.750    0.334    0.404   30.348    2.253
  525.000    0.340    0.397   29.621    2.236
  525.250    0.355    0.392   29.499    2.245
  525.500    0.345    0.389   29.378    2.276
  525.750    0.336    0.394   29.378    2.332
  526.000    0.327    0.404   30.347    2.363
  526.250    0.321    0.397   31.800    2.449
  526.500    0.315    0.386   33.859    2.524
  526.750    0.317    0.377   35.615    2.548
  527.000    0.319    0.376   36.220    2.592
  527.250    0.322    0.385   31.678    2.583
  527.500    0.326    0.393   29.256    2.540
  527.750    0.338    0.397   28.408    2.475
  528.000    0.350    0.398   28.226    2.417
  528.250    0.350    0.399   28.953    2.386
  528.500    0.339    0.396   29.195    2.351
  528.750    0.330    0.388   30.224    2.338
  529.000    0.330    0.388   30.345    2.322
  529.250    0.341    0.395   31.556    2.322
  529.500    0.351    0.405   31.798    2.318
  529.750    0.356    0.407   31.677    2.328
  530.000    0.355    0.403   30.587    2.328
  530.250    0.352    0.400   28.649    2.346
  530.500    0.351    0.401   27.014    2.373
  530.750    0.351    0.403   25.560    2.391
  531.000    0.353    0.408   24.954    2.405
  531.250    0.355    0.412   24.712    2.415
  531.500    0.360    0.393   24.712    2.411
  531.750    0.361    0.383   25.136    2.376
  532.000    0.365    0.390   25.378    2.337
  532.250    0.368    0.403   25.802    2.290
