~VERSION INFORMATION
 VERS.                 2.0:   CWLS LOG ASCII STANDARD -VERSION 2.0
 WRAP.                  NO:   ONE LINE PER DEPTH STEP
~WELL INFORMATION BLOCK
#MNEM.UNIT           DATA                    DESCRIPTION OF MNEMONIC
#---------    -------------------            -------------------------------
# Generated from Intellog Unique Number	CS_69_70/WELL/856
WELL.         ET AL CHARRON                  : Well_name    - WELL
LOC .         00/10-01-069-16W4/0            : Location     - LOCATION
UWI .         00/10-01-069-16W4/0            : Uwi          - UNIQUE WELL ID
ENTR.         SP                             : Entered      - ENTERED BY
SRVC.         SCHLUMBERGER                   : Scn          - SERVICE COMPANY
STRT.M        274.32                         : top_depth    - START DEPTH
STOP.M        457.07                         : bot_depth    - STOP DEPTH
STEP.M        0.25                           : increment    - STEP LENGTH
 NULL. -999.2500:NULL Value
~CURVE INFORMATION BLOCK
#MNEM UNIT       ERCB CURVE CODE    CURVE DESCRIPTION
#-----------   ------------------   ----------------------------------
DEPT.M        00 001 00 00         : DEPTH        - DEPTH
GR  .API      00 310 00 00         : GR           - GAMMA RAY
DPHI.V/V      00 890 00 00         : PHID         - DENSITY POROSITY (SANDSTONE)
NPHI.V/V      00 330 00 00         : PHIN         - NEUTRON POROSITY (SANDSTONE)
ILD .OHMM     00 120 00 00         : RESD         - DEEP RESISTIVITY (DIL)
~PARAMETER INFORMATION
#MNEM.UNIT           DATA             DESCRIPTION OF MNEMONIC
#---------         -----------     ------------------------------
GL  .M        557.784              : gl           - GROUND LEVEL ELEVATION
EREF.M        560.222              : kb           - ELEVATION OF DEPTH REFERENCE
DATM.M        557.784              : datum        - DATUM ELEVATION
TDD .M        452.323              : tdd          - TOTAL DEPTH DRILLER
RUN .         ONE                  : Run          - RUN NUMBER
ENG .         BILL                 : Engineer     - RECORDING ENGINEER
WIT .         JIM                  : Witness      - WITNESSED BY
MUD .         GEL                  : Mud_type     - MUD TYPE
MATR.         SANDSTONE            : Logunit      - NEUTRON MATRIX
TMAX.C        22.2222              : BHT          - MAXIMUM RECORDED TEMPERATURE
BHTD.M        452.323              : BHTDEP       - MAXIMUM RECORDED TEMPERATURE
MATR.         1                    : LOGUNIT      - NEUTRON MATRIX
RMT .C        25                   : MDTP         - TEMPERATURE OF MUD
NEUT.         1                    : NEUTRON      - NEUTRON TYPE
RESI.         0                    : RESIST       - RESISTIVITY TYPE
RMC .OHMM     0.25                 : RMC          - RESISTIVITY OF MUD CAKE
RMF .OHMM     0.25                 : RMF          - RESISTIVITY OF MUD FILTRATE
SUFT.C        15                   : SUFT         - SURFACE TEMPERATURE
~A  DEPTH       GR     PHID     PHIN     RESD
# ...
  361.320   66.006    0.215    0.421    2.170
  361.570   70.246    0.271    0.449    2.262
  361.820   71.963    0.311    0.473    2.363
  362.070   71.397    0.324    0.481    2.515
  362.320   70.129    0.331    0.474    2.613
  362.570   68.264    0.331    0.465    2.755
  362.820   66.694    0.321    0.458    3.131
  363.070   67.015    0.309    0.454    3.296
  363.320   67.157    0.299    0.460    3.380
  363.570   68.967    0.296    0.461    3.520
  363.820   72.045    0.293    0.452    3.617
  364.070   74.374    0.275    0.444    3.634
  364.320   75.776    0.266    0.442    3.652
  364.570   77.933    0.256    0.445    3.550
  364.820   79.278    0.247    0.454    3.388
  365.070   80.576    0.244    0.466    3.173
  365.320   80.953    0.243    0.467    3.000
  365.570   78.287    0.237    0.456    2.888
  365.820   77.316    0.230    0.450    2.852
  366.070   76.892    0.241    0.454    3.077
  366.320   77.804    0.257    0.463    3.284
  366.570   79.746    0.270    0.465    3.621
  366.820   81.119    0.271    0.462    3.875
  367.070   79.477    0.273    0.462    4.088
  367.320   78.201    0.282    0.464    4.006
  367.570   76.715    0.287    0.462    3.698
  367.820   75.196    0.282    0.463    3.200
  368.070   72.516    0.285    0.453    3.024
  368.320   70.124    0.267    0.436    2.828
  368.570   66.748    0.253    0.422    2.676
  368.820   64.010    0.193    0.388    2.822
  369.070   61.371    0.126    0.299    3.048
  369.320   63.610    0.207    0.348    3.471
  369.570   66.559    0.290    0.395    3.627
  369.820   69.944    0.297    0.434    3.896
  370.070   73.578    0.290    0.439    4.091
  370.320   76.023    0.275    0.433    4.181
  370.570   78.595    0.262    0.425    4.280
  370.820   79.829    0.239    0.438    4.279
  371.070   80.632    0.236    0.440    4.231
  371.320   82.354    0.239    0.436    4.169
  371.570   83.594    0.237    0.440    4.116
  371.820   84.167    0.227    0.444    4.089
  372.070   84.105    0.215    0.447    4.086
  372.320   84.155    0.213    0.453    4.102
  372.570   84.216    0.219    0.452    4.138
  372.820   84.406    0.217    0.450    4.142
  373.070   85.782    0.219    0.449    4.116
  373.320   87.747    0.230    0.442    4.095
  373.570   87.742    0.242    0.452    4.067
  373.820   85.971    0.234    0.443    4.015
  374.070   85.245    0.225    0.440    3.953
  374.320   84.348    0.217    0.441    3.920
  374.570   83.892    0.208    0.449    3.888
  374.820   85.523    0.199    0.458    3.859
  375.070   88.546    0.208    0.467    3.820
  375.320   91.926    0.226    0.478    3.769
  375.570   94.093    0.217    0.500    3.729
  375.820   94.519    0.204    0.498    3.655
  376.070   93.454    0.201    0.504    3.588
  376.320   92.505    0.205    0.481    3.590
  376.570   91.161    0.206    0.469    3.354
  376.820   89.306    0.214    0.460    3.005
  377.070   87.732    0.224    0.454    2.594
  377.320   86.927    0.230    0.470    2.310
  377.570   85.875    0.236    0.482    2.131
  377.820   84.902    0.240    0.473    1.923
  378.070   83.756    0.249    0.469    1.841
  378.320   82.896    0.264    0.470    1.892
  378.570   84.597    0.275    0.466    2.041
  378.820   88.111    0.283    0.456    2.238
  379.070   91.800    0.295    0.483    2.574
  379.320   95.005    0.282    0.540    2.800
  379.570   97.366    0.269    0.576    2.831
  379.820   98.087    0.257    0.588    2.962
  380.070   97.468    0.247    0.567    3.021
  380.320   96.403    0.241    0.551    3.140
  380.570   94.315    0.240    0.524    3.199
  380.820   91.176    0.238    0.514    3.254
  381.070   88.120    0.235    0.501    3.311
  381.320   88.675    0.231    0.488    3.367
  381.570   89.561    0.230    0.496    3.465
  381.820   89.994    0.235    0.505    3.559
  382.070   88.633    0.248    0.509    3.830
  382.320   86.547    0.261    0.495    3.966
  382.570   83.984    0.253    0.466    4.109
  382.820   81.921    0.246    0.454    4.228
  383.070   82.040    0.243    0.460    4.340
  383.320   82.632    0.242    0.451    4.369
  383.570   82.088    0.242    0.452    4.116
  383.820   80.712    0.253    0.451    3.735
  384.070   77.753    0.271    0.437    3.394
  384.320   75.111    0.289    0.427    3.159
  384.570   72.241    0.274    0.416    2.969
  384.820   69.746    0.247    0.402    2.828
  385.070   67.484    0.299    0.386    2.940
  385.320   66.528    0.348    0.403    3.276
  385.570   66.436    0.338    0.432    3.563
  385.820   67.632    0.331    0.465    3.734
  386.070   69.425    0.313    0.468    3.903
  386.320   70.951    0.308    0.465    3.961
  386.570   71.761    0.306    0.461    3.894
  386.820   67.529    0.277    0.449    3.584
  387.070   63.732    0.253    0.455    3.033
  387.320   59.260    0.243    0.467    2.792
  387.570   54.670    0.222    0.411    2.450
  387.820   54.106    0.194    0.371    2.227
  388.070   56.716    0.221    0.350    2.124
  388.320   60.013    0.271    0.403    2.184
  388.570   61.951    0.284    0.459    2.475
  388.820   60.852    0.294    0.491    2.869
  389.070   59.251    0.308    0.477    3.159
  389.320   58.686    0.317    0.462    3.163
  389.570   60.008    0.322    0.465    2.894
  389.820   62.124    0.302    0.459    2.647
  390.070   61.887    0.232    0.434    2.371
  390.320   58.165    0.146    0.380    2.147
  390.570   55.015    0.119    0.275    2.018
  390.820   54.041    0.296    0.403    1.947
  391.070   55.073    0.316    0.420    1.942
  391.320   55.884    0.327    0.421    1.965
  391.570   56.319    0.334    0.419    1.976
  391.820   56.687    0.333    0.425    1.992
  392.070   56.898    0.331    0.435    1.986
  392.320   56.707    0.326    0.423    1.972
  392.570   56.273    0.316    0.424    1.943
  392.820   55.940    0.312    0.427    1.932
  393.070   55.755    0.308    0.434    1.926
  393.320   57.947    0.303    0.444    1.926
  393.570   59.750    0.298    0.446    1.926
  393.820   61.770    0.303    0.432    1.949
  394.070   63.090    0.323    0.446    1.959
  394.320   63.297    0.332    0.436    1.975
  394.570   62.771    0.324    0.436    1.999
  394.820   61.826    0.326    0.433    2.017
  395.070   61.398    0.316    0.439    2.018
  395.320   61.142    0.307    0.438    2.032
  395.570   61.361    0.303    0.441    2.042
  395.820   61.931    0.298    0.450    2.059
  396.070   62.548    0.294    0.457    2.058
  396.320   62.914    0.299    0.446    2.060
  396.570   62.459    0.305    0.447    2.097
  396.820   61.423    0.295    0.435    2.145
  397.070   62.843    0.288    0.424    2.202
  397.320   65.992    0.284    0.427    2.339
  397.570   67.942    0.307    0.447    2.486
  397.820   68.799    0.315    0.461    2.735
  398.070   69.613    0.318    0.459    2.934
  398.320   70.537    0.304    0.442    3.135
  398.570   71.737    0.281    0.434    3.360
  398.820   73.033    0.264    0.441    3.546
  399.070   74.569    0.269    0.441    3.661
  399.320   76.366    0.256    0.434    3.715
  399.570   78.528    0.244    0.442    3.688
  399.820   79.270    0.240    0.450    3.571
  400.070   76.230    0.247    0.442    3.236
  400.320   75.926    0.244    0.440    2.990
  400.570   78.960    0.238    0.444    2.729
  400.820   81.611    0.233    0.443    2.514
  401.070   84.350    0.226    0.444    2.458
  401.320   86.185    0.214    0.452    2.500
  401.570   88.008    0.208    0.461    2.651
  401.820   89.012    0.205    0.473    2.784
  402.070   88.716    0.185    0.475    2.875
  402.320   85.823    0.176    0.470    2.988
  402.570   86.094    0.192    0.469    3.009
  402.820   87.959    0.198    0.476    2.961
  403.070   89.829    0.213    0.477    2.822
  403.320   91.272    0.219    0.475    2.686
  403.570   93.494    0.223    0.520    2.573
  403.820   95.562    0.235    0.536    2.498
  404.070   96.419    0.247    0.551    2.440
  404.320   96.645    0.241    0.546    2.406
  404.570   95.903    0.242    0.540    2.369
