~VERSION INFORMATION
 VERS.                 2.0:   CWLS LOG ASCII STANDARD -VERSION 2.0
 WRAP.                  NO:   ONE LINE PER DEPTH STEP
~WELL INFORMATION BLOCK
#MNEM.UNIT           DATA                    DESCRIPTION OF MNEMONIC
#---------    -------------------            -------------------------------
# Generated from Intellog Unique Number	CX_WELLS/WELL/2964
WELL.         ATCOR HANGINGSTONE             : Well_name    - WELL
LOC .         00/12-12-082-11W4/0            : Location     - LOCATION
UWI .         00/12-12-082-11W400            : Uwi          - UNIQUE WELL ID
ENTR.         T                              : Entered      - ENTERED BY
SRVC.         SCHLUMBERGER                   : Scn          - SERVICE COMPANY
STRT.M        260                            : top_depth    - START DEPTH
STOP.M        485                            : bot_depth    - STOP DEPTH
STEP.M        0.25                           : increment    - STEP LENGTH
 NULL. -999.2500:NULL Value
~CURVE INFORMATION BLOCK
#MNEM UNIT       ERCB CURVE CODE    CURVE DESCRIPTION
#-----------   ------------------   ----------------------------------
DEPT.M        00 001 00 00         : DEPTH        - DEPTH
GR  .API      00 310 00 00         : GR           - GAMMA RAY
NPHI.V/V      00 330 00 00         : PHIN         - NEUTRON POROSITY (SANDSTONE)
DPHI.V/V      00 890 00 00         : PHID         - DENSITY POROSITY (SANDSTONE)
ILD .OHMM     00 120 00 00         : RESD         - DEEP RESISTIVITY (OTHER)
~PARAMETER INFORMATION
#MNEM.UNIT           DATA             DESCRIPTION OF MNEMONIC
#---------         -----------     ------------------------------
GL  .M        705                  : gl           - GROUND LEVEL ELEVATION
EREF.M        706.4                : kb           - ELEVATION OF DEPTH REFERENCE
DATM.M        706.4                : datum        - DATUM ELEVATION
TDD .M        497                  : tdd          - TOTAL DEPTH DRILLER
RUN .         ONE                  : Run          - RUN NUMBER
ENG .         BILL                 : Engineer     - RECORDING ENGINEER
WIT .         JIM                  : Witness      - WITNESSED BY
MUD .         GEL                  : Mud_type     - MUD TYPE
MATR.         SANDSTONE            : Logunit      - NEUTRON MATRIX
TMAX.C        20                   : BHT          - MAXIMUM RECORDED TEMPERATURE
BHTD.M        496                  : BHTDEP       - MAXIMUM RECORDED TEMPERATURE
MATR.         1                    : LOGUNIT      - NEUTRON MATRIX
RMT .C        20                   : MDTP         - TEMPERATURE OF MUD
NEUT.         1                    : NEUTRON      - NEUTRON TYPE
RESI.         7                    : RESIST       - RESISTIVITY TYPE
RMC .OHMM     2.3                  : RMC          - RESISTIVITY OF MUD CAKE
RMF .OHMM     9.7                  : RMF          - RESISTIVITY OF MUD FILTRATE
SUFT.C        4                    : SUFT         - SURFACE TEMPERATURE
~A  DEPTH       GR     PHIN     PHID     RESD
# ...
  303.500   84.072    0.432    0.330   16.709
  303.750   85.880    0.443    0.322   17.033
  304.000   88.876    0.434    0.304   16.736
  304.250   93.055    0.428    0.296   15.557
  304.500   97.835    0.433    0.286   13.935
  304.750  100.237    0.438    0.276   11.171
  305.000   96.695    0.456    0.261   10.778
  305.250   91.965    0.471    0.265   10.786
  305.500   87.830    0.462    0.272   10.998
  305.750   85.477    0.447    0.275   11.222
  306.000   84.319    0.451    0.277   11.227
  306.250   83.756    0.452    0.275   11.238
  306.500   84.375    0.456    0.265   11.042
  306.750   84.988    0.461    0.251   10.266
  307.000   85.607    0.463    0.243    9.900
  307.250   86.820    0.464    0.250    9.207
  307.500   87.446    0.465    0.265    9.212
  307.750   85.693    0.464    0.276    9.572
  308.000   83.941    0.455    0.284    9.756
  308.250   82.765    0.444    0.291   10.515
  308.500   78.629    0.444    0.298   11.984
  308.750   76.270    0.446    0.300   13.403
  309.000   70.351    0.443    0.306   14.992
  309.250   65.027    0.441    0.311   16.768
  309.500   60.297    0.432    0.317   18.754
  309.750   54.378    0.426    0.325   20.981
  310.000   49.053    0.431    0.339   22.614
  310.250   44.918    0.435    0.350   24.381
  310.500   44.348    0.426    0.357   25.803
  310.750   46.168    0.416    0.356   26.788
  311.000   46.781    0.415    0.355   27.825
  311.250   48.601    0.415    0.355   27.851
  311.500   48.614    0.414    0.354   28.411
  311.750   48.056    0.414    0.358   28.976
  312.000   47.481    0.416    0.364   28.997
  312.250   46.323    0.425    0.368   29.018
  312.500   45.741    0.431    0.369   29.595
  312.750   45.178    0.433    0.366   29.623
  313.000   44.614    0.433    0.365   29.644
  313.250   44.626    0.434    0.363   29.679
  313.500   44.069    0.434    0.361   29.707
  313.750   43.500    0.434    0.361   29.735
  314.000   42.930    0.435    0.360   29.770
  314.250   42.949    0.440    0.360   29.806
  314.500   42.379    0.440    0.359   29.820
  314.750   41.815    0.436    0.356   29.848
  315.000   41.840    0.426    0.354   29.876
  315.250   41.871    0.416    0.351   29.905
  315.500   41.295    0.398    0.349   29.947
  315.750   41.314    0.401    0.349   30.521
  316.000   41.339    0.397    0.351   30.550
  316.250   41.376    0.385    0.355   30.579
  316.500   41.989    0.382    0.361   30.615
  316.750   43.214    0.389    0.363   30.644
  317.000   43.233    0.400    0.362   30.111
  317.250   42.669    0.413    0.361   30.140
  317.500   42.094    0.418    0.364   29.615
  317.750   40.930    0.416    0.367   29.657
  318.000   42.137    0.411    0.356   29.141
  318.250   45.133    0.413    0.348   29.162
  318.500   48.731    0.416    0.347   29.183
  318.750   48.755    0.419    0.350   29.210
  319.000   48.780    0.422    0.353   29.238
  319.250   48.211    0.424    0.354   29.286
  319.500   46.458    0.426    0.355   29.300
  319.750   44.700    0.428    0.355   29.335
  320.000   44.725    0.429    0.355   29.370
  320.250   44.749    0.428    0.354   29.384
  320.500   44.774    0.425    0.353   29.419
  320.750   44.198    0.419    0.350   28.913
  321.000   43.629    0.403    0.352   28.927
  321.250   44.861    0.399    0.351   28.955
  321.500   46.074    0.413    0.353   28.989
  321.750   47.282    0.417    0.354   28.484
  322.000   47.907    0.416    0.354   28.511
  322.250   47.925    0.419    0.355   28.022
  322.500   47.950    0.433    0.356   28.042
  322.750   46.780    0.437    0.357   27.567
  323.000   45.028    0.428    0.360   27.081
  323.250   42.675    0.421    0.362   27.100
  323.500   41.511    0.420    0.363   26.641
  323.750   42.136    0.420    0.365   26.660
  324.000   42.762    0.415    0.364   26.679
  324.250   43.368    0.424    0.364   26.227
  324.500   43.994    0.437    0.364   26.246
  324.750   44.012    0.449    0.364   25.801
  325.000   44.043    0.452    0.365   25.346
  325.250   43.467    0.454    0.367   25.370
  325.500   42.898    0.454    0.368   24.923
  325.750   42.922    0.455    0.369   24.501
  326.000   41.765    0.455    0.371   24.069
  326.250   41.201    0.453    0.373   24.086
  326.500   41.220    0.450    0.374   23.238
  326.750   41.245    0.447    0.375   23.255
  327.000   41.275    0.442    0.375   22.861
  327.250   41.294    0.436    0.372   22.458
  327.500   41.325    0.424    0.372   22.479
  327.750   41.944    0.420    0.375   22.098
  328.000   43.157    0.426    0.382   21.709
  328.250   45.560    0.433    0.381   21.724
  328.500   46.767    0.424    0.373   21.356
  328.750   47.980    0.410    0.370   21.366
  329.000   46.234    0.415    0.371   21.387
  329.250   45.658    0.444    0.371   21.029
  329.500   43.906    0.453    0.370   21.044
  329.750   43.931    0.447    0.368   20.678
  330.000   45.138    0.440    0.369   20.698
  330.250   46.358    0.437    0.369   20.712
  330.500   46.977    0.431    0.371   20.737
  330.750   45.813    0.432    0.371   20.762
  331.000   45.243    0.439    0.371   20.771
  331.250   44.674    0.443    0.372   20.796
  331.500   44.693    0.441    0.372   20.811
  331.750   44.123    0.440    0.370   20.840
  332.000   43.566    0.438    0.369   20.850
  332.250   43.584    0.436    0.368   20.875
  332.500   43.615    0.441    0.367   20.905
  332.750   43.640    0.458    0.365   20.919
  333.000   43.658    0.456    0.364   20.934
  333.250   43.689    0.452    0.365   20.964
  333.500   43.714    0.448    0.368   20.974
  333.750   44.339    0.454    0.370   20.999
  334.000   44.946    0.451    0.371   21.014
  334.250   44.971    0.443    0.370   21.034
  334.500   44.413    0.437    0.366   20.673
  334.750   44.432    0.436    0.365   20.692
  335.000   44.463    0.452    0.364   20.712
  335.250   44.494    0.452    0.362   20.732
  335.500   43.918    0.452    0.362   20.751
  335.750   43.937    0.446    0.362   20.776
  336.000   43.961    0.434    0.359   20.796
  336.250   44.587    0.436    0.354   20.815
  336.500   45.200    0.443    0.350   20.830
  336.750   46.419    0.443    0.347   20.850
  337.000   47.038    0.443    0.346   20.875
  337.250   48.270    0.445    0.345   20.899
  337.500   48.289    0.448    0.345   20.914
  337.750   48.896    0.441    0.345   20.560
  338.000   48.920    0.435    0.345   20.575
  338.250   49.539    0.429    0.345   20.594
  338.500   50.753    0.424    0.341   20.609
  338.750   52.561    0.434    0.337   20.250
  339.000   55.570    0.439    0.338   20.269
  339.250   57.377    0.430    0.340   20.288
  339.500   58.591    0.423    0.341   19.940
  339.750   56.826    0.430    0.342   19.973
  340.000   53.285    0.435    0.341   19.621
  340.250   54.498    0.429    0.338   19.630
  340.500   55.718    0.424    0.336   19.658
  340.750   55.736    0.419    0.333   19.668
  341.000   55.767    0.423    0.331   19.695
  341.250   55.786    0.430    0.328   19.709
  341.500   55.823    0.432    0.328   19.724
  341.750   57.043    0.432    0.326   19.752
  342.000   57.656    0.435    0.323   19.766
  342.250   57.674    0.435    0.322   19.794
  342.500   58.900    0.436    0.321   19.803
  342.750   59.513    0.436    0.321   19.822
  343.000   59.532    0.434    0.321   19.845
  343.250   59.556    0.433    0.322   19.864
  343.500   59.593    0.431    0.322   19.878
  343.750   59.612    0.432    0.323   19.902
  344.000   59.643    0.438    0.322   19.921
  344.250   59.661    0.440    0.320   19.935
  344.500   59.686    0.444    0.317   19.954
  344.750   59.129    0.448    0.313   19.977
  345.000   59.141    0.452    0.308   19.997
  345.250   59.166    0.452    0.309   20.015
  345.500   59.197    0.449    0.313   19.677
  345.750   59.215    0.442    0.315   19.686
  346.000   59.246    0.440    0.318   19.704
  346.250   59.265    0.434    0.320   19.366
  346.500   59.290    0.429    0.322   19.029
  346.750   60.509    0.424    0.324   18.355
