~VERSION INFORMATION
 VERS.                 2.0:   CWLS LOG ASCII STANDARD -VERSION 2.0
 WRAP.                  NO:   ONE LINE PER DEPTH STEP
~WELL INFORMATION BLOCK
#MNEM.UNIT           DATA                    DESCRIPTION OF MNEMONIC
#---------    -------------------            -------------------------------
# Generated from Intellog Unique Number	CW_79_81/WELL/2471
WELL.         GULF AMOCO HOOLE               : Well_name    - WELL
LOC .         00/10-21-081-24W4/0            : Location     - LOCATION
UWI .         00/10-21-081-24W4/0            : Uwi          - UNIQUE WELL ID
ENTR.         MAX                            : Entered      - ENTERED BY
SRVC.         COMPUTALOG                     : Scn          - SERVICE COMPANY
STRT.M        245                            : top_depth    - START DEPTH
STOP.M        482                            : bot_depth    - STOP DEPTH
STEP.M        0.25                           : increment    - STEP LENGTH
 NULL. -999.2500:NULL Value
~CURVE INFORMATION BLOCK
#MNEM UNIT       ERCB CURVE CODE    CURVE DESCRIPTION
#-----------   ------------------   ----------------------------------
DEPT.M        00 001 00 00         : DEPTH        - DEPTH
ILD .OHMM     00 120 00 00         : RESD         - DEEP RESISTIVITY (DIL)
NPHI.V/V      00 330 00 00         : PHIN         - NEUTRON POROSITY (SANDSTONE)
DPHI.V/V      00 890 00 00         : PHID         - DENSITY POROSITY (SANDSTONE)
GR  .API      00 310 00 00         : GR           - GAMMA RAY
CALI.MM       00 280 01 00         : CAL          - CALIPER
~PARAMETER INFORMATION
#MNEM.UNIT           DATA             DESCRIPTION OF MNEMONIC
#---------         -----------     ------------------------------
GL  .M        596.1                : gl           - GROUND LEVEL ELEVATION
EREF.M        600.35               : kb           - ELEVATION OF DEPTH REFERENCE
DATM.M        596.1                : datum        - DATUM ELEVATION
TDD .M        502                  : tdd          - TOTAL DEPTH DRILLER
RUN .         ONE                  : Run          - RUN NUMBER
ENG .         BILL                 : Engineer     - RECORDING ENGINEER
WIT .         JIM                  : Witness      - WITNESSED BY
MUD .         GEL                  : Mud_type     - MUD TYPE
MATR.         SANDSTONE            : Logunit      - NEUTRON MATRIX
TMAX.C        16                   : BHT          - MAXIMUM RECORDED TEMPERATURE
BHTD.M        502                  : BHTDEP       - MAXIMUM RECORDED TEMPERATURE
MATR.         1                    : LOGUNIT      - NEUTRON MATRIX
RMT .C        14                   : MDTP         - TEMPERATURE OF MUD
NEUT.         1                    : NEUTRON      - NEUTRON TYPE
RESI.         0                    : RESIST       - RESISTIVITY TYPE
RMC .OHMM     4.2                  : RMC          - RESISTIVITY OF MUD CAKE
RMF .OHMM     5.2                  : RMF          - RESISTIVITY OF MUD FILTRATE
SUFT.C        -15                  : SUFT         - SURFACE TEMPERATURE
~A  DEPTH     RESD     PHIN     PHID       GR      CAL
# ...
  281.500   16.185    0.392    0.327   37.675  224.942
  281.750   16.244    0.387    0.311   38.877  224.949
  282.000   15.857    0.382    0.294   41.038  224.955
  282.250   14.976    0.373    0.318   43.301  225.047
  282.500   14.527    0.374    0.334   43.804  225.471
  282.750   14.420    0.390    0.342   43.570  226.277
  283.000   14.235    0.407    0.345   43.694  229.779
  283.250   13.715    0.418    0.346   44.057  235.778
  283.500   12.912    0.417    0.348   44.600  248.666
  283.750   11.983    0.399    0.363   45.375  282.347
  284.000   11.449    0.393    0.398   45.628  306.906
  284.250   11.282    0.392    0.445   45.873  308.910
  284.500   11.612    0.388    0.465   45.757  305.522
  284.750   12.132    0.381    0.464   46.480  287.352
  285.000   12.655    0.373    0.439   48.402  257.602
  285.250   13.147    0.368    0.376   51.343  231.793
  285.500   13.246    0.386    0.349   52.846  230.552
  285.750   13.149    0.400    0.343   51.892  229.360
  286.000   13.052    0.409    0.336   52.015  228.469
  286.250   12.908    0.408    0.329   52.020  227.678
  286.500   12.744    0.399    0.324   51.545  226.987
  286.750   12.611    0.395    0.317   50.871  226.511
  287.000   12.420    0.399    0.314   49.877  226.103
  287.250   12.149    0.400    0.322   49.640  226.109
  287.500   12.016    0.397    0.328   49.584  226.117
  287.750   11.840    0.391    0.330   49.589  226.124
  288.000   11.604    0.385    0.329   49.713  226.132
  288.250   11.400    0.388    0.330   50.398  226.139
  288.500   11.227    0.390    0.326   51.401  226.146
  288.750   10.982    0.385    0.321   51.645  226.554
  289.000   10.802    0.386    0.319   51.708  227.260
  289.250   10.684    0.393    0.324   51.952  229.064
  289.500   10.605    0.402    0.333   52.377  231.568
  289.750   10.511    0.407    0.335   52.621  233.174
  290.000   10.431    0.406    0.333   52.625  233.181
  290.250   10.278    0.407    0.334   50.952  233.588
  290.500   10.240    0.408    0.336   50.357  233.695
  290.750   10.240    0.410    0.338   51.200  233.702
  291.000   10.239    0.410    0.340   52.882  233.709
  291.250   10.238    0.402    0.338   54.295  233.386
  291.500   10.237    0.387    0.332   56.546  231.729
  291.750   10.236    0.391    0.339   56.551  230.138
  292.000   10.236    0.406    0.341   55.297  229.446
  292.250   10.235    0.415    0.338   53.263  229.052
  292.500   10.234    0.417    0.331   51.470  228.560
  292.750   10.233    0.423    0.326   51.475  227.521
  293.000   10.233    0.432    0.330   51.480  226.280
  293.250   10.157    0.434    0.334   51.004  225.089
  293.500   10.082    0.422    0.337   51.787  224.196
  293.750   10.045    0.411    0.339   52.511  223.603
  294.000   10.081    0.407    0.337   52.575  223.311
  294.250   10.213    0.412    0.332   52.351  223.319
  294.500   10.135    0.407    0.334   53.604  223.327
  294.750   10.060    0.400    0.336   52.409  223.734
  295.000   10.041    0.395    0.331   51.035  223.841
  295.250   10.114    0.392    0.313   50.321  223.848
  295.500   10.225    0.393    0.285   50.265  223.855
  295.750   10.209    0.402    0.265   50.130  223.946
  296.000   10.130    0.407    0.278   50.635  224.370
  296.250   10.056    0.400    0.307   51.358  224.377
  296.500   10.037    0.397    0.323   52.440  224.384
  296.750   10.146    0.397    0.329   52.325  224.391
  297.000   10.426    0.393    0.325   50.532  224.398
  297.250   11.040    0.377    0.296   46.811  224.406
  297.500   11.828    0.358    0.252   42.571  224.413
  297.750   11.741    0.377    0.218   43.295  224.021
  298.000   11.336    0.401    0.250   47.074  223.928
  298.250   10.807    0.422    0.303   51.152  224.136
  298.500   10.366    0.432    0.342   53.374  224.842
  298.750   10.231    0.420    0.343   51.681  226.698
  299.000   10.308    0.408    0.329   49.189  227.954
  299.250   10.612    0.394    0.302   49.193  228.360
  299.500   11.222    0.382    0.271   49.197  228.767
  299.750   11.691    0.377    0.233   48.722  228.374
  300.000   11.688    0.385    0.187   47.409  227.083
  300.250   11.101    0.415    0.151   45.516  225.493
  300.500   10.687    0.426    0.203   48.017  225.502
  300.750   10.377    0.433    0.282   51.138  224.710
  301.000   10.190    0.437    0.334   50.842  224.217
  301.250   10.152    0.434    0.353   50.127  224.024
  301.500   10.244    0.422    0.349   50.311  224.030
  301.750   10.426    0.403    0.343   50.836  224.122
  302.000   10.585    0.389    0.334   49.841  224.546
  302.250   10.898    0.364    0.313   46.490  224.953
  302.500   11.402    0.336    0.294   43.139  225.359
  302.750   12.376    0.304    0.271   40.506  225.566
  303.000   13.618    0.273    0.228   39.132  225.573
  303.250   13.834    0.265    0.135   40.325  225.582
  303.500   13.419    0.314    0.114   45.074  225.589
  303.750   12.188    0.354    0.153   47.475  227.194
  304.000   11.203    0.387    0.267   46.461  227.900
  304.250   10.655    0.419    0.334   45.986  227.308
  304.500   10.539    0.450    0.331   46.709  226.416
  304.750   10.837    0.468    0.340   44.946  228.206
  305.000   11.172    0.469    0.397   39.708  231.126
  305.250   11.839    0.437    0.447   36.356  243.517
  305.500   12.683    0.412    0.482   34.443  267.290
  305.750   13.407    0.399    0.504   33.369  278.683
  306.000   13.882    0.397    0.519   32.834  272.898
  306.250   14.337    0.395    0.542   33.039  263.619
  306.500   14.557    0.391    0.555   34.042  261.131
  306.750   14.878    0.394    0.563   35.005  255.944
  307.000   15.041    0.394    0.556   34.530  251.058
  307.250   15.206    0.398    0.537   33.695  247.269
  307.500   15.401    0.406    0.509   33.339  244.880
  307.750   15.559    0.406    0.479   34.214  243.525
  308.000   15.798    0.397    0.452   34.967  242.699
  308.250   15.912    0.397    0.398   34.971  242.706
  308.500   16.116    0.394    0.375   35.156  243.911
  308.750   16.411    0.391    0.367   35.999  244.917
  309.000   16.863    0.391    0.367   37.321  244.625
  309.250   17.857    0.397    0.372   38.335  241.987
  309.500   19.132    0.410    0.376   38.589  240.746
  309.750   21.014    0.410    0.346   37.874  241.152
  310.000   23.821    0.404    0.252   36.260  237.664
  310.250   26.092    0.393    0.146   35.066  231.878
  310.500   26.574    0.384    0.100   34.591  226.593
  310.750   25.137    0.382    0.229   34.266  225.803
  311.000   22.959    0.392    0.345   35.020  225.810
  311.250   21.166    0.396    0.357   36.941  225.417
  311.500   19.856    0.401    0.362   38.144  225.025
  311.750   18.583    0.407    0.363   38.628  224.832
  312.000   17.511    0.414    0.365   38.632  224.839
  312.250   17.078    0.426    0.376   38.438  224.848
  312.500   16.819    0.429    0.386   37.444  224.856
  312.750   16.452    0.421    0.386   37.687  224.862
  313.000   16.183    0.423    0.383   38.830  224.869
  313.250   15.888    0.432    0.382   39.434  224.676
  313.500   15.600    0.440    0.382   39.318  224.384
  313.750   15.461    0.439    0.378   39.562  224.392
  314.000   15.343    0.438    0.371   39.567  224.400
  314.250   15.230    0.446    0.364   40.050  224.009
  314.500   15.118    0.439    0.366   41.433  223.915
  314.750   15.007    0.428    0.370   43.115  223.921
  315.000   14.869    0.418    0.375   44.976  223.928
  315.250   14.539    0.415    0.378   47.578  223.938
  315.500   13.997    0.414    0.379   48.581  223.945
  315.750   13.097    0.416    0.378   48.585  223.952
  316.000   11.914    0.420    0.359   50.207  223.960
  316.250   10.796    0.419    0.322   53.447  223.967
  316.500    9.900    0.416    0.284   57.586  223.673
  316.750    9.245    0.418    0.279   60.987  222.318
  317.000    9.105    0.434    0.279   59.992  221.492
  317.250    9.171    0.444    0.303   56.401  221.499
  317.500    9.339    0.439    0.328   54.608  222.105
  317.750    9.648    0.429    0.345   52.935  222.911
