~VERSION INFORMATION
 VERS.                 2.0:   CWLS LOG ASCII STANDARD -VERSION 2.0
 WRAP.                  NO:   ONE LINE PER DEPTH STEP
~WELL INFORMATION BLOCK
#MNEM.UNIT           DATA                    DESCRIPTION OF MNEMONIC
#---------    -------------------            -------------------------------
# Generated from Intellog Unique Number	CW_70_72/WELL/1052
NULL.         -999.25                        : NULL_VALUE
WELL.         G.P.D. SMITH 11-03             : Well_name    - WELL              
LOC .         11-03-072-01W5                 : Location     - LOCATION          
UWI .         00/11-03-072-01W5/0            : Uwi          - UNIQUE WELL ID    
ENTR.         JAYE                           : Entered      - ENTERED BY        
SRVC.         SCHLUMBERGER                   : Scn          - SERVICE COMPANY   
DATE.         30 JULY 76                     : Date         - LOG DATE          
STRT.M        435.864                        : top_depth    - START DEPTH       
STOP.M        694.864                        : bot_depth    - STOP DEPTH        
STEP.M        0.25                           : increment    - STEP LENGTH       
~CURVE INFORMATION BLOCK
#MNEM UNIT       ERCB CURVE CODE    CURVE DESCRIPTION
#-----------   ------------------   ----------------------------------
DEPT.M        00 001 00 00         : DEPTH        - DEPTH                       
DPHI.V/V      00 890 00 00         : PHID         - DENSITY POROSITY (SANDSTONE)
NPHI.V/V      00 330 00 00         : PHIN         - NEUTRON POROSITY (SANDSTONE)
GR  .API      00 310 00 00         : GR           - GAMMA RAY                   
CALI.MM       00 280 01 00         : CAL          - CALIPER                     
ILD .OHMM     00 120 00 00         : RESD         - DEEP RESISTIVITY (DIL)      
~PARAMETER INFORMATION       
#MNEM.UNIT           DATA             DESCRIPTION OF MNEMONIC
#---------         -----------     ------------------------------
GL  .M        635.203              : gl           - GROUND LEVEL ELEVATION      
EREF.M        638.861              : kb           - ELEVATION OF DEPTH REFERENCE
DATM.M        635.203              : datum        - DATUM ELEVATION             
TDD .M        719.328              : tdd          - TOTAL DEPTH DRILLER         
RUN .         ONE                  : Run          - RUN NUMBER                  
BASE.         EDM                  : Branch       - HOME BASE OF LOGGING UNIT   
MUD .         GEL                  : Mud_type     - MUD TYPE                    
MATR.         SANDSTONE            : Logunit      - NEUTRON MATRIX              
TMAX.C        36.1111              : BHT          - MAXIMUM RECORDED TEMPERATURE
BHTD.M        719.938              : BHTDEP       - MAXIMUM RECORDED TEMPERATURE
RMT .C        15.5556              : MDTP         - TEMPERATURE OF MUD          
MUDD.KG/M     1164                 : MWT          - MUD DENSITY                 
NEUT.         1                    : NEUTRON      - NEUTRON TYPE                
RESI.         0                    : RESIST       - RESISTIVITY TYPE            
RM  .OHMM     5.56                 : RM           - RESISTIVITY OF MUD          
RMC .OHMM     0                    : RMC          - RESISTIVITY OF MUD CAKE     
RMF .OHMM     5.16                 : RMF          - RESISTIVITY OF MUD FILTRATE 
SUFT.C        0                    : SUFT         - SURFACE TEMPERATURE         
~A  DEPTH     PHID     PHIN       GR      CAL     RESD
# ...
  472.364    0.296    0.413   54.317  163.302    4.054
  472.614    0.276    0.410   54.998  163.775    4.014
  472.864    0.271    0.410   55.882  163.923    3.952
  473.114    0.275    0.415   56.715  163.965    3.848
  473.364    0.279    0.417   57.094  163.901    3.761
  473.614    0.287    0.416   57.164  163.944    3.709
  473.864    0.295    0.415   57.285  163.990    3.679
  474.114    0.292    0.414   56.898  164.141    3.695
  474.364    0.281    0.414   56.206  164.512    3.725
  474.614    0.275    0.410   55.922  164.647    3.791
  474.864    0.279    0.406   56.448  164.908    3.787
  475.114    0.260    0.406   57.589  165.495    3.735
  475.364    0.250    0.412   59.590  165.963    3.617
  475.614    0.234    0.443   62.864  166.217    3.491
  475.864    0.253    0.446   62.376  166.163    3.399
  476.114    0.271    0.438   59.247  166.407    3.446
  476.364    0.278    0.425   56.366  166.451    3.558
  476.614    0.287    0.414   53.894  166.063    3.667
  476.864    0.289    0.405   56.761  165.780    3.765
  477.114    0.278    0.416   67.204  167.003    3.845
  477.364    0.260    0.434   76.631  170.061    3.920
  477.614    0.225    0.447   80.110  174.084    3.945
  477.864    0.186    0.463   80.739  176.605    3.941
  478.114    0.179    0.475   79.690  177.296    3.930
  478.364    0.194    0.487   79.812  178.954    4.006
  478.614    0.193    0.484   80.595  181.143    4.151
  478.864    0.185    0.474   81.225  181.945    4.349
  479.114    0.194    0.462   80.841  181.226    4.736
  479.364    0.189    0.454   79.538  180.084    5.100
  479.614    0.182    0.475   78.032  178.518    5.665
  479.864    0.209    0.489   73.576  177.051    6.364
  480.114    0.264    0.511   67.293  176.018    6.992
  480.364    0.304    0.529   61.514  174.441    7.407
  480.614    0.347    0.564   53.094  171.686    7.564
  480.864    0.414    0.590   46.147  169.467    7.246
  481.114    0.562    0.605   41.184  170.051    7.004
  481.364    0.557    0.646   47.662  171.496    6.984
  481.614    0.392    0.593   53.479  172.822    6.852
  481.864    0.364    0.575   50.092  173.187    6.635
  482.114    0.385    0.558   44.877  172.045    6.287
  482.364    0.278    0.392   38.691  164.987    6.054
  482.614    0.263    0.360   34.185  162.986    5.789
  482.864    0.268    0.352   34.158  162.383    5.616
  483.114    0.256    0.359   34.987  162.638    5.439
  483.364    0.262    0.368   36.228  163.003    5.287
  483.614    0.263    0.368   37.671  162.730    5.110
  483.864    0.238    0.364   39.473  162.547    4.931
  484.114    0.245    0.356   41.220  162.166    4.690
  484.364    0.260    0.377   42.156  161.993    4.516
  484.614    0.255    0.375   40.905  162.036    4.350
  484.864    0.244    0.372   39.297  162.185    4.259
  485.114    0.245    0.380   37.741  162.334    4.155
  485.364    0.260    0.387   36.288  162.157    4.053
  485.614    0.270    0.389   35.340  161.994    3.983
  485.864    0.267    0.387   34.394  161.924    3.886
  486.114    0.258    0.386   35.585  161.745    3.812
  486.364    0.266    0.388   37.027  161.574    3.773
  486.614    0.270    0.389   38.828  161.505    3.742
  486.864    0.265    0.388   40.272  161.447    3.725
  487.114    0.271    0.389   40.240  161.482    3.681
  487.364    0.280    0.390   38.786  161.528    3.637
  487.614    0.289    0.388   38.093  161.464    3.568
  487.864    0.293    0.384   37.909  161.505    3.532
  488.114    0.278    0.377   38.031  161.546    3.509
  488.364    0.283    0.387   39.017  161.693    3.461
  488.614    0.283    0.393   39.850  161.736    3.420
  488.864    0.284    0.394   41.550  161.782    3.392
  489.114    0.293    0.394   43.145  161.927    3.389
  489.364    0.299    0.395   43.012  162.090    3.379
  489.614    0.293    0.396   42.168  162.346    3.370
  489.864    0.279    0.394   42.392  162.382    3.348
  490.114    0.286    0.394   43.783  162.634    3.326
  490.364    0.296    0.406   45.229  162.576    3.299
  490.614    0.282    0.412   45.757  162.720    3.266
  490.864    0.289    0.397   46.080  163.094    3.251
  491.114    0.299    0.392   46.303  163.561    3.248
  491.364    0.290    0.405   46.071  163.812    3.233
  491.614    0.299    0.405   46.192  164.177    3.188
  491.864    0.306    0.404   47.228  163.792    3.105
  492.114    0.311    0.407   48.723  163.727    3.046
  492.364    0.307    0.409   48.947  163.779    2.961
  492.614    0.303    0.409   48.865  164.243    2.888
  492.864    0.294    0.407   48.224  164.607    2.802
  493.114    0.305    0.400   46.821  164.645    2.734
  493.364    0.317    0.394   45.519  164.477    2.575
  493.614    0.320    0.384   44.164  163.981    2.550
  493.864    0.314    0.373   42.610  163.378    2.667
  494.114    0.301    0.349   41.053  163.313    2.882
  494.364    0.232    0.302   39.953  163.894    3.161
  494.614    0.153    0.265   39.618  167.053    3.696
  494.864    0.123    0.279   40.808  168.063    4.780
  495.114    0.176    0.320   41.539  162.938    5.310
  495.364    0.259    0.414   40.948  160.186    4.886
  495.614    0.295    0.437   39.595  159.578    4.148
  495.864    0.300    0.436   38.192  159.092    3.438
  496.114    0.308    0.427   37.197  159.126    2.783
  496.364    0.295    0.420   36.047  159.278    2.528
  496.614    0.276    0.416   34.794  159.321    2.413
  496.864    0.288    0.418   34.001  159.358    2.366
  497.114    0.295    0.425   34.733  159.200    2.347
  497.364    0.303    0.430   35.819  159.133    2.357
  497.614    0.279    0.427   34.518  158.958    2.377
  497.864    0.294    0.417   34.896  158.890    2.406
  498.114    0.300    0.407   35.981  158.931    2.421
  498.364    0.302    0.415   38.645  159.079    2.450
  498.614    0.311    0.419   40.749  159.118    2.465
  498.864    0.304    0.416   41.888  158.945    2.499
  499.114    0.296    0.408   39.875  158.770    2.538
  499.364    0.287    0.400   40.605  158.929    2.568
  499.614    0.297    0.398   42.610  159.183    2.614
  499.864    0.296    0.403   45.884  159.336    2.645
  500.114    0.291    0.396   48.699  159.264    2.676
  500.364    0.283    0.402   51.008  159.526    2.693
  500.614    0.278    0.397   53.216  159.669    2.730
  500.864    0.272    0.397   55.472  159.607    2.834
  501.114    0.264    0.401   56.406  159.548    3.014
  501.364    0.258    0.394   55.155  159.480    3.129
  501.614    0.257    0.388   54.361  159.307    3.248
  501.864    0.250    0.382   55.145  159.243    3.324
  502.114    0.267    0.378   56.333  159.287    3.351
  502.364    0.262    0.386   57.573  159.321    3.366
  502.614    0.269    0.394   58.308  159.261    3.393
  502.864    0.264    0.400   58.992  159.412    3.434
  503.114    0.253    0.408   59.412  159.671    3.482
  503.364    0.267    0.412   60.251  159.601    3.543
  503.614    0.266    0.409   60.471  159.637    3.605
  503.864    0.255    0.404   59.322  159.792    3.641
  504.114    0.250    0.397   58.273  159.831    3.637
  504.364    0.251    0.390   59.361  159.763    3.614
  504.614    0.264    0.389   60.706  159.819    3.584
  504.864    0.280    0.400   61.081  159.740    3.490
  505.114    0.291    0.409   60.743  159.578    3.418
  505.364    0.285    0.415   60.202  159.728    3.352
  505.614    0.280    0.423   58.903  159.878    3.252
  505.864    0.265    0.430   57.955  159.920    3.167
  506.114    0.267    0.435   56.603  160.070    3.067
  506.364    0.281    0.429   54.842  160.101    2.954
  506.614    0.290    0.426   52.321  160.362    2.935
  506.864    0.283    0.427   50.356  160.403    2.932
  507.114    0.271    0.428   48.495  160.343    2.918
  507.364    0.258    0.426   48.720  160.599    2.842
  507.614    0.268    0.422   49.349  160.642    2.757
  507.864    0.299    0.418   51.556  160.903    2.675
  508.114    0.303    0.421   52.592  160.947    2.591
  508.364    0.296    0.434   51.902  160.869    2.523
  508.614    0.304    0.437   51.920  160.698    2.488
