~VERSION INFORMATION
 VERS.                 2.0:   CWLS LOG ASCII STANDARD -VERSION 2.0
 WRAP.                  NO:   ONE LINE PER DEPTH STEP
~WELL INFORMATION BLOCK
#MNEM.UNIT           DATA                    DESCRIPTION OF MNEMONIC
#---------    -------------------            -------------------------------
# Generated from Intellog Unique Number	CS_73_76/WELL/3263
WELL.         BOW VALLEY EXPLORATION         : Well_name    - WELL
LOC .         00/11-12-076-13W4/0            : Location     - LOCATION
UWI .         00/11-12-076-13W4/0            : Uwi          - UNIQUE WELL ID
ENTR.         SP                             : Entered      - ENTERED BY
SRVC.         SCHLUMBERGER                   : Scn          - SERVICE COMPANY
STRT.M        350                            : top_depth    - START DEPTH
STOP.M        580                            : bot_depth    - STOP DEPTH
STEP.M        0.25                           : increment    - STEP LENGTH
 NULL. -999.2500:NULL Value
~CURVE INFORMATION BLOCK
#MNEM UNIT       ERCB CURVE CODE    CURVE DESCRIPTION
#-----------   ------------------   ----------------------------------
DEPT.M        00 001 00 00         : DEPTH        - DEPTH
ILD .OHMM     00 120 00 00         : RESD         - DEEP RESISTIVITY (DIL)
NPHI.V/V      00 330 00 00         : PHIN         - NEUTRON POROSITY (LIMESTONE)
DPHI.V/V      00 890 00 00         : PHID         - DENSITY POROSITY (LIMESTONE)
GR  .API      00 310 00 00         : GR           - GAMMA RAY
~PARAMETER INFORMATION
#MNEM.UNIT           DATA             DESCRIPTION OF MNEMONIC
#---------         -----------     ------------------------------
GL  .M        728.9                : gl           - GROUND LEVEL ELEVATION
EREF.M        731.6                : kb           - ELEVATION OF DEPTH REFERENCE
DATM.M        728.9                : datum        - DATUM ELEVATION
TDD .M        593                  : tdd          - TOTAL DEPTH DRILLER
RUN .         ONE                  : Run          - RUN NUMBER
ENG .         BILL                 : Engineer     - RECORDING ENGINEER
WIT .         JIM                  : Witness      - WITNESSED BY
MUD .         GEL                  : Mud_type     - MUD TYPE
MATR.         LIMESTONE            : Logunit      - NEUTRON MATRIX
TMAX.C        22                   : BHT          - MAXIMUM RECORDED TEMPERATURE
BHTD.M        593                  : BHTDEP       - MAXIMUM RECORDED TEMPERATURE
MATR.         1                    : LOGUNIT      - NEUTRON MATRIX
RMT .C        25                   : MDTP         - TEMPERATURE OF MUD
NEUT.         1                    : NEUTRON      - NEUTRON TYPE
RESI.         0                    : RESIST       - RESISTIVITY TYPE
RMC .OHMM     0.25                 : RMC          - RESISTIVITY OF MUD CAKE
RMF .OHMM     0.25                 : RMF          - RESISTIVITY OF MUD FILTRATE
SUFT.C        15                   : SUFT         - SURFACE TEMPERATURE
~A  DEPTH     RESD     PHIN     PHID       GR
# ...
  480.500    5.862    0.486    0.275   75.000
  480.750    5.751    0.491    0.280   74.395
  481.000    5.644    0.493    0.291   72.581
  481.250    5.538    0.487    0.294   71.371
  481.500    5.535    0.469    0.296   73.790
  481.750    5.638    0.477    0.291   72.581
  482.000    5.636    0.486    0.277   69.556
  482.250    5.634    0.438    0.274   69.556
  482.500    5.633    0.431    0.280   68.347
  482.750    5.736    0.441    0.292   65.927
  483.000    5.841    0.416    0.297   62.903
  483.250    5.948    0.421    0.297   61.089
  483.500    6.058    0.429    0.299   62.298
  483.750    6.169    0.443    0.309   62.298
  484.000    6.167    0.450    0.317   63.508
  484.250    6.165    0.455    0.335   65.323
  484.500    6.049    0.485    0.340   68.952
  484.750    6.048    0.500    0.332   65.323
  485.000    5.934    0.463    0.326   64.718
  485.250    5.932    0.439    0.326   64.113
  485.500    5.930    0.443    0.335   65.927
  485.750    5.927    0.452    0.340   68.347
  486.000    5.926    0.455    0.335   68.952
  486.250    5.924    0.444    0.329   70.766
  486.500    5.921    0.427    0.315   69.556
  486.750    5.919    0.427    0.319   68.952
  487.000    6.028    0.429    0.315   69.556
  487.250    6.027    0.431    0.308   67.742
  487.500    6.137    0.444    0.304   64.718
  487.750    6.135    0.433    0.303   62.298
  488.000    6.365    0.434    0.315   61.089
  488.250    6.982    0.420    0.314   64.718
  488.500    8.403    0.411    0.309   65.323
  488.750    8.882    0.399    0.299   63.508
  489.000    9.926    0.387    0.299   60.484
  489.250    9.211    0.386    0.314   59.879
  489.500    8.709    0.416    0.316   59.274
  489.750    8.389    0.456    0.311   60.484
  490.000    7.641    0.464    0.305   62.298
  490.250    7.500    0.440    0.291   63.508
  490.500    6.959    0.446    0.287   65.323
  490.750    6.830    0.449    0.294   65.927
  491.000    6.456    0.440    0.296   66.532
  491.250    6.576    0.437    0.297   65.927
  491.500    6.573    0.437    0.290   63.508
  491.750    6.571    0.446    0.278   63.508
  492.000    6.447    0.434    0.273   64.718
  492.250    5.984    0.426    0.280   65.323
  492.500    5.554    0.439    0.284   65.323
  492.750    5.450    0.450    0.290   64.718
  493.000    5.448    0.446    0.293   66.532
  493.250    5.346    0.438    0.298   67.742
  493.500    5.444    0.435    0.302   64.718
  493.750    5.442    0.440    0.314   62.903
  494.000    5.440    0.444    0.323   62.298
  494.250    5.439    0.446    0.326   61.089
  494.500    5.538    0.448    0.315   60.484
  494.750    5.537    0.449    0.295   60.484
  495.000    5.639    0.443    0.287   61.694
  495.250    5.637    0.419    0.285   64.113
  495.500    5.741    0.422    0.284   64.113
  495.750    5.845    0.426    0.281   64.718
  496.000    5.844    0.428    0.279   66.532
  496.250    5.842    0.422    0.276   68.952
  496.500    5.949    0.416    0.274   68.347
  496.750    5.948    0.423    0.269   67.137
  497.000    6.056    0.431    0.275   65.927
  497.250    6.054    0.429    0.279   65.323
  497.500    6.052    0.431    0.281   63.508
  497.750    6.051    0.432    0.281   63.508
  498.000    6.048    0.427    0.287   64.113
  498.250    6.046    0.422    0.293   65.323
  498.500    6.044    0.426    0.293   66.532
  498.750    6.155    0.429    0.293   67.137
  499.000    6.153    0.433    0.293   67.137
  499.250    6.151    0.431    0.298   67.742
  499.500    6.149    0.427    0.301   68.347
  499.750    6.147    0.426    0.296   68.952
  500.000    6.145    0.426    0.290   68.952
  500.250    6.141    0.426    0.281   68.347
  500.500    5.701    0.425    0.273   71.371
  500.750    5.593    0.419    0.269   73.790
  501.000    5.592    0.428    0.264   75.605
  501.250    5.590    0.442    0.262   77.419
  501.500    5.589    0.450    0.250   78.629
  501.750    5.483    0.450    0.263   79.839
  502.000    5.482    0.439    0.275   81.653
  502.250    5.280    0.434    0.264   82.258
  502.500    5.181    0.430    0.242   82.863
  502.750    5.084    0.430    0.243   84.677
  503.000    5.082    0.425    0.239   85.887
  503.250    5.175    0.418    0.226   84.677
  503.500    5.174    0.416    0.214   85.282
  503.750    5.469    0.432    0.213   90.121
  504.000    5.780    0.448    0.208   93.145
  504.250    6.108    0.448    0.196   90.726
  504.500    6.337    0.444    0.195   89.516
  504.750    6.574    0.442    0.195   88.911
  505.000    6.821    0.433    0.198   89.516
  505.250    6.946    0.428    0.198   90.726
  505.500    7.206    0.416    0.178   90.726
  505.750    7.338    0.408    0.175   88.306
  506.000    7.336    0.407    0.193   87.702
  506.250    7.199    0.412    0.204   87.097
  506.500    7.065    0.425    0.181   92.540
  506.750    6.805    0.439    0.175   98.589
  507.000    6.677    0.446    0.177  104.637
  507.250    6.675    0.437    0.181  104.032
  507.500    6.798    0.427    0.185  106.452
  507.750    6.923    0.420    0.190  107.661
  508.000    6.920    0.418    0.198  105.847
  508.250    6.791    0.430    0.193  104.032
  508.500    6.186    0.425    0.184  103.427
  508.750    5.742    0.418    0.179  101.613
  509.000    5.429    0.418    0.169  100.403
  509.250    5.326    0.426    0.162   99.194
  509.500    5.424    0.431    0.172   96.774
  509.750    5.423    0.415    0.173   93.145
  510.000    5.421    0.426    0.162   88.911
  510.250    5.320    0.444    0.147   86.492
  510.500    4.758    0.447    0.148   90.121
  510.750    2.880    0.451    0.159   94.355
  511.000    2.674    0.478    0.207   93.145
  511.250    2.261    0.495    0.240   91.331
  511.500    2.178    0.519    0.240   88.911
  511.750    2.098    0.539    0.237   88.306
  512.000    2.097    0.543    0.239   88.911
  512.250    2.175    0.544    0.248   89.516
  512.500    2.257    0.553    0.251   93.750
  512.750    2.342    0.556    0.247   97.984
  513.000    2.430    0.553    0.236   99.798
  513.250    2.520    0.545    0.228  101.008
  513.500    2.764    0.533    0.222  101.008
  513.750    2.977    0.526    0.218   99.194
  514.000    3.205    0.534    0.207   98.589
  514.250    3.787    0.526    0.200   97.984
  514.500    4.078    0.438    0.180   96.169
  514.750    4.557    0.420    0.161   97.379
  515.000    5.587    0.422    0.143   99.194
  515.250    6.129    0.418    0.148   97.984
  515.500    6.477    0.410    0.136   93.145
  515.750    6.597    0.395    0.115   90.726
  516.000    6.595    0.369    0.097   97.379
  516.250    5.375    0.373    0.082  102.218
  516.500    4.806    0.395    0.144  104.032
  516.750    4.544    0.412    0.168  102.823
  517.000    4.377    0.418    0.157  102.218
  517.250    4.216    0.426    0.160  101.613
  517.500    3.986    0.431    0.154  102.218
  517.750    3.984    0.436    0.168  104.032
  518.000    4.058    0.444    0.190  105.242
  518.250    4.133    0.454    0.180  105.847
  518.500    4.368    0.461    0.169  105.242
  518.750    4.703    0.468    0.161   96.169
  519.000    5.354    0.462    0.110   91.936
  519.250    6.209    0.449    0.085   92.540
  519.500    6.686    0.447    0.137   91.936
  519.750    6.808    0.435    0.129   91.936
  520.000    6.681    0.404    0.118   93.750
  520.250    6.679    0.410    0.109   94.355
  520.500    6.553    0.418    0.174   94.960
  520.750    6.551    0.426    0.159   94.960
  521.000    6.549    0.436    0.139   94.960
  521.250    6.794    0.442    0.141   96.774
  521.500    6.919    0.433    0.142   97.379
  521.750    7.046    0.432    0.133   96.169
  522.000    7.044    0.436    0.131   97.984
  522.250    6.659    0.432    0.138   99.798
  522.500    6.535    0.426    0.153  102.823
  522.750    6.294    0.417    0.160  104.032
  523.000    6.411    0.408    0.158  102.823
  523.250    6.902    0.401    0.141   94.960
  523.500    7.714    0.392    0.125   88.911
  523.750    9.458    0.378    0.104   82.258
