~VERSION INFORMATION
 VERS.                 2.0:   CWLS LOG ASCII STANDARD -VERSION 2.0
 WRAP.                  NO:   ONE LINE PER DEPTH STEP
~WELL INFORMATION BLOCK
#MNEM.UNIT           DATA                    DESCRIPTION OF MNEMONIC
#---------    -------------------            -------------------------------
# Generated from Intellog Unique Number	CW_70_72/WELL/3026
NULL.         -999.25                        : NULL_VALUE
WELL.         SULPETRO OTAUWAU 11-05         : Well_name    - WELL              
LOC .         11-05-070-05W5                 : Location     - LOCATION          
UWI .         00/11-05-070-05W5/0            : Uwi          - UNIQUE WELL ID    
ENTR.         JAYE                           : Entered      - ENTERED BY        
SRVC.         SCHLUMBERGER                   : Scn          - SERVICE COMPANY   
DATE.         19 FEB 77                      : Date         - LOG DATE          
STRT.M        701.04                         : top_depth    - START DEPTH       
STOP.M        960.04                         : bot_depth    - STOP DEPTH        
STEP.M        0.25                           : increment    - STEP LENGTH       
~CURVE INFORMATION BLOCK
#MNEM UNIT       ERCB CURVE CODE    CURVE DESCRIPTION
#-----------   ------------------   ----------------------------------
DEPT.M        00 001 00 00         : DEPTH        - DEPTH                       
ILD .OHMM     00 120 00 00         : RESD         - DEEP RESISTIVITY (DIL)      
NPHI.V/V      00 330 00 00         : PHIN         - NEUTRON POROSITY (SANDSTONE)
DPHI.V/V      00 890 00 00         : PHID         - DENSITY POROSITY (SANDSTONE)
GR  .API      00 310 00 00         : GR           - GAMMA RAY                   
CALI.MM       00 280 01 00         : CAL          - CALIPER                     
~PARAMETER INFORMATION       
#MNEM.UNIT           DATA             DESCRIPTION OF MNEMONIC
#---------         -----------     ------------------------------
GL  .M        796.595              : gl           - GROUND LEVEL ELEVATION      
EREF.M        800.557              : kb           - ELEVATION OF DEPTH REFERENCE
DATM.M        796.595              : datum        - DATUM ELEVATION             
TDD .M        975.36               : tdd          - TOTAL DEPTH DRILLER         
RUN .         ONE                  : Run          - RUN NUMBER                  
ENG .         FIGGURES             : Engineer     - RECORDING ENGINEER          
WIT .         BROCK                : Witness      - WITNESSED BY                
MUD .         GEL                  : Mud_type     - MUD TYPE                    
MATR.         SANDSTONE            : Logunit      - NEUTRON MATRIX              
TMAX.C        -17.7778             : BHT          - MAXIMUM RECORDED TEMPERATURE
BHTD.M        975.665              : BHTDEP       - MAXIMUM RECORDED TEMPERATURE
RMT .C        15.5556              : MDTP         - TEMPERATURE OF MUD          
MUDD.KG/M     1152                 : MWT          - MUD DENSITY                 
NEUT.         1                    : NEUTRON      - NEUTRON TYPE                
RESI.         0                    : RESIST       - RESISTIVITY TYPE            
RM  .OHMM     4.25                 : RM           - RESISTIVITY OF MUD          
RMC .OHMM     0.25                 : RMC          - RESISTIVITY OF MUD CAKE     
RMF .OHMM     3.66                 : RMF          - RESISTIVITY OF MUD FILTRATE 
SUFT.C        -20                  : SUFT         - SURFACE TEMPERATURE         
~A  DEPTH     RESD     PHIN     PHID       GR      CAL
# ...
  847.040    3.254    0.210    0.088   68.188  160.790
  847.290    3.841    0.235    0.094   67.210  162.266
  847.540    4.256    0.289    0.132   68.082  162.908
  847.790    4.470    0.319    0.156   71.360  161.774
  848.040    4.591    0.319    0.163   72.416  159.700
  848.290    4.715    0.246    0.136   71.068  159.922
  848.540    4.797    0.226    0.084   70.522  161.503
  848.790    4.855    0.225    0.082   70.653  162.876
  849.040    4.673    0.243    0.101   72.266  164.770
  849.290    4.193    0.264    0.121   73.816  165.724
  849.540    3.783    0.281    0.144   75.798  164.485
  849.790    3.555    0.304    0.142   76.978  161.680
  850.040    3.591    0.326    0.149   75.507  160.441
  850.290    3.729    0.299    0.137   69.101  159.515
  850.540    4.011    0.267    0.114   65.223  159.111
  850.790    4.371    0.266    0.152   63.505  158.918
  851.040    4.668    0.292    0.179   63.452  159.246
  851.290    4.427    0.308    0.198   64.694  159.574
  851.540    3.835    0.317    0.213   66.614  159.693
  851.790    3.033    0.334    0.230   68.905  159.918
  852.040    2.793    0.364    0.253   72.244  159.930
  852.290    2.576    0.374    0.267   73.671  159.945
  852.540    2.403    0.387    0.269   73.680  159.645
  852.790    2.263    0.401    0.272   72.147  159.661
  853.040    2.174    0.398    0.276   69.380  159.674
  853.290    2.120    0.383    0.298   67.722  159.792
  853.540    2.075    0.369    0.288   65.880  159.496
  853.790    2.046    0.359    0.271   62.065  159.298
  854.040    1.999    0.358    0.273   59.853  158.689
  854.290    1.982    0.361    0.280   62.144  158.390
  854.540    1.962    0.363    0.271   64.064  158.508
  854.790    1.934    0.363    0.285   62.716  158.625
  855.040    1.907    0.355    0.275   59.517  158.745
  855.290    1.895    0.348    0.290   59.650  158.343
  855.540    1.885    0.349    0.283   61.384  157.728
  855.790    1.901    0.355    0.283   63.922  154.924
  856.040    1.942    0.363    0.294   65.349  153.580
  856.290    1.987    0.371    0.279   65.234  154.221
  856.540    2.022    0.375    0.272   61.726  155.384
  856.790    2.039    0.377    0.262   61.242  157.591
  857.040    2.029    0.372    0.254   61.127  159.383
  857.290    1.990    0.360    0.281   59.964  159.919
  857.540    1.937    0.356    0.270   59.541  160.037
  857.790    1.888    0.364    0.260   59.611  159.844
  858.040    1.794    0.360    0.265   59.990  159.544
  858.290    1.734    0.366    0.272   60.059  159.873
  858.540    1.690    0.374    0.266   61.301  159.681
  858.790    1.679    0.357    0.269   62.790  159.483
  859.040    1.712    0.355    0.284   61.812  159.289
  859.290    1.736    0.370    0.288   59.353  159.095
  859.540    1.763    0.377    0.284   59.855  158.901
  859.790    1.818    0.372    0.271   60.295  158.915
  860.040    1.853    0.363    0.272   60.920  159.033
  860.290    1.886    0.360    0.274   61.422  158.632
  860.540    1.905    0.365    0.263   63.096  158.645
  860.790    1.920    0.375    0.274   65.572  158.659
  861.040    1.918    0.380    0.254   68.049  158.673
  861.290    1.927    0.389    0.262   68.365  158.166
  861.540    1.935    0.382    0.275   67.510  157.969
  861.790    1.940    0.376    0.265   66.037  158.194
  862.040    1.938    0.378    0.258   67.403  157.895
  862.290    1.947    0.397    0.261   70.927  157.701
  862.540    1.952    0.395    0.271   69.518  157.612
  862.790    1.961    0.404    0.278   68.293  157.624
  863.040    1.974    0.409    0.284   68.115  157.325
  863.290    1.968    0.401    0.272   71.455  156.506
  863.540    1.908    0.397    0.270   74.671  155.684
  863.790    1.807    0.393    0.284   74.926  154.341
  864.040    1.713    0.393    0.295   75.366  153.938
  864.290    1.625    0.402    0.299   78.705  155.308
  864.540    1.564    0.404    0.295   82.168  157.203
  864.790    1.631    0.398    0.276   87.605  158.890
  865.040    1.777    0.378    0.262   93.102  160.263
  865.290    2.040    0.397    0.242   98.107  161.528
  865.540    2.345    0.411    0.220  101.940  162.586
  865.790    2.783    0.423    0.225  103.737  164.168
  866.040    3.334    0.427    0.208  104.547  165.227
  866.290    3.687    0.402    0.191  104.556  165.867
  866.540    4.094    0.387    0.184  102.776  166.404
  866.790    4.511    0.380    0.166  101.243  166.002
  867.040    4.685    0.385    0.164  101.065  166.016
  867.290    4.628    0.392    0.172  102.616  165.928
  867.540    4.522    0.383    0.173  105.462  165.943
  867.790    4.418    0.387    0.160  107.013  165.954
  868.040    4.308    0.403    0.175  106.034  165.760
  868.290    4.201    0.408    0.193  101.663  165.775
  868.540    4.029    0.395    0.210   98.279  165.580
  868.790    3.800    0.376    0.192   95.820  165.073
  869.040    3.631    0.368    0.184   95.397  164.668
  869.290    3.495    0.364    0.199   96.639  163.534
  869.540    3.408    0.370    0.202   95.661  162.817
  869.790    3.318    0.367    0.208   96.471  162.104
  870.040    3.259    0.380    0.210   99.440  161.907
  870.290    3.190    0.389    0.189  103.273  161.607
  870.540    3.169    0.393    0.193  103.158  161.100
  870.790    3.142    0.385    0.203   99.590  161.114
  871.040    3.127    0.377    0.200   97.871  160.921
  871.290    3.147    0.379    0.219   96.707  160.726
  871.540    3.144    0.368    0.197   94.681  160.843
  871.790    3.134    0.352    0.181   93.085  160.755
  872.040    3.149    0.349    0.180   93.834  160.770
  872.290    3.204    0.354    0.197   96.371  161.203
  872.540    3.267    0.357    0.187   99.094  161.738
  872.790    3.312    0.360    0.204  100.521  161.961
  873.040    3.345    0.363    0.191   99.851  162.393
  873.290    3.379    0.364    0.193   96.652  162.511
  873.540    3.413    0.371    0.194   97.093  162.632
  873.790    3.479    0.365    0.196   98.150  162.332
  874.040    3.574    0.353    0.180   95.074  162.660
  874.290    3.691    0.347    0.154   96.192  162.780
  874.540    3.876    0.348    0.171   95.646  163.001
  874.790    4.170    0.345    0.154   93.742  163.122
  875.040    4.330    0.342    0.143   90.112  163.343
  875.290    4.382    0.335    0.130   92.587  163.671
  875.540    4.386    0.325    0.121   94.200  163.894
  875.790    4.245    0.335    0.151   98.156  163.910
  876.040    4.094    0.344    0.143  102.852  163.610
  876.290    3.876    0.352    0.143  107.116  163.939
  876.540    3.723    0.360    0.146  108.111  164.891
  876.790    3.618    0.366    0.144  106.023  166.368
  877.040    3.561    0.369    0.149  107.697  167.740
  877.290    3.511    0.373    0.140  109.987  168.381
  877.540    3.514    0.372    0.145  109.749  168.813
  877.790    3.616    0.368    0.126  109.326  168.932
  878.040    3.714    0.353    0.139  112.912  168.950
  878.290    3.850    0.337    0.138  116.436  168.752
  878.540    4.035    0.338    0.131  117.494  170.021
  878.790    4.190    0.349    0.147  116.268  170.870
  879.040    4.377    0.349    0.142  116.215  169.737
  879.290    4.545    0.325    0.124  115.546  168.601
  879.540    4.677    0.303    0.114  114.752  167.989
  879.790    4.794    0.321    0.112  113.836  167.587
  880.040    4.906    0.344    0.103  112.486  167.182
  880.290    4.983    0.353    0.109  110.213  166.675
  880.540    5.015    0.329    0.096  107.569  166.271
  880.790    5.019    0.309    0.076  104.124  165.450
  881.040    5.261    0.312    0.089  104.318  165.047
  881.290    5.819    0.332    0.112  107.965  164.748
  881.540    5.987    0.308    0.080  112.044  164.763
  881.790    5.828    0.316    0.068  115.199  164.673
  882.040    5.568    0.336    0.093  117.859  164.790
  882.290    5.301    0.349    0.112  119.164  165.222
  882.540    5.009    0.352    0.140  116.951  166.491
  882.790    4.681    0.349    0.135  112.827  167.132
  883.040    4.310    0.336    0.138  109.936  167.355
  883.290    4.043    0.349    0.151  105.627  166.847
