~VERSION INFORMATION
 VERS.                 2.0:   CWLS LOG ASCII STANDARD -VERSION 2.0
 WRAP.                  NO:   ONE LINE PER DEPTH STEP
~WELL INFORMATION BLOCK
#MNEM.UNIT           DATA                    DESCRIPTION OF MNEMONIC
#---------    -------------------            -------------------------------
# Generated from Intellog Unique Number	CS_77_79/WELL/1001
WELL.         PCI PCEJ CHARD                 : Well_name    - WELL
LOC .         00/11-28-079-06W4/0            : Location     - LOCATION
UWI .         00/11-28-079-06W4/0            : Uwi          - UNIQUE WELL ID
ENTR.         JHS                            : Entered      - ENTERED BY
SRVC.         SCHLUMBERGER                   : Scn          - SERVICE COMPANY
STRT.M        70                             : top_depth    - START DEPTH
STOP.M        335                            : bot_depth    - STOP DEPTH
STEP.M        0.25                           : increment    - STEP LENGTH
 NULL. -999.2500:NULL Value
~CURVE INFORMATION BLOCK
#MNEM UNIT       ERCB CURVE CODE    CURVE DESCRIPTION
#-----------   ------------------   ----------------------------------
DEPT.M        00 001 00 00         : DEPTH        - DEPTH
DPHI.V/V      00 890 00 00         : PHID         - DENSITY POROSITY (LIMESTONE)
NPHI.V/V      00 330 00 00         : PHIN         - NEUTRON POROSITY (LIMESTONE)
GR  .API      00 310 00 00         : GR           - GAMMA RAY
ILD .OHMM     00 120 00 00         : RESD         - DEEP RESISTIVITY (DIL)
RHOB.KG/M3    00 350 00 00         : DENS         - BULK DENSITY
~PARAMETER INFORMATION
#MNEM.UNIT           DATA             DESCRIPTION OF MNEMONIC
#---------         -----------     ------------------------------
GL  .M        513.8                : gl           - GROUND LEVEL ELEVATION
EREF.M        516.9                : kb           - ELEVATION OF DEPTH REFERENCE
DATM.M        516.9                : datum        - DATUM ELEVATION
TDD .M        341                  : tdd          - TOTAL DEPTH DRILLER
RUN .         ONE                  : Run          - RUN NUMBER
ENG .         BILL                 : Engineer     - RECORDING ENGINEER
WIT .         JIM                  : Witness      - WITNESSED BY
MUD .         GEL                  : Mud_type     - MUD TYPE
MATR.         LIMESTONE            : Logunit      - NEUTRON MATRIX
TMAX.C        18                   : BHT          - MAXIMUM RECORDED TEMPERATURE
BHTD.M        341                  : BHTDEP       - MAXIMUM RECORDED TEMPERATURE
MATR.         1                    : LOGUNIT      - NEUTRON MATRIX
RMT .C        25                   : MDTP         - TEMPERATURE OF MUD
NEUT.         1                    : NEUTRON      - NEUTRON TYPE
RESI.         0                    : RESIST       - RESISTIVITY TYPE
RMC .OHMM     0.25                 : RMC          - RESISTIVITY OF MUD CAKE
RMF .OHMM     0.25                 : RMF          - RESISTIVITY OF MUD FILTRATE
SUFT.C        15                   : SUFT         - SURFACE TEMPERATURE
~A  DEPTH     PHID     PHIN       GR     RESD     DENS
# ...
  289.000    0.352    0.385   31.831    3.979 2107.390
  289.250    0.339    0.372   37.940    4.055 2130.470
  289.500    0.303    0.360   48.319    4.292 2191.230
  289.750    0.273    0.349   61.746    4.542 2243.620
  290.000    0.267    0.350   67.248    4.898 2254.140
  290.250    0.290    0.366   66.650    5.282 2214.400
  290.500    0.296    0.384   69.712    5.485 2203.980
  290.750    0.274    0.394   67.896    5.590 2241.710
  291.000    0.268    0.391   59.372    5.487 2252.210
  291.250    0.286    0.391   52.065    5.285 2220.850
  291.500    0.314    0.379   47.199    4.996 2172.730
  291.750    0.324    0.355   47.211    4.812 2156.020
  292.000    0.303    0.369   48.444    4.549 2191.660
  292.250    0.299    0.394   44.188    4.464 2197.990
  292.500    0.328    0.379   35.663    4.382 2149.870
  292.750    0.347    0.363   31.407    4.301 2116.410
  293.000    0.340    0.351   33.860    4.221 2129.020
  293.250    0.336    0.356   32.653    4.143 2135.350
  293.500    0.338    0.368   35.105    4.067 2131.200
  293.750    0.335    0.357   39.996    4.068 2137.520
  294.000    0.329    0.385   42.446    4.145 2148.030
  294.250    0.319    0.382   40.629    4.225 2164.830
  294.500    0.296    0.358   42.471    4.387 2204.650
  294.750    0.281    0.355   41.265    4.557 2229.830
  295.000    0.294    0.386   36.398    4.732 2206.840
  295.250    0.353    0.398   30.922    4.645 2106.370
  295.500    0.355    0.403   29.716    4.309 2102.220
  295.750    0.342    0.390   31.560    4.150 2125.310
  296.000    0.346    0.386   35.841    4.074 2119.070
  296.250    0.347    0.397   41.339    4.151 2117.010
  296.500    0.316    0.403   46.840    4.394 2169.410
  296.750    0.294    0.399   48.682    4.649 2207.140
  297.000    0.272    0.366   46.868    4.829 2244.870
  297.250    0.265    0.350   47.489    5.015 2257.480
  297.500    0.290    0.359   43.841    5.015 2213.540
  297.750    0.316    0.376   38.367    4.741 2169.610
  298.000    0.323    0.388   35.330    4.481 2157.100
  298.250    0.326    0.400   34.122    4.316 2152.950
  298.500    0.331    0.380   31.088    4.237 2144.620
  298.750    0.340    0.372   29.880    4.081 2127.910
  299.000    0.356    0.397   30.500    4.005 2100.730
  299.250    0.387    0.403   29.293    4.006 2048.430
  299.500    0.383    0.384   26.257    3.932 2054.750
  299.750    0.364    0.382   28.100    3.860 2088.300
  300.000    0.354    0.386   28.111    3.933 2105.090
  300.250    0.349    0.386   27.514    3.934 2113.510
  300.500    0.352    0.382   31.186    4.010 2107.270
  300.750    0.341    0.386   37.295    4.164 2126.160
  301.000    0.312    0.370   47.675    4.324 2176.450
  301.250    0.289    0.359   52.565    4.491 2216.280
  301.500    0.296    0.379   48.919    4.492 2203.770
  301.750    0.317    0.378   36.127    4.409 2168.210
  302.000    0.334    0.371   28.821    4.247 2138.950
  302.250    0.339    0.380   27.004    4.168 2130.610
  302.500    0.323    0.368   30.677    4.091 2157.870
  302.750    0.312    0.372   30.081    4.092 2176.750
  303.000    0.325    0.394   28.262    4.092 2153.770
  303.250    0.340    0.391   27.055    4.093 2128.690
  303.500    0.336    0.375   27.069    4.171 2135.010
  303.750    0.341    0.358   26.469    4.172 2126.680
  304.000    0.337    0.345   24.652    4.173 2133.000
  304.250    0.332    0.344   21.005    4.174 2141.430
  304.500    0.341    0.351   23.457    4.174 2126.810
  304.750    0.347    0.367   27.128    4.097 2116.380
  305.000    0.340    0.368   27.752    4.098 2128.980
  305.250    0.328    0.369   27.764    4.022 2149.960
  305.500    0.314    0.353   25.340    4.023 2173.040
  305.750    0.305    0.346   24.132    4.100 2187.740
  306.000    0.315    0.331   25.973    4.178 2171.040
  306.250    0.329    0.336   25.378    4.179 2148.040
  306.500    0.337    0.357   22.950    4.102 2133.430
  306.750    0.342    0.364   21.133    4.102 2125.100
  307.000    0.344    0.359   25.412    4.027 2120.950
  307.250    0.346    0.359   30.303    3.952 2118.900
  307.500    0.346    0.366   30.926    3.879 2118.940
  307.750    0.357    0.379   33.380    3.880 2100.140
  308.000    0.350    0.391   36.438    3.954 2110.650
  308.250    0.342    0.368   33.401    4.107 2125.350
  308.500    0.344    0.349   29.756    4.265 2121.200
  308.750    0.337    0.349   31.597    4.347 2133.820
  309.000    0.342    0.363   29.172    4.347 2125.480
  309.250    0.348    0.369   26.746    4.348 2115.050
  309.500    0.345    0.358   25.537    4.188 2119.280
  309.750    0.354    0.352   26.159    4.111 2104.670
  310.000    0.375    0.363   30.442    4.035 2069.110
  310.250    0.359    0.387   28.628    3.960 2096.380
  310.500    0.337    0.370   26.809    3.961 2134.110
  310.750    0.348    0.356   26.209    4.037 2115.320
  311.000    0.353    0.355   25.613    4.037 2106.970
  311.250    0.350    0.371   26.843    4.115 2111.210
  311.500    0.340    0.384   26.858    4.193 2128.000
  311.750    0.331    0.356   24.430    4.194 2144.800
  312.000    0.329    0.345   23.834    4.275 2146.940
  312.250    0.328    0.339   25.067    4.357 2149.080
  312.500    0.319    0.332   24.470    4.440 2163.770
  312.750    0.312    0.326   23.265    4.441 2176.390
  313.000    0.314    0.327   23.279    4.442 2172.230
  313.250    0.324    0.349   23.896    4.359 2155.530
  313.500    0.332    0.360   25.128    4.279 2143.000
  313.750    0.336    0.352   25.140    4.200 2134.680
  314.000    0.340    0.354   23.323    4.200 2128.440
  314.250    0.356    0.378   25.167    4.201 2101.260
  314.500    0.414    0.422   28.835    4.202 2002.880
  314.750    0.406    0.442   35.557    4.282 2015.490
  315.000    0.382    0.442   39.839    4.365 2057.410
  315.250    0.374    0.429   36.191    4.449 2070.020
  315.500    0.398    0.379   31.324    4.449 2030.270
  315.750    0.410    0.405   27.683    4.534 2009.380
  316.000    0.400    0.453   27.084    4.621 2026.180
  316.250    0.393    0.444   26.485    4.799 2038.780
  316.500    0.408    0.405   25.277    4.711 2011.600
  316.750    0.370    0.415   22.240    4.623 2076.550
  317.000    0.310    0.386   15.546    4.289 2179.200
  317.250    0.319    0.362   12.509    4.131 2164.580
  317.500    0.343    0.353   14.350    4.055 2122.750
  317.750    0.340    0.375   13.756    3.980 2129.070
  318.000    0.341    0.390   11.941    3.981 2127.020
  318.250    0.346    0.385   11.950    3.981 2118.700
  318.500    0.335    0.362   11.964    4.058 2137.590
  318.750    0.335    0.347   12.585    3.982 2137.620
  319.000    0.343    0.343   13.207    3.909 2123.010
  319.250    0.349    0.352   14.443    3.909 2112.580
  319.500    0.354    0.375   15.063    3.837 2104.250
  319.750    0.355    0.396   14.466    3.696 2102.210
  320.000    0.358    0.407   13.867    3.697 2098.050
  320.250    0.364    0.401   13.273    3.561 2087.630
  320.500    0.358    0.386   12.675    3.561 2098.150
  320.750    0.361    0.380   12.688    3.562 2091.910
  321.000    0.365    0.374   12.699    3.562 2085.670
  321.250    0.366    0.374   13.320    3.563 2083.610
  321.500    0.363    0.368   13.942    3.497 2089.940
  321.750    0.355    0.361   13.953    3.498 2102.550
  322.000    0.352    0.363   12.751    3.498 2108.880
  322.250    0.358    0.378   12.759    3.499 2098.440
  322.500    0.375    0.391   12.775    3.434 2069.170
  322.750    0.376    0.380   13.395    3.435 2067.120
  323.000    0.372    0.383   14.017    3.371 2073.450
  323.250    0.373    0.395   15.861    3.372 2071.390
  323.500    0.398    0.410   17.092    3.309 2029.560
  323.750    0.419    0.447   17.103    3.310 1994.010
  324.000    0.413    0.442   15.288    3.311 2004.510
  324.250    0.378    0.400   14.079    3.374 2063.180
  324.500    0.361    0.389   12.267    3.439 2092.550
  324.750    0.360    0.398   11.666    3.439 2094.680
  325.000    0.366    0.403   12.290    3.505 2084.260
  325.250    0.370    0.403   12.300    3.640 2078.010
