~VERSION INFORMATION
 VERS.                 2.0:   CWLS LOG ASCII STANDARD -VERSION 2.0
 WRAP.                  NO:   ONE LINE PER DEPTH STEP
~WELL INFORMATION BLOCK
#MNEM.UNIT           DATA                    DESCRIPTION OF MNEMONIC
#---------    -------------------            -------------------------------
# Generated from Intellog Unique Number	CW_79_81/WELL/2900
WELL.         MOBIL WABASCA 10-26            : Well_name    - WELL
LOC .         00/10-26-080-26W4/0            : Location     - LOCATION
UWI .         00/10-26-080-26W4/0            : Uwi          - UNIQUE WELL ID
ENTR.         JJ                             : Entered      - ENTERED BY
SRVC.         SCHLUMBERGER                   : Scn          - SERVICE COMPANY
DATE.         1 JAN 67                       : Date         - LOG DATE
STRT.M        329.184                        : top_depth    - START DEPTH
STOP.M        456.684                        : bot_depth    - STOP DEPTH
STEP.M        0.25                           : increment    - STEP LENGTH
 NULL. -999.2500:NULL Value
~CURVE INFORMATION BLOCK
#MNEM UNIT       ERCB CURVE CODE    CURVE DESCRIPTION
#-----------   ------------------   ----------------------------------
DEPT.M        00 001 00 00         : DEPTH        - DEPTH
DELT.US/F     00 520 00 00         : DELT         - SONIC TRAVEL TIME
GR  .API      00 310 00 00         : GR           - GAMMA RAY
RHOB.KG/M3    00 350 00 00         : DENS         - BULK DENSITY
ILD .OHMM     00 120 00 00         : RESD         - DEEP RESISTIVITY (DIL)
~PARAMETER INFORMATION
#MNEM.UNIT           DATA             DESCRIPTION OF MNEMONIC
#---------         -----------     ------------------------------
GL  .M        550.713              : gl           - GROUND LEVEL ELEVATION
EREF.M        554.706              : kb           - ELEVATION OF DEPTH REFERENCE
DATM.M        554.706              : datum        - DATUM ELEVATION
TDD .M        464.21               : tdd          - TOTAL DEPTH DRILLER
RUN .         ONE                  : Run          - RUN NUMBER
ENG .         CUFFY                : Engineer     - RECORDING ENGINEER
WIT .         SMITH                : Witness      - WITNESSED BY
BASE.         S.L.                 : Branch       - HOME BASE OF LOGGING UNIT
MUD .         GEL                  : Mud_type     - MUD TYPE
MATR.         LIMESTONE            : Logunit      - NEUTRON MATRIX
TMAX.C        33.8889              : BHT          - MAXIMUM RECORDED TEMPERATURE
BHTD.M        464.21               : BHTDEP       - MAXIMUM RECORDED TEMPERATURE
RMT .C        33.8889              : MDTP         - TEMPERATURE OF MUD
MUDD.KG/M     1140                 : MWT          - MUD DENSITY
NEUT.         1                    : NEUTRON      - NEUTRON TYPE
RESI.         0                    : RESIST       - RESISTIVITY TYPE
RM  .OHMM     0                    : RM           - RESISTIVITY OF MUD
RMC .OHMM     4.68                 : RMC          - RESISTIVITY OF MUD CAKE
RMF .OHMM     2.84                 : RMF          - RESISTIVITY OF MUD FILTRATE
SUFT.C        5                    : SUFT         - SURFACE TEMPERATURE
~A  DEPTH     DELT       GR     DENS     RESD
# ...
  372.684  246.130   61.083 2627.090   50.373
  372.934  212.658   52.909 2643.640   49.335
  373.184  208.532   48.062 2614.570   42.581
  373.434  203.402   44.557 2522.180   30.785
  373.684  215.260   42.092 2374.920   25.138
  373.934  236.320   42.713 2309.870   21.724
  374.184  331.650   48.798 2264.760   20.175
  374.434  362.381   57.569 2277.210   18.996
  374.684  364.233   67.480 2271.360   18.184
  374.934  359.639   74.811 2277.450   17.412
  375.184  356.378   77.614 2293.200   16.419
  375.434  359.043   69.888 2302.150   15.710
  375.684  364.254   66.728 2290.560   14.079
  375.934  369.327   70.631 2295.600   13.165
  376.184  373.197   77.214 2283.180   12.500
  376.434  376.862   83.893 2291.320   12.281
  376.684  379.648   91.322 2275.410   12.067
  376.934  379.153   88.215 2267.930   11.991
  377.184  378.660   82.372 2287.560   11.876
  377.434  377.354   83.143 2284.390   11.928
  377.684  378.329   87.588 2282.660   12.100
  377.934  380.587   93.427 2269.830   12.190
  378.184  380.160   91.907 2297.500   12.385
  378.434  376.165   82.788 2304.400   12.596
  378.684  372.311   79.533 2282.100   13.304
  378.934  365.772   78.760 2285.930   13.783
  379.184  368.631   78.633 2318.330   13.546
  379.434  371.759   79.502 2342.280   12.819
  379.684  369.782   79.225 2342.810   12.355
  379.934  363.169   76.421 2340.050   11.954
  380.184  359.520   76.839 2318.590   11.614
  380.434  366.812   80.587 2300.000   11.376
  380.684  379.207   87.367 2304.660   11.078
  380.934  379.918   85.903 2316.070   10.963
  381.184  377.404   86.673 2306.130   11.033
  381.434  377.847   88.333 2291.230   11.350
  381.684  377.752   86.024 2311.280   11.790
  381.934  374.232   83.311 2370.610   12.086
  382.184  357.949   80.950 2413.890   12.114
  382.434  347.583   80.128 2375.780   12.002
  382.684  335.736   81.046 2333.750   11.844
  382.934  348.130   79.031 2306.750   11.844
  383.184  363.348   78.754 2310.970   11.417
  383.434  377.221   83.201 2302.870   11.481
  383.684  381.022   83.724 2297.440   11.797
  383.934  377.432   83.942 2286.040   12.319
  384.184  374.449   83.769 2255.730   12.635
  384.434  371.603   80.063 2273.750   12.767
  384.684  367.543   76.507 2295.240   12.735
  384.934  366.777   71.664 2301.540   12.599
  385.184  368.693   71.587 2309.460   12.199
  385.434  371.489   72.799 2321.920   11.982
  385.684  379.182   75.709 2316.900   12.073
  385.934  391.243   80.799 2327.900   12.144
  386.184  389.536   85.791 2339.530   11.352
  386.434  382.191   92.672 2345.400   10.090
  386.684  368.731   91.304 2346.750    9.649
  386.934  360.981   86.857 2314.610    9.597
  387.184  369.012   86.032 2325.210   10.055
  387.434  378.252   85.513 2346.910   11.745
  387.684  387.287   89.808 2358.540   16.180
  387.934  386.184   97.333 2406.960   20.555
  388.184  373.532  105.655 2471.420   24.498
  388.434  343.352   94.005 2533.420   30.983
  388.684  270.058   88.009 2488.730   41.957
  388.934  240.616   72.627 2334.050   46.994
  389.184  254.355   68.476 2290.380   53.276
  389.434  294.217   66.016 2500.180   51.102
  389.684  347.041   71.356 2602.260   51.402
  389.934  209.278   75.453 2484.390   60.572
  390.184  210.055   66.880 2362.810   63.136
  390.434  241.120   55.523 2324.270   52.513
  390.684  294.413   55.797 2459.250   52.817
  390.934  310.705   59.196 2510.550   63.832
  391.184  254.466   54.451 2597.830   51.360
  391.434  229.054   50.795 2604.130   46.353
  391.684  196.389   45.254 2641.860   33.840
  391.934  218.724   44.482 2678.350   25.061
  392.184  216.006   45.944 2681.150   19.933
  392.434  204.631   50.093 2524.230   16.620
  392.684  192.582   52.649 2359.880   14.566
  392.934  230.365   48.398 2308.400   14.369
  393.184  302.514   50.512 2323.320   14.810
  393.434  155.699   61.417 2350.780   15.624
  393.684  353.510   74.066 2381.740   15.695
  393.934  306.809   78.707 2415.360   14.673
  394.184  243.387   82.063 2375.600   14.040
  394.434  322.064   83.125 2376.980   13.224
  394.684  316.396   80.912 2354.660   12.491
  394.934  332.282   79.598 2330.950   12.086
  395.184  345.752   75.045 2347.510   11.828
  395.434  347.796   69.254 2368.190   11.671
  395.684  343.948   72.161 2361.100   11.575
  395.934  350.367   83.117 2356.300   11.523
  396.184  355.309   88.704 2353.110   11.697
  396.434  350.110   88.830 2316.440   11.953
  396.684  345.786   83.981 2320.870   12.064
  396.934  352.133   77.145 2340.120   12.134
  397.184  357.279   77.269 2361.190   12.246
  397.434  362.016   89.716 2383.520   12.193
  397.684  356.886   91.728 2386.720   11.977
  397.934  342.690   88.421 2345.120   11.797
  398.184  336.618   83.075 2342.370   11.373
  398.434  344.582   82.204 2321.080   10.970
  398.684  361.879   85.757 2381.220   10.876
  398.934  363.060   81.009 2382.790   11.048
  399.184  347.716   76.112 2351.450   11.407
  399.434  348.697   77.877 2336.160   11.808
  399.684  359.215   79.835 2350.680   12.292
  399.934  363.953   75.885 2377.710   12.444
  400.184  351.835   73.621 2354.390   12.165
  400.434  350.800   74.985 2362.940   11.845
  400.684  350.772   78.142 2383.620   11.623
  400.934  345.980   76.128 2325.350   11.303
  401.184  349.376   77.691 2310.690   11.229
  401.434  359.289   82.484 2320.250   11.239
  401.684  366.582   85.040 2330.030   11.247
  401.934  365.001   82.032 2356.880   11.337
  402.184  364.646   80.316 2363.560   11.432
  402.434  365.351   89.185 2322.370   11.520
  402.684  366.537   91.200 2332.980   11.528
  402.934  373.490   90.183 2355.500   11.537
  403.184  374.606   89.404 2454.490   11.608
  403.434  344.490   86.301 2423.160   11.594
  403.684  343.387   83.485 2340.020   11.585
  403.934  355.450   79.236 2377.140   11.634
  404.184  370.936   75.234 2382.810   11.790
  404.434  351.970   71.877 2342.450   11.982
  404.684  343.680   79.653 2325.310   12.215
  404.934  344.122   89.220 2322.350   12.215
  405.184  336.574   90.137 2317.510   15.000
  405.434  340.303   84.445 2302.820   16.574
  405.684  345.448   80.095 2324.320   18.776
  405.934  349.579   79.425 2327.330   18.860
  406.184  349.892   78.054 2381.080   18.870
  406.434  294.795   75.394 2532.500   17.702
  406.684  274.220   72.537 2504.470   14.864
  406.934  259.217   69.428 2443.530   12.623
  407.184  254.151   64.578 2390.620   11.497
  407.434  288.171   59.284 2377.390   11.031
  407.684  314.467   66.912 2357.960   11.267
  407.934  339.755   72.452 2370.000   11.461
  408.184  347.048   76.102 2388.220   11.637
  408.434  329.025   76.923 2437.660   11.519
  408.684  327.183   75.402 2497.400   11.156
  408.934  305.328   72.592 2480.250   10.156
  409.184  297.041   70.577 2374.100    9.443
  409.434  344.358   67.569 2362.690    9.264
  409.684  364.677   73.904 2438.460    9.376
  409.934  347.253   83.520 2451.940   10.005
  410.184  347.428   86.080 2343.110   10.672
  410.434  372.719   85.504 2396.870   11.878
  410.684  375.312   85.874 2469.580   12.485
  410.934  345.600   88.930 2446.050   12.204
  411.184  319.381   85.872 2392.310    9.845
  411.434  328.957   82.168 2375.770    9.683
  411.684  342.491   85.917 2352.270    9.424
  411.934  343.474   94.189 2339.830    9.535
  412.184  356.470   98.291 2350.840   10.245
  412.434  367.189   95.979 2341.510   11.265
  412.684  382.136   97.638 2399.380   12.450
  412.934  380.767  102.234 2517.290   13.717
  413.184  340.716  104.841 2510.010   15.315
  413.434  315.572   94.329 2375.700   16.498
  413.684  326.758   83.569 2340.660   18.076
  413.934  347.480   84.437 2304.810   18.888
  414.184  359.138   87.342 2263.810   19.495
  414.434  357.162   82.843 2217.260   16.451
  414.684  358.610   70.292 2168.470   12.131
  414.934  365.967   57.893 2126.250   11.248
  415.184  371.582   42.310 2136.870    9.545
  415.434  374.574   31.449 2139.640    8.708
  415.684  371.188   27.598 2143.880    8.139
  415.934  366.595   23.351 2138.420    7.818
