~VERSION INFORMATION
 VERS.                 2.0:   CWLS LOG ASCII STANDARD -VERSION 2.0
 WRAP.                  NO:   ONE LINE PER DEPTH STEP
~WELL INFORMATION BLOCK
#MNEM.UNIT           DATA                    DESCRIPTION OF MNEMONIC
#---------    -------------------            -------------------------------
# Generated from Intellog Unique Number	CW_82_90/WELL/903
WELL.         10-24-083-19W4                 : Well_name    - WELL
LOC .         00/10-24-083-19W4/0            : Location     - LOCATION
UWI .         00/10-24-083-19W400            : Uwi          - UNIQUE WELL ID
ENTR.         JAYE                           : Entered      - ENTERED BY
SRVC.         SCHLUMBERGER                   : Scn          - SERVICE COMPANY
DATE.         20 JAN 80                      : Date         - LOG DATE
STRT.M        95                             : top_depth    - START DEPTH
STOP.M        311                            : bot_depth    - STOP DEPTH
STEP.M        0.25                           : increment    - STEP LENGTH
 NULL. -999.2500:NULL Value
~CURVE INFORMATION BLOCK
#MNEM UNIT       ERCB CURVE CODE    CURVE DESCRIPTION
#-----------   ------------------   ----------------------------------
DEPT.M        00 001 00 00         : DEPTH        - DEPTH
CALI.MM       00 280 01 00         : CAL          - CALIPER
GR  .API      00 310 00 00         : GR           - GAMMA RAY
NPHI.V/V      00 330 00 00         : PHIN         - NEUTRON POROSITY (SANDSTONE)
DPHI.V/V      00 890 00 00         : PHID         - DENSITY POROSITY (SANDSTONE)
ILD .OHMM     00 120 00 00         : RESD         - DEEP RESISTIVITY (DIL)
~PARAMETER INFORMATION
#MNEM.UNIT           DATA             DESCRIPTION OF MNEMONIC
#---------         -----------     ------------------------------
GL  .M        567.28               : gl           - GROUND LEVEL ELEVATION
EREF.M        570.48               : kb           - ELEVATION OF DEPTH REFERENCE
DATM.M        567.28               : datum        - DATUM ELEVATION
TDD .M        314                  : tdd          - TOTAL DEPTH DRILLER
RUN .         ONE                  : Run          - RUN NUMBER
ENG .         MIDDLETON            : Engineer     - RECORDING ENGINEER
WIT .         COLLET               : Witness      - WITNESSED BY
BASE.         EDMONTON             : Branch       - HOME BASE OF LOGGING UNIT
MUD .         GEL                  : Mud_type     - MUD TYPE
MATR.         SANDSTONE            : Logunit      - NEUTRON MATRIX
TMAX.C        29                   : BHT          - MAXIMUM RECORDED TEMPERATURE
BHTD.M        314                  : BHTDEP       - MAXIMUM RECORDED TEMPERATURE
RMT .C        11.1                 : MDTP         - TEMPERATURE OF MUD
MUDD.KG/M     1125                 : MWT          - MUD DENSITY
NEUT.         1                    : NEUTRON      - NEUTRON TYPE
RESI.         0                    : RESIST       - RESISTIVITY TYPE
RM  .OHMM     4.12                 : RM           - RESISTIVITY OF MUD
RMC .OHMM     0                    : RMC          - RESISTIVITY OF MUD CAKE
RMF .OHMM     16.7                 : RMF          - RESISTIVITY OF MUD FILTRATE
SUFT.C        0                    : SUFT         - SURFACE TEMPERATURE
~A  DEPTH      CAL       GR     PHIN     PHID     RESD
# ...
  277.500  233.737   97.037    0.443   -0.424    7.700
  277.750  234.549   99.874    0.440   -0.410    7.715
  278.000  234.019  101.472    0.437   -0.405    7.775
  278.250  230.808  102.206    0.441   -0.412    7.836
  278.500  227.804  105.167    0.459   -0.412    7.850
  278.750  225.419  109.796    0.475   -0.416    7.646
  279.000  224.477  111.582    0.476   -0.428    7.213
  279.250  225.078  112.068    0.463   -0.434    6.790
  279.500  225.479  111.195    0.457   -0.427    6.667
  279.750  226.286  110.690    0.458   -0.415    7.079
  280.000  226.687  108.703    0.450   -0.417    8.129
  280.250  226.776   91.127    0.365   -0.439   10.135
  280.500  225.730   87.097    0.345   -0.452   13.775
  280.750  224.789   85.230    0.353   -0.464   14.893
  281.000  225.288   84.977    0.362   -0.443   13.604
  281.250  226.512   88.185    0.407   -0.400   12.377
  281.500  227.939   94.300    0.411   -0.417   11.283
  281.750  228.129   93.302    0.400   -0.413   10.537
  282.000  226.880   94.344    0.404   -0.418   10.305
  282.250  226.039   97.737    0.409   -0.406   10.832
  282.500  225.199   98.224    0.405   -0.395   11.618
  282.750  224.982   88.505    0.398   -0.403   12.920
  283.000  225.277   89.544    0.404   -0.403   14.223
  283.250  225.468   90.219    0.405   -0.390   15.409
  283.500  223.905   88.664    0.399   -0.363   16.963
  283.750  222.242   85.315    0.394   -0.364   18.121
  284.000  220.681   80.668    0.397   -0.378   19.050
  284.250  220.147   79.237    0.411   -0.437   21.183
  284.500  220.241   79.166    0.401   -0.466   22.403
  284.750  220.224   78.662    0.360   -0.427   22.489
  285.000  220.523   70.673    0.353   -0.440   22.037
  285.250  220.817   69.738    0.354   -0.450   21.124
  285.500  221.524   69.605    0.365   -0.462   19.489
  285.750  222.848   71.391    0.387   -0.431   18.458
  286.000  224.071   71.751    0.408   -0.374   17.516
  286.250  225.398   71.930    0.413   -0.362   16.756
  286.500  225.897   72.230    0.384   -0.367   15.963
  286.750  225.884   73.335    0.389   -0.363   15.644
  287.000  225.867   73.078    0.411   -0.359   15.085
  287.250  225.854   71.275    0.421   -0.332   14.932
  287.500  226.048   75.102    0.429   -0.332   15.200
  287.750  226.134   77.627    0.429   -0.340   15.757
  288.000  226.431   77.310    0.426   -0.361   16.866
  288.250  226.827   76.932    0.413   -0.364   18.090
  288.500  227.329   78.779    0.406   -0.367   18.675
  288.750  227.830   78.709    0.409   -0.372   18.412
  289.000  228.535   76.039    0.422   -0.378   17.613
  289.250  229.241   75.661    0.420   -0.385   16.646
  289.500  229.333   76.642    0.421   -0.395   16.677
  289.750  229.730   79.107    0.411   -0.378   17.045
  290.000  230.025   81.262    0.379   -0.384   18.099
  290.250  230.013   81.997    0.382   -0.399   18.278
  290.500  229.276   76.051    0.437   -0.393   18.055
  290.750  227.817   75.484    0.432   -0.378   17.516
  291.000  226.668   78.013    0.418   -0.379   16.959
  291.250  225.521   78.496    0.404   -0.384   16.224
  291.500  224.167   76.449    0.398   -0.391   15.211
  291.750  223.018   75.079    0.405   -0.405   14.464
  292.000  222.796   75.132    0.410   -0.403   13.159
  292.250  224.124   74.689    0.406   -0.393   12.363
  292.500  225.139   78.826    0.392   -0.392   11.803
  292.750  223.268   80.610    0.383   -0.373   12.457
  293.000  222.741   81.159    0.377   -0.364   12.886
  293.250  223.242   80.902    0.390   -0.375   12.781
  293.500  230.134   78.605    0.406   -0.387   12.600
  293.750  233.522   76.803    0.416   -0.400   12.005
  294.000  234.951   75.186    0.408   -0.396   11.882
  294.250  234.831   77.467    0.413   -0.391   12.243
  294.500  234.921   79.806    0.420   -0.388   12.414
  294.750  234.288   79.862    0.423   -0.386   11.899
  295.000  236.230   82.450    0.444   -0.389   11.045
  295.250  237.250   86.957    0.464   -0.400   10.587
  295.500  235.276   89.918    0.453   -0.410    9.986
  295.750  233.407   93.312    0.435   -0.399    9.592
  296.000  233.183   95.901    0.423   -0.397    9.083
  296.250  233.685   94.903    0.415   -0.392    8.602
  296.500  235.113   91.430    0.436   -0.376    8.163
  296.750  238.400   93.090    0.454   -0.343    7.654
  297.000  249.108   92.650    0.472   -0.328    7.205
  297.250  260.434   90.476    0.486   -0.293    6.962
  297.500  269.078   93.684    0.467   -0.294    6.727
  297.750  266.487   99.243    0.416   -0.326    7.143
  298.000  257.503  105.171    0.412   -0.379    7.848
  298.250  249.447  107.698    0.407   -0.421    7.815
  298.500  244.897  105.278    0.395   -0.427    9.193
  298.750  239.006  101.868    0.385   -0.432   11.256
  299.000  234.146   97.651    0.375   -0.468   13.673
  299.250  230.316   89.973    0.316   -0.548   18.734
  299.500  228.448   87.739    0.318   -0.500   28.206
  299.750  226.576   90.513    0.359   -0.435   31.364
  300.000  226.048  102.010    0.392   -0.412   30.551
  300.250  225.828  106.763    0.407   -0.417   29.050
  300.500  225.916  113.745    0.399   -0.423   27.732
  300.750  226.521  122.334    0.392   -0.400   27.230
  301.000  226.812  127.954    0.386   -0.401   27.116
  301.250  227.210  124.234    0.384   -0.400   28.334
  301.500  226.786   93.917    0.384   -0.389   29.727
  301.750  226.050   76.774    0.388   -0.345   31.375
  302.000  224.283   70.270    0.396   -0.335   32.133
  302.250  223.854   59.744    0.393   -0.327   32.256
  302.500  223.842   57.138    0.386   -0.323   31.926
  302.750  223.414   55.400    0.384   -0.329   30.849
  303.000  223.092   56.315    0.388   -0.337   29.690
  303.250  222.871   57.978    0.387   -0.324   28.174
  303.500  220.172   60.693    0.382   -0.325   26.469
  303.750  219.748   65.940    0.404   -0.324   24.619
  304.000  220.970   68.964    0.414   -0.315   22.487
  304.250  221.678   73.531    0.412   -0.308   21.512
  304.500  222.282   76.678    0.407   -0.326   20.169
  304.750  223.093   80.752    0.402   -0.349   19.607
  305.000  223.285   92.682    0.395   -0.381   18.126
  305.250  223.578  106.838    0.392   -0.413   16.962
  305.500  223.254  132.437    0.390   -0.442   14.156
  305.750  222.723  134.284    0.389   -0.433   11.510
  306.000  222.709  128.462    0.406   -0.413    9.099
  306.250  222.697  126.349    0.436   -0.398    6.403
  306.500  222.579  130.114    0.453   -0.386    4.872
  306.750  222.875  128.869    0.465   -0.387    4.207
  307.000  222.653  130.283    0.456   -0.382    4.049
  307.250  221.814  122.170    0.447   -0.391    4.180
  307.500  220.561  117.646    0.468   -0.401    4.386
  307.750  219.930  113.246    0.453   -0.410    4.780
  308.000  220.119  108.907    0.441   -0.410    5.076
  308.250  221.447   96.405    0.445   -0.403    5.304
  308.500  222.774   98.993    0.461   -0.387    5.334
  308.750  224.201  106.346    0.479   -0.382    5.154
  309.000  224.703  111.533    0.490   -0.387    4.794
  309.250  224.895  108.617    0.488   -0.387    4.362
  309.500  224.983  100.382    0.480   -0.393    4.147
  309.750  224.968   86.579    0.453   -0.383    4.214
  310.000  224.850   71.911    0.420   -0.387    5.296
  310.250  224.526   65.284    0.401   -0.360    7.285
  310.500  224.924   49.069    0.388   -0.350   11.862
  310.750  225.221   47.762    0.375   -0.372   14.350
  311.000  224.794   64.639    0.357   -0.432   16.413
