~VERSION INFORMATION
 VERS.                 2.0:   CWLS LOG ASCII STANDARD -VERSION 2.0
 WRAP.                  NO:   ONE LINE PER DEPTH STEP
~WELL INFORMATION BLOCK
#MNEM.UNIT           DATA                    DESCRIPTION OF MNEMONIC
#---------    -------------------            -------------------------------
# Generated from Intellog Unique Number	CS_67_68/WELL/833
WELL.         ET AL TWEEDIE                  : Well_name    - WELL
LOC .         00/11-12-068-13W4/0            : Location     - LOCATION
UWI .         00/11-12-068-13W4/0            : Uwi          - UNIQUE WELL ID
ENTR.         SP                             : Entered      - ENTERED BY
SRVC.         SCHLUMBERGER                   : Scn          - SERVICE COMPANY
STRT.M        289.56                         : top_depth    - START DEPTH
STOP.M        466.060                        : bot_depth    - STOP DEPTH
STEP.M        0.25                           : increment    - STEP LENGTH
 NULL. -999.2500:NULL Value
~CURVE INFORMATION BLOCK
#MNEM UNIT       ERCB CURVE CODE    CURVE DESCRIPTION
#-----------   ------------------   ----------------------------------
DEPT.M        00 001 00 00         : DEPTH        - DEPTH
GR  .API      00 310 00 00         : GR           - GAMMA RAY
DPHI.V/V      00 890 00 00         : PHID         - DENSITY POROSITY (SANDSTONE)
NPHI.V/V      00 330 00 00         : PHIN         - NEUTRON POROSITY (SANDSTONE)
ILD .OHMM     00 120 00 00         : RESD         - DEEP RESISTIVITY (DIL)
~PARAMETER INFORMATION
#MNEM.UNIT           DATA             DESCRIPTION OF MNEMONIC
#---------         -----------     ------------------------------
GL  .M        590.398              : gl           - GROUND LEVEL ELEVATION
EREF.M        593.141              : kb           - ELEVATION OF DEPTH REFERENCE
DATM.M        590.398              : datum        - DATUM ELEVATION
TDD .M        467.868              : tdd          - TOTAL DEPTH DRILLER
RUN .         ONE                  : Run          - RUN NUMBER
ENG .         BILL                 : Engineer     - RECORDING ENGINEER
WIT .         JIM                  : Witness      - WITNESSED BY
MUD .         GEL                  : Mud_type     - MUD TYPE
MATR.         SANDSTONE            : Logunit      - NEUTRON MATRIX
TMAX.C        18.3333              : BHT          - MAXIMUM RECORDED TEMPERATURE
BHTD.M        467.868              : BHTDEP       - MAXIMUM RECORDED TEMPERATURE
MATR.         1                    : LOGUNIT      - NEUTRON MATRIX
RMT .C        25                   : MDTP         - TEMPERATURE OF MUD
NEUT.         1                    : NEUTRON      - NEUTRON TYPE
RESI.         0                    : RESIST       - RESISTIVITY TYPE
RMC .OHMM     0.25                 : RMC          - RESISTIVITY OF MUD CAKE
RMF .OHMM     0.25                 : RMF          - RESISTIVITY OF MUD FILTRATE
SUFT.C        15                   : SUFT         - SURFACE TEMPERATURE
~A  DEPTH       GR     PHID     PHIN     RESD
# ...
  376.560   67.982    0.077    0.224    6.433
  376.810   66.885    0.087    0.229    6.984
  377.060   68.624    0.102    0.235    6.630
  377.310   73.678    0.132    0.252    5.149
  377.560   72.597    0.173    0.344    4.080
  377.810   74.845    0.212    0.483    3.073
  378.060   78.170    0.277    0.529    2.576
  378.310   80.739    0.332    0.536    2.294
  378.560   81.355    0.366    0.525    2.065
  378.810   81.958    0.352    0.519    1.922
  379.060   82.082    0.348    0.502    1.871
  379.310   82.164    0.347    0.494    1.853
  379.560   82.843    0.348    0.483    1.869
  379.810   82.187    0.351    0.487    1.889
  380.060   80.867    0.350    0.489    1.936
  380.310   83.034    0.337    0.507    1.979
  380.560   87.411    0.323    0.526    2.025
  380.810   90.565    0.311    0.538    2.087
  381.060   91.496    0.301    0.551    2.148
  381.310   90.783    0.307    0.559    2.195
  381.560   89.138    0.305    0.553    2.230
  381.810   90.440    0.306    0.567    2.266
  382.060   90.926    0.321    0.557    2.329
  382.310   90.403    0.316    0.552    2.357
  382.560   90.105    0.317    0.558    2.418
  382.810   93.080    0.314    0.547    2.471
  383.060   94.062    0.310    0.532    2.507
  383.310   93.488    0.307    0.525    2.495
  383.560   93.554    0.309    0.531    2.481
  383.810   94.957    0.306    0.536    2.482
  384.060   96.618    0.297    0.530    2.515
  384.310   98.868    0.287    0.512    2.558
  384.560  100.436    0.276    0.497    2.701
  384.810  102.118    0.268    0.505    2.892
  385.060  103.271    0.261    0.502    3.110
  385.310  102.899    0.254    0.492    3.313
  385.560  104.036    0.253    0.494    3.489
  385.810  105.740    0.249    0.498    3.529
  386.060  106.257    0.245    0.489    3.463
  386.310  105.501    0.239    0.491    3.420
  386.560  103.340    0.241    0.497    3.339
  386.810  100.849    0.251    0.493    3.250
  387.060   97.665    0.260    0.493    3.205
  387.310   95.665    0.268    0.496    3.186
  387.560   95.001    0.269    0.508    3.190
  387.810   95.878    0.267    0.502    3.206
  388.060   97.350    0.276    0.498    3.246
  388.310   99.292    0.277    0.505    3.294
  388.560  101.352    0.260    0.501    3.347
  388.810  103.110    0.253    0.504    3.445
  389.060  103.159    0.246    0.489    3.490
  389.310  103.263    0.237    0.472    3.511
  389.560  105.948    0.235    0.479    3.506
  389.810  108.733    0.250    0.503    3.589
  390.060  109.264    0.252    0.514    3.630
  390.310  108.060    0.239    0.518    3.696
  390.560  107.105    0.235    0.509    3.715
  390.810  107.399    0.232    0.514    3.717
  391.060  108.473    0.231    0.525    3.693
  391.310  109.923    0.237    0.543    3.576
  391.560  110.964    0.244    0.548    3.438
  391.810  111.913    0.246    0.546    3.346
  392.060  112.887    0.243    0.549    3.277
  392.310  112.793    0.243    0.549    3.240
  392.560  112.826    0.240    0.562    3.227
  392.810  115.146    0.237    0.568    3.247
  393.060  117.950    0.229    0.551    3.317
  393.310  120.992    0.231    0.546    3.426
  393.560  124.059    0.235    0.550    3.481
  393.810  125.146    0.237    0.552    3.521
  394.060  122.370    0.243    0.564    3.527
  394.310  118.394    0.250    0.563    3.419
  394.560  115.746    0.250    0.559    3.264
  394.810  115.294    0.254    0.569    3.033
  395.060  114.241    0.259    0.554    2.693
  395.310  112.513    0.254    0.542    2.378
  395.560  112.930    0.258    0.559    2.172
  395.810  114.950    0.289    0.580    2.001
  396.060  116.572    0.302    0.615    1.969
  396.310  117.011    0.272    0.604    2.098
  396.560  116.577    0.256    0.603    2.250
  396.810  115.551    0.245    0.615    2.381
  397.060  113.135    0.238    0.610    2.542
  397.310  110.845    0.242    0.553    2.677
  397.560  108.845    0.255    0.573    2.733
  397.810  107.450    0.259    0.591    2.802
  398.060  106.707    0.307    0.612    2.832
  398.310  104.991    0.333    0.576    2.852
  398.560  106.411    0.281    0.543    2.845
  398.810  108.210    0.255    0.537    2.848
  399.060  109.047    0.236    0.543    2.854
  399.310  108.809    0.218    0.554    2.896
  399.560  102.178    0.231    0.566    2.984
  399.810   99.171    0.243    0.574    3.044
  400.060  100.299    0.270    0.577    3.054
  400.310   99.954    0.271    0.592    2.960
  400.560   96.969    0.298    0.582    2.863
  400.810   91.005    0.310    0.562    2.764
  401.060   86.910    0.301    0.548    2.585
  401.310   83.700    0.296    0.536    2.477
  401.560   81.433    0.306    0.554    2.304
  401.810   82.860    0.320    0.545    2.249
  402.060   84.260    0.303    0.538    2.290
  402.310   82.370    0.279    0.546    2.449
  402.560   75.891    0.267    0.470    2.730
  402.810   69.010    0.239    0.342    3.068
  403.060   66.245    0.149    0.317    3.496
  403.310   60.608    0.138    0.342    3.725
  403.560   60.108    0.206    0.467    4.083
  403.810   63.613    0.256    0.516    4.431
  404.060   66.061    0.296    0.552    4.004
  404.310   67.064    0.304    0.569    3.476
  404.560   67.939    0.314    0.583    2.775
  404.810   70.580    0.302    0.557    2.390
  405.060   73.852    0.303    0.536    2.186
  405.310   76.007    0.310    0.530    2.145
  405.560   77.718    0.309    0.531    2.201
  405.810   76.738    0.302    0.557    2.173
  406.060   78.324    0.298    0.571    2.178
  406.310   79.079    0.294    0.580    2.199
  406.560   77.470    0.294    0.564    2.242
  406.810   74.896    0.298    0.545    2.264
  407.060   73.590    0.301    0.533    2.243
  407.310   72.991    0.309    0.528    2.187
  407.560   72.857    0.306    0.534    2.176
  407.810   72.955    0.306    0.548    2.188
  408.060   73.005    0.302    0.547    2.204
  408.310   73.132    0.294    0.544    2.241
  408.560   73.005    0.289    0.549    2.217
  408.810   72.643    0.286    0.533    2.224
  409.060   72.495    0.286    0.529    2.231
  409.310   71.982    0.282    0.548    2.256
  409.560   70.397    0.280    0.562    2.283
  409.810   68.135    0.284    0.550    2.318
  410.060   66.858    0.291    0.543    2.364
  410.310   68.682    0.283    0.543    2.386
  410.560   70.713    0.272    0.543    2.421
  410.810   71.755    0.265    0.546    2.450
  411.060   72.409    0.274    0.549    2.488
  411.310   78.469    0.279    0.545    2.568
  411.560   83.606    0.274    0.552    2.612
  411.810   89.410    0.296    0.539    2.697
  412.060   93.784    0.268    0.529    2.807
  412.310   97.528    0.256    0.546    2.990
  412.560   98.171    0.256    0.563    3.089
  412.810   90.924    0.250    0.571    3.240
  413.060   84.243    0.229    0.575    3.314
  413.310   85.768    0.216    0.590    3.394
  413.560   95.518    0.228    0.591    3.361
  413.810  101.692    0.244    0.572    3.137
  414.060  107.691    0.230    0.588    2.804
  414.310  112.289    0.220    0.603    2.491
  414.560  114.859    0.225    0.605    2.186
  414.810  116.742    0.228    0.592    1.934
  415.060  115.853    0.221    0.569    1.710
  415.310  115.872    0.216    0.555    1.600
  415.560  118.051    0.221    0.551    1.599
  415.810  118.311    0.224    0.565    1.664
  416.060  116.431    0.218    0.580    1.748
  416.310  114.117    0.214    0.593    1.848
  416.560  108.965    0.206    0.596    1.941
  416.810  106.844    0.195    0.589    1.929
  417.060  107.231    0.201    0.581    3.798
  417.310  108.120    0.221    0.572    3.846
  417.560  111.039    0.238    0.588    3.403
  417.810  114.633    0.227    0.604    3.027
  418.060  117.400    0.260    0.619    2.712
  418.310  119.334    0.284    0.622    2.504
  418.560  120.305    0.280    0.624    2.409
  418.810  121.612    0.278    0.625    2.360
  419.060  123.101    0.286    0.623    2.296
  419.310  123.357    0.278    0.621    2.210
  419.560  121.432    0.276    0.619    2.071
  419.810  119.461    0.280    0.619    1.942
