~VERSION INFORMATION
 VERS.                 2.0:   CWLS LOG ASCII STANDARD -VERSION 2.0
 WRAP.                  NO:   ONE LINE PER DEPTH STEP
~WELL INFORMATION BLOCK
#MNEM.UNIT           DATA                    DESCRIPTION OF MNEMONIC
#---------    -------------------            -------------------------------
# Generated from Intellog Unique Number	CS_67_68/WELL/844
WELL.         DOME PETROLEUM LIMITED         : Well_name    - WELL
LOC .         00/11-29-068-02W4/0            : Location     - LOCATION
UWI .         00/11-29-068-02W4/0            : Uwi          - UNIQUE WELL ID
ENTR.         SP                             : Entered      - ENTERED BY
SRVC.         SCHLUMBERGER                   : Scn          - SERVICE COMPANY
STRT.M        390                            : top_depth    - START DEPTH
STOP.M        630                            : bot_depth    - STOP DEPTH
STEP.M        0.25                           : increment    - STEP LENGTH
 NULL. -999.2500:NULL Value
~CURVE INFORMATION BLOCK
#MNEM UNIT       ERCB CURVE CODE    CURVE DESCRIPTION
#-----------   ------------------   ----------------------------------
DEPT.M        00 001 00 00         : DEPTH        - DEPTH
ILD .OHMM     00 120 00 00         : RESD         - DEEP RESISTIVITY (DIL)
DPHI.V/V      00 890 00 00         : PHID         - DENSITY POROSITY (LIMESTONE)
NPHI.V/V      00 330 00 00         : PHIN         - NEUTRON POROSITY (LIMESTONE)
GR  .API      00 310 00 00         : GR           - GAMMA RAY
~PARAMETER INFORMATION
#MNEM.UNIT           DATA             DESCRIPTION OF MNEMONIC
#---------         -----------     ------------------------------
GL  .M        724.6                : gl           - GROUND LEVEL ELEVATION
EREF.M        729.1                : kb           - ELEVATION OF DEPTH REFERENCE
DATM.M        724.6                : datum        - DATUM ELEVATION
TDD .M        637                  : tdd          - TOTAL DEPTH DRILLER
RUN .         ONE                  : Run          - RUN NUMBER
ENG .         BILL                 : Engineer     - RECORDING ENGINEER
WIT .         JIM                  : Witness      - WITNESSED BY
MUD .         GEL                  : Mud_type     - MUD TYPE
MATR.         LIMESTONE            : Logunit      - NEUTRON MATRIX
TMAX.C        28.3                 : BHT          - MAXIMUM RECORDED TEMPERATURE
BHTD.M        6372                 : BHTDEP       - MAXIMUM RECORDED TEMPERATURE
MATR.         1                    : LOGUNIT      - NEUTRON MATRIX
RMT .C        25                   : MDTP         - TEMPERATURE OF MUD
NEUT.         1                    : NEUTRON      - NEUTRON TYPE
RESI.         0                    : RESIST       - RESISTIVITY TYPE
RMC .OHMM     0.25                 : RMC          - RESISTIVITY OF MUD CAKE
RMF .OHMM     0.25                 : RMF          - RESISTIVITY OF MUD FILTRATE
SUFT.C        15                   : SUFT         - SURFACE TEMPERATURE
~A  DEPTH     RESD     PHID     PHIN       GR
# ...
  607.500    6.028    0.244    0.391   66.398
  607.750    5.971    0.258    0.410   64.630
  608.000    5.926    0.267    0.369   65.609
  608.250    5.837    0.216    0.356   72.693
  608.500    5.728    0.183    0.368   79.044
  608.750    5.653    0.207    0.390   67.080
  609.000    5.507    0.275    0.424   47.302
  609.250    5.226    0.319    0.408   39.062
  609.500    5.015    0.345    0.396   31.799
  609.750    4.732    0.372    0.400   27.772
  610.000    4.496    0.314    0.368   30.384
  610.250    4.457    0.303    0.357   36.096
  610.500    4.467    0.293    0.360   40.905
  610.750    4.468    0.285    0.367   48.241
  611.000    4.571    0.287    0.356   53.772
  611.250    4.746    0.280    0.346   58.641
  611.500    4.966    0.270    0.351   61.524
  611.750    5.099    0.258    0.355   59.775
  612.000    5.246    0.263    0.377   49.001
  612.250    5.218    0.301    0.396   34.616
  612.500    4.964    0.326    0.385   25.587
  612.750    4.722    0.331    0.372   21.130
  613.000    4.509    0.332    0.357   19.922
  613.250    4.258    0.342    0.350   19.736
  613.500    4.103    0.353    0.360   20.395
  613.750    3.984    0.360    0.371   21.293
  614.000    3.832    0.365    0.369   22.853
  614.250    3.749    0.366    0.362   24.653
  614.500    3.709    0.362    0.358   26.393
  614.750    3.738    0.359    0.368   27.352
  615.000    3.781    0.364    0.382   27.709
  615.250    3.818    0.366    0.391   25.959
  615.500    3.877    0.358    0.390   24.812
  615.750    3.857    0.353    0.378   26.191
  616.000    3.816    0.350    0.367   28.110
  616.250    3.803    0.345    0.360   28.949
  616.500    3.805    0.347    0.366   29.366
  616.750    3.820    0.358    0.372   29.242
  617.000    3.843    0.367    0.371   24.544
  617.250    3.859    0.370    0.368   22.193
  617.500    3.904    0.358    0.368   23.994
  617.750    3.979    0.348    0.376   26.335
  618.000    4.078    0.337    0.383   27.174
  618.250    4.164    0.339    0.363   26.807
  618.500    4.261    0.353    0.353   26.684
  618.750    4.318    0.347    0.346   27.101
  619.000    4.393    0.330    0.349   28.299
  619.250    4.469    0.323    0.356   28.114
  619.500    4.529    0.339    0.372   26.425
  619.750    4.565    0.347    0.384   24.014
  620.000    4.491    0.350    0.393   22.445
  620.250    4.385    0.354    0.379   23.223
  620.500    4.338    0.352    0.367   31.522
  620.750    4.307    0.336    0.358   35.308
  621.000    4.277    0.332    0.371   32.235
  621.250    4.239    0.343    0.383   29.403
  621.500    4.201    0.346    0.388   28.435
  621.750    4.179    0.346    0.386   29.273
  622.000    4.135    0.357    0.376   30.472
  622.250    4.144    0.364    0.366   30.768
  622.500    4.231    0.346    0.357   30.644
  622.750    4.361    0.337    0.362   30.278
  623.000    4.537    0.328    0.359   29.672
  623.250    4.738    0.320    0.355   29.005
  623.500    4.838    0.314    0.352   29.002
  623.750    4.940    0.318    0.349   30.562
  624.000    5.007    0.319    0.362   32.723
  624.250    5.066    0.327    0.362   36.027
  624.500    5.115    0.317    0.357   38.551
  624.750    5.175    0.311    0.361   40.953
  625.000    5.167    0.323    0.387   39.745
  625.250    5.121    0.328    0.403   35.890
  625.500    5.104    0.332    0.389   31.974
  625.750    5.192    0.330    0.378   29.865
  626.000    5.392    0.324    0.376   28.175
  626.250    5.790    0.263    0.336   41.468
  626.500    7.492    0.016    0.219   51.331
  626.750   10.177   -0.006    0.195   49.040
  627.000   12.063   -0.014    0.180   40.311
  627.250   14.761   -0.009    0.165   34.170
  627.500   18.539    0.002    0.144   31.338
  627.750   21.693    0.014    0.153   40.599
  628.000   23.778    0.021    0.173   44.867
  628.250   24.736    0.016    0.189   47.328
  628.500   24.288    0.020    0.207   48.889
  628.750   23.192    0.029    0.214   51.111
  629.000   21.859    0.030    0.215   53.573
  629.250   21.182    0.043    0.215   58.081
  629.500   19.966    0.053    0.217   60.544
  629.750   19.279    0.058    0.224   62.043
  630.000   18.686    0.057    0.234   62.400
