~VERSION INFORMATION
 VERS.                 2.0:   CWLS LOG ASCII STANDARD -VERSION 2.0
 WRAP.                  NO:   ONE LINE PER DEPTH STEP
~WELL INFORMATION BLOCK
#MNEM.UNIT           DATA                    DESCRIPTION OF MNEMONIC
#---------    -------------------            -------------------------------
# Generated from Intellog Unique Number	CC_80_83/WELL/2397
NULL.         -999.25                        : NULL_VALUE
WELL.         PCI PCEJ HANGINGSTONE          : Well_name    - WELL
LOC .         11-11-083-08W4                 : Location     - LOCATION          
UWI .         00/11-11-083-08W4/0            : Uwi          - UNIQUE WELL ID    
ENTR.         DW                             : Entered      - ENTERED BY        
SRVC.         SCHLUMBERGER                   : Scn          - SERVICE COMPANY   
DATE.         17 FEB 86                      : Date         - LOG DATE
STRT.M        260                            : top_depth    - START DEPTH       
STOP.M        514.99                         : bot_depth    - STOP DEPTH        
STEP.M        0.3                            : increment    - STEP LENGTH       
~CURVE INFORMATION BLOCK
#MNEM UNIT       ERCB CURVE CODE    CURVE DESCRIPTION
#-----------   ------------------   ----------------------------------
DEPT.M        00 001 00 00         : DEPTH        - DEPTH                       
ILD .OHMM     00 120 00 00         : RESD         - DEEP RESISTIVITY (DIL)      
GR  .API      00 310 00 00         : GR           - GAMMA RAY                   
NPHI.V/V      00 330 00 00         : PHIN         - NEUTRON POROSITY (LIMESTONE)
DPHI.V/V      00 890 00 00         : PHID         - DENSITY POROSITY (LIMESTONE)
~PARAMETER INFORMATION       
#MNEM.UNIT           DATA             DESCRIPTION OF MNEMONIC
#---------         -----------     ------------------------------
GL  .M        731.6                : gl           - GROUND LEVEL ELEVATION      
EREF.M        734.7                : kb           - ELEVATION OF DEPTH REFERENCE
DATM.M        734.7                : datum        - DATUM ELEVATION             
TDD .M        516                  : tdd          - TOTAL DEPTH DRILLER         
RUN .         ONE                  : Run          - RUN NUMBER                  
ENG .         BILL                 : Engineer     - RECORDING ENGINEER          
WIT .         JIM                  : Witness      - WITNESSED BY                
MUD .         GEL                  : Mud_type     - MUD TYPE                    
MATR.         LIMESTONE            : Logunit      - NEUTRON MATRIX              
TMAX.C        18                   : BHT          - MAXIMUM RECORDED TEMPERATURE
BHTD.M        516                  : BHTDEP       - MAXIMUM RECORDED TEMPERATURE
MATR.         1                    : LOGUNIT      - NEUTRON MATRIX              
RMT .C        25                   : MDTP         - TEMPERATURE OF MUD          
NEUT.         1                    : NEUTRON      - NEUTRON TYPE                
RESI.         0                    : RESIST       - RESISTIVITY TYPE            
RMC .OHMM     0.25                 : RMC          - RESISTIVITY OF MUD CAKE     
RMF .OHMM     0.25                 : RMF          - RESISTIVITY OF MUD FILTRATE 
SUFT.C        15                   : SUFT         - SURFACE TEMPERATURE         
~A  DEPTH     RESD       GR     PHIN     PHID
  260.000    3.162  112.677    0.487    0.286
  260.300    3.163  112.068    0.483    0.294
  260.600    3.163  113.297    0.481    0.271
  260.900    3.104  116.975    0.517    0.264
  261.200    3.046  121.265    0.557    0.265
  261.500    2.989  123.718    0.532    0.270
  261.800    2.989  115.762    0.523    0.286
  262.100    3.046  109.029    0.583    0.281
  262.400    3.104  116.994    0.583    0.271
  262.700    3.163  120.059    0.543    0.292
  263.000    3.163  112.102    0.513    0.280
  263.300    3.104  117.618    0.525    0.271
  263.600    3.104  112.722    0.539    0.261
  263.900    3.046  107.827    0.539    0.249
  264.200    2.990  107.832    0.524    0.265
  264.500    2.934  107.223    0.527    0.294
  264.800    2.825  109.064    0.558    0.284
  265.100    2.772  110.904    0.596    0.287
  265.400    2.825  111.521    0.573    0.276
  265.700    2.825  110.912    0.566    0.286
  266.000    2.934  107.854    0.554    0.284
  266.300    2.990  107.858    0.539    0.280
  266.600    2.990  111.536    0.559    0.302
  266.900    2.880  112.765    0.570    0.301
  267.200    2.826  110.319    0.571    0.291
  267.500    2.670  106.036    0.570    0.293
  267.800    2.572  106.040    0.564    0.333
  268.100    2.476  111.555    0.556    0.342
  268.400    2.430  118.908    0.570    0.353
  268.700    2.385  122.586    0.582    0.360
  269.000    2.340  116.465    0.590    0.363
  269.300    2.340  102.385    0.592    0.322
  269.600    2.297  102.389    0.586    0.312
  269.900    2.297  109.129    0.562    0.311
  270.200    2.297  112.194    0.574    0.317
  270.500    2.341  110.361    0.545    0.337
  270.800    2.341  104.241    0.556    0.355
  271.100    2.341  102.407    0.570    0.371
  271.400    2.341  103.023    0.574    0.367
  271.700    2.341  106.089    0.575    0.309
  272.000    2.385  109.155    0.561    0.306
  272.299    2.477  106.710    0.536    0.331
  272.599    2.525  104.877    0.555    0.338
  272.899    2.672  104.268    0.569    0.332
  273.199    2.775  107.334    0.585    0.321
  273.499    2.881  110.399    0.561    0.268
  273.799    3.049  107.953    0.540    0.254
  274.099    3.547  101.834    0.552    0.261
  274.399    3.753  100.000    0.513    0.272
  274.699    3.972  114.089    0.500    0.265
  274.999    3.972  118.991    0.565    0.226
  275.299    4.125  115.933    0.494    0.200
  275.599    4.284  107.977    0.478    0.205
  275.899    4.284  104.307    0.469    0.232
  276.199    3.973  104.310    0.463    0.260
  276.499    3.547  110.437    0.473    0.271
  276.799    3.416  111.055    0.555    0.263
  277.099    3.548  110.444    0.534    0.258
  277.399    3.973  110.450    0.509    0.253
  277.699    4.450  110.452    0.461    0.249
  277.999    4.621  112.294    0.447    0.255
  278.299    4.367  114.135    0.458    0.260
  278.599    4.049  113.526    0.514    0.263
  278.899    3.899  111.081    0.498    0.263
  279.199    3.974  109.247    0.442    0.260
  279.499    4.367  107.413    0.447    0.257
  279.799    4.984  106.192    0.519    0.260
  280.099    5.079  108.034    0.505    0.274
  280.399    4.984  109.874    0.483    0.277
  280.699    4.800  111.715    0.477    0.262
  280.999    4.536  112.331    0.478    0.252
  281.299    4.536  110.498    0.503    0.253
  281.599    4.800  103.766    0.535    0.288
  281.899    6.372   91.522    0.474    0.304
  282.199   10.214   93.363    0.479    0.331
  282.499   11.439   99.491    0.477    0.320
  282.799   14.620   97.657    0.432    0.289
  283.099   17.658   77.453    0.417    0.224
  283.399   20.928   64.597    0.364    0.219
  283.699   25.276   66.438    0.364    0.253
  283.999   26.749   73.178    0.370    0.288
  284.299   24.805   79.919    0.374    0.314
  284.599   23.440   82.984    0.396    0.319
  284.899   19.779   85.437    0.421    0.310
  285.199   18.341   87.277    0.422    0.297
  285.499   15.771   90.344    0.401    0.294
  285.799   14.903   93.409    0.398    0.288
  286.099   13.308   98.312    0.408    0.272
  286.399   11.661  101.378    0.417    0.243
  286.699   10.611  103.830    0.438    0.223
  286.999   10.218  101.385    0.419    0.227
  287.299   10.612   97.103    0.433    0.257
  287.599   11.021  102.005    0.408    0.264
  287.899   11.445  111.194    0.454    0.267
  288.199   12.578  116.097    0.471    0.266
  288.499   15.191  113.652    0.466    0.273
  288.799   19.053   84.262    0.455    0.330
  289.099   22.581   83.040    0.439    0.365
  289.399   25.290   87.331    0.411    0.352
  289.699   25.772   81.823    0.434    0.355
  289.999   24.355   76.928    0.461    0.363
  290.299   23.453   83.056    0.468    0.352
  290.599   20.943   89.184    0.465    0.340
  290.899   19.790   89.800    0.445    0.321
  291.199   18.352   92.866    0.443    0.309
  291.499   17.673   97.156    0.434    0.293
  291.799   17.018   94.710    0.419    0.288
  292.099   16.700   81.241    0.438    0.288
  292.399   17.343   87.369    0.437    0.291
  292.699   17.674   80.636    0.417    0.300
  292.999   16.083   85.540    0.403    0.291
  293.299   14.914   92.892    0.397    0.270
  293.599   15.783   95.345    0.414    0.253
  293.899   18.013   87.388    0.417    0.262
  294.199   21.756   75.145    0.412    0.306
  294.499   24.829   58.614    0.427    0.355
  294.799   26.276   66.579    0.429    0.340
  295.099   26.779   73.932    0.408    0.335
  295.399   26.278   73.323    0.444    0.341
  295.699   26.780   73.327    0.441    0.350
  295.999   27.291   79.455    0.431    0.355
  296.299   27.811   83.133    0.426    0.355
  296.599   27.292   82.523    0.429    0.351
  296.898   26.282   66.606    0.431    0.358
  297.198   26.784   65.997    0.428    0.356
  297.498   28.345   71.512    0.433    0.345
  297.798   29.436   78.865    0.435    0.345
  298.098   29.437   84.381    0.438    0.358
  298.398   29.438   86.221    0.443    0.353
  298.698   28.348   85.612    0.431    0.336
  298.998   25.314   83.779    0.430    0.321
  299.298   22.181   82.558    0.438    0.306
  299.598   19.807   85.624    0.425    0.408
  299.898   16.713   97.875    0.447    0.414
  300.198   13.077  106.452    0.464    0.409
  300.498   11.677  110.742    0.447    0.258
  300.798   12.127  107.071    0.447    0.254
  301.098   14.646   94.828    0.478    0.364
  301.398   15.500   89.321    0.460    0.348
  301.698   12.834   97.898    0.433    0.297
  301.998    9.312  118.110    0.423    0.259
  302.298    5.701  123.625    0.485    0.227
  302.598    4.995  127.915    0.522    0.176
  302.898    4.720  130.370    0.524    0.188
  303.198    4.902  127.311    0.523    0.199
  303.498    6.266  111.393    0.508    0.277
  303.798   11.463   91.188    0.466    0.369
  304.098   17.694   97.317    0.420    0.379
  304.398   22.192  100.995    0.414    0.346
  304.698   25.810   94.874    0.436    0.329
  304.998   27.315   67.934    0.427    0.347
  305.298   27.836   66.713    0.431    0.362
  305.598   24.392   72.842    0.411    0.357
  305.898   17.697   74.681    0.391    0.333
  306.198   16.104   77.136    0.413    0.313
  306.498   17.043   77.751    0.411    0.321
  306.798   17.699   78.367    0.417    0.318
  307.098   17.368   78.370    0.404    0.298
  307.398   15.219   77.762    0.411    0.290
  307.698   14.113   78.990    0.419    0.287
  307.998   13.850   82.668    0.410    0.300
  308.298   13.850   86.960    0.400    0.301
  308.598   14.383   88.800    0.400    0.308
  308.898   14.114   91.253    0.463    0.445
  309.198   13.592  102.892    0.469    0.381
  309.498   14.938  110.857    0.466    0.291
  309.798   17.373   85.141    0.446    0.339
  310.098   19.093   85.757    0.414    0.342
  310.398   19.093   99.233    0.405    0.333
  310.698   10.839  109.035    0.397    0.290
  310.998    9.498  115.774    0.440    0.228
  311.298    9.679  119.453    0.438    0.238
  311.598   11.046  133.541    0.422    0.324
  311.898   14.662  124.359    0.431    0.360
