~VERSION INFORMATION
 VERS.                 2.0:   CWLS LOG ASCII STANDARD -VERSION 2.0
 WRAP.                  NO:   ONE LINE PER DEPTH STEP
~WELL INFORMATION BLOCK
#MNEM.UNIT           DATA                    DESCRIPTION OF MNEMONIC
#---------    -------------------            -------------------------------
# Generated from Intellog Unique Number	CS_73_76/WELL/3247
WELL.         HOME HB DEVENISH               : Well_name    - WELL
LOC .         00/10-29-075-08W4/0            : Location     - LOCATION
UWI .         00/10-29-075-08W4/0            : Uwi          - UNIQUE WELL ID
ENTR.         SP                             : Entered      - ENTERED BY
SRVC.         SCHLUMBERGER                   : Scn          - SERVICE COMPANY
STRT.M        262.128                        : top_depth    - START DEPTH
STOP.M        490.378                        : bot_depth    - STOP DEPTH
STEP.M        0.25                           : increment    - STEP LENGTH
 NULL. -999.2500:NULL Value
~CURVE INFORMATION BLOCK
#MNEM UNIT       ERCB CURVE CODE    CURVE DESCRIPTION
#-----------   ------------------   ----------------------------------
DEPT.M        00 001 00 00         : DEPTH        - DEPTH
GR  .API      00 310 00 00         : GR           - GAMMA RAY
DPHI.V/V      00 890 00 00         : PHID         - DENSITY POROSITY (SANDSTONE)
NPHI.V/V      00 330 00 00         : PHIN         - NEUTRON POROSITY (SANDSTONE)
ILD .OHMM     00 120 00 00         : RESD         - DEEP RESISTIVITY (DIL)
~PARAMETER INFORMATION
#MNEM.UNIT           DATA             DESCRIPTION OF MNEMONIC
#---------         -----------     ------------------------------
GL  .M        662.33               : gl           - GROUND LEVEL ELEVATION
EREF.M        665.378              : kb           - ELEVATION OF DEPTH REFERENCE
DATM.M        662.33               : datum        - DATUM ELEVATION
TDD .M        498.348              : tdd          - TOTAL DEPTH DRILLER
RUN .         ONE                  : Run          - RUN NUMBER
ENG .         BILL                 : Engineer     - RECORDING ENGINEER
WIT .         JIM                  : Witness      - WITNESSED BY
MUD .         GEL                  : Mud_type     - MUD TYPE
MATR.         SANDSTONE            : Logunit      - NEUTRON MATRIX
TMAX.C        16.6667              : BHT          - MAXIMUM RECORDED TEMPERATURE
BHTD.M        498.348              : BHTDEP       - MAXIMUM RECORDED TEMPERATURE
MATR.         1                    : LOGUNIT      - NEUTRON MATRIX
RMT .C        25                   : MDTP         - TEMPERATURE OF MUD
NEUT.         1                    : NEUTRON      - NEUTRON TYPE
RESI.         0                    : RESIST       - RESISTIVITY TYPE
RMC .OHMM     0.25                 : RMC          - RESISTIVITY OF MUD CAKE
RMF .OHMM     0.25                 : RMF          - RESISTIVITY OF MUD FILTRATE
SUFT.C        15                   : SUFT         - SURFACE TEMPERATURE
~A  DEPTH       GR     PHID     PHIN     RESD
  262.128  101.594    0.200    0.531    3.391
  262.378  102.558    0.207    0.541    3.224
  262.628  100.890    0.221    0.557    3.207
  262.878  100.980    0.213    0.577    3.325
  263.128  102.540    0.202    0.561    3.466
  263.378  105.672    0.213    0.544    3.610
  263.628  107.673    0.220    0.527    3.780
  263.878  105.496    0.226    0.519    3.879
  264.128  102.452    0.228    0.533    3.710
  264.378  100.207    0.221    0.548    3.604
  264.628  102.532    0.224    0.551    3.615
  264.878  105.206    0.205    0.539    3.730
  265.128  105.317    0.211    0.541    3.791
  265.378  101.327    0.235    0.512    3.859
  265.628   98.023    0.223    0.516    3.730
  265.878   96.102    0.213    0.521    3.919
  266.128   95.473    0.213    0.505    4.434
  266.378   96.063    0.217    0.518    5.127
  266.628   98.287    0.217    0.537    6.587
  266.878   99.504    0.234    0.519    9.740
  267.128   95.339    0.263    0.471   12.399
  267.378   92.369    0.295    0.445   13.807
  267.628   93.948    0.285    0.426   14.937
  267.878   98.303    0.264    0.439   14.280
  268.128  101.970    0.218    0.456   13.358
  268.378  104.501    0.211    0.471   12.683
  268.628  105.734    0.237    0.476   12.072
  268.878  101.575    0.228    0.453   11.757
  269.128   96.853    0.239    0.430   12.215
  269.378   93.829    0.231    0.427   12.704
  269.628   90.550    0.231    0.453   13.901
  269.878   84.701    0.281    0.462   16.160
  270.128   76.232    0.297    0.446   19.300
  270.378   70.040    0.272    0.431   24.240
  270.628   63.618    0.259    0.419   32.708
  270.878   57.730    0.292    0.382   49.086
  271.128   51.023    0.312    0.358   69.960
  271.378   43.386    0.327    0.287   86.071
  271.628   36.041    0.334    0.217   86.745
  271.878   32.746    0.332    0.201   58.186
  272.128   31.916    0.318    0.207   36.595
  272.378   35.413    0.303    0.213   27.117
  272.628   41.198    0.309    0.234   23.069
  272.878   52.667    0.296    0.290   21.006
  273.128   65.522    0.275    0.368   19.625
  273.378   74.731    0.257    0.404   18.739
  273.628   71.125    0.256    0.427   18.812
  273.878   64.640    0.253    0.416   19.823
  274.128   61.589    0.258    0.405   20.385
  274.378   61.626    0.267    0.419   21.720
  274.628   65.615    0.292    0.443   23.325
  274.878   69.216    0.309    0.461   25.090
  275.128   64.629    0.310    0.476   26.803
  275.378   60.924    0.313    0.474   27.972
  275.628   55.620    0.329    0.482   28.869
  275.878   51.186    0.340    0.478   29.043
  276.128   46.693    0.341    0.465   29.055
  276.378   43.792    0.337    0.455   28.849
  276.628   44.816    0.334    0.443   27.979
  276.878   46.789    0.322    0.436   26.737
  277.128   48.034    0.317    0.435   25.716
  277.378   50.059    0.330    0.451   24.695
  277.628   51.995    0.324    0.457   24.425
  277.878   53.740    0.315    0.448   23.795
  278.128   55.924    0.306    0.438   23.833
  278.378   57.441    0.309    0.452   23.806
  278.628   60.077    0.316    0.458   23.560
  278.878   61.869    0.301    0.456   19.860
  279.128   64.684    0.280    0.439   13.582
  279.378   68.974    0.273    0.425   10.043
  279.628   76.586    0.252    0.429    8.295
  279.878   84.966    0.225    0.435    7.159
  280.128  101.847    0.189    0.484    6.637
  280.378  115.491    0.174    0.530    6.148
  280.628  118.034    0.161    0.535    5.641
  280.878  113.950    0.150    0.535    5.163
  281.128  120.634    0.180    0.555    4.689
  281.378  120.752    0.198    0.568    4.316
  281.628  118.688    0.191    0.582    3.948
  281.878  117.323    0.173    0.584    3.720
  282.128  115.987    0.168    0.602    3.510
  282.378  115.032    0.172    0.610    3.469
  282.628  113.516    0.181    0.613    3.690
  282.878  109.282    0.235    0.609    4.328
  283.128   99.228    0.264    0.589    5.840
  283.378   86.492    0.288    0.527    9.040
  283.628   75.289    0.299    0.473   14.877
  283.878   71.591    0.298    0.459   18.427
  284.128   71.416    0.285    0.452   20.256
  284.378   71.398    0.295    0.445   19.297
  284.628   72.028    0.290    0.439   17.515
  284.878   74.906    0.275    0.453   15.294
  285.128   77.261    0.256    0.476   14.224
  285.378   78.912    0.240    0.476   13.389
  285.628   79.758    0.246    0.463   12.985
  285.878   77.628    0.248    0.450   13.836
  286.128   75.508    0.243    0.437   14.655
  286.378   74.952    0.242    0.434   15.885
  286.628   75.754    0.281    0.440   16.322
  286.878   80.103    0.278    0.448   16.662
  287.128   86.450    0.253    0.448   13.843
  287.378   93.072    0.234    0.450   10.689
  287.628  102.768    0.203    0.460    8.962
  287.878  109.467    0.165    0.473    7.671
  288.128  114.170    0.165    0.491    6.938
  288.378  117.779    0.168    0.509    6.291
  288.628  119.711    0.168    0.523    5.848
  288.878  121.127    0.171    0.528    5.384
  289.128  124.851    0.186    0.527    5.323
  289.378  127.306    0.189    0.522    5.656
  289.628  128.028    0.204    0.517    6.254
  289.878  125.599    0.210    0.507    7.431
  290.128  122.665    0.222    0.490    8.756
  290.378  119.527    0.240    0.473   10.212
  290.628  114.934    0.267    0.459   12.315
  290.878  109.499    0.290    0.446   14.182
  291.128  105.038    0.297    0.436   15.537
  291.378  100.086    0.258    0.437   15.919
  291.628  100.881    0.247    0.446   15.193
  291.878  103.846    0.255    0.449   13.860
  292.128  105.364    0.249    0.466   12.659
  292.378  103.353    0.261    0.486   11.914
  292.628  104.337    0.247    0.487   11.231
  292.878  105.855    0.229    0.476   11.023
  293.128  102.737    0.228    0.501   12.087
  293.378   94.914    0.304    0.522   13.087
  293.628   83.688    0.322    0.493   15.059
  293.878   75.712    0.306    0.454   16.987
  294.128   65.940    0.281    0.448   18.442
  294.378   70.725    0.271    0.466   19.384
  294.628   71.219    0.249    0.471   19.901
  294.878   71.251    0.218    0.464   19.871
  295.128   71.268    0.239    0.467   19.763
  295.378   71.357    0.287    0.466   18.242
  295.628   73.842    0.307    0.458   15.489
  295.878   77.936    0.290    0.448   12.802
  296.128   85.895    0.260    0.443   10.409
  296.378   91.202    0.217    0.453    9.162
  296.628  103.815    0.191    0.464    8.108
  296.878  114.276    0.180    0.472    7.718
  297.128  114.485    0.176    0.475    7.475
  297.378  110.604    0.179    0.487    8.364
  297.628  105.538    0.200    0.479    9.078
  297.878   96.848    0.213    0.455   10.325
  298.128   90.730    0.229    0.434   11.662
  298.378   88.681    0.219    0.425   12.344
  298.628   95.679    0.206    0.439   12.775
  298.878  103.589    0.192    0.467   11.175
  299.128  110.641    0.199    0.474    9.874
  299.378  115.208    0.200    0.465    9.074
  299.628  119.719    0.180    0.464    8.306
  299.878  119.677    0.189    0.485    7.692
  300.128  116.868    0.214    0.503    7.326
  300.378  116.589    0.215    0.516    7.209
  300.628  112.594    0.208    0.532    7.493
  300.878  106.561    0.210    0.540    8.440
  301.128  101.974    0.234    0.535    9.456
  301.378   99.135    0.238    0.528   10.009
  301.628   97.878    0.226    0.523   10.831
  301.878   96.215    0.215    0.519   11.333
  302.128   97.991    0.227    0.513   11.459
  302.378  100.636    0.238    0.518   11.836
  302.628  102.288    0.240    0.535   12.193
  302.878  102.185    0.238    0.458   12.489
  303.128  102.818    0.228    0.434   12.723
  303.378  103.482    0.226    0.432   12.583
  303.628  102.607    0.238    0.442   12.233
  303.878  101.633    0.249    0.450   11.441
  304.128  100.613    0.242    0.441   11.007
  304.378  100.499    0.233    0.467   10.061
  304.628  101.496    0.233    0.483    9.374
  304.878  102.164    0.217    0.502    8.574
  305.128  102.801    0.206    0.507    8.199
  305.378  103.267    0.217    0.486    7.810
