~VERSION INFORMATION
 VERS.                 2.0:   CWLS LOG ASCII STANDARD -VERSION 2.0
 WRAP.                  NO:   ONE LINE PER DEPTH STEP
~WELL INFORMATION BLOCK
#MNEM.UNIT           DATA                    DESCRIPTION OF MNEMONIC
#---------    -------------------            -------------------------------
# Generated from Intellog Unique Number	CS_77_79/WELL/1010
WELL.         MAYNARD ET AL THORNBURY        : Well_name    - WELL
LOC .         00/11-35-079-12W4/0            : Location     - LOCATION
UWI .         00/11-35-079-12W4/0            : Uwi          - UNIQUE WELL ID
ENTR.         JHS                            : Entered      - ENTERED BY
SRVC.         SCHLUMBERGER                   : Scn          - SERVICE COMPANY
STRT.M        215                            : top_depth    - START DEPTH
STOP.M        480                            : bot_depth    - STOP DEPTH
STEP.M        0.25                           : increment    - STEP LENGTH
 NULL. -999.2500:NULL Value
~CURVE INFORMATION BLOCK
#MNEM UNIT       ERCB CURVE CODE    CURVE DESCRIPTION
#-----------   ------------------   ----------------------------------
DEPT.M        00 001 00 00         : DEPTH        - DEPTH
DPHI.V/V      00 890 00 00         : PHID         - DENSITY POROSITY (LIMESTONE)
NPHI.V/V      00 330 00 00         : PHIN         - NEUTRON POROSITY (LIMESTONE)
GR  .API      00 310 00 00         : GR           - GAMMA RAY
ILD .OHMM     00 120 00 00         : RESD         - DEEP RESISTIVITY (DIL)
RHOB.KG/M3    00 350 00 00         : DENS         - BULK DENSITY
~PARAMETER INFORMATION
#MNEM.UNIT           DATA             DESCRIPTION OF MNEMONIC
#---------         -----------     ------------------------------
GL  .M        681.99               : gl           - GROUND LEVEL ELEVATION
EREF.M        685.19               : kb           - ELEVATION OF DEPTH REFERENCE
DATM.M        685.19               : datum        - DATUM ELEVATION
TDD .M        495                  : tdd          - TOTAL DEPTH DRILLER
RUN .         ONE                  : Run          - RUN NUMBER
ENG .         BILL                 : Engineer     - RECORDING ENGINEER
WIT .         JIM                  : Witness      - WITNESSED BY
MUD .         GEL                  : Mud_type     - MUD TYPE
MATR.         LIMESTONE            : Logunit      - NEUTRON MATRIX
TMAX.C        20                   : BHT          - MAXIMUM RECORDED TEMPERATURE
BHTD.M        495                  : BHTDEP       - MAXIMUM RECORDED TEMPERATURE
MATR.         1                    : LOGUNIT      - NEUTRON MATRIX
RMT .C        25                   : MDTP         - TEMPERATURE OF MUD
NEUT.         1                    : NEUTRON      - NEUTRON TYPE
RESI.         0                    : RESIST       - RESISTIVITY TYPE
RMC .OHMM     0.25                 : RMC          - RESISTIVITY OF MUD CAKE
RMF .OHMM     0.25                 : RMF          - RESISTIVITY OF MUD FILTRATE
SUFT.C        15                   : SUFT         - SURFACE TEMPERATURE
~A  DEPTH     PHID     PHIN       GR     RESD     DENS
# ...
  434.000    0.236    0.331   68.218   37.705 2305.750
  434.250    0.222    0.335   65.771   38.525 2331.070
  434.500    0.229    0.336   64.555   37.705 2318.460
  434.750    0.217    0.330   65.804   36.066 2339.560
  435.000    0.222    0.329   68.887   31.967 2331.170
  435.250    0.226    0.332   74.434   27.869 2322.770
  435.500    0.202    0.346   81.209   24.590 2364.940
  435.750    0.201    0.358   87.370   21.311 2367.080
  436.000    0.186    0.366   91.071   18.852 2392.400
  436.250    0.180    0.366   91.701   16.506 2402.960
  436.500    0.187    0.358   89.254   16.012 2390.350
  436.750    0.197    0.346   91.726   16.094 2373.540
  437.000    0.203    0.337   90.510   16.341 2363.030
  437.250    0.208    0.332   92.368   16.834 2354.630
  437.500    0.209    0.333   97.299   17.081 2352.560
  437.750    0.197    0.330   99.771   17.163 2373.660
  438.000    0.200    0.322   97.326   16.916 2367.380
  438.250    0.211    0.317   88.117   17.162 2348.450
  438.500    0.224    0.317   73.377   18.067 2327.420
  438.750    0.241    0.324   63.554   19.137 2297.950
  439.000    0.264    0.333   61.108   19.548 2257.950
  439.250    0.257    0.347   71.574   18.890 2270.630
  439.500    0.236    0.336   75.892   18.478 2306.470
  439.750    0.245    0.301   78.365   19.218 2291.760
  440.000    0.264    0.278   75.916   19.602 2258.080
  440.250    0.282    0.267   66.708   20.439 2228.620
  440.500    0.295    0.261   58.116   23.734 2205.480
  440.750    0.322    0.264   50.753   26.203 2159.160
  441.000    0.315    0.281   48.925   31.128 2171.840
  441.250    0.304    0.295   47.090   38.507 2190.840
  441.500    0.301    0.311   42.799   44.242 2195.080
  441.750    0.302    0.313   39.127   59.780 2193.010
  442.000    0.301    0.317   41.596  149.610 2195.140
  442.250    0.299    0.320   42.226  221.483 2199.390
  442.500    0.285    0.329   41.008  205.994 2222.600
  442.750    0.274    0.345   47.171  185.610 2241.590
  443.000    0.263    0.355   52.717  121.954 2260.590
  443.250    0.268    0.364   51.504   81.975 2252.190
  443.500    0.278    0.371   55.202   67.306 2235.370
  443.750    0.279    0.369   59.518   55.086 2233.290
  444.000    0.289    0.370   57.077   45.315 2216.470
  444.250    0.291    0.370   62.622   40.442 2212.290
  444.500    0.279    0.361   68.165   37.206 2233.390
  444.750    0.268    0.355   73.100   34.778 2252.390
  445.000    0.252    0.356   74.959   31.538 2279.800
  445.250    0.236    0.358   76.814   29.115 2307.230
  445.500    0.233    0.350   81.744   26.689 2311.480
  445.750    0.224    0.330   77.454   24.267 2326.260
  446.000    0.219    0.303   65.786   23.478 2334.710
  446.250    0.223    0.282   57.809   22.689 2328.430
  446.500    0.237    0.271   50.445   21.893 2305.290
  446.750    0.248    0.265   46.154   21.920 2286.360
  447.000    0.260    0.277   44.325   22.767 2265.320
  447.250    0.259    0.298   56.019   22.789 2267.460
  447.500    0.243    0.319   65.868   21.997 2294.890
  447.750    0.228    0.336   79.406   17.893 2320.200
  448.000    0.207    0.343   93.559   13.531 2356.050
  448.250    0.200    0.346  104.023   10.897 2368.720
  448.500    0.198    0.350  113.261    9.662 2370.860
  448.750    0.203    0.355  115.730    9.086 2362.460
  449.000    0.202    0.365  113.287    8.509 2364.600
  449.250    0.211    0.373  115.142    8.427 2349.890
  449.500    0.202    0.377  115.155    8.673 2364.670
  449.750    0.198    0.368  110.869    9.085 2371.020
  450.000    0.193    0.355  108.420    9.661 2379.480
  450.250    0.182    0.355  110.278   10.236 2398.480
  450.500    0.171    0.356  107.834   10.730 2417.470
  450.750    0.161    0.347  104.159   11.224 2434.360
  451.000    0.170    0.341  102.326   11.388 2419.650
  451.250    0.182    0.340   98.038   11.305 2398.610
  451.500    0.185    0.340   92.518   11.223 2394.430
  451.750    0.192    0.341   82.080   11.058 2381.820
  452.000    0.191    0.348   77.174   10.975 2383.960
  452.250    0.202    0.357   75.957   10.975 2365.030
  452.500    0.202    0.366   83.348   11.139 2365.060
  452.750    0.198    0.367   82.751   11.139 2371.420
  453.000    0.205    0.364   80.920   11.139 2358.810
  453.250    0.204    0.359   82.158   11.056 2360.950
  453.500    0.192    0.354   82.788   11.056 2382.050
  453.750    0.177    0.351   79.727   11.056 2407.360
  454.000    0.167    0.348   76.051   11.138 2424.250
  454.250    0.160    0.351   77.912   11.220 2436.920
  454.500    0.184    0.348   75.465   11.467 2394.820
  454.750    0.208    0.344   74.247   11.796 2354.820
  455.000    0.206    0.346   77.950   12.207 2356.960
  455.250    0.199    0.347   79.192   12.454 2369.640
  455.500    0.197    0.348   76.748   12.618 2373.880
  455.750    0.192    0.352   74.918   12.782 2382.350
  456.000    0.200    0.362   75.543   12.947 2367.630
  456.250    0.204    0.355   75.558   13.111 2361.340
  456.500    0.208    0.352   74.343   13.605 2355.050
  456.750    0.200    0.357   70.052   14.592 2367.730
  457.000    0.200    0.358   68.836   17.213 2367.760
  457.250    0.217    0.349   63.932   21.311 2338.300
  457.500    0.233    0.343   59.028   25.410 2310.940
  457.750    0.241    0.344   53.506   29.508 2298.330
  458.000    0.248    0.341   51.676   32.787 2285.730
  458.250    0.262    0.340   52.919   32.787 2262.580
  458.500    0.255    0.345   56.620   31.148 2273.150
  458.750    0.251    0.352   59.095   30.328 2281.610
  459.000    0.243    0.356   59.111   30.328 2294.280
  459.250    0.230    0.358   58.504   31.967 2317.500
  459.500    0.231    0.350   56.062   32.787 2315.420
  459.750    0.249    0.353   54.229   33.607 2283.850
  460.000    0.252    0.354   52.397   36.885 2279.670
  460.250    0.250    0.348   50.567   43.443 2281.800
  460.500    0.255    0.339   47.508   53.279 2273.420
  460.750    0.255    0.335   43.217   59.836 2273.440
  461.000    0.268    0.338   38.312   67.213 2252.410
  461.250    0.285    0.343   34.635   73.770 2222.950
  461.500    0.279    0.349   35.264   77.049 2233.520
  461.750    0.268    0.357   40.198   70.492 2252.510
  462.000    0.260    0.364   47.589   44.262 2265.180
  462.250    0.243    0.365   53.749   21.006 2294.710
  462.500    0.231    0.367   60.525   20.594 2315.810
  462.750    0.231    0.373   66.686   13.681 2315.840
  463.000    0.227    0.371   71.002   11.376 2322.200
  463.250    0.221    0.360   69.787   10.470 2332.760
  463.500    0.218    0.357   66.111    9.894 2337.010
  463.750    0.221    0.363   71.044    9.893 2332.830
  464.000    0.212    0.367   76.587    9.976 2347.610
  464.250    0.224    0.373   79.679   10.140 2326.570
  464.500    0.207    0.378   81.532   10.551 2356.100
  464.750    0.197    0.384   85.234   10.633 2372.990
  465.000    0.207    0.387   85.249   10.386 2356.170
  465.250    0.207    0.379   82.802   10.057 2356.200
  465.500    0.211    0.368   74.823    9.233 2349.910
  465.750    0.224    0.362   68.076    8.410 2326.770
  466.000    0.233    0.362   67.474    7.422 2312.050
  466.250    0.252    0.367   62.571    6.846 2278.380
  466.500    0.256    0.373   65.656    6.681 2272.090
  466.750    0.224    0.378   73.045    6.681 2326.900
  467.000    0.212    0.377   77.364    6.927 2348.000
  467.250    0.197    0.367   77.991    7.338 2373.320
  467.500    0.180    0.356   77.392    7.667 2402.840
  467.750    0.175    0.348   72.487    7.667 2411.300
  468.000    0.189    0.343   65.739    7.255 2386.050
  468.250    0.212    0.341   66.982    7.008 2348.180
  468.500    0.209    0.342   70.682    7.008 2352.420
  468.750    0.198    0.346   76.227    7.008 2371.410
  469.000    0.176    0.353   80.545    7.419 2409.360
  469.250    0.162    0.357   82.401    7.748 2432.570
  469.500    0.157    0.363   89.792    7.995 2441.030
  469.750    0.149    0.365   93.495    8.324 2455.810
  470.000    0.146    0.381   97.197    8.323 2460.050
  470.250    0.128    0.389  104.588    8.158 2491.690
