~VERSION INFORMATION
 VERS.                 2.0:   CWLS LOG ASCII STANDARD -VERSION 2.0
 WRAP.                  NO:   ONE LINE PER DEPTH STEP
~WELL INFORMATION BLOCK
#MNEM.UNIT           DATA                    DESCRIPTION OF MNEMONIC
#---------    -------------------            -------------------------------
# Generated from Intellog Unique Number	CW_70_72/WELL/1045
NULL.         -999.25                        : NULL_VALUE
WELL.         SUNDANCE MCMORGAN SMITH 10-31  : Well_name    - WELL              
LOC .         10-31-072-24W4                 : Location     - LOCATION          
UWI .         00/10-31-072-24W4/0            : Uwi          - UNIQUE WELL ID    
ENTR.         JAYE                           : Entered      - ENTERED BY        
SRVC.         SCHLUMBERGER                   : Scn          - SERVICE COMPANY   
DATE.         20 JAN 74                      : Date         - LOG DATE          
STRT.M        399.288                        : top_depth    - START DEPTH       
STOP.M        655.288                        : bot_depth    - STOP DEPTH        
STEP.M        0.25                           : increment    - STEP LENGTH       
~CURVE INFORMATION BLOCK
#MNEM UNIT       ERCB CURVE CODE    CURVE DESCRIPTION
#-----------   ------------------   ----------------------------------
DEPT.M        00 001 00 00         : DEPTH        - DEPTH                       
CALI.MM       00 280 01 00         : CAL          - CALIPER                     
GR  .API      00 310 00 00         : GR           - GAMMA RAY                   
DPHI.V/V      00 890 00 00         : PHID         - DENSITY POROSITY (SANDSTONE)
NPHI.V/V      00 330 00 00         : PHIN         - NEUTRON POROSITY (SANDSTONE)
ILD .OHMM     00 120 00 00         : RESD         - DEEP RESISTIVITY (DIL)      
~PARAMETER INFORMATION       
#MNEM.UNIT           DATA             DESCRIPTION OF MNEMONIC
#---------         -----------     ------------------------------
GL  .M        648.767              : gl           - GROUND LEVEL ELEVATION      
EREF.M        651.815              : kb           - ELEVATION OF DEPTH REFERENCE
DATM.M        648.767              : datum        - DATUM ELEVATION             
TDD .M        664.464              : tdd          - TOTAL DEPTH DRILLER         
RUN .         ONE                  : Run          - RUN NUMBER                  
ENG .         WOON                 : Engineer     - RECORDING ENGINEER          
WIT .         TIEFENBACH           : Witness      - WITNESSED BY                
BASE.         EDM                  : Branch       - HOME BASE OF LOGGING UNIT   
MUD .         GEL CHEM             : Mud_type     - MUD TYPE                    
MATR.         SANDSTONE            : Logunit      - NEUTRON MATRIX              
TMAX.C        30                   : BHT          - MAXIMUM RECORDED TEMPERATURE
BHTD.M        663.55               : BHTDEP       - MAXIMUM RECORDED TEMPERATURE
RMT .C        15.5556              : MDTP         - TEMPERATURE OF MUD          
MUDD.KG/M     1080                 : MWT          - MUD DENSITY                 
NEUT.         1                    : NEUTRON      - NEUTRON TYPE                
RESI.         0                    : RESIST       - RESISTIVITY TYPE            
RM  .OHMM     5.63                 : RM           - RESISTIVITY OF MUD          
RMC .OHMM     0                    : RMC          - RESISTIVITY OF MUD CAKE     
RMF .OHMM     6.8                  : RMF          - RESISTIVITY OF MUD FILTRATE 
SUFT.C        -17.7778             : SUFT         - SURFACE TEMPERATURE         
~A  DEPTH      CAL       GR     PHID     PHIN     RESD
# ...
  472.288  161.053   37.134    0.331    0.470    4.454
  472.538  161.421   37.166    0.311    0.462    4.550
  472.788  161.984   37.017    0.295    0.460    4.665
  473.038  162.151   36.993    0.284    0.463    4.980
  473.288  162.621   37.020    0.277    0.469    5.524
  473.538  162.885   37.060    0.271    0.461    6.004
  473.788  162.935   37.214    0.272    0.463    6.468
  474.038  163.097   37.731    0.305    0.470    6.596
  474.288  162.641   38.435    0.305    0.478    6.616
  474.538  162.484   38.411    0.303    0.468    6.224
  474.788  162.228   38.446    0.310    0.454    5.739
  475.038  162.096   39.088    0.317    0.451    5.244
  475.288  161.732   39.545    0.302    0.457    5.015
  475.538  161.491   40.004    0.295    0.462    4.868
  475.788  161.646   41.073    0.289    0.469    4.811
  476.038  162.220   42.019    0.291    0.470    4.808
  476.288  163.002   42.053    0.291    0.465    4.877
  476.538  163.881   41.663    0.293    0.459    4.945
  476.788  163.942   42.363    0.302    0.457    5.005
  477.038  163.585   43.308    0.315    0.460    5.057
  477.288  162.920   44.010    0.295    0.459    5.110
  477.538  162.254   44.228    0.297    0.458    5.153
  477.788  161.594   44.323    0.296    0.463    5.207
  478.038  159.904   44.660    0.282    0.476    5.262
  478.288  157.899   45.120    0.277    0.481    5.326
  478.538  157.030   46.188    0.269    0.482    5.331
  478.788  156.672   47.379    0.278    0.471    5.328
  479.038  156.733   47.716    0.287    0.457    5.296
  479.288  157.408   47.628    0.308    0.449    5.284
  479.538  158.390   47.054    0.303    0.465    5.289
  479.788  159.792   45.083    0.288    0.471    5.295
  480.038  162.006   44.931    0.285    0.472    5.263
  480.288  162.785   46.182    0.278    0.467    5.231
  480.538  162.434   47.858    0.263    0.459    5.228
  480.788  161.255   50.444    0.260    0.448    5.244
  481.038  160.077   51.696    0.267    0.441    5.279
  481.288  158.992   50.575    0.275    0.432    5.314
  481.538  158.132   50.912    0.284    0.432    5.379
  481.788  157.150   51.432    0.287    0.438    5.406
  482.038  156.497   51.649    0.291    0.447    5.432
  482.288  155.729   51.684    0.290    0.450    5.468
  482.538  155.986   52.021    0.285    0.440    5.504
  482.788  156.350   52.724    0.275    0.405    5.552
  483.038  157.343   53.852    0.269    0.385    5.590
  483.288  159.152   54.980    0.275    0.398    5.637
  483.538  160.441   53.798    0.270    0.422    5.727
  483.788  161.117   52.616    0.248    0.447    5.926
  484.038  161.898   52.772    0.221    0.452    6.076
  484.288  162.265   53.717    0.236    0.445    6.252
  484.538  162.315   54.968    0.265    0.419    6.445
  484.788  162.166   57.003    0.270    0.395    6.705
  485.038  161.915   58.318    0.256    0.348    6.939
  485.288  161.666   59.994    0.234    0.303    7.140
  485.538  161.005   60.026    0.184    0.286    7.497
  485.788  162.095   60.670    0.149    0.306    7.987
  486.038  164.922   64.165    0.108    0.326    8.811
  486.288  165.297   66.514    0.056    0.351    9.774
  486.538  164.017   61.135    0.063    0.373   10.803
  486.788  160.779   56.246    0.107    0.403   12.893
  487.038  160.524   51.537    0.133    0.468   14.353
  487.288  162.125   47.984    0.158    0.474   14.108
  487.538  163.317   48.079    0.177    0.437   12.726
  487.788  162.967   53.097    0.199    0.398   11.008
  488.038  161.580   60.183    0.211    0.380    9.910
  488.288  160.814   66.724    0.217    0.421    9.155
  488.538  160.768   71.621    0.197    0.444    8.723
  488.788  159.385   69.647    0.189    0.457    8.437
  489.038  157.688   68.832    0.213    0.462    8.246
  489.288  157.852   68.681    0.235    0.461    7.844
  489.538  159.453   68.109    0.253    0.458    7.422
  489.788  161.362   67.596    0.240    0.454    7.072
  490.038  164.098   68.725    0.223    0.451    6.606
  490.288  166.111   73.621    0.210    0.464    6.305
  490.538  166.171   78.396    0.209    0.483    5.932
  490.788  163.962   83.599    0.206    0.475    5.695
  491.038  163.606   86.308    0.195    0.467    5.608
  491.288  164.180   84.275    0.186    0.457    5.544
  491.538  164.543   84.186    0.198    0.479    5.490
  491.788  164.804   85.740    0.209    0.494    5.456
  492.038  164.247   87.051    0.210    0.491    5.433
  492.288  163.890   86.416    0.214    0.489    5.409
  492.538  163.126   82.561    0.211    0.485    5.415
  492.788  162.460   81.013    0.198    0.478    5.432
  493.038  162.113   82.625    0.212    0.492    5.498
  493.288  161.646   86.066    0.209    0.508    5.545
  493.538  161.299   86.705    0.202    0.504    5.592
  493.788  161.250   86.317    0.206    0.498    5.620
  494.038  162.135   83.918    0.213    0.477    5.669
  494.288  163.014   85.343    0.219    0.462    5.729
  494.538  163.794   85.810    0.224    0.454    5.764
  494.788  164.054   86.999    0.226    0.454    5.837
  495.038  164.831   85.572    0.233    0.465    5.918
  495.288  165.820   84.026    0.233    0.476    6.145
  495.538  166.594   83.145    0.216    0.477    6.359
  495.788  167.170   82.939    0.189    0.472    6.473
  496.038  167.221   82.609    0.196    0.476    6.480
  496.288  167.074   81.911    0.202    0.484    6.417
  496.538  167.033   81.761    0.202    0.476    6.297
  496.788  168.014   82.708    0.201    0.468    6.112
  497.038  169.104   83.472    0.195    0.457    5.868
  497.288  169.470   84.780    0.186    0.472    5.694
  497.538  169.631   85.974    0.201    0.483    5.537
  497.788  169.791   89.533    0.184    0.481    5.482
  498.038  167.890   89.081    0.167    0.474    5.520
  498.288  165.271   86.867    0.202    0.459    5.525
  498.538  163.782   86.352    0.240    0.460    5.572
  498.788  162.809   89.486    0.260    0.486    5.579
  499.038  161.945   88.123    0.286    0.502    5.617
  499.288  161.380   86.029    0.291    0.489    5.675
  499.538  161.333   82.717    0.278    0.479    5.786
  499.788  161.292   79.713    0.258    0.477    5.889
  500.038  161.338   75.063    0.260    0.472    5.973
  500.288  161.203   71.574    0.258    0.477    6.034
  500.538  161.565   70.146    0.236    0.485    6.075
  500.788  161.413   71.395    0.238    0.513    6.083
  501.038  161.580   73.559    0.252    0.525    6.057
  501.288  161.019   74.323    0.237    0.511    5.997
  501.538  163.547   75.755    0.222    0.476    5.961
  501.788  166.792   79.618    0.212    0.460    5.924
  502.038  164.997   84.516    0.240    0.454    5.846
  502.288  162.381   84.307    0.261    0.448    5.777
  502.538  159.451   82.092    0.276    0.449    5.659
  502.788  157.142   79.084    0.300    0.455    5.552
  503.038  156.584   74.437    0.300    0.468    5.409
  503.288  155.909   69.791    0.304    0.473    5.278
  503.538  155.873   64.778    0.310    0.471    5.275
  503.788  155.828   64.327    0.312    0.464    5.673
  504.038  155.777   66.610    0.315    0.450    6.224
  504.288  156.040   66.337    0.312    0.306    6.666
  504.538  156.207   64.793    0.282    0.287    7.545
  504.788  156.057   63.672    0.225    0.266    8.618
  505.038  156.117   63.462    0.198    0.259   10.154
  505.288  156.583   62.523    0.145    0.255   12.685
  505.538  157.668   63.773    0.124    0.374   16.621
  505.788  158.757   62.652    0.139    0.389   22.425
  506.038  160.052   58.917    0.102    0.357   26.373
  506.288  161.240   56.515    0.125    0.333   22.810
  506.538  159.856   57.277    0.189    0.363   18.776
  506.788  158.057   58.407    0.194    0.414   15.175
  507.038  157.086   59.780    0.115    0.432   12.492
  507.288  156.936   61.517    0.118    0.433   10.803
  507.538  157.000   64.163    0.207    0.440   10.581
  507.788  157.257   64.806    0.212    0.449   10.383
  508.038  157.004   62.955    0.245    0.471    9.858
  508.288  157.065   62.743    0.251    0.468    9.445
  508.538  157.535   64.600    0.258    0.445    8.645
