~VERSION INFORMATION
 VERS.                 2.0:   CWLS LOG ASCII STANDARD -VERSION 2.0
 WRAP.                  NO:   ONE LINE PER DEPTH STEP
~WELL INFORMATION BLOCK
#MNEM.UNIT           DATA                    DESCRIPTION OF MNEMONIC
#---------    -------------------            -------------------------------
# Generated from Intellog Unique Number	CS_71_72/WELL/854
WELL.         BOW VALLEY INDUSTRIES          : Well_name    - WELL
LOC .         00/10-12-072-18W4/0            : Location     - LOCATION
UWI .         00/10-12-072-18W4/0            : Uwi          - UNIQUE WELL ID
ENTR.         SP                             : Entered      - ENTERED BY
SRVC.         SCHLUMBERGER                   : Scn          - SERVICE COMPANY
STRT.M        283.464                        : top_depth    - START DEPTH
STOP.M        462.964                        : bot_depth    - STOP DEPTH
STEP.M        0.25                           : increment    - STEP LENGTH
 NULL. -999.2500:NULL Value
~CURVE INFORMATION BLOCK
#MNEM UNIT       ERCB CURVE CODE    CURVE DESCRIPTION
#-----------   ------------------   ----------------------------------
DEPT.M        00 001 00 00         : DEPTH        - DEPTH
GR  .API      00 310 00 00         : GR           - GAMMA RAY
DPHI.V/V      00 890 00 00         : PHID         - DENSITY POROSITY (SANDSTONE)
NPHI.V/V      00 330 00 00         : PHIN         - NEUTRON POROSITY (SANDSTONE)
ILD .OHMM     00 120 00 00         : RESD         - DEEP RESISTIVITY (DIL)
~PARAMETER INFORMATION
#MNEM.UNIT           DATA             DESCRIPTION OF MNEMONIC
#---------         -----------     ------------------------------
GL  .M        593.507              : gl           - GROUND LEVEL ELEVATION
EREF.M        596.494              : kb           - ELEVATION OF DEPTH REFERENCE
DATM.M        593.507              : datum        - DATUM ELEVATION
TDD .M        505.968              : tdd          - TOTAL DEPTH DRILLER
RUN .         ONE                  : Run          - RUN NUMBER
ENG .         BILL                 : Engineer     - RECORDING ENGINEER
WIT .         JIM                  : Witness      - WITNESSED BY
MUD .         GEL                  : Mud_type     - MUD TYPE
MATR.         SANDSTONE            : Logunit      - NEUTRON MATRIX
TMAX.C        23.8889              : BHT          - MAXIMUM RECORDED TEMPERATURE
BHTD.M        502.92               : BHTDEP       - MAXIMUM RECORDED TEMPERATURE
MATR.         1                    : LOGUNIT      - NEUTRON MATRIX
RMT .C        25                   : MDTP         - TEMPERATURE OF MUD
NEUT.         1                    : NEUTRON      - NEUTRON TYPE
RESI.         0                    : RESIST       - RESISTIVITY TYPE
RMC .OHMM     0.25                 : RMC          - RESISTIVITY OF MUD CAKE
RMF .OHMM     0.25                 : RMF          - RESISTIVITY OF MUD FILTRATE
SUFT.C        15                   : SUFT         - SURFACE TEMPERATURE
~A  DEPTH       GR     PHID     PHIN     RESD
# ...
  413.964   74.916    0.278    0.507    4.208
  414.214   72.945    0.293    0.497    4.267
  414.464   71.281    0.303    0.485    4.357
  414.714   69.450    0.292    0.478    4.340
  414.964   68.007    0.286    0.493    4.271
  415.214   68.777    0.289    0.495    4.273
  415.464   71.178    0.290    0.485    4.270
  415.714   72.690    0.274    0.472    4.196
  415.964   74.543    0.270    0.462    4.207
  416.214   76.502    0.283    0.468    4.124
  416.464   77.838    0.288    0.476    4.129
  416.714   79.683    0.289    0.483    4.130
  416.964   81.266    0.285    0.489    4.128
  417.214   82.993    0.279    0.492    4.218
  417.464   84.389    0.270    0.482    4.227
  417.714   85.671    0.271    0.475    4.292
  417.964   81.927    0.276    0.476    4.285
  418.214   82.034    0.274    0.476    4.381
  418.464   84.157    0.279    0.473    4.375
  418.714   85.398    0.277    0.472    4.368
  418.964   87.413    0.272    0.479    4.461
  419.214   88.843    0.282    0.494    4.654
  419.464   89.987    0.292    0.499    4.717
  419.714   90.378    0.281    0.494    4.635
  419.964   88.734    0.277    0.478    4.554
  420.214   89.010    0.251    0.468    4.444
  420.464   94.331    0.229    0.470    4.313
  420.714  101.060    0.224    0.480    4.153
  420.964  105.988    0.216    0.502    3.924
  421.214  110.206    0.236    0.531    3.810
  421.464  108.371    0.233    0.542    3.690
  421.714  107.131    0.218    0.542    3.583
  421.964  106.345    0.212    0.533    3.529
  422.214  108.979    0.215    0.534    3.623
  422.464  111.563    0.218    0.533    3.656
  422.714  112.136    0.210    0.530    3.562
  422.964  112.299    0.219    0.529    3.528
  423.214  112.709    0.231    0.532    3.526
  423.464  113.734    0.216    0.538    3.529
  423.714  113.790    0.203    0.557    3.543
  423.964  112.873    0.220    0.564    3.596
  424.214  109.145    0.226    0.548    3.563
  424.464  109.534    0.227    0.538    3.534
  424.714  111.142    0.225    0.543    3.533
  424.964  108.346    0.216    0.521    3.528
  425.214  106.839    0.202    0.534    3.604
  425.464  110.307    0.197    0.537    3.656
  425.714  113.230    0.199    0.531    3.690
  425.964  114.553    0.215    0.524    3.814
  426.214  112.921    0.205    0.517    3.917
  426.464  112.154    0.197    0.514    4.227
  426.714  114.471    0.187    0.522    4.338
  426.964  115.141    0.179    0.521    4.568
  427.214  114.878    0.179    0.502    4.704
  427.464  112.849    0.181    0.491    4.851
  427.714  110.605    0.181    0.483    5.012
  427.964   99.745    0.196    0.477    5.058
  428.214   89.209    0.186    0.468    5.223
  428.464   83.403    0.174    0.461    5.363
  428.714   77.690    0.210    0.455    5.246
  428.964   73.579    0.228    0.453    5.255
  429.214   69.940    0.217    0.453    5.271
  429.464   68.180    0.175    0.450    5.551
  429.714   74.306    0.175    0.449    6.031
  429.964   77.871    0.199    0.426    6.881
  430.214   77.006    0.178    0.404    8.849
  430.464   73.675    0.023    0.303   11.456
  430.714   71.338    0.029    0.228   14.167
  430.964   74.138    0.031    0.214   15.537
  431.214   75.291    0.060    0.262   14.418
  431.464   78.779    0.091    0.326   12.667
  431.714   87.990    0.125    0.365    9.841
  431.964   93.049    0.162    0.385    7.563
  432.214   98.427    0.180    0.422    6.708
  432.464  102.349    0.185    0.451    6.315
  432.714  100.362    0.197    0.470    6.125
  432.964   99.596    0.185    0.479    6.020
  433.214  100.588    0.176    0.487    6.059
  433.464  101.931    0.186    0.483    5.683
  433.714  100.486    0.184    0.481    5.806
  433.964   97.924    0.173    0.489    5.805
  434.214  102.357    0.170    0.481    5.805
  434.464  105.226    0.174    0.489    5.807
  434.714  108.104    0.180    0.481    5.810
  434.964  108.682    0.193    0.472    5.812
  435.214  108.848    0.197    0.475    5.813
  435.464  108.530    0.184    0.490    5.808
  435.714  107.467    0.170    0.492    5.926
  435.964  106.393    0.166    0.489    5.930
  436.214  107.144    0.160    0.479    5.956
  436.464  109.664    0.167    0.486    6.049
  436.714  112.766    0.157    0.475    6.111
  436.964  112.641    0.139    0.462    6.160
  437.214  110.245    0.123    0.453    6.165
  437.464  105.252    0.126    0.458    6.167
  437.714  103.351    0.152    0.461    6.169
  437.964  108.049    0.166    0.455    6.172
  438.214  111.158    0.179    0.448    6.184
  438.464  114.152    0.168    0.446    6.061
  438.714  115.530    0.170    0.451    5.989
  438.964  116.622    0.182    0.439    5.958
  439.214  115.430    0.184    0.433    5.957
  439.464  112.882    0.182    0.433    5.959
  439.714  109.394    0.173    0.453    5.960
  439.964  107.161    0.163    0.460    5.972
  440.214  102.376    0.156    0.455    5.856
  440.464   97.625    0.155    0.441    5.743
  440.714   98.035    0.155    0.434    5.698
  440.964  102.205    0.156    0.448    5.112
  441.214  103.993    0.161    0.456    4.583
  441.464  106.941    0.170    0.459    3.950
  441.714  108.427    0.184    0.452    3.470
  441.964  107.552    0.196    0.448    3.010
  442.214  106.672    0.186    0.474    2.574
  442.464  109.681    0.199    0.518    2.381
  442.714  111.079    0.207    0.556    2.130
  442.964  112.420    0.189    0.565    2.010
  443.214  113.628    0.203    0.558    2.133
  443.464  113.111    0.201    0.559    2.467
  443.714  110.645    0.189    0.558    2.773
  443.964  107.260    0.193    0.528    3.674
  444.214  103.184    0.155    0.483    4.179
  444.464   99.436    0.121    0.470    4.763
  444.714   94.168    0.078    0.453    5.388
  444.964   94.174    0.082    0.433    5.905
  445.214   98.774    0.120    0.427    5.604
  445.464  103.894    0.137    0.440    5.382
  445.714  105.914    0.153    0.447    5.073
  445.964  107.046    0.159    0.454    4.816
  446.214  106.492    0.148    0.467    4.982
  446.464  102.340    0.145    0.478    5.235
  446.714   98.199    0.140    0.485    5.657
  446.964   93.584    0.158    0.449    6.307
  447.214   89.602    0.157    0.416    6.297
  447.464   87.833    0.144    0.395    5.896
  447.714   94.998    0.142    0.413    5.346
  447.964  104.779    0.123    0.419    4.747
  448.214  113.651    0.138    0.429    4.241
  448.464  118.623    0.149    0.453    3.741
  448.714  119.883    0.146    0.480    3.490
  448.964  119.773    0.157    0.507    3.283
  449.214  118.027    0.172    0.529    3.124
  449.464  117.792    0.177    0.525    2.969
  449.714  116.901    0.179    0.531    2.882
  449.964  113.599    0.184    0.539    2.854
  450.214  111.024    0.176    0.549    2.827
  450.464  108.431    0.172    0.548    2.862
  450.714  108.262    0.167    0.513    3.047
  450.964  108.233    0.158    0.489    3.413
  451.214  106.581    0.138    0.507    3.650
  451.464  106.796    0.121    0.509    4.064
  451.714  108.267    0.131    0.479    4.671
  451.964  110.050    0.153    0.483    4.872
  452.214  111.717    0.153    0.487    5.048
  452.464  113.077    0.152    0.480    4.967
  452.714  114.492    0.155    0.465    4.725
  452.964  113.597    0.158    0.481    4.491
  453.214  113.066    0.165    0.489    4.471
  453.464  112.332    0.167    0.501    5.143
  453.714  102.200    0.160    0.510    5.802
  453.964   89.802    0.150    0.466    7.149
  454.214   79.149    0.155    0.433    9.364
  454.464   69.090    0.176    0.368   11.465
  454.714   62.482    0.215    0.340   13.225
  454.964   66.895    0.234    0.330   14.560
  455.214   70.214    0.251    0.346   15.693
  455.464   73.002    0.255    0.372   16.364
  455.714   73.418    0.248    0.401   17.014
  455.964   75.858    0.242    0.416   17.273
  456.214   82.809    0.246    0.422   16.302
  456.464   89.978    0.239    0.432   13.571
  456.714  101.149    0.225    0.430   10.877
  456.964  109.560    0.216    0.426    9.495
  457.214  119.625    0.208    0.432    7.876
