~VERSION INFORMATION
 VERS.                 2.0:   CWLS LOG ASCII STANDARD -VERSION 2.0
 WRAP.                  NO:   ONE LINE PER DEPTH STEP
~WELL INFORMATION BLOCK
#MNEM.UNIT           DATA                    DESCRIPTION OF MNEMONIC
#---------    -------------------            -------------------------------
# Generated from Intellog Unique Number	CW_70_72/WELL/1060
NULL.         -999.25                        : NULL_VALUE
WELL.         HUSKY ET AL SMITH 11-21        : Well_name    - WELL              
LOC .         11-21-071-24W4                 : Location     - LOCATION          
UWI .         00/11-21-071-24W4/0            : Uwi          - UNIQUE WELL ID    
ENTR.         JAYE                           : Entered      - ENTERED BY        
SRVC.         SCHLUMBERGER                   : Scn          - SERVICE COMPANY   
DATE.         18 DEC 77                      : Date         - LOG DATE          
STRT.M        422.453                        : top_depth    - START DEPTH       
STOP.M        642.453                        : bot_depth    - STOP DEPTH        
STEP.M        0.25                           : increment    - STEP LENGTH       
~CURVE INFORMATION BLOCK
#MNEM UNIT       ERCB CURVE CODE    CURVE DESCRIPTION
#-----------   ------------------   ----------------------------------
DEPT.M        00 001 00 00         : DEPTH        - DEPTH                       
DPHI.V/V      00 890 00 00         : PHID         - DENSITY POROSITY (SANDSTONE)
NPHI.V/V      00 330 00 00         : PHIN         - NEUTRON POROSITY (SANDSTONE)
GR  .API      00 310 00 00         : GR           - GAMMA RAY                   
CALI.MM       00 280 01 00         : CAL          - CALIPER                     
ILD .OHMM     00 120 00 00         : RESD         - DEEP RESISTIVITY (DIL)      
~PARAMETER INFORMATION       
#MNEM.UNIT           DATA             DESCRIPTION OF MNEMONIC
#---------         -----------     ------------------------------
GL  .M        642.671              : gl           - GROUND LEVEL ELEVATION      
EREF.M        646.633              : kb           - ELEVATION OF DEPTH REFERENCE
DATM.M        642.671              : datum        - DATUM ELEVATION             
TDD .M        658.368              : tdd          - TOTAL DEPTH DRILLER         
RUN .         ONE                  : Run          - RUN NUMBER                  
ENG .         DALY                 : Engineer     - RECORDING ENGINEER          
WIT .         TODD/GEORGE          : Witness      - WITNESSED BY                
BASE.         EDM                  : Branch       - HOME BASE OF LOGGING UNIT   
MUD .         GEL                  : Mud_type     - MUD TYPE                    
MATR.         SANDSTONE            : Logunit      - NEUTRON MATRIX              
TMAX.C        26.1111              : BHT          - MAXIMUM RECORDED TEMPERATURE
BHTD.M        658.368              : BHTDEP       - MAXIMUM RECORDED TEMPERATURE
RMT .C        -17.7778             : MDTP         - TEMPERATURE OF MUD          
MUDD.KG/M     1092                 : MWT          - MUD DENSITY                 
NEUT.         1                    : NEUTRON      - NEUTRON TYPE                
RESI.         0                    : RESIST       - RESISTIVITY TYPE            
RM  .OHMM     0                    : RM           - RESISTIVITY OF MUD          
RMC .OHMM     0                    : RMC          - RESISTIVITY OF MUD CAKE     
RMF .OHMM     6.97                 : RMF          - RESISTIVITY OF MUD FILTRATE 
SUFT.C        -17.7778             : SUFT         - SURFACE TEMPERATURE         
~A  DEPTH     PHID     PHIN       GR      CAL     RESD
  422.453    0.207    0.524  126.608  222.204    2.093
  422.703    0.217    0.541  126.863  222.635    2.050
  422.953    0.235    0.554  124.996  218.630    2.026
  423.203    0.272    0.532  116.765  213.883    2.056
  423.453    0.280    0.504  118.331  207.342    2.085
  423.703    0.267    0.538  120.146  210.838    2.164
  423.953    0.327    0.563  116.782  218.244    2.304
  424.203    0.267    0.487  108.301  189.196    2.614
  424.453    0.207    0.454  103.128  190.684    3.202
  424.703    0.247    0.463   98.890  192.597    4.025
  424.953    0.258    0.472   93.467  188.062    5.392
  425.203    0.307    0.455   87.732  184.901    6.469
  425.453    0.297    0.434   75.944  176.457    7.493
  425.703    0.268    0.408   71.644  174.037    8.712
  425.953    0.261    0.395   75.768  173.625    8.804
  426.203    0.243    0.382   85.382  173.739    8.321
  426.453    0.209    0.370   92.627  174.487    6.927
  426.703    0.236    0.385   97.312  176.505    5.556
  426.953    0.227    0.406  102.871  177.783    4.774
  427.203    0.228    0.419  110.052  179.377    4.307
  427.453    0.225    0.430  122.974  181.922    4.018
  427.703    0.238    0.439  131.466  183.937    3.748
  427.953    0.257    0.466  132.533  186.589    3.330
  428.203    0.265    0.490  130.729  191.565    3.090
  428.453    0.258    0.510  130.734  203.091    3.111
  428.703    0.308    0.489  124.874  211.870    3.344
  428.953    0.260    0.427  120.324  189.690    3.738
  429.203    0.211    0.407  117.896  181.457    4.233
  429.453    0.205    0.392  118.589  179.567    5.025
  429.703    0.194    0.380  118.594  179.575    5.241
  429.953    0.180    0.374  113.919  179.480    5.357
  430.203    0.168    0.374  114.923  179.065    5.217
  430.453    0.184    0.387  123.228  179.075    5.033
  430.703    0.168    0.407  126.478  180.563    4.836
  430.953    0.157    0.420  124.861  185.010    4.554
  431.203    0.229    0.433  125.740  193.578    4.240
  431.453    0.245    0.461  128.866  201.406    3.985
  431.703    0.241    0.474  132.990  237.869    3.887
  431.953    0.262    0.469  135.491  258.377    3.878
  432.203    0.280    0.424  132.877  229.751    3.935
  432.453    0.247    0.405  129.200  207.572    3.925
  432.703    0.205    0.408  128.270  195.853    3.801
  432.953    0.239    0.436  127.090  202.413    3.687
  433.203    0.277    0.469  123.101  217.321    3.611
  433.453    0.263    0.491  120.237  199.368    3.588
  433.703    0.268    0.501  120.117  216.917    3.560
  433.953    0.213    0.460  123.430  206.255    3.559
  434.203    0.228    0.450  124.933  202.671    3.698
  434.453    0.221    0.448  123.753  192.749    3.859
  434.703    0.203    0.444  121.450  184.940    4.011
  434.953    0.199    0.432  119.022  181.884    4.092
  435.203    0.221    0.399  115.346  182.845    4.167
  435.453    0.179    0.391  112.668  183.805    4.157
  435.703    0.206    0.407  115.170  187.090    4.100
  435.953    0.220    0.415  117.546  193.544    4.015
  436.203    0.222    0.407  112.248  184.573    3.859
  436.453    0.260    0.411  101.770  179.298    3.668
  436.703    0.289    0.416   84.366  170.222    3.340
  436.953    0.297    0.402   72.828  169.597    3.007
  437.203    0.289    0.394   69.777  170.347    2.657
  437.453    0.298    0.404   69.594  171.096    2.388
  437.703    0.312    0.409   70.411  171.211    2.240
  437.953    0.305    0.399   69.293  170.692    2.182
  438.203    0.308    0.398   68.425  170.173    2.144
  438.453    0.305    0.421   70.365  169.654    2.151
  438.703    0.298    0.419   74.988  169.345    2.170
  438.953    0.293    0.407   74.870  168.828    2.185
  439.203    0.290    0.394   76.434  168.838    2.188
  439.453    0.286    0.405   82.306  169.271    2.178
  439.703    0.290    0.425   84.994  169.806    2.166
  439.953    0.310    0.430   79.009  170.343    2.153
  440.203    0.282    0.415   74.023  170.880    2.127
  440.453    0.294    0.396   79.583  171.737    2.118
  440.703    0.298    0.380   84.018  171.850    2.101
  440.953    0.303    0.393   85.521  171.226    2.096
  441.203    0.308    0.402   83.655  171.130    2.119
  441.453    0.277    0.400   91.959  170.822    2.190
  441.703    0.257    0.397  101.200  170.831    2.255
  441.953    0.244    0.389  101.268  171.159    2.349
  442.203    0.267    0.396   96.531  172.013    2.441
  442.453    0.275    0.392   90.546  173.502    2.595
  442.703    0.227    0.365   99.787  174.673    2.743
  442.953    0.211    0.386  121.507  175.528    2.970
  443.203    0.187    0.402  134.304  175.430    3.302
  443.453    0.182    0.386  135.558  174.383    3.643
  443.703    0.188    0.383  131.320  173.548    3.829
  443.953    0.200    0.378  128.580  173.240    3.777
  444.203    0.238    0.397  132.580  175.150    3.524
  444.453    0.244    0.412  136.703  180.021    3.149
  444.703    0.207    0.444  139.829  182.248    2.793
  444.953    0.197    0.460  144.951  188.600    2.538
  445.203    0.187    0.499  152.132  196.851    2.381
  445.453    0.185    0.529  145.274  201.296    2.234
  445.703    0.226    0.541  139.476  207.328    2.143
  445.953    0.260    0.543  131.869  218.115    2.178
  446.203    0.244    0.541  136.305  237.355    2.243
  446.453    0.267    0.519  141.989  250.255    2.349
  446.703    0.278    0.520  146.862  261.676    2.464
  446.953    0.277    0.499  149.924  264.855    2.605
  447.203    0.234    0.479  144.564  233.483    2.842
  447.453    0.220    0.457  142.136  207.393    3.089
  447.703    0.185    0.460  138.710  194.723    3.415
  447.953    0.278    0.458  131.913  197.586    3.603
  448.203    0.307    0.444  120.375  205.836    3.535
  448.453    0.252    0.428  115.014  186.404    3.291
  448.703    0.190    0.478  119.388  176.375    3.070
  448.953    0.225    0.494  118.332  186.423    2.939
  449.203    0.256    0.484  108.666  201.119    2.820
  449.453    0.299    0.431   96.878  186.336    2.792
  449.703    0.288    0.400   95.948  174.301    2.828
  449.953    0.273    0.392   99.822  172.513    2.928
  450.203    0.254    0.402  103.197  172.840    3.165
  450.453    0.237    0.419  109.942  175.068    3.466
  450.703    0.220    0.424  107.639  177.614    3.691
  450.953    0.226    0.407  105.772  175.932    3.873
  451.203    0.226    0.415  108.586  173.933    3.951
  451.453    0.219    0.424  115.455  175.633    3.994
  451.703    0.238    0.425  114.088  178.073    3.999
  451.953    0.239    0.421  108.166  179.668    3.916
  452.203    0.221    0.428  103.242  180.311    3.667
  452.453    0.254    0.442   98.754  179.263    3.370
  452.703    0.275    0.443   94.454  176.421    3.155
  452.953    0.279    0.437   97.705  174.740    2.846
  453.203    0.256    0.423  104.574  174.008    2.684
  453.453    0.241    0.435  111.319  174.229    2.571
  453.703    0.225    0.436  115.754  175.401    2.545
  453.953    0.213    0.441  122.436  177.629    2.587
  454.203    0.231    0.457  119.884  183.344    2.635
  454.453    0.282    0.485  116.644  193.603    2.678
  454.703    0.303    0.474  112.719  186.955    2.758
  454.953    0.255    0.433  115.533  171.432    2.856
  455.203    0.229    0.421  125.584  171.653    2.990
  455.453    0.217    0.438  133.140  180.961    3.161
  455.703    0.214    0.431  129.464  186.675    3.341
  455.953    0.202    0.406  129.220  188.903    3.551
  456.203    0.217    0.407  133.656  187.750    3.747
  456.453    0.201    0.418  141.212  186.598    3.902
  456.703    0.191    0.409  150.265  187.876    3.980
  456.953    0.191    0.404  153.016  191.794    3.963
  457.203    0.179    0.420  137.671  194.445    3.846
  457.453    0.229    0.452  128.005  203.647    3.786
  457.703    0.247    0.480  119.400  206.192    3.721
  457.953    0.230    0.471  114.101  194.050    3.610
  458.203    0.219    0.448  110.550  186.135    3.431
  458.453    0.255    0.423  106.999  180.650    3.335
  458.703    0.280    0.420  105.506  176.327    3.235
