~VERSION INFORMATION
 VERS.                 2.0:   CWLS LOG ASCII STANDARD -VERSION 2.0
 WRAP.                  NO:   ONE LINE PER DEPTH STEP
~WELL INFORMATION BLOCK
#MNEM.UNIT           DATA                    DESCRIPTION OF MNEMONIC
#---------    -------------------            -------------------------------
# Generated from Intellog Unique Number	CS_67_68/WELL/2208
WELL.         MANNVILLE ET AL ATMORE         : Well_name    - WELL
LOC .         00/11-22-067-15W4/0            : Location     - LOCATION
UWI .         00/11-22-067-15W4/0            : Uwi          - UNIQUE WELL ID
ENTR.         SP                             : Entered      - ENTERED BY
SRVC.         SCHLUMBERGER                   : Scn          - SERVICE COMPANY
STRT.M        330                            : top_depth    - START DEPTH
STOP.M        540                            : bot_depth    - STOP DEPTH
STEP.M        0.25                           : increment    - STEP LENGTH
 NULL. -999.2500:NULL Value
~CURVE INFORMATION BLOCK
#MNEM UNIT       ERCB CURVE CODE    CURVE DESCRIPTION
#-----------   ------------------   ----------------------------------
DEPT.M        00 001 00 00         : DEPTH        - DEPTH
ILD .OHMM     00 120 00 00         : RESD         - DEEP RESISTIVITY (DIL)
DPHI.V/V      00 890 00 00         : PHID         - DENSITY POROSITY (LIMESTONE)
NPHI.V/V      00 330 00 00         : PHIN         - NEUTRON POROSITY (LIMESTONE)
GR  .API      00 310 00 00         : GR           - GAMMA RAY
CALI.MM       00 280 01 00         : CAL          - CALIPER
~PARAMETER INFORMATION
#MNEM.UNIT           DATA             DESCRIPTION OF MNEMONIC
#---------         -----------     ------------------------------
GL  .M        580.3                : gl           - GROUND LEVEL ELEVATION
EREF.M        583.5                : kb           - ELEVATION OF DEPTH REFERENCE
DATM.M        583.5                : datum        - DATUM ELEVATION
TDD .M        542.5                : tdd          - TOTAL DEPTH DRILLER
RUN .         ONE                  : Run          - RUN NUMBER
ENG .         BILL                 : Engineer     - RECORDING ENGINEER
WIT .         JIM                  : Witness      - WITNESSED BY
MUD .         GEL                  : Mud_type     - MUD TYPE
MATR.         LIMESTONE            : Logunit      - NEUTRON MATRIX
TMAX.C        16.6                 : BHT          - MAXIMUM RECORDED TEMPERATURE
BHTD.M        540                  : BHTDEP       - MAXIMUM RECORDED TEMPERATURE
MATR.         1                    : LOGUNIT      - NEUTRON MATRIX
RMT .C        25                   : MDTP         - TEMPERATURE OF MUD
NEUT.         1                    : NEUTRON      - NEUTRON TYPE
RESI.         0                    : RESIST       - RESISTIVITY TYPE
RMC .OHMM     0.25                 : RMC          - RESISTIVITY OF MUD CAKE
RMF .OHMM     0.25                 : RMF          - RESISTIVITY OF MUD FILTRATE
SUFT.C        15                   : SUFT         - SURFACE TEMPERATURE
~A  DEPTH     RESD     PHID     PHIN       GR      CAL
# ...
  512.500    3.921    0.149    0.292  102.227  156.591
  512.750    4.237    0.158    0.299  106.810  157.920
  513.000    4.672    0.169    0.299  108.768  159.861
  513.250    5.058    0.174    0.296  104.621  161.394
  513.500    5.353    0.151    0.305  104.869  162.216
  513.750    5.487    0.146    0.314  108.170  162.120
  514.000    5.572    0.171    0.321  104.694  161.211
  514.250    5.330    0.191    0.327  106.958  158.980
  514.500    5.184    0.178    0.324  111.479  157.562
  514.750    4.957    0.162    0.319  118.870  156.552
  515.000    4.950    0.150    0.325  121.621  155.846
  515.250    5.008    0.161    0.339  113.384  154.225
  515.500    5.135    0.174    0.350  109.420  152.604
  515.750    5.224    0.150    0.359   99.900  151.288
  516.000    5.395    0.123    0.324   88.976  150.786
  516.250    5.939    0.079    0.268   83.486  151.098
  516.500    6.538    0.027    0.224   87.825  151.512
  516.750    6.985    0.009    0.268   93.079  151.724
  517.000    7.174    0.087    0.288   92.472  151.629
  517.250    6.510    0.131    0.285   91.439  151.636
  517.500    5.819    0.158    0.277   91.077  151.643
  517.750    5.241    0.174    0.297   91.386  152.055
  518.000    4.883    0.160    0.305   91.695  152.775
  518.250    4.643    0.150    0.300   93.531  154.715
  518.500    4.383    0.144    0.292   94.574  157.571
  518.750    4.207    0.170    0.299   89.266  159.409
  519.000    4.039    0.208    0.314   80.601  158.398
  519.250    3.834    0.230    0.325   74.011  157.592
  519.500    3.639    0.191    0.311   77.618  158.312
  519.750    3.474    0.162    0.297   86.596  159.844
  520.000    3.986    0.143    0.277   97.711  161.784
  520.250    4.479    0.126    0.283  107.178  164.436
  520.500    5.091    0.113    0.295  118.904  166.173
  520.750    5.387    0.112    0.302  124.098  166.383
  521.000    5.712    0.121    0.311  118.851  164.559
  521.250    5.912    0.136    0.321  113.178  162.937
  521.500    6.037    0.131    0.332  113.853  161.521
  521.750    6.006    0.121    0.339  113.858  161.630
  522.000    5.885    0.128    0.325  111.970  162.246
  522.250    5.757    0.139    0.339  113.622  162.457
  522.500    5.610    0.129    0.344  119.425  163.379
  522.750    5.395    0.109    0.344  124.863  165.421
  523.000    5.317    0.092    0.332  117.663  166.751
  523.250    5.280    0.120    0.323  111.807  163.299
  523.500    5.342    0.139    0.335  110.040  161.371
  523.750    5.364    0.163    0.342  109.800  159.445
  524.000    5.386    0.182    0.333  109.622  158.741
  524.250    5.409    0.143    0.325  109.809  158.645
  524.500    5.401    0.108    0.320  111.644  158.347
  524.750    5.384    0.083    0.320  108.474  157.845
  525.000    5.416    0.072    0.325  107.196  157.445
  525.250    5.418    0.095    0.332  111.779  157.350
  525.500    5.360    0.124    0.346  115.568  157.255
  525.750    5.292    0.141    0.345  115.999  157.670
  526.000    5.225    0.143    0.342  113.623  157.981
  526.250    5.159    0.134    0.340  111.856  158.802
  526.500    5.094    0.119    0.340  112.532  160.233
  526.750    5.077    0.113    0.352  114.246  164.107
  527.000    5.051    0.121    0.353  114.250  167.471
  527.250    5.015    0.129    0.356  113.216  168.293
  527.500    5.017    0.138    0.355  111.511  168.198
  527.750    5.019    0.128    0.340  109.927  166.068
  528.000    5.012    0.117    0.325  108.894  163.633
  528.250    5.023    0.108    0.322  111.890  163.437
  528.500    5.016    0.113    0.341  113.176  163.544
  528.750    5.008    0.109    0.348  114.401  163.857
  529.000    4.992    0.104    0.337  115.992  163.965
  529.250    4.966    0.132    0.353  118.683  163.566
  529.500    4.904    0.150    0.363  121.495  163.370
  529.750    4.868    0.133    0.371  124.491  164.393
  530.000    4.834    0.129    0.376  125.960  166.843
  530.250    4.863    0.119    0.360  126.269  168.377
  530.500    4.884    0.096    0.337  129.448  169.298
  530.750    4.923    0.071    0.352  133.055  169.915
  531.000    4.990    0.085    0.364  134.462  170.431
  531.250    5.096    0.154    0.358  106.628  169.726
  531.500    5.214    0.206    0.355   79.770  167.188
  531.750    5.395    0.242    0.350   62.497  163.634
  532.000    5.562    0.265    0.340   47.910  161.504
  532.250    5.745    0.268    0.334   37.902  164.258
  532.500    5.878    0.216    0.323   34.670  166.402
  532.750    5.970    0.152    0.308   35.774  167.935
  533.000    5.861    0.128    0.304   35.106  167.739
  533.250    5.259    0.121    0.322   29.555  163.981
  533.500    4.536    0.208    0.337   24.308  159.714
  533.750    3.906    0.258    0.333   19.612  155.143
  534.000    3.350    0.245    0.298   16.014  154.640
  534.250    3.069    0.203    0.325   22.428  170.419
  534.500    3.205    0.209    0.352   22.921  185.485
  534.750    3.562    0.223    0.375   23.047  198.516
  535.000    4.018    0.232    0.373   22.929  197.912
  535.250    4.575    0.202    0.373   22.994  190.796
  535.500    5.151    0.160    0.379   22.937  182.663
  535.750    5.671    0.133    0.380   23.003  174.835
  536.000    6.185    0.140    0.379   23.067  171.586
  536.250    6.448    0.174    0.379   23.133  170.983
  536.500    6.722    0.189    0.379   23.076  171.091
  536.750    6.700    0.167    0.378   23.080  171.099
  537.000    6.289    0.151    0.379   23.084  171.105
  537.250    5.674    0.152    0.380   23.149  168.873
  537.500    5.130    0.086    0.382   23.276  162.368
  537.750    4.673    0.090    0.383   21.204  160.340
  538.000    4.460    0.055    0.383   21.453  161.161
  538.250    5.578    0.000    0.383   21.823  161.778
  538.500    4.722    0.000    0.383   22.010  160.462
  538.750    4.500    0.000    0.385   22.320  157.519
  539.000    4.468    0.000    0.386   22.446  155.999
  539.250    4.554    0.000    0.387   22.694  151.834
  539.500    4.652    0.000    0.388   22.759  148.688
  539.750    4.723    0.000    0.389   22.825  147.474
  540.000    4.797    0.000    0.391   22.829  146.869
