~VERSION INFORMATION
 VERS.                 2.0:   CWLS LOG ASCII STANDARD -VERSION 2.0
 WRAP.                  NO:   ONE LINE PER DEPTH STEP
~WELL INFORMATION BLOCK
#MNEM.UNIT           DATA                    DESCRIPTION OF MNEMONIC
#---------    -------------------            -------------------------------
# Generated from Intellog Unique Number	CS_73_76/WELL/854
WELL.         HOUSTON OILS LIMITED           : Well_name    - WELL
LOC .         00/11-35-073-15W4/0            : Location     - LOCATION
UWI .         00/11-35-073-15W4/0            : Uwi          - UNIQUE WELL ID
ENTR.         SP                             : Entered      - ENTERED BY
SRVC.         SCHLUMBERGER                   : Scn          - SERVICE COMPANY
STRT.M        320.04                         : top_depth    - START DEPTH
STOP.M        536.29                         : bot_depth    - STOP DEPTH
STEP.M        0.25                           : increment    - STEP LENGTH
 NULL. -999.2500:NULL Value
~CURVE INFORMATION BLOCK
#MNEM UNIT       ERCB CURVE CODE    CURVE DESCRIPTION
#-----------   ------------------   ----------------------------------
DEPT.M        00 001 00 00         : DEPTH        - DEPTH
GR  .API      00 310 00 00         : GR           - GAMMA RAY
DPHI.V/V      00 890 00 00         : PHID         - DENSITY POROSITY (SANDSTONE)
NPHI.V/V      00 330 00 00         : PHIN         - NEUTRON POROSITY (SANDSTONE)
ILD .OHMM     00 120 00 00         : RESD         - DEEP RESISTIVITY (DIL)
~PARAMETER INFORMATION
#MNEM.UNIT           DATA             DESCRIPTION OF MNEMONIC
#---------         -----------     ------------------------------
GL  .M        657.758              : gl           - GROUND LEVEL ELEVATION
EREF.M        660.806              : kb           - ELEVATION OF DEPTH REFERENCE
DATM.M        657.758              : datum        - DATUM ELEVATION
TDD .M        539.496              : tdd          - TOTAL DEPTH DRILLER
RUN .         ONE                  : Run          - RUN NUMBER
ENG .         BILL                 : Engineer     - RECORDING ENGINEER
WIT .         JIM                  : Witness      - WITNESSED BY
MUD .         GEL                  : Mud_type     - MUD TYPE
MATR.         SANDSTONE            : Logunit      - NEUTRON MATRIX
TMAX.C        23.8889              : BHT          - MAXIMUM RECORDED TEMPERATURE
BHTD.M        539.496              : BHTDEP       - MAXIMUM RECORDED TEMPERATURE
MATR.         1                    : LOGUNIT      - NEUTRON MATRIX
RMT .C        25                   : MDTP         - TEMPERATURE OF MUD
NEUT.         1                    : NEUTRON      - NEUTRON TYPE
RESI.         0                    : RESIST       - RESISTIVITY TYPE
RMC .OHMM     0.25                 : RMC          - RESISTIVITY OF MUD CAKE
RMF .OHMM     0.25                 : RMF          - RESISTIVITY OF MUD FILTRATE
SUFT.C        15                   : SUFT         - SURFACE TEMPERATURE
~A  DEPTH       GR     PHID     PHIN     RESD
# ...
  407.040   71.361    0.283    0.488    6.321
  407.290   70.858    0.201    0.464    7.020
  407.540   65.599    0.119    0.431    7.773
  407.790   63.121    0.038    0.380    8.625
  408.040   62.304    0.023    0.285    9.937
  408.290   59.290    0.029    0.237   11.774
  408.540   56.773    0.017    0.192   13.393
  408.790   54.922    0.003    0.173   15.418
  409.040   54.604    0.007    0.176   17.455
  409.290   54.610    0.016    0.183   20.522
  409.540   54.643    0.021    0.189   21.887
  409.790   54.059    0.044    0.196   22.935
  410.040   54.032    0.042    0.204   23.515
  410.290   54.031    0.047    0.207   25.842
  410.540   53.581    0.057    0.220   27.296
  410.790   53.285    0.036    0.234   29.577
  411.040   54.726    0.021    0.249   29.114
  411.290   55.550    0.029    0.204   26.741
  411.540   53.886    0.084    0.201   22.962
  411.790   54.642    0.182    0.221   19.170
  412.040   56.102    0.234    0.266   15.098
  412.290   57.702    0.239    0.304   13.061
  412.540   60.027    0.149    0.366   12.164
  412.790   61.699    0.087    0.374   12.985
  413.040   60.555    0.083    0.316   15.407
  413.290   54.440    0.069    0.273   19.582
  413.540   47.892    0.101    0.249   21.708
  413.790   43.682    0.186    0.248   18.868
  414.040   46.263    0.232    0.257   15.269
  414.290   49.753    0.276    0.301   12.289
  414.540   56.637    0.311    0.371   10.874
  414.790   60.174    0.310    0.412    9.875
  415.040   61.735    0.289    0.461    9.656
  415.290   58.918    0.252    0.471   10.911
  415.540   58.416    0.053    0.468   15.013
  415.790   57.043    0.041    0.363   20.030
  416.040   52.668    0.025    0.275   27.700
  416.290   48.473    0.039    0.221   34.481
  416.540   46.815    0.074    0.183   38.044
  416.790   47.823    0.135    0.196   36.816
  417.040   49.990    0.163    0.271   33.137
  417.290   53.696    0.141    0.320   29.073
  417.540   54.491    0.103    0.371   26.988
  417.790   51.232    0.042    0.281   24.797
  418.040   47.408   -0.000    0.144   25.349
  418.290   44.369    0.000    0.117   27.932
  418.540   42.831    0.000    0.116   33.929
  418.790   43.723    0.003    0.121   36.928
  419.040   48.717    0.014    0.125   42.235
  419.290   51.824    0.017    0.135   44.045
  419.540   54.433    0.031    0.143   46.113
  419.790   54.847    0.028    0.151   47.408
  420.040   52.914    0.072    0.158   42.137
  420.290   54.008    0.117    0.168   30.259
  420.540   56.411    0.171    0.210   21.705
  420.790   59.104    0.246    0.325   17.119
  421.040   63.143    0.284    0.416   14.022
  421.290   68.055    0.295    0.457   10.963
  421.540   70.371    0.293    0.471    9.480
  421.790   74.654    0.287    0.465    8.429
  422.040   77.532    0.272    0.496    7.800
  422.290   80.498    0.251    0.522    7.361
  422.540   83.795    0.230    0.524    7.200
  422.790   86.957    0.213    0.494    7.204
  423.040   88.429    0.201    0.489    7.316
  423.290   88.085    0.205    0.502    7.555
  423.540   85.365    0.218    0.510    7.623
  423.790   84.434    0.217    0.502    7.881
  424.040   83.211    0.218    0.482    7.952
  424.290   81.853    0.235    0.460    8.046
  424.540   80.246    0.251    0.470    7.977
  424.790   79.449    0.268    0.498    7.602
  425.040   79.446    0.256    0.513    7.491
  425.290   82.471    0.264    0.519    7.271
  425.540   84.712    0.251    0.495    7.056
  425.790   87.140    0.246    0.479    6.848
  426.040   89.544    0.241    0.510    6.638
  426.290   90.393    0.236    0.518    6.592
  426.540   89.915    0.239    0.538    6.591
  426.790   87.956    0.243    0.554    6.590
  427.040   86.694    0.248    0.554    6.590
  427.290   85.619    0.250    0.575    6.696
  427.540   86.583    0.237    0.585    6.568
  427.790   87.947    0.211    0.583    6.716
  428.040   88.975    0.204    0.536    6.701
  428.290   89.022    0.209    0.514    6.855
  428.540   88.005    0.203    0.488    6.835
  428.790   87.299    0.203    0.473    6.979
  429.040   87.285    0.221    0.464    6.970
  429.290   88.533    0.243    0.506    6.969
  429.540   86.114    0.255    0.536    6.957
  429.790   83.529    0.256    0.546    7.107
  430.040   80.082    0.266    0.540    7.098
  430.290   76.929    0.272    0.515    7.100
  430.540   75.283    0.287    0.449    7.101
  430.790   74.034    0.291    0.459    7.102
  431.040   73.983    0.281    0.470    7.103
  431.290   72.937    0.278    0.477    7.103
  431.540   72.957    0.289    0.477    7.039
  431.790   73.062    0.275    0.480    6.849
  432.040   73.529    0.284    0.473    6.737
  432.290   74.754    0.295    0.490    6.667
  432.540   76.784    0.301    0.501    6.610
  432.790   77.779    0.302    0.508    6.607
  433.040   77.341    0.293    0.504    6.598
  433.290   75.280    0.300    0.487    6.737
  433.540   74.718    0.298    0.475    6.717
  433.790   75.993    0.301    0.472    6.862
  434.040   78.388    0.294    0.485    6.984
  434.290   80.183    0.265    0.484    7.197
  434.540   75.843    0.234    0.459    7.424
  434.790   71.329    0.219    0.415    7.512
  435.040   69.665    0.255    0.387    7.351
  435.290   73.742    0.299    0.441    7.206
  435.540   79.662    0.300    0.484    6.986
  435.790   83.929    0.291    0.523    6.787
  436.040   85.752    0.286    0.522    6.741
  436.290   86.317    0.300    0.503    6.728
  436.540   84.144    0.281    0.499    6.875
  436.790   80.133    0.275    0.491    6.861
  437.040   79.988    0.280    0.495    6.675
  437.290   80.962    0.266    0.503    6.154
  437.540   83.175    0.261    0.513    5.531
  437.790   86.846    0.252    0.502    4.783
  438.040   90.105    0.232    0.504    3.961
  438.290   95.055    0.231    0.544    3.406
  438.540   98.604    0.240    0.561    3.164
  438.790  102.016    0.233    0.577    3.025
  439.040  101.194    0.242    0.592    3.277
  439.290  102.911    0.238    0.627    3.546
  439.540  103.116    0.233    0.624    3.927
  439.790  101.274    0.231    0.628    4.565
  440.040   98.564    0.223    0.605    5.196
  440.290   98.326    0.194    0.579    5.633
  440.540   98.733    0.197    0.510    6.137
  440.790   98.844    0.201    0.498    6.450
  441.040   96.653    0.198    0.516    6.507
  441.290   94.352    0.184    0.505    6.582
  441.540   92.684    0.156    0.498    6.372
  441.790   92.824    0.035    0.513    6.182
  442.040   94.040    0.260    0.522    5.994
  442.290   95.956    0.239    0.521    5.952
  442.540   94.772    0.230    0.520    5.860
  442.790   95.758    0.228    0.523    5.847
  443.040   98.427    0.235    0.529    5.846
  443.290   99.392    0.240    0.510    5.960
  443.540   99.252    0.239    0.519    5.988
  443.790   97.176    0.234    0.546    6.060
  444.040   91.397    0.237    0.564    6.255
  444.290   84.001    0.245    0.580    6.280
  444.540   86.108    0.258    0.577    6.390
  444.790   88.244    0.274    0.543    6.575
  445.040   88.683    0.265    0.519    6.936
  445.290   86.675    0.265    0.500    7.372
  445.540   83.454    0.265    0.497    7.605
  445.790   80.233    0.238    0.480    7.831
  446.040   78.342    0.206    0.457    7.383
  446.290   78.668    0.228    0.446    6.960
  446.540   82.783    0.249    0.478    6.897
  446.790   84.239    0.213    0.498    7.318
  447.040   85.440    0.184    0.486    7.978
  447.290   82.775    0.157    0.454    8.565
  447.540   79.288    0.107    0.368    9.034
  447.790   74.542    0.066    0.350    8.844
  448.040   78.252    0.071    0.345    8.172
  448.290   82.512    0.146    0.383    7.856
  448.540   85.974    0.222    0.433    7.395
  448.790   87.178    0.234    0.500    7.176
  449.040   90.664    0.253    0.479    7.171
  449.290   91.819    0.268    0.473    7.021
  449.540   91.755    0.262    0.467    7.141
  449.790   92.723    0.256    0.478    7.020
  450.040   92.412    0.270    0.498    6.904
  450.290   93.451    0.282    0.488    6.692
