~VERSION INFORMATION
 VERS.                 2.0:   CWLS LOG ASCII STANDARD -VERSION 2.0
 WRAP.                  NO:   ONE LINE PER DEPTH STEP
~WELL INFORMATION BLOCK
#MNEM.UNIT           DATA                    DESCRIPTION OF MNEMONIC
#---------    -------------------            -------------------------------
# Generated from Intellog Unique Number	CW_76_78/WELL/2813
WELL.         11-01-077-24W4                 : Well_name    - WELL
LOC .         00/11-01-077-24W4/0            : Location     - LOCATION
UWI .         00/11-01-077-24W4/0            : Uwi          - UNIQUE WELL ID
ENTR.         JJ                             : Entered      - ENTERED BY
SRVC.         WESTERN ATLAS                  : Scn          - SERVICE COMPANY
DATE.         10 MAR 70                      : Date         - LOG DATE
STRT.M        607.162                        : top_depth    - START DEPTH
STOP.M        735.162                        : bot_depth    - STOP DEPTH
STEP.M        0.25                           : increment    - STEP LENGTH
 NULL. -999.2500:NULL Value
~CURVE INFORMATION BLOCK
#MNEM UNIT       ERCB CURVE CODE    CURVE DESCRIPTION
#-----------   ------------------   ----------------------------------
DEPT.M        00 001 00 00         : DEPTH        - DEPTH
DELT.US/F     00 520 00 00         : DELT         - SONIC TRAVEL TIME
CALI.MM       00 280 01 00         : CAL          - CALIPER
GR  .API      00 310 00 00         : GR           - GAMMA RAY
ILD .OHMM     00 120 00 00         : RESD         - DEEP RESISTIVITY (DIL)
~PARAMETER INFORMATION
#MNEM.UNIT           DATA             DESCRIPTION OF MNEMONIC
#---------         -----------     ------------------------------
GL  .M        797.662              : gl           - GROUND LEVEL ELEVATION
EREF.M        800.71               : kb           - ELEVATION OF DEPTH REFERENCE
DATM.M        797.662              : datum        - DATUM ELEVATION
TDD .M        734.568              : tdd          - TOTAL DEPTH DRILLER
RUN .         ONE                  : Run          - RUN NUMBER
ENG .         KOWALCHUK            : Engineer     - RECORDING ENGINEER
WIT .         TOFT                 : Witness      - WITNESSED BY
BASE.         V.V.                 : Branch       - HOME BASE OF LOGGING UNIT
MUD .         MUD                  : Mud_type     - MUD TYPE
MATR.         SANDSTONE            : Logunit      - NEUTRON MATRIX
TMAX.C        33.3333              : BHT          - MAXIMUM RECORDED TEMPERATURE
BHTD.M        736.092              : BHTDEP       - MAXIMUM RECORDED TEMPERATURE
RMT .C        18.3333              : MDTP         - TEMPERATURE OF MUD
MUDD.KG/M     1140                 : MWT          - MUD DENSITY
NEUT.         1                    : NEUTRON      - NEUTRON TYPE
RESI.         0                    : RESIST       - RESISTIVITY TYPE
RM  .OHMM     4                    : RM           - RESISTIVITY OF MUD
RMC .OHMM     4.5                  : RMC          - RESISTIVITY OF MUD CAKE
RMF .OHMM     2.2                  : RMF          - RESISTIVITY OF MUD FILTRATE
SUFT.C        5                    : SUFT         - SURFACE TEMPERATURE
~A  DEPTH     DELT      CAL       GR     RESD
  607.162  369.894  233.148   96.901    4.678
  607.412  387.454  235.970   95.670    4.722
  607.662  389.093  239.173   98.400    4.808
  607.912  393.550  240.770  100.861    4.854
  608.162  400.299  233.711  105.586    5.017
  608.412  409.276  230.263  108.657    5.340
  608.662  383.532  229.131  104.233    5.699
  608.912  381.045  229.723  100.235    6.216
  609.162  385.895  230.826   97.804    6.615
  609.412  378.952  232.933   99.002    7.093
  609.662  345.019  234.125  102.988    7.414
  609.912  327.267  234.715   99.047    7.735
  610.162  364.676  234.799   95.231    8.096
  610.412  367.889  233.407   91.895    8.534
  610.662  358.850  232.474   88.506    9.091
  610.912  260.191  231.866   86.432    9.963
  611.162  331.470  231.826   81.886   10.716
  611.412  351.846  233.342   82.665   11.233
  611.662  328.525  233.524   89.133   11.554
  611.912  293.806  233.098   85.075   11.442
  612.162  271.534  228.265   82.768   10.820
  612.412  286.997  227.446   82.591    9.844
  612.662  319.492  229.234   83.491    8.436
  612.912  337.051  230.750   85.347    7.774
  613.162  369.416  231.229   91.334    7.191
  613.412  373.349  230.322   99.619    6.806
  613.662  352.714  230.096  104.869    6.536
  613.912  368.177  229.897   98.148    6.426
  614.162  387.440  229.471   94.629    6.393
  614.412  401.265  229.044   98.021    6.281
  614.662  406.573  228.622   97.584    6.052
  614.912  403.627  228.511   92.855    5.901
  615.162  391.640  229.837   92.909    5.790
  615.412  396.621  231.434   96.292    5.762
  615.662  399.702  232.519  100.039    5.685
  615.912  395.380  233.105  104.203    5.614
  616.162  391.451  233.589  107.582    5.541
  616.412  388.309  232.782  101.341    5.469
  616.662  391.390  231.946  103.397    5.436
  616.912  393.291  232.956  104.128    5.403
  617.162  390.673  240.699  103.871    5.370
  617.412  386.482  245.129  103.564    5.338
  617.662  380.522  243.285  102.338    5.227
  617.912  374.563  236.735  100.397    5.115
  618.162  373.909  234.705   97.543    5.083
  618.412  379.021  236.211   96.021    5.168
  618.662  387.147  237.497   98.371    5.252
  618.912  395.403  238.713  101.025    5.337
  619.162  393.833  239.410  101.030    5.383
  619.412  379.946  239.400   99.623    5.390
  619.662  388.137  238.659   96.121    5.356
  619.912  399.407  237.025   96.287    5.206
  620.162  406.877  233.596   98.750    5.135
  620.412  414.347  230.756  104.798    5.062
  620.662  418.739  235.170  106.907    5.383
  620.912  420.902  239.091  112.044    5.900
  621.162  426.800  237.879  112.282    6.732
  621.412  349.040  236.760  102.231    7.210
  621.662  359.982  236.244   99.618    7.491
  621.912  362.343  236.131  100.397    7.655
  622.162  358.283  235.704   99.605    7.740
  622.412  351.930  235.205  101.719    7.707
  622.662  351.211  235.180  105.096    7.440
  622.912  361.695  236.392  101.282    7.289
  623.162  372.441  236.776  102.359    7.099
  623.412  387.248  236.845  105.321    6.948
  623.662  393.801  237.456  104.161    6.760
  623.912  361.244  238.430  102.411    6.685
  624.162  378.738  239.240  102.762    6.653
  624.412  384.832  238.713  104.680    6.582
  624.662  395.578  237.387  106.377    6.582
  624.912  398.135  236.060  107.396    6.595
  625.162  393.420  232.824  107.985    6.562
  625.412  384.185  230.411  104.228    6.648
  625.662  373.836  229.086  101.934    6.653
  625.912  383.992  229.177  101.431    6.738
  626.162  380.456  229.359  102.032    6.941
  626.412  382.423  229.634  104.141    7.262
  626.662  378.429  229.352  106.802    7.582
  626.912  381.969  229.429  104.010    8.257
  627.162  354.390  230.735   99.892    9.128
  627.412  330.087  232.212   95.460   11.925
  627.662  284.821  233.812   91.090   13.229
  627.912  307.883  236.325   86.845   13.786
  628.162  277.684  235.193   83.994   14.028
  628.412  224.425  231.760   85.199   13.051
  628.662  279.653  229.542   87.567   11.446
  628.912  328.526  229.643   87.606    9.724
  629.162  359.712  230.014   86.812    8.552
  629.412  332.461  230.810   86.990    7.969
  629.662  354.147  231.693   89.038    7.505
  629.912  382.712  232.397   95.271    7.395
  630.162  395.882  232.776   96.771    7.359
  630.412  374.658  232.865   98.944    7.288
  630.662  344.459  232.745   96.395    7.216
  630.912  360.053  232.643   93.538    7.143
  631.162  371.192  232.024   98.558    7.111
  631.412  376.042  231.310   99.762    7.039
  631.662  338.309  230.895   98.799    7.006
  631.912  338.049  230.196   98.540    6.973
  632.162  362.683  229.897   99.070    6.979
  632.412  375.132  229.938  100.407    6.986
  632.662  377.427  229.735  101.598    6.992
  632.912  382.277  229.527  105.774    6.998
  633.162  375.596  229.592  104.552    7.006
  633.412  364.789  230.109  102.185    7.012
  633.662  375.339  230.896  103.444    7.057
  633.912  367.807  231.674  104.839    7.065
  634.162  364.926  232.487  105.014    7.071
  634.412  376.327  233.171  104.994    7.077
  634.662  381.897  233.967  105.055    7.077
  634.912  370.172  234.761  106.314    7.093
  635.162  377.053  235.160  107.998    7.136
  635.412  371.159  235.358  106.967    7.222
  635.662  369.457  235.838  105.088    7.268
  635.912  373.522  236.229  103.871    7.313
  636.162  377.061  236.326  103.443    7.313
  636.412  370.577  236.388  102.581    7.366
  636.662  369.858  236.069  100.209    7.451
  636.912  368.157  235.853   97.719    7.458
  637.162  365.669  235.538  101.046    7.503
  637.412  366.064  235.451  106.909    7.510
  637.662  362.070  235.419  106.964    7.517
  637.912  367.182  235.014  102.905    7.562
  638.162  357.423  234.513  103.072    7.568
  638.412  360.438  234.286  105.002    7.614
  638.662  366.533  233.948  108.145    7.701
  638.912  346.291  234.737  109.773    7.745
  639.162  352.124  237.044  110.855    7.595
  639.412  366.211  241.574  111.328    7.326
  639.662  379.053  243.469  113.619    7.057
  639.912  387.702  245.170  115.973    6.868
  640.162  388.360  246.671  114.333    6.795
  640.412  379.583  241.818  116.331    7.078
  640.662  372.182  235.666  115.475    7.476
  640.912  347.945  232.642  111.166    7.836
  641.162  321.676  230.415  102.018    8.078
  641.412  351.945  229.477   98.867    8.124
  641.662  371.403  229.558  100.150    8.170
  641.912  360.596  231.164  100.804    8.179
  642.162  356.733  234.395  100.608    8.262
  642.412  351.887  235.467   99.558    8.701
  642.662  386.675  229.922  107.613    9.886
  642.912  393.228  230.422  109.775   11.229
  643.162  300.335  230.493  101.775   11.824
  643.412  299.682  230.685   91.179   12.264
  643.662  317.634  231.193   94.995   12.545
  643.912  327.004  231.496   99.819   12.945
  644.162  322.747  231.906  103.319   13.304
  644.412  315.740  232.056   96.723   13.861
  644.662  297.267  232.680   83.820   14.576
  644.912  282.594  232.942   74.371   15.250
  645.162  321.576  233.116   69.285   13.960
  645.412  308.279  233.636   74.122   12.197
  645.662  331.996  234.215   85.362   10.829
  645.912  336.846  234.206   96.309    9.814
  646.162  326.235  233.277  104.060    9.546
  646.412  315.231  232.261  107.502    9.396
  646.662  349.561  232.036   98.468    9.245
  646.912  342.553  232.517   98.338    9.055
  647.162  339.935  233.718  103.292    8.864
  647.412  349.698  234.625   99.961    8.635
  647.662  353.499  234.297  103.475    8.445
  647.912  348.654  233.489  102.485    8.372
  648.162  342.956  232.467  101.882    8.380
  648.412  363.790  231.837  105.320    8.425
  648.662  354.817  232.121  110.031    8.470
  648.912  335.952  232.914  113.350    8.517
  649.162  335.888  234.128  107.778    8.562
  649.412  340.476  235.338   99.901    8.608
  649.662  344.867  236.322  102.503    8.615
  649.912  347.752  236.702  105.465    8.543
  650.162  352.732  235.071  104.899    8.431
  650.412  363.609  233.453  106.352    8.282
