~VERSION INFORMATION
 VERS.                 2.0:   CWLS LOG ASCII STANDARD -VERSION 2.0
 WRAP.                  NO:   ONE LINE PER DEPTH STEP
~WELL INFORMATION BLOCK
#MNEM.UNIT           DATA                    DESCRIPTION OF MNEMONIC
#---------    -------------------            -------------------------------
# Generated from Intellog Unique Number	CW_73_75/WELL/994
LOC .         00/10-27-075-01W5/0            : Location     - LOCATION
UWI .         00/10-27-075-01W5/0            : Uwi          - UNIQUE WELL ID
ENTR.         JAYE                           : Entered      - ENTERED BY
SRVC.         SCHLUMBERGER                   : Scn          - SERVICE COMPANY
DATE.         5 JAN 76                       : Date         - LOG DATE
STRT.M        548.64                         : top_depth    - START DEPTH
STOP.M        749.89                         : bot_depth    - STOP DEPTH
STEP.M        0.25                           : increment    - STEP LENGTH
 NULL. -999.2500:NULL Value
~CURVE INFORMATION BLOCK
#MNEM UNIT       ERCB CURVE CODE    CURVE DESCRIPTION
#-----------   ------------------   ----------------------------------
DEPT.M        00 001 00 00         : DEPTH        - DEPTH
ILD .OHMM     00 120 00 00         : RESD         - DEEP RESISTIVITY (DIL)
NPHI.V/V      00 330 00 00         : PHIN         - NEUTRON POROSITY (SANDSTONE)
DPHI.V/V      00 890 00 00         : PHID         - DENSITY POROSITY (SANDSTONE)
GR  .API      00 310 00 00         : GR           - GAMMA RAY
CALI.MM       00 280 01 00         : CAL          - CALIPER
~PARAMETER INFORMATION
#MNEM.UNIT           DATA             DESCRIPTION OF MNEMONIC
#---------         -----------     ------------------------------
GL  .M        826.465              : gl           - GROUND LEVEL ELEVATION
EREF.M        830.58               : kb           - ELEVATION OF DEPTH REFERENCE
DATM.M        826.465              : datum        - DATUM ELEVATION
TDD .M        0                    : tdd          - TOTAL DEPTH DRILLER
RUN .         ONE                  : Run          - RUN NUMBER
MATR.         SANDSTONE            : Logunit      - NEUTRON MATRIX
TMAX.C        -17.7778             : BHT          - MAXIMUM RECORDED TEMPERATURE
BHTD.M        0                    : BHTDEP       - MAXIMUM RECORDED TEMPERATURE
RMT .C        -17.7778             : MDTP         - TEMPERATURE OF MUD
MUDD.KG/M     0                    : MWT          - MUD DENSITY
NEUT.         1                    : NEUTRON      - NEUTRON TYPE
RESI.         0                    : RESIST       - RESISTIVITY TYPE
RM  .OHMM     0                    : RM           - RESISTIVITY OF MUD
RMC .OHMM     0                    : RMC          - RESISTIVITY OF MUD CAKE
RMF .OHMM     0                    : RMF          - RESISTIVITY OF MUD FILTRATE
SUFT.C        -17.7778             : SUFT         - SURFACE TEMPERATURE
~A  DEPTH     RESD     PHIN     PHID       GR      CAL
  548.640    2.888    0.465    0.139   81.826  243.099
  548.890    2.835    0.467    0.186   81.679  253.457
  549.140    2.787    0.494    0.192   81.946  251.858
  549.390    2.755    0.512    0.202   81.792  249.325
  549.640    2.754    0.512    0.180   81.029  257.617
  549.890    2.738    0.501    0.201   81.427  272.403
  550.140    2.741    0.492    0.183   82.183  275.641
  550.390    2.765    0.496    0.166   84.767  270.347
  550.640    2.810    0.500    0.199   89.300  267.910
  550.890    2.882    0.505    0.210   88.963  263.323
  551.140    2.939    0.491    0.225   87.532  251.528
  551.390    2.997    0.478    0.188   86.103  253.739
  551.640    3.154    0.463    0.195   85.647  255.849
  551.890    3.393    0.455    0.176   84.820  256.622
  552.140    3.697    0.418    0.179   82.233  257.291
  552.390    4.013    0.413    0.191   79.647  257.650
  552.640    4.278    0.426    0.203   75.479  257.383
  552.890    4.347    0.445    0.228   71.798  245.898
  553.140    3.793    0.450    0.242   70.121  232.763
  553.390    3.310    0.456    0.277   72.038  255.577
  553.640    2.948    0.464    0.240   72.978  247.795
  553.890    2.713    0.444    0.222   73.983  236.721
  554.140    2.567    0.472    0.195   74.984  247.796
  554.390    2.627    0.494    0.207   74.830  235.687
  554.640    2.986    0.476    0.275   69.628  238.723
  554.890    3.679    0.410    0.281   65.582  243.406
  555.140    4.888    0.381    0.237   59.951  228.519
  555.390    6.564    0.356    0.214   45.565  218.475
  555.640    8.390    0.379    0.233   48.212  217.184
  555.890    9.326    0.394    0.214   52.131  217.438
  556.140   10.408    0.391    0.212   53.257  218.313
  556.390   11.174    0.359    0.214   49.390  218.876
  556.640   11.548    0.351    0.206   46.805  218.933
  556.890   11.797    0.366    0.212   45.494  219.287
  557.140   12.233    0.389    0.213   45.952  219.656
  557.390   12.754    0.393    0.200   46.163  219.903
  557.640   13.248    0.394    0.229   46.253  219.952
  557.890   13.762    0.399    0.246   46.892  219.796
  558.140   14.114    0.420    0.238   47.407  219.532
  558.390   14.265    0.435    0.234   47.253  219.175
  558.640   14.206    0.430    0.214   46.795  218.813
  558.890   13.970    0.438    0.229   45.182  218.656
  559.140   13.709    0.438    0.228   45.150  218.706
  559.390   13.606    0.427    0.216   46.643  218.755
  559.640   13.570    0.411    0.217   47.457  218.800
  559.890   13.588    0.408    0.225   47.367  218.653
  560.140   13.533    0.411    0.214   47.396  219.108
  560.390   12.969    0.410    0.230   48.642  219.459
  560.640   12.224    0.407    0.219   50.497  220.435
  560.890   11.396    0.410    0.204   51.375  221.107
  561.140   10.721    0.415    0.191   52.258  221.358
  561.390    9.688    0.420    0.190   53.076  222.647
  561.640    8.659    0.434    0.184   52.679  223.107
  561.890    8.191    0.439    0.190   54.049  222.952
  562.140    8.250    0.439    0.197   55.052  222.486
  562.390    8.443    0.434    0.204   52.282  222.434
  562.640    8.835    0.424    0.221   48.844  222.276
  562.890    9.524    0.415    0.215   46.437  221.806
  563.140   10.040    0.409    0.217   45.494  221.753
  563.390   10.623    0.405    0.227   46.983  221.185
  563.640   11.075    0.405    0.217   47.564  219.280
  563.890   11.485    0.406    0.204   46.616  217.987
  564.140   11.801    0.398    0.192   44.760  216.699
  564.390   11.879    0.400    0.209   43.816  216.236
  564.640   11.875    0.411    0.207   44.818  216.387
  564.890   11.716    0.409    0.202   46.125  216.744
  565.140   11.564    0.403    0.215   47.309  217.825
  565.390   11.267    0.408    0.221   47.946  219.930
  565.640   11.054    0.423    0.210   46.212  221.732
  565.890   10.789    0.436    0.199   45.328  222.400
  566.140   10.493    0.435    0.210   45.722  221.314
  566.390   10.203    0.427    0.215   46.299  219.511
  566.640    9.778    0.418    0.215   46.815  217.192
  566.890    9.406    0.407    0.217   47.513  214.877
  567.140    9.162    0.398    0.208   48.454  214.408
  567.390    8.957    0.404    0.197   49.274  214.145
  567.640    8.823    0.411    0.182   47.966  214.299
  567.890    8.867    0.392    0.183   46.595  214.554
  568.140    9.030    0.386    0.193   45.776  215.946
  568.390    9.192    0.392    0.200   45.927  217.124
  568.640    9.393    0.393    0.201   46.196  217.482
  568.890    9.580    0.384    0.195   46.470  217.534
  569.140    9.861    0.375    0.193   46.741  217.581
  569.390   10.058    0.376    0.183   46.468  217.635
  569.640   10.355    0.390    0.176   44.548  217.686
  569.890   10.501    0.392    0.172   42.329  217.626
  570.140   10.437    0.384    0.181   42.051  217.780
  570.390    9.984    0.377    0.187   43.542  217.931
  570.640    9.274    0.384    0.199   46.245  218.185
  570.890    8.520    0.397    0.212   48.709  216.897
  571.140    7.986    0.403    0.225   50.259  213.135
  571.390    7.709    0.414    0.250   49.621  210.302
  571.640    7.720    0.399    0.239   47.336  212.923
  571.890    7.844    0.381    0.219   45.419  219.567
  572.140    8.015    0.371    0.204   44.656  226.621
  572.390    8.057    0.378    0.170   45.842  219.046
  572.640    7.937    0.390    0.177   47.150  218.272
  572.890    7.775    0.405    0.195   47.055  230.270
  573.140    7.658    0.414    0.223   45.198  245.257
  573.390    7.654    0.393    0.236   42.672  233.668
  573.640    7.823    0.370    0.204   40.757  219.499
  573.890    8.021    0.363    0.172   39.933  227.172
  574.140    8.150    0.384    0.167   40.573  219.085
  574.390    8.013    0.397    0.182   41.572  217.588
  574.640    7.567    0.390    0.186   42.637  217.745
  574.890    7.054    0.351    0.189   43.699  217.792
  575.140    6.445    0.354    0.198   43.547  218.147
  575.390    5.513    0.369    0.248   38.222  219.845
  575.640    4.749    0.376    0.260   37.283  221.753
  575.890    4.214    0.385    0.274   40.105  222.114
  576.140    4.023    0.393    0.272   43.541  221.848
  576.390    4.118    0.385    0.262   43.025  221.489
  576.640    4.262    0.384    0.263   42.747  222.155
  576.890    4.494    0.402    0.273   42.413  223.028
  577.140    4.642    0.390    0.266   40.191  222.664
  577.390    4.814    0.362    0.264   39.307  221.476
  577.640    5.010    0.334    0.258   40.126  219.469
  577.890    5.109    0.327    0.245   45.144  218.179
  578.140    5.070    0.343    0.239   55.152  218.332
  578.390    5.049    0.339    0.228   64.974  219.416
  578.640    5.065    0.344    0.218   72.546  221.012
  578.890    5.139    0.375    0.188   85.231  222.091
  579.140    5.270    0.398    0.127   87.510  223.060
  579.390    5.374    0.407    0.130   84.862  223.321
  579.640    5.594    0.398    0.124   81.425  223.479
  579.890    5.769    0.384    0.142   77.500  223.311
  580.140    5.872    0.376    0.147   73.149  223.261
  580.390    5.586    0.397    0.156   72.630  223.512
  580.640    4.768    0.413    0.162   85.739  224.387
  580.890    4.011    0.433    0.153   94.166  227.422
  581.140    3.481    0.475    0.119   97.723  231.694
  581.390    3.157    0.469    0.132   99.879  228.963
  581.640    2.965    0.475    0.112  100.577  230.354
  581.890    2.969    0.473    0.153  101.884  233.285
  582.140    3.107    0.465    0.141  102.886  231.788
  582.390    3.361    0.476    0.148  101.760  222.153
  582.640    3.703    0.483    0.189   95.219  217.055
  582.890    4.057    0.443    0.172   85.574  215.660
  583.140    4.444    0.392    0.165   80.070  215.091
  583.390    4.940    0.399    0.180   75.476  212.360
  583.640    5.719    0.394    0.175   74.285  212.315
  583.890    6.153    0.385    0.154   79.730  213.079
  584.140    6.081    0.386    0.173   84.138  214.883
  584.390    5.649    0.394    0.153   88.062  217.301
  584.640    5.444    0.405    0.157   88.883  219.000
  584.890    5.592    0.411    0.165   86.173  220.700
