~VERSION INFORMATION
 VERS.                 2.0:   CWLS LOG ASCII STANDARD -VERSION 2.0
 WRAP.                  NO:   ONE LINE PER DEPTH STEP
~WELL INFORMATION BLOCK
#MNEM.UNIT           DATA                    DESCRIPTION OF MNEMONIC
#---------    -------------------            -------------------------------
# Generated from Intellog Unique Number	CW_76_78/WELL/1029
WELL.         PETROMK ET AL MARTENCK 11-32   : Well_name    - WELL
LOC .         00/11-32-077-05W5/0            : Location     - LOCATION
UWI .         00/11-32-077-05W5/0            : Uwi          - UNIQUE WELL ID
ENTR.         JAYE                           : Entered      - ENTERED BY
SRVC.         SCHLUMBERGER                   : Scn          - SERVICE COMPANY
DATE.         5 MAR 79                       : Date         - LOG DATE
STRT.M        385                            : top_depth    - START DEPTH
STOP.M        595                            : bot_depth    - STOP DEPTH
STEP.M        0.25                           : increment    - STEP LENGTH
 NULL. -999.2500:NULL Value
~CURVE INFORMATION BLOCK
#MNEM UNIT       ERCB CURVE CODE    CURVE DESCRIPTION
#-----------   ------------------   ----------------------------------
DEPT.M        00 001 00 00         : DEPTH        - DEPTH
ILD .OHMM     00 120 00 00         : RESD         - DEEP RESISTIVITY (DIL)
DPHI.V/V      00 890 00 00         : PHID         - DENSITY POROSITY (SANDSTONE)
NPHI.V/V      00 330 00 00         : PHIN         - NEUTRON POROSITY (SANDSTONE)
GR  .API      00 310 00 00         : GR           - GAMMA RAY
CALI.MM       00 280 01 00         : CAL          - CALIPER
~PARAMETER INFORMATION
#MNEM.UNIT           DATA             DESCRIPTION OF MNEMONIC
#---------         -----------     ------------------------------
GL  .M        684.5                : gl           - GROUND LEVEL ELEVATION
EREF.M        688.5                : kb           - ELEVATION OF DEPTH REFERENCE
DATM.M        684.5                : datum        - DATUM ELEVATION
TDD .M        1896                 : tdd          - TOTAL DEPTH DRILLER
RUN .         ONE                  : Run          - RUN NUMBER
BASE.         EDM                  : Branch       - HOME BASE OF LOGGING UNIT
MATR.         SANDSTONE            : Logunit      - NEUTRON MATRIX
TMAX.C        22.2                 : BHT          - MAXIMUM RECORDED TEMPERATURE
BHTD.M        1896.3               : BHTDEP       - MAXIMUM RECORDED TEMPERATURE
RMT .C        22.2                 : MDTP         - TEMPERATURE OF MUD
MUDD.KG/M     0                    : MWT          - MUD DENSITY
NEUT.         1                    : NEUTRON      - NEUTRON TYPE
RESI.         0                    : RESIST       - RESISTIVITY TYPE
RM  .OHMM     0.0791               : RM           - RESISTIVITY OF MUD
RMC .OHMM     0                    : RMC          - RESISTIVITY OF MUD CAKE
RMF .OHMM     0.0851               : RMF          - RESISTIVITY OF MUD FILTRATE
SUFT.C        4.5                  : SUFT         - SURFACE TEMPERATURE
~A  DEPTH     RESD     PHID     PHIN       GR      CAL
# ...
  567.500    3.147    0.227    0.372   83.526  298.689
  567.750    3.429    0.228    0.364   82.198  299.031
  568.000    3.203    0.228    0.363   80.498  293.282
  568.250    2.561    0.231    0.363   79.296  293.937
  568.500    3.050    0.242    0.367   79.391  296.963
  568.750    3.890    0.235    0.361   80.359  290.595
  569.000    3.799    0.219    0.353   81.139  285.364
  569.250    3.773    0.210    0.338   81.301  295.207
  569.500    3.852    0.226    0.333   80.033  295.652
  569.750    3.897    0.241    0.355   81.001  300.955
  570.000    3.878    0.214    0.357   83.023  298.615
  570.250    3.865    0.210    0.341   83.804  293.586
  570.500    3.976    0.240    0.354   82.972  306.116
  570.750    4.000    0.214    0.352   82.201  309.349
  571.000    3.835    0.199    0.365   81.556  304.533
  571.250    3.732    0.217    0.379   82.273  304.462
  571.500    3.571    0.228    0.389   83.985  305.528
  571.750    3.633    0.215    0.405   82.905  306.492
  572.000    3.786    0.238    0.414   78.660  307.766
  572.250    4.049    0.208    0.386   79.567  308.005
  572.500    4.298    0.194    0.377   81.588  308.864
  572.750    4.373    0.200    0.365   81.127  308.380
  573.000    4.161    0.210    0.374   81.662  308.728
  573.250    3.760    0.227    0.377   83.433  308.450
  573.500    3.532    0.223    0.368   85.147  308.174
  573.750    3.514    0.211    0.377   84.624  305.211
  574.000    3.595    0.225    0.390   82.489  305.358
  574.250    3.557    0.213    0.363   79.856  307.034
  574.500    3.416    0.209    0.354   79.957  307.584
  574.750    3.263    0.223    0.367   81.484  304.418
  575.000    3.105    0.241    0.381   80.464  313.024
  575.250    2.759    0.265    0.410   79.264  309.442
  575.500    2.843    0.262    0.408   78.304  310.509
  575.750    3.197    0.233    0.388   78.900  310.235
  576.000    3.615    0.214    0.382   79.803  295.911
  576.250    3.946    0.229    0.376   80.147  297.083
  576.500    3.970    0.223    0.370   78.820  304.138
  576.750    4.002    0.218    0.362   77.245  299.318
  577.000    4.041    0.214    0.348   77.652  301.520
  577.250    4.080    0.204    0.320   78.619  288.335
  577.500    4.120    0.211    0.330   80.952  268.751
  577.750    4.168    0.231    0.359   81.793  267.028
  578.000    4.304    0.241    0.386   80.712  283.481
  578.250    4.518    0.239    0.398   81.495  300.243
  578.500    5.043    0.217    0.384   84.509  303.170
  578.750    6.153    0.199    0.374   87.707  300.104
  579.000    7.048    0.185    0.360   90.042  301.792
  579.250    7.331    0.201    0.364   90.573  299.965
  579.500    6.938    0.197    0.368   87.321  298.038
  579.750    6.992    0.200    0.359   86.180  303.441
  580.000    7.521    0.202    0.361   83.362  288.915
  580.250    7.866    0.174    0.351   80.668  277.795
  580.500    8.460    0.185    0.337   82.566  290.428
  580.750    9.287    0.185    0.313   81.300  274.042
  581.000   10.137    0.176    0.310   77.737  283.679
  581.250    9.900    0.176    0.300   75.480  291.252
  581.500    8.619    0.169    0.296   73.220  295.106
  581.750    7.673    0.182    0.321   71.954  296.690
  582.000    7.452    0.193    0.339   75.029  294.451
  582.250    7.623    0.204    0.337   77.238  290.250
  582.500    7.916    0.211    0.326   77.026  296.173
  582.750    7.904    0.221    0.337   78.241  299.201
  583.000    7.648    0.222    0.337   79.581  297.891
  583.250    7.332    0.223    0.340   80.237  295.963
  583.500    6.749    0.218    0.359   75.186  293.934
  583.750    6.981    0.226    0.339   74.850  289.834
  584.000    7.466    0.214    0.321   79.167  292.864
  584.250    7.185    0.210    0.330   81.626  295.480
  584.500    6.837    0.210    0.355   80.915  296.234
  584.750    6.727    0.190    0.344   81.884  296.270
  585.000    6.656    0.199    0.326   83.347  296.096
  585.250    6.734    0.191    0.317   83.071  295.305
  585.500    6.774    0.201    0.319   81.495  294.617
  585.750    6.555    0.194    0.319   81.780  293.721
  586.000    5.912    0.183    0.325   83.182  292.825
  586.250    5.024    0.177    0.313   84.209  291.623
  586.500    4.880    0.190    0.293   83.130  291.348
  586.750    4.946    0.199    0.308   85.338  291.070
  587.000    4.777    0.195    0.332   87.981  290.690
  587.250    4.446    0.204    0.324   90.622  290.413
  587.500    4.069    0.208    0.343   91.526  293.542
  587.750    3.704    0.198    0.361   90.943  302.459
  588.000    3.090    0.250    0.430   91.538  297.538
  588.250    2.919    0.279    0.430   90.644  292.715
  588.500    3.162    0.288    0.413   93.408  277.671
  588.750    3.569    0.272    0.400   95.430  262.938
  589.000    3.466    0.290    0.391   94.845  269.168
  589.250    3.666    0.291    0.389   93.766  270.030
  589.500    4.247    0.262    0.388   91.197  272.541
  589.750    4.758    0.245    0.378   89.434  275.260
  590.000    4.698    0.233    0.373   89.162  278.805
  590.250    4.674    0.243    0.382   88.515  287.099
  590.500    4.800    0.249    0.392   88.615  282.693
  590.750    4.758    0.219    0.381   90.200  288.406
  591.000    4.587    0.238    0.392   91.044  282.761
  591.250    4.780    0.237    0.399   90.832  289.404
  591.500    5.056    0.223    0.388   89.876  289.543
  591.750    5.105    0.200    0.371   88.051  286.166
  592.000    5.061    0.211    0.384   85.110  282.072
  592.250    5.101    0.232    0.402   80.246  282.001
  592.500    3.529    0.225    0.433   77.677  280.900
  592.750    2.595    0.238    0.450   72.750  276.390
  593.000    5.604    0.264    0.295   61.495  261.345
  593.250   66.258    0.207    0.259   38.392  241.447
  593.500   64.953    0.059    0.218   25.588  226.304
  593.750   43.296    0.003    0.050   27.796  225.923
  594.000   40.371    0.032    0.061   31.119  226.373
  594.250   40.691    0.048    0.073   33.637  226.408
  594.500   43.278    0.070    0.082   33.425  226.339
  594.750   56.654    0.076    0.091   31.662  226.163
  595.000   71.862    0.085    0.099   28.908  225.886
