~VERSION INFORMATION
 VERS.                 2.0:   CWLS LOG ASCII STANDARD -VERSION 2.0
 WRAP.                  NO:   ONE LINE PER DEPTH STEP
~WELL INFORMATION BLOCK
#MNEM.UNIT           DATA                    DESCRIPTION OF MNEMONIC
#---------    -------------------            -------------------------------
# Generated from Intellog Unique Number	CC_80_83/WELL/2414
NULL.         -999.25                        : NULL_VALUE
WELL.         PEX HOUSE                      : Well_name    - WELL
LOC .         11-29-080-16W4                 : Location     - LOCATION          
UWI .         00/11-29-080-16W4/0            : Uwi          - UNIQUE WELL ID    
ENTR.         DW                             : Entered      - ENTERED BY        
SRVC.         SCHLUMBERGER                   : Scn          - SERVICE COMPANY   
DATE.         06 FEB 82                      : Date         - LOG DATE
STRT.M        155                            : top_depth    - START DEPTH       
STOP.M        340.098                        : bot_depth    - STOP DEPTH        
STEP.M        0.3                            : increment    - STEP LENGTH       
~CURVE INFORMATION BLOCK
#MNEM UNIT       ERCB CURVE CODE    CURVE DESCRIPTION
#-----------   ------------------   ----------------------------------
DEPT.M        00 001 00 00         : DEPTH        - DEPTH                       
DPHI.V/V      00 890 00 00         : PHID         - DENSITY POROSITY (LIMESTONE)
NPHI.V/V      00 330 00 00         : PHIN         - NEUTRON POROSITY (LIMESTONE)
GR  .API      00 310 00 00         : GR           - GAMMA RAY                   
ILD .OHMM     00 120 00 00         : RESD         - DEEP RESISTIVITY (DIL)      
~PARAMETER INFORMATION       
#MNEM.UNIT           DATA             DESCRIPTION OF MNEMONIC
#---------         -----------     ------------------------------
GL  .M        549.5                : gl           - GROUND LEVEL ELEVATION      
EREF.M        553.1                : kb           - ELEVATION OF DEPTH REFERENCE
DATM.M        553.1                : datum        - DATUM ELEVATION             
TDD .M        344                  : tdd          - TOTAL DEPTH DRILLER         
RUN .         ONE                  : Run          - RUN NUMBER                  
ENG .         BILL                 : Engineer     - RECORDING ENGINEER          
WIT .         JIM                  : Witness      - WITNESSED BY                
MUD .         GEL                  : Mud_type     - MUD TYPE                    
MATR.         LIMESTONE            : Logunit      - NEUTRON MATRIX              
TMAX.C        24.4                 : BHT          - MAXIMUM RECORDED TEMPERATURE
BHTD.M        344                  : BHTDEP       - MAXIMUM RECORDED TEMPERATURE
MATR.         1                    : LOGUNIT      - NEUTRON MATRIX              
RMT .C        25                   : MDTP         - TEMPERATURE OF MUD          
NEUT.         1                    : NEUTRON      - NEUTRON TYPE                
RESI.         0                    : RESIST       - RESISTIVITY TYPE            
RMC .OHMM     0.25                 : RMC          - RESISTIVITY OF MUD CAKE     
RMF .OHMM     0.25                 : RMF          - RESISTIVITY OF MUD FILTRATE 
SUFT.C        15                   : SUFT         - SURFACE TEMPERATURE         
~A  DEPTH     PHID     PHIN       GR     RESD
  155.000    0.231    0.445   99.388    6.808
  155.300    0.262    0.458   90.824    7.069
  155.600    0.285    0.462   82.259    7.906
  155.900    0.304    0.475   75.529    9.706
  156.200    0.300    0.458   65.137   12.139
  156.500    0.304    0.456   57.183   16.664
  156.800    0.310    0.472   51.056   17.957
  157.100    0.305    0.437   67.491   14.909
  157.400    0.286    0.398   77.835   11.926
  157.700    0.226    0.387   87.558    9.022
  158.000    0.238    0.405   90.579    7.084
  158.300    0.241    0.434   91.763    6.826
  158.600    0.254    0.420   92.350    8.226
  158.900    0.267    0.405   91.111   10.098
  159.200    0.286    0.433   83.163   11.723
  159.500    0.299    0.411   79.476   13.112
  159.800    0.300    0.399   82.495   14.129
  160.100    0.283    0.433   91.617   14.399
  160.400    0.245    0.427   97.690   14.138
  160.700    0.268    0.412   95.834   13.879
  161.000    0.293    0.406   87.880   13.882
  161.300    0.304    0.409   82.975   13.886
  161.600    0.288    0.430   87.215   14.149
  161.900    0.267    0.402   91.457   14.154
  162.200    0.264    0.413   82.283   14.422
  162.500    0.283    0.377   67.014   15.255
  162.800    0.314    0.365   55.401   15.838
  163.100    0.287    0.395   49.279   16.139
  163.400    0.293    0.430   43.764   16.144
  163.700    0.303    0.411   32.764   15.849
  164.000    0.302    0.335   32.729   14.991
  164.300    0.281    0.331   39.418   13.410
  164.600    0.201    0.355   77.805   12.450
  164.900    0.176    0.390   86.308   10.338
  165.200    0.170    0.383   89.337    9.778
  165.500    0.186    0.383   92.359    9.600
  165.800    0.211    0.411   88.063   10.345
  166.100    0.233    0.389   82.547   10.347
  166.400    0.222    0.373   83.740    9.429
  166.700    0.155    0.392  107.493    7.001
  167.000    0.169    0.487  109.295    5.601
  167.300    0.153    0.495  106.834    4.650
  167.600    0.179    0.477  122.659    4.318
  167.900    0.175    0.484  126.896    4.319
  168.200    0.181    0.494  124.436    4.319
  168.500    0.169    0.494  118.917    4.484
  168.800    0.154    0.518  111.574    4.486
  169.100    0.168    0.497  120.695    4.322
  169.400    0.186    0.488  114.569    3.725
  169.700    0.215    0.525  119.419    3.458
  170.000    0.221    0.572  119.394    3.524
  170.300    0.225    0.516  114.492    5.310
  170.600    0.243    0.470  104.102    9.115
  170.900    0.246    0.433   95.538    9.822
  171.200    0.236    0.424   93.068    9.825
  171.500    0.213    0.438   99.141    9.469
  171.800    0.194    0.458  107.649    9.295
  172.100    0.185    0.432  111.284    8.471
  172.400    0.211    0.414  106.982    8.013
  172.700    0.210    0.409  111.229    7.721
  173.000    0.211    0.408  114.248    8.017
  173.300    0.239    0.402  112.398    9.135
  173.600    0.254    0.399  100.172   10.217
  173.900    0.269    0.406   92.220   12.084
  174.200    0.289    0.430   78.778   13.023
  174.500    0.283    0.428   83.020   12.549
  174.800    0.263    0.433   95.190   12.320
  175.100    0.244    0.452   98.213   12.097
  175.400    0.264    0.429   93.914   12.559
  175.700    0.288    0.450   81.698   13.037
  176.000    0.322    0.398   70.695   14.050
  176.300    0.321    0.385   68.224   14.586
  176.600    0.320    0.389   71.861   14.864
  176.900    0.314    0.423   93.175   14.867
  177.200    0.316    0.423   91.929   14.870
  177.500    0.322    0.417   80.317   14.330
  177.800    0.310    0.400   72.974   12.350
  178.100    0.225    0.406   76.606   10.065
  178.400    0.214    0.436   83.896    9.699
  178.700    0.265    0.445   75.333   10.259
  179.000    0.297    0.455   66.159   10.852
  179.300    0.292    0.455   63.692   11.266
  179.600    0.251    0.458   67.327   11.268
  179.900    0.250    0.461   61.807   11.271
  180.200    0.275    0.458   67.262   11.274
  180.500    0.301    0.451   70.295   10.864
  180.800    0.295    0.448   72.099    9.901
  181.100    0.292    0.445   64.746    9.193
  181.400    0.278    0.423   62.893    9.024
  181.700    0.278    0.419   68.966    9.027
  182.000    0.280    0.414   72.601    9.029
  182.300    0.280    0.420   71.957    9.200
  182.600    0.282    0.435   69.492    9.914
  182.900    0.288    0.437   66.421    9.917
  183.200    0.289    0.431   61.512    9.919
  183.500    0.282    0.442   61.491    9.559
  183.800    0.255    0.421   69.388    9.384
  184.100    0.270    0.415   74.850    9.215
  184.400    0.276    0.445   78.481    9.389
  184.700    0.280    0.459   72.357    9.931
  185.000    0.280    0.434   69.286   10.310
  185.300    0.282    0.439   70.464   10.313
  185.600    0.276    0.437   71.063   10.125
  185.900    0.264    0.438   69.202   11.116
  186.200    0.274    0.473   66.733   13.394
  186.500    0.294    0.481   66.104   16.752
  186.800    0.309    0.474   63.027   21.346
  187.100    0.305    0.453   59.341   24.323
  187.400    0.307    0.435   56.260   26.211
  187.700    0.315    0.432   56.240   26.711
  188.000    0.333    0.429   54.995   25.739
  188.300    0.320    0.431   53.135   20.210
  188.600    0.319    0.444   56.767   15.288
  188.900    0.319    0.478   55.523   13.175
  189.200    0.300    0.468   57.319   10.738
  189.500    0.294    0.451   60.348    9.427
  189.800    0.300    0.461   63.373    9.256
  190.100    0.307    0.437   64.565    9.432
  190.400    0.305    0.448   62.708   10.164
  190.700    0.304    0.452   60.235   11.159
  191.000    0.317    0.442   57.778   11.584
  191.300    0.328    0.448   54.703   11.164
  191.600    0.333    0.447   55.895    9.986
  191.900    0.328    0.429   63.182    9.272
  192.200    0.292    0.423   68.644    9.102
  192.500    0.298    0.420   68.617    9.105
  192.800    0.303    0.435   64.927    9.107
  193.100    0.304    0.450   60.028    8.776
  193.400    0.293    0.433   56.953    7.850
  193.700    0.292    0.425   59.364    7.288
  194.000    0.293    0.427   62.999    6.642
  194.300    0.293    0.449   65.411    6.166
  194.600    0.291    0.474   67.821    6.645
  194.900    0.257    0.450   72.666    7.432
  195.200    0.252    0.467   75.691    8.628
  195.500    0.283    0.490   74.448   10.398
  195.800    0.308    0.467   65.275   10.794
  196.100    0.315    0.473   56.105   11.418
  196.400    0.321    0.467   54.858   11.853
  196.700    0.301    0.425   60.928   13.258
  197.000    0.317    0.437   62.733   14.287
  197.300    0.331    0.416   54.779   15.111
  197.600    0.337    0.411   48.043   15.116
  197.900    0.325    0.422   51.063   14.840
  198.200    0.327    0.420   51.650   14.569
  198.500    0.312    0.404   47.953   14.303
  198.800    0.307    0.396   47.939   14.044
  199.100    0.317    0.400   50.952   14.047
  199.400    0.334    0.421   52.762   14.313
  199.700    0.333    0.472   50.908   14.319
  200.000    0.325    0.439   50.880   14.320
  200.300    0.326    0.441   53.293   14.324
  200.600    0.331    0.435   55.089   14.062
  200.900    0.338    0.430   58.116   14.068
  201.200    0.349    0.445   53.213   13.811
  201.500    0.345    0.457   46.474   13.559
  201.800    0.330    0.439   50.721   13.563
  202.100    0.304    0.438   57.393   13.565
  202.400    0.313    0.440   60.416   13.568
  202.700    0.320    0.452   60.392   13.826
  203.000    0.329    0.441   56.095   14.092
  203.300    0.327    0.434   52.417   14.360
  203.600    0.324    0.457   46.890   14.098
  203.900    0.328    0.461   44.431   13.840
  204.201    0.330    0.467   41.969   13.588
  204.501    0.333    0.482   41.334   13.340
  204.801    0.342    0.470   42.513   12.857
  205.101    0.340    0.467   43.106   13.101
  205.401    0.336    0.454   44.913   13.105
  205.701    0.334    0.444   46.103   13.354
  206.001    0.334    0.472   43.636   13.608
  206.301    0.323    0.461   42.393   13.867
  206.601    0.315    0.459   41.752   14.396
  206.901    0.315    0.454   42.935   14.399
