~VERSION INFORMATION
 VERS.                 2.0:   CWLS LOG ASCII STANDARD -VERSION 2.0
 WRAP.                  NO:   ONE LINE PER DEPTH STEP
~WELL INFORMATION BLOCK
#MNEM.UNIT           DATA                    DESCRIPTION OF MNEMONIC
#---------    -------------------            -------------------------------
# Generated from Intellog Unique Number	CX_WELLS/WELL/2862
WELL.         ARCOR ET AL HOUSE              : Well_name    - WELL
LOC .         00/10-35-081-15W4/0            : Location     - LOCATION
UWI .         00/10-35-081-15W400            : Uwi          - UNIQUE WELL ID
ENTR.         T                              : Entered      - ENTERED BY
SRVC.         SCHLUMBERGER                   : Scn          - SERVICE COMPANY
STRT.M        140                            : top_depth    - START DEPTH
STOP.M        360                            : bot_depth    - STOP DEPTH
STEP.M        0.25                           : increment    - STEP LENGTH
 NULL. -999.2500:NULL Value
~CURVE INFORMATION BLOCK
#MNEM UNIT       ERCB CURVE CODE    CURVE DESCRIPTION
#-----------   ------------------   ----------------------------------
DEPT.M        00 001 00 00         : DEPTH        - DEPTH
GR  .API      00 310 00 00         : GR           - GAMMA RAY
NPHI.V/V      00 330 00 00         : PHIN         - NEUTRON POROSITY (SANDSTONE)
DPHI.V/V      00 890 00 00         : PHID         - DENSITY POROSITY (SANDSTONE)
ILD .OHMM     00 120 00 00         : RESD         - DEEP RESISTIVITY (OTHER)
~PARAMETER INFORMATION
#MNEM.UNIT           DATA             DESCRIPTION OF MNEMONIC
#---------         -----------     ------------------------------
GL  .M        572                  : gl           - GROUND LEVEL ELEVATION
EREF.M        576.6                : kb           - ELEVATION OF DEPTH REFERENCE
DATM.M        576.6                : datum        - DATUM ELEVATION
TDD .M        365                  : tdd          - TOTAL DEPTH DRILLER
RUN .         ONE                  : Run          - RUN NUMBER
ENG .         BILL                 : Engineer     - RECORDING ENGINEER
WIT .         JIM                  : Witness      - WITNESSED BY
MUD .         GEL                  : Mud_type     - MUD TYPE
MATR.         SANDSTONE            : Logunit      - NEUTRON MATRIX
TMAX.C        24                   : BHT          - MAXIMUM RECORDED TEMPERATURE
BHTD.M        365                  : BHTDEP       - MAXIMUM RECORDED TEMPERATURE
MATR.         1                    : LOGUNIT      - NEUTRON MATRIX
RMT .C        133333               : MDTP         - TEMPERATURE OF MUD
NEUT.         1                    : NEUTRON      - NEUTRON TYPE
RESI.         2.2                  : RESIST       - RESISTIVITY TYPE
RMC .OHMM     2.5                  : RMC          - RESISTIVITY OF MUD CAKE
RMF .OHMM     2.9                  : RMF          - RESISTIVITY OF MUD FILTRATE
SUFT.C        4                    : SUFT         - SURFACE TEMPERATURE
~A  DEPTH       GR     PHIN     PHID     RESD
  140.000  100.228    0.487    0.226    5.253
  140.250  100.225    0.491    0.223    5.661
  140.500   99.022    0.495    0.218    5.987
  140.750   98.423    0.487    0.208    6.453
  141.000   91.852    0.480    0.184    6.826
  141.250   83.493    0.467    0.170    7.638
  141.500   76.924    0.441    0.158    8.080
  141.750   72.145    0.374    0.225    8.872
  142.000   70.945    0.362    0.243    9.211
  142.250   72.132    0.363    0.259   10.704
  142.500   73.319    0.365    0.273   11.756
  142.750   73.909    0.368    0.283   12.432
  143.000   78.078    0.371    0.288   12.906
  143.250   79.861    0.378    0.296   13.145
  143.500   81.645    0.376    0.291   13.139
  143.750   83.428    0.380    0.274   13.133
  144.000   78.649    0.386    0.268   12.639
  144.250   72.080    0.387    0.304   12.398
  144.500   61.931    0.385    0.311   11.933
  144.750   55.362    0.387    0.321   11.486
  145.000   54.758    0.395    0.318   11.480
  145.250   60.718    0.403    0.300   11.476
  145.500   65.484    0.408    0.292   11.690
  145.750   66.671    0.411    0.297   12.131
  146.000   63.682    0.415    0.305   12.592
  146.250   60.692    0.410    0.313   13.314
  146.500   56.510    0.405    0.322   13.564
  146.750   52.327    0.397    0.325   13.817
  147.000   48.143    0.391    0.330   14.070
  147.250   45.750    0.391    0.330   14.333
  147.500   45.145    0.390    0.329   14.599
  147.750   44.541    0.385    0.328   14.870
  148.000   43.941    0.379    0.328   14.863
  148.250   41.548    0.368    0.328   14.856
  148.500   42.735    0.371    0.328   14.849
  148.750   45.709    0.373    0.328   14.840
  149.000   46.302    0.374    0.326   15.114
  149.250   46.293    0.374    0.295   15.398
  149.500   52.254    0.377    0.280   15.389
  149.750   57.618    0.383    0.251   14.807
  150.000   53.435    0.394    0.289   14.256
  150.250   49.252    0.399    0.312   13.724
  150.500   46.860    0.393    0.325   12.721
  150.750   52.223    0.392    0.325   12.715
  151.000   58.183    0.395    0.312   12.951
  151.250   64.739    0.400    0.305   12.002
  151.500   71.296    0.408    0.299   11.338
  151.750   79.044    0.419    0.289   10.312
  152.000   79.632    0.424    0.284    9.205
  152.250   76.048    0.427    0.292    8.374
  152.500   71.269    0.427    0.315    8.370
  152.750   65.296    0.424    0.317    9.366
  153.000   58.130    0.422    0.325    9.909
  153.250   53.948    0.414    0.327   11.090
  153.500   53.940    0.411    0.324   12.411
  153.750   53.931    0.404    0.322   12.879
  154.000   53.927    0.397    0.321   12.874
  154.250   48.551    0.392    0.325   12.870
  154.500   43.772    0.387    0.329   12.862
  154.750   42.573    0.380    0.330   12.856
  155.000   47.339    0.372    0.323   13.095
  155.250   68.215    0.364    0.303   13.088
  155.500   80.141    0.374    0.264   12.838
  155.750   87.890    0.397    0.243   12.125
  156.000   94.447    0.405    0.216   11.452
  156.250   96.229    0.406    0.196   11.024
  156.500   97.416    0.405    0.183   10.613
  156.750   98.603    0.405    0.185   10.215
  157.000  100.386    0.408    0.193    9.649
  157.250  102.766    0.413    0.188    9.286
  157.500  104.548    0.425    0.191    8.937
  157.750  105.735    0.432    0.201    8.935
  158.000  104.537    0.442    0.213    8.929
  158.250   98.563    0.446    0.234    9.096
  158.500   93.187    0.442    0.265    9.621
  158.750   87.215    0.432    0.280    9.799
  159.000   81.837    0.421    0.285   10.171
  159.250   84.216    0.412    0.290   10.755
  159.500   84.809    0.405    0.301   10.956
  159.750   83.013    0.411    0.315   11.587
  160.000   78.831    0.419    0.317   11.803
  160.250   78.823    0.426    0.306   12.482
  160.500   85.379    0.421    0.301   12.957
  160.750   87.163    0.415    0.299   13.703
  161.000   83.577    0.414    0.299   13.959
  161.250   79.394    0.411    0.302   14.487
  161.500   73.420    0.404    0.313   14.754
  161.750   75.802    0.400    0.321   15.029
  162.000   78.182    0.400    0.321   15.599
  162.250   81.755    0.403    0.320   15.887
  162.500   85.325    0.410    0.319   16.488
  162.750   85.319    0.412    0.319   16.797
  163.000   82.926    0.394    0.320   17.433
  163.250   80.534    0.396    0.320   18.436
  163.500   81.721    0.399    0.320   18.780
  163.750   85.295    0.406    0.317   18.780
  164.000   87.077    0.408    0.314   17.725
  164.250   88.264    0.404    0.309   17.388
  164.500   88.258    0.404    0.300   17.384
  164.750   86.462    0.403    0.293   16.418
  165.000   82.279    0.404    0.299   15.507
  165.250   77.500    0.407    0.304   14.930
  165.500   64.965    0.401    0.292   14.367
  165.750   56.009    0.372    0.249   14.094
  166.000   68.532    0.376    0.233   13.821
  166.250   84.634    0.380    0.227   13.558
  166.500   85.224    0.387    0.226   13.300
  166.750   84.621    0.384    0.227   13.046
  167.000   81.031    0.381    0.230   13.040
  167.250   81.624    0.380    0.230   13.032
  167.500   83.408    0.377    0.230   12.783
  167.750   87.578    0.379    0.229   12.304
  168.000   91.151    0.387    0.225   11.404
  168.250   94.723    0.401    0.219   10.978
  168.500   98.298    0.416    0.209   10.174
  168.750  107.239    0.435    0.194    9.795
  169.000  106.636    0.446    0.175    8.909
  169.250  110.210    0.460    0.134    8.104
  169.500  115.573    0.471    0.141    7.234
  169.750  119.146    0.465    0.166    6.579
  170.000  120.333    0.455    0.178    6.333
  170.250  120.924    0.454    0.189    6.211
  170.500  121.514    0.455    0.177    6.209
  170.750  120.909    0.457    0.164    6.090
  171.000  118.515    0.464    0.160    5.974
  171.250  117.317    0.470    0.168    5.642
  171.500  116.714    0.481    0.181    5.329
  171.750  121.481    0.491    0.198    5.130
  172.000  124.457    0.500    0.227    4.938
  172.250  125.644    0.481    0.258    4.844
  172.500  123.250    0.465    0.269    5.122
  172.750  120.261    0.449    0.283    6.182
  173.000  117.273    0.443    0.293    7.461
  173.250  111.300    0.435    0.290    8.670
  173.500   99.360    0.430    0.286    9.704
  173.750   98.159    0.437    0.276   10.264
  174.000  101.137    0.438    0.258   10.653
  174.250  106.499    0.424    0.239   10.850
  174.500  108.282    0.416    0.247   10.847
  174.750  106.486    0.424    0.265   10.841
  175.000  107.077    0.431    0.259   10.433
  175.250  113.038    0.433    0.246   10.233
  175.500  115.418    0.434    0.253   10.038
  175.750  111.831    0.436    0.267    9.847
  176.000  104.068    0.434    0.279   10.219
  176.250   98.691    0.433    0.287   11.014
  176.500   98.088    0.433    0.286   11.648
  176.750   96.888    0.433    0.282   11.867
  177.000   95.094    0.433    0.272   11.860
  177.250   92.100    0.432    0.268   11.853
  177.500   90.305    0.431    0.265   12.072
  177.750   88.510    0.430    0.265   12.069
  178.000   84.921    0.426    0.265   12.063
  178.250   83.127    0.420    0.265   11.831
  178.500   80.136    0.405    0.263   11.827
  178.750   78.341    0.396    0.258   11.820
  179.000   76.546    0.394    0.257   12.267
  179.250   72.960    0.391    0.261   12.732
  179.500   68.778    0.383    0.273   13.215
  179.750   66.382    0.375    0.286   13.460
  180.000   68.165    0.372    0.283   13.456
  180.250   71.144    0.379    0.260   12.950
  180.500   75.910    0.409    0.240   12.232
  180.750   80.081    0.420    0.229   11.339
  181.000   84.847    0.432    0.230   10.510
  181.250   85.437    0.436    0.231    9.927
  181.500   85.430    0.438    0.232    9.737
  181.750   85.425    0.424    0.232    9.196
  182.000   85.415    0.405    0.230    9.022
  182.250   86.007    0.404    0.232    8.850
  182.500   85.403    0.415    0.233    8.680
  182.750   82.413    0.422    0.238    8.674
  183.000   82.407    0.433    0.240    8.669
  183.250   83.594    0.440    0.244    8.666
