~VERSION INFORMATION
 VERS.                 2.0:   CWLS LOG ASCII STANDARD -VERSION 2.0
 WRAP.                  NO:   ONE LINE PER DEPTH STEP
~WELL INFORMATION BLOCK
#MNEM.UNIT           DATA                    DESCRIPTION OF MNEMONIC
#---------    -------------------            -------------------------------
# Generated from Intellog Unique Number	CW_70_72/WELL/1029
NULL.         -999.25                        : NULL_VALUE
WELL.         SUNDANCE ET AL SMITH 10-01     : Well_name    - WELL              
LOC .         10-01-071-23W4                 : Location     - LOCATION          
UWI .         00/10-01-071-23W4/0            : Uwi          - UNIQUE WELL ID    
ENTR.         J                              : Entered      - ENTERED BY        
SRVC.         SCHLUMBERGER                   : Scn          - SERVICE COMPANY   
DATE.         20 FEB 76                      : Date         - LOG DATE          
STRT.M        414.528                        : top_depth    - START DEPTH       
STOP.M        594.278                        : bot_depth    - STOP DEPTH        
STEP.M        0.25                           : increment    - STEP LENGTH       
~CURVE INFORMATION BLOCK
#MNEM UNIT       ERCB CURVE CODE    CURVE DESCRIPTION
#-----------   ------------------   ----------------------------------
DEPT.M        00 001 00 00         : DEPTH        - DEPTH                       
DPHI.V/V      00 890 00 00         : PHID         - DENSITY POROSITY (SANDSTONE)
NPHI.V/V      00 330 00 00         : PHIN         - NEUTRON POROSITY (SANDSTONE)
GR  .API      00 310 00 00         : GR           - GAMMA RAY                   
CALI.MM       00 280 01 00         : CAL          - CALIPER                     
ILD .OHMM     00 120 00 00         : RESD         - DEEP RESISTIVITY (DIL)      
~PARAMETER INFORMATION       
#MNEM.UNIT           DATA             DESCRIPTION OF MNEMONIC
#---------         -----------     ------------------------------
GL  .M        658.216              : gl           - GROUND LEVEL ELEVATION      
EREF.M        661.416              : kb           - ELEVATION OF DEPTH REFERENCE
DATM.M        658.216              : datum        - DATUM ELEVATION             
TDD .M        622.097              : tdd          - TOTAL DEPTH DRILLER         
RUN .         ONE                  : Run          - RUN NUMBER                  
BASE.         EDM                  : Branch       - HOME BASE OF LOGGING UNIT   
MUD .         GEL                  : Mud_type     - MUD TYPE                    
MATR.         SANDSTONE            : Logunit      - NEUTRON MATRIX              
TMAX.C        26.6667              : BHT          - MAXIMUM RECORDED TEMPERATURE
BHTD.M        622.097              : BHTDEP       - MAXIMUM RECORDED TEMPERATURE
RMT .C        18.8889              : MDTP         - TEMPERATURE OF MUD          
MUDD.KG/M     0                    : MWT          - MUD DENSITY                 
NEUT.         1                    : NEUTRON      - NEUTRON TYPE                
RESI.         0                    : RESIST       - RESISTIVITY TYPE            
RM  .OHMM     1.56                 : RM           - RESISTIVITY OF MUD          
RMC .OHMM     0                    : RMC          - RESISTIVITY OF MUD CAKE     
RMF .OHMM     1.85                 : RMF          - RESISTIVITY OF MUD FILTRATE 
SUFT.C        -17.7778             : SUFT         - SURFACE TEMPERATURE         
~A  DEPTH     PHID     PHIN       GR      CAL     RESD
  414.528    0.206    0.534  120.924  169.790    2.814
  414.778    0.191    0.541  121.532  168.744    2.759
  415.028    0.189    0.523  122.140  172.399    2.711
  415.278    0.227    0.515  120.686  175.939    2.673
  415.528    0.271    0.522  118.264  177.074    2.578
  415.778    0.267    0.514  116.427  176.367    2.407
  416.028    0.280    0.529  114.580  175.971    2.292
  416.278    0.328    0.540  110.935  176.447    2.281
  416.528    0.351    0.555  105.870  180.425    2.384
  416.778    0.384    0.569   96.938  218.877    2.725
  417.028    0.391    0.583   86.334  197.982    3.086
  417.278    0.366    0.461   76.691  231.210    3.470
  417.528    0.223    0.404   70.787  150.705    3.989
  417.778    0.226    0.396   77.262  140.388    4.576
  418.028    0.317    0.392   81.611  139.233    5.249
  418.278    0.382    0.396   85.569  141.354    4.555
  418.528    0.446    0.445   90.885  150.134    3.549
  418.778    0.464    0.570   94.067  159.019    2.981
  419.028    0.514    0.601   97.966  170.416    2.712
  419.278    0.560    0.610  100.701  204.845    2.804
  419.528    0.475    0.600  102.143  212.862    3.130
  419.778    0.361    0.517  103.330  157.023    3.456
  420.028    0.316    0.445  104.067  149.104    3.781
  420.278    0.299    0.435  103.322  151.117    4.144
  420.528    0.306    0.436  101.416  155.207    4.452
  420.778    0.310    0.427   98.865  156.568    4.594
  421.028    0.345    0.408   98.699  156.615    4.768
  421.278    0.360    0.425   94.924  154.038    4.974
  421.528    0.256    0.472   90.569  149.495    5.209
  421.778    0.209    0.475   85.958  141.464    5.596
  422.028    0.199    0.454   81.150  142.718    6.100
  422.278    0.207    0.421   77.055  149.527    6.821
  422.528    0.200    0.402   71.989  154.485    7.354
  422.778    0.194    0.389   66.795  155.844    8.270
  423.028    0.207    0.376   62.440  156.552    8.691
  423.278    0.207    0.369   61.048  156.929    8.871
  423.528    0.205    0.383   65.398  156.975    8.941
  423.778    0.208    0.376   69.612  157.017    8.704
  424.028    0.204    0.371   76.023  157.064    8.110
  424.278    0.199    0.383   81.208  156.999    7.313
  424.528    0.197    0.394   85.171  156.840    6.358
  424.778    0.206    0.411   87.773  156.990    5.397
  425.028    0.236    0.438   90.703  157.042    4.770
  425.278    0.255    0.458   93.565  157.080    4.372
  425.528    0.241    0.448   96.171  157.127    4.164
  425.778    0.231    0.431   99.936  156.843    3.958
  426.028    0.276    0.429   99.579  158.418    3.743
  426.278    0.333    0.438   94.771  164.033    3.637
  426.528    0.350    0.457   89.707  177.942    3.605
  426.778    0.431    0.511   90.833  197.526    3.654
  427.028    0.495    0.541   91.634  207.729    3.723
  427.278    0.467    0.519   90.308  179.175    3.772
  427.528    0.407    0.483   86.918  162.411    3.837
  427.778    0.423    0.475   79.920  168.462    4.025
  428.028    0.330    0.495   71.507  179.752    4.215
  428.278    0.282    0.471   71.274  152.183    4.382
  428.528    0.251    0.391   73.623  143.291    4.522
  428.778    0.216    0.359   72.360  148.131    4.744
  429.028    0.266    0.381   63.041  145.996    5.219
  429.278    0.306    0.389   52.048  140.370    5.836
  429.528    0.318    0.364   52.913  138.447    6.190
  429.778    0.291    0.337   58.097  139.703    6.114
  430.028    0.273    0.346   62.704  141.163    5.770
  430.278    0.267    0.362   58.218  143.065    4.971
  430.528    0.272    0.391   49.737  145.294    4.598
  430.778    0.284    0.396   42.806  146.331    4.146
  431.028    0.293    0.393   38.967  143.759    4.126
  431.278    0.304    0.384   40.345  139.541    4.555
  431.528    0.309    0.373   46.882  138.717    5.264
  431.778    0.289    0.370   52.583  141.824    6.229
  432.028    0.306    0.388   57.189  145.469    7.251
  432.278    0.310    0.407   61.020  149.447    8.257
  432.528    0.299    0.406   64.205  151.355    9.560
  432.778    0.310    0.397   68.295  152.604   10.251
  433.028    0.319    0.399   73.671  153.085    9.710
  433.278    0.365    0.425   79.693  154.217    7.215
  433.528    0.381    0.478   87.779  158.848    6.171
  433.778    0.365    0.485   95.219  166.428    5.615
  434.028    0.269    0.426   97.184  157.747    5.044
  434.278    0.243    0.413   97.788  148.079    4.615
  434.528    0.244    0.406   99.880  144.420    4.436
  434.778    0.237    0.404  103.516  146.533    4.628
  435.028    0.214    0.423  106.767  151.386    4.777
  435.278    0.201    0.434  104.539  155.252    4.858
  435.528    0.215    0.428  102.446  157.164    4.772
  435.778    0.209    0.419  102.147  156.655    4.218
  436.028    0.286    0.408  104.428  154.957    3.568
  436.278    0.352    0.450  108.518  153.484    3.119
  436.528    0.391    0.527  112.091  153.629    2.696
  436.778    0.467    0.567  115.793  162.190    2.323
  437.028    0.452    0.587  119.238  183.849    2.269
  437.278    0.450    0.597  121.201  220.132    2.474
  437.528    0.549    0.601  122.257  250.631    2.712
  437.778    0.516    0.586  121.708  247.514    2.961
  438.028    0.450    0.537  118.510  188.511    3.216
  438.278    0.401    0.504  109.968  167.602    3.643
  438.528    0.363    0.482  103.933  176.929    4.103
  438.778    0.396    0.511   96.354  191.163    4.673
  439.028    0.278    0.538   89.164  148.533    5.264
  439.278    0.256    0.476   89.515  135.156    5.624
  439.528    0.272    0.432   96.376  140.338    5.495
  439.778    0.347    0.444  102.720  153.480    4.683
  440.028    0.425    0.485  109.385  159.968    3.868
  440.278    0.455    0.539  108.966  167.763    3.513
  440.528    0.441    0.555  105.575  171.299    3.346
  440.778    0.403    0.532  100.383  161.851    3.549
  441.028    0.434    0.561   96.476  167.036    3.897
  441.278    0.350    0.500   92.057  156.378    4.536
  441.528    0.307    0.459   87.058  138.094    5.467
  441.778    0.283    0.439   84.186  139.227    6.317
  442.028    0.258    0.444   84.340  141.464    7.614
  442.278    0.254    0.462   86.689  143.920    8.482
  442.528    0.267    0.448   91.358  146.042    8.883
  442.778    0.262    0.439   92.805  147.710    8.429
  443.028    0.254    0.431   90.898  149.724    7.261
  443.278    0.269    0.441   88.734  151.086    6.109
  443.528    0.288    0.438   90.054  151.681    5.498
  443.778    0.347    0.451   91.885  152.378    4.771
  444.028    0.381    0.480   91.203  153.079    4.155
  444.278    0.422    0.522   88.266  157.164    4.180
  444.528    0.422    0.535   84.812  158.302    5.001
  444.778    0.430    0.516   80.718  148.641    5.875
  445.028    0.499    0.507   78.744  150.102    5.825
  445.278    0.504    0.544   83.995  154.621    4.707
  445.528    0.518    0.591   90.790  159.911    4.092
  445.778    0.530    0.609   96.230  163.994    3.590
  446.028    0.430    0.590  102.833  161.641    3.285
  446.278    0.326    0.548  108.794  161.578    3.365
  446.528    0.285    0.484  110.627  159.336    3.583
  446.778    0.245    0.458  110.783  157.632    3.711
  447.028    0.257    0.444  111.389  156.588    3.829
  447.278    0.267    0.440  116.318  154.237    3.981
  447.528    0.273    0.476  119.501  150.904    4.049
  447.778    0.297    0.487  116.630  149.963    3.970
  448.028    0.298    0.513  110.148  159.400    3.872
  448.278    0.314    0.539  101.731  168.065    3.832
  448.528    0.359    0.522   94.925  172.923    4.020
  448.778    0.346    0.458   88.509  162.484    4.439
  449.028    0.311    0.420   85.314  140.924    4.954
  449.278    0.335    0.428   88.562  137.041    5.550
  449.528    0.323    0.449   92.847  137.084    6.006
  449.778    0.320    0.461   94.484  139.212    6.324
  450.028    0.313    0.467   91.420  142.206    6.611
  450.278    0.268    0.440   87.453  144.654    6.935
  450.528    0.229    0.389   84.258  147.868    7.463
  450.778    0.170    0.355   80.932  149.326    8.255
