~VERSION INFORMATION
 VERS.                 2.0:   CWLS LOG ASCII STANDARD -VERSION 2.0
 WRAP.                  NO:   ONE LINE PER DEPTH STEP
~WELL INFORMATION BLOCK
#MNEM.UNIT           DATA                    DESCRIPTION OF MNEMONIC
#---------    -------------------            -------------------------------
# Generated from Intellog Unique Number	CN_91_93/WELL/3077
WELL.         CANADIAN SUPERIOR OIL LTD.     : Well_name    - WELL
LOC .         00/11-36-092-21W4/0            : Location     - LOCATION
UWI .         00/11-36-092-21W4/0            : Uwi          - UNIQUE WELL ID
ENTR.         JOETTE                         : Entered      - ENTERED BY
SRVC.         SCHLUMBERGER                   : Scn          - SERVICE COMPANY
DATE.         04/10/92                       : Date         - LOG DATE
STRT.M        50                             : top_depth    - START DEPTH
STOP.M        235                            : bot_depth    - STOP DEPTH
STEP.M        0.25                           : increment    - STEP LENGTH
 NULL. -999.2500:NULL Value
~CURVE INFORMATION BLOCK
#MNEM UNIT       ERCB CURVE CODE    CURVE DESCRIPTION
#-----------   ------------------   ----------------------------------
DEPT.M        00 001 00 00         : DEPTH        - DEPTH
CALI.MM       00 280 01 00         : CAL          - CALIPER
GR  .API      00 310 00 00         : GR           - GAMMA RAY
NPHI.V/V      00 330 00 00         : PHIN         - NEUTRON POROSITY (SANDSTONE)
ILD .OHMM     00 120 00 00         : RESD         - DEEP RESISTIVITY (DIL)
DPHI.V/V      00 890 00 00         : PHID         - DENSITY POROSITY (SANDSTONE)
~PARAMETER INFORMATION
#MNEM.UNIT           DATA             DESCRIPTION OF MNEMONIC
#---------         -----------     ------------------------------
GL  .M        535.4                : gl           - GROUND LEVEL ELEVATION
EREF.M        539.2                : kb           - ELEVATION OF DEPTH REFERENCE
DATM.M        539.2                : datum        - DATUM ELEVATION
TDD .M        238.8                : tdd          - TOTAL DEPTH DRILLER
RUN .         ONE                  : Run          - RUN NUMBER
ENG .         BILL                 : Engineer     - RECORDING ENGINEER
WIT .         JIM                  : Witness      - WITNESSED BY
MUD .         GEL                  : Mud_type     - MUD TYPE
MATR.         SANDSTONE            : Logunit      - NEUTRON MATRIX
TMAX.C        20                   : BHT          - MAXIMUM RECORDED TEMPERATURE
BHTD.M        238.8                : BHTDEP       - MAXIMUM RECORDED TEMPERATURE
RMT .C        15                   : MDTP         - TEMPERATURE OF MUD
MUDD.KG/M     1100                 : MWT          - MUD DENSITY
NEUT.         1                    : NEUTRON      - NEUTRON TYPE
RESI.         0                    : RESIST       - RESISTIVITY TYPE
RM  .OHMM     5.68                 : RM           - RESISTIVITY OF MUD
RMC .OHMM     5.68                 : RMC          - RESISTIVITY OF MUD CAKE
RMF .OHMM     5.29                 : RMF          - RESISTIVITY OF MUD FILTRATE
SUFT.C        4                    : SUFT         - SURFACE TEMPERATURE
~A  DEPTH      CAL       GR     PHIN     RESD     PHID
# ...
   86.500  264.461   34.705    0.288   36.001    0.130
   86.750  259.360   38.372    0.306   33.999    0.224
   87.000  256.313   36.511    0.386   29.222    0.255
   87.250  255.335   34.030    0.396   25.604    0.293
   87.500  255.360   34.016    0.397   23.283    0.348
   87.750  256.419   36.450    0.398   22.830    0.358
   88.000  257.478   37.660    0.405   25.058    0.338
   88.250  256.492   38.865    0.409   26.991    0.339
   88.500  255.498   39.461    0.416   28.539    0.342
   88.750  254.512   39.438    0.421   29.600    0.344
   89.000  254.544   38.809    0.433   29.581    0.348
   89.250  254.577   38.791    0.440   28.460    0.347
   89.500  254.601   38.777    0.435   26.866    0.342
   89.750  255.660   39.368    0.430   26.349    0.333
   90.000  258.797   39.959    0.425   25.361    0.328
   90.250  258.813   40.564    0.419   23.945    0.322
   90.500  258.845   41.155    0.420   22.618    0.322
   90.750  256.825   41.141    0.426   20.962    0.321
   91.000  255.839   42.346    0.437   20.172    0.316
   91.250  255.879   42.942    0.437   20.922    0.308
   91.500  255.903   43.538    0.426   21.301    0.311
   91.750  255.944   45.357    0.427   22.099    0.321
   92.000  255.977   45.962    0.437   22.916    0.325
   92.250  256.009   49.625    0.447   23.331    0.318
   92.500  256.033   54.520    0.454   23.316    0.306
   92.750  256.082   59.416    0.434   23.296    0.298
   93.000  256.106   61.855    0.422   23.282    0.301
   93.250  256.139   59.988    0.429   23.703    0.305
   93.500  256.171   58.122    0.431   23.683    0.308
   93.750  256.204   57.499    0.430   24.112    0.308
   94.000  256.261   56.251    0.429   24.543    0.310
   94.250  256.277   55.614    0.427   24.993    0.321
   94.500  256.326   54.371    0.428   25.435    0.330
   94.750  256.342   52.510    0.434   25.901    0.339
   95.000  256.374   50.034    0.438   26.364    0.342
   95.250  256.423   47.553    0.426   26.353    0.342
   95.500  260.562   45.697    0.418   27.334    0.338
   95.750  264.701   46.902    0.414   27.305    0.332
   96.000  263.707   49.336    0.406   26.774    0.322
   96.250  263.739   52.393    0.418   24.809    0.287
   96.500  267.878   59.746    0.473   23.439    0.263
   96.750  269.964   79.390    0.463   20.917    0.250
   97.000  270.004   93.500    0.450   18.671    0.240
   97.250  265.930   94.710    0.455   16.669    0.232
   97.500  264.928   92.848    0.461   14.879    0.228
   97.750  263.934   90.978    0.459   12.550    0.231
   98.000  265.009   89.116    0.437   11.632    0.236
   98.250  265.034   87.259    0.440   10.780    0.230
   98.500  265.082   81.098    0.447   10.178    0.228
   98.750  264.072   76.779    0.446    9.797    0.235
   99.000  262.051   73.689    0.436    9.789    0.241
   99.250  260.039   72.442    0.432    9.966    0.248
   99.500  259.045   74.875    0.431   10.535    0.241
   99.750  257.040   77.928    0.426   11.134    0.227
  100.000  257.056   78.529    0.422   11.553    0.222
  100.250  257.089   80.348    0.419   11.760    0.231
  100.500  257.129   82.172    0.413   12.203    0.239
  100.750  258.188   85.230    0.414   12.421    0.225
  101.000  260.282   85.211    0.419   11.950    0.201
  101.250  262.368   80.269    0.425   11.286    0.212
  101.500  262.408   78.412    0.438   10.658    0.228
  101.750  262.425   79.622    0.426   10.065    0.225
  102.000  259.394   82.061    0.429    9.867    0.216
  102.250  260.453   84.499    0.434    9.679    0.209
  102.500  262.538   85.704    0.439    9.491    0.199
  102.750  263.597   85.691    0.448    8.793    0.209
  103.000  262.595   86.281    0.482    8.305    0.219
  103.250  260.591   85.034    0.504    7.552    0.218
  103.500  259.597   85.011    0.510    7.000    0.226
  103.750  258.602   85.002    0.524    6.368    0.237
  104.000  258.627   85.597    0.531    5.792    0.242
  104.250  258.667   86.807    0.515    4.978    0.245
  104.500  258.692   87.403    0.509    4.528    0.240
  104.750  260.802   86.765    0.503    4.440    0.228
  105.000  263.914   86.132    0.490    4.521    0.203
  105.250  265.983   85.499    0.462    4.870    0.179
  105.500  269.096   83.024    0.441    5.872    0.154
  105.750  268.118   78.700    0.437    7.080    0.165
  106.000  263.017   74.382    0.441    7.918    0.184
  106.250  260.997   71.910    0.446    8.856    0.216
  106.500  261.029   69.435    0.436    9.900    0.200
  106.750  262.080   68.802    0.415    9.892    0.155
  107.000  264.174   80.455    0.413    9.697    0.168
  107.250  265.241   84.122    0.445    9.511    0.205
  107.500  265.265   84.718    0.453    8.982    0.241
  107.750  265.306   85.313    0.464    8.643    0.269
  108.000  265.330   85.294    0.467    8.010    0.249
  108.250  265.363   83.428    0.462    7.424    0.223
  108.500  267.457   81.567    0.467    6.882    0.219
  108.750  267.497   77.858    0.482    6.142    0.229
  109.000  266.495   73.544    0.494    5.910    0.244
  109.250  262.421   66.768    0.475    5.475    0.241
  109.500  255.275   65.516    0.454    5.270    0.242
  109.750  254.281   66.107    0.427    5.167    0.246
  110.000  255.340   68.550    0.414    5.567    0.241
  110.250  255.381   70.993    0.410    6.465    0.227
  110.500  255.405   72.203    0.418    8.561    0.215
  110.750  253.401   72.180    0.426    9.757    0.222
  111.000  253.425   72.157    0.433   10.509    0.250
  111.250  253.458   71.533    0.431   11.110    0.238
  111.500  255.543   69.048    0.423   11.311    0.214
  111.750  258.656   67.801    0.417   11.091    0.193
  112.000  263.829   69.630    0.418   11.084    0.190
  112.250  264.880   72.683    0.422   10.664    0.221
  112.500  263.902   75.735    0.425   10.657    0.253
  112.750  262.900   76.941    0.426   10.443    0.250
  113.000  255.746   77.536    0.427   10.436    0.237
  113.250  255.787   79.975    0.424   10.630    0.239
  113.500  257.881   82.413    0.422   10.820    0.244
  113.750  258.924   84.852    0.425   10.806    0.248
  114.000  263.079   84.833    0.426   10.802    0.248
  114.250  263.111   83.581    0.417   10.790    0.248
  114.500  262.109   82.344    0.433   10.578    0.248
  114.750  264.203   78.020    0.458   10.377    0.249
  115.000  268.341   76.163    0.443   10.368    0.242
  115.250  271.454   71.221    0.445   10.166    0.213
  115.500  271.486   68.135    0.451    9.969    0.194
  115.750  270.492   75.488    0.457    9.771    0.192
  116.000  267.445   82.841    0.486    9.583    0.224
  116.250  263.379   81.594    0.515    9.221    0.256
  116.500  261.358   80.347    0.528    8.231    0.255
  116.750  260.380   80.943    0.542    7.347    0.250
  117.000  260.405   82.767    0.547    6.436    0.243
  117.250  260.437   86.429    0.525    5.329    0.243
  117.500  264.584   83.344    0.508    4.412    0.250
  117.750  266.662   79.639    0.485    3.865    0.255
  118.000  266.702   76.549    0.447    3.718    0.232
  118.250  266.735   71.002    0.433    3.857    0.185
  118.500  269.839   64.221    0.404    4.313    0.135
  118.750  273.978   55.603    0.261    5.202   -0.009
  119.000  272.992   48.827    0.207    6.763    0.018
  119.250  268.918   67.851    0.320    8.628    0.046
  119.500  263.817   73.357    0.396   10.799    0.156
  119.750  259.743   73.952    0.487   11.418    0.243
  120.000  258.757   75.781    0.527    9.276    0.251
  120.250  259.808   81.287    0.536    7.122    0.253
  120.500  261.918   83.730    0.531    6.009    0.248
  120.750  261.943   84.326    0.529    5.362    0.240
  121.000  263.010   83.074    0.519    5.162    0.243
  121.250  265.079   81.826    0.493    4.784    0.253
  121.500  268.192   81.808    0.500    4.604    0.258
  121.750  271.320   82.403    0.502    4.514    0.249
  122.000  271.353   83.004    0.463    4.509    0.235
  122.250  270.359   83.599    0.467    4.592    0.205
  122.500  269.364   84.809    0.494    4.945    0.184
  122.750  266.317   86.019    0.451    5.326    0.166
