~VERSION INFORMATION
 VERS.                 2.0:   CWLS LOG ASCII STANDARD -VERSION 2.0
 WRAP.                  NO:   ONE LINE PER DEPTH STEP
~WELL INFORMATION BLOCK
#MNEM.UNIT           DATA                    DESCRIPTION OF MNEMONIC
#---------    -------------------            -------------------------------
# Generated from Intellog Unique Number	CX_WELLS/WELL/2787
WELL.         10-26-088-16W4                 : Well_name    - WELL
LOC .         00/10-26-081-10W4/0            : Location     - LOCATION
UWI .         00/10-26-081-10W400            : Uwi          - UNIQUE WELL ID
ENTR.         T                              : Entered      - ENTERED BY
SRVC.         SCHLUMBERGER                   : Scn          - SERVICE COMPANY
STRT.F        850                            : top_depth    - START DEPTH
STOP.F        1589.83                        : bot_depth    - STOP DEPTH
STEP.F        0.82                           : increment    - STEP LENGTH
 NULL. -999.2500:NULL Value
~CURVE INFORMATION BLOCK
#MNEM UNIT       ERCB CURVE CODE    CURVE DESCRIPTION
#-----------   ------------------   ----------------------------------
DEPT.F        00 001 00 00         : DEPTH        - DEPTH
GR  .API      00 310 00 00         : GR           - GAMMA RAY
DPHI.V/V      00 890 00 00         : PHID         - DENSITY POROSITY (SANDSTONE)
ILD .OHMM     00 120 00 00         : RESD         - DEEP RESISTIVITY (OTHER)
~PARAMETER INFORMATION
#MNEM.UNIT           DATA             DESCRIPTION OF MNEMONIC
#---------         -----------     ------------------------------
GL  .F        2316                 : gl           - GROUND LEVEL ELEVATION
EREF.F        2327                 : kb           - ELEVATION OF DEPTH REFERENCE
DATM.F        2327                 : datum        - DATUM ELEVATION
TDD .F        1610                 : tdd          - TOTAL DEPTH DRILLER
RUN .         ONE                  : Run          - RUN NUMBER
ENG .         BILL                 : Engineer     - RECORDING ENGINEER
WIT .         JIM                  : Witness      - WITNESSED BY
MUD .         GEL                  : Mud_type     - MUD TYPE
MATR.         SANDSTONE            : Logunit      - NEUTRON MATRIX
TMAX.F        69                   : BHT          - MAXIMUM RECORDED TEMPERATURE
BHTD.F        1610                 : BHTDEP       - MAXIMUM RECORDED TEMPERATURE
MATR.         1                    : LOGUNIT      - NEUTRON MATRIX
RMT .F        45                   : MDTP         - TEMPERATURE OF MUD
NEUT.         1                    : NEUTRON      - NEUTRON TYPE
RESI.         2                    : RESIST       - RESISTIVITY TYPE
RMC .OHMM     2                    : RMC          - RESISTIVITY OF MUD CAKE
RMF .OHMM     2                    : RMF          - RESISTIVITY OF MUD FILTRATE
SUFT.F        32                   : SUFT         - SURFACE TEMPERATURE
~A  DEPTH       GR     PHID     RESD
# ...
 1027.990   49.808    0.375   17.818
 1028.810   50.447    0.377   17.831
 1029.630   50.471    0.378   17.844
 1030.450   50.512    0.383   17.860
 1031.270   50.560    0.384   17.867
 1032.090   50.584    0.389   17.886
 1032.910   50.608    0.392   17.899
 1033.730   51.240    0.387   17.909
 1034.550   51.272    0.380   17.922
 1035.370   51.320    0.372   17.935
 1036.190   51.353    0.371   17.955
 1037.010   51.393    0.368   17.626
 1037.830   51.409    0.369   17.642
 1038.650   50.850    0.374   17.655
 1039.470   50.882    0.380   17.341
 1040.290   51.514    0.389   17.354
 1041.110   51.538    0.396   17.370
 1041.930   52.793    0.401   17.052
 1042.750   52.809    0.402   17.071
 1043.570   52.841    0.400   17.080
 1044.390   52.274    0.397   16.776
 1045.210   51.707    0.394   16.475
 1046.030   50.549    0.393   16.176
 1046.850   48.184    0.393   15.886
 1047.670   47.017    0.392   15.309
 1048.490   45.859    0.391   15.040
 1049.310   45.883    0.390   15.337
 1050.130   45.931    0.388   15.349
 1050.950   45.956    0.389   15.652
 1051.770   46.595    0.392   15.962
 1052.590   47.219    0.395   16.274
 1053.410   47.842    0.399   16.918
 1054.230   48.490    0.405   16.927
 1055.050   48.514    0.407   17.262
 1055.870   48.554    0.402   17.281
 1056.690   48.594    0.394   17.291
 1057.510   48.611    0.390   17.300
 1058.330   47.460    0.387   17.319
 1059.150   46.278    0.386   17.329
 1059.970   45.119    0.389   17.351
 1060.790   44.560    0.389   17.357
 1061.610   43.394    0.387   17.367
 1062.430   43.426    0.389   17.383
 1063.250   44.657    0.392   17.395
 1064.070   45.280    0.397   17.415
 1064.900   47.119    0.399   17.427
 1065.720   48.349    0.394   17.437
 1066.540   48.382    0.392   17.446
 1067.360   48.414    0.391   17.462
 1068.180   47.855    0.394   17.482
 1069.000   46.688    0.392   17.491
 1069.820   45.530    0.389   17.504
 1070.640   45.546    0.384   17.517
 1071.460   45.003    0.381   17.526
 1072.280   45.627    0.376   17.542
 1073.100   45.659    0.373   17.558
 1073.920   46.282    0.375   17.568
 1074.740   46.914    0.377   17.256
 1075.560   47.545    0.378   17.272
 1076.380   48.185    0.376   17.278
 1077.200   48.217    0.373   16.971
 1078.020   49.464    0.369   16.980
 1078.840   50.080    0.368   16.996
 1079.660   50.719    0.369   16.691
 1080.480   50.751    0.372   16.706
 1081.300   51.982    0.370   16.409
 1082.120   53.820    0.368   16.415
 1082.940   55.043    0.367   16.427
 1083.760   56.274    0.367   16.445
 1084.580   55.707    0.367   16.460
 1085.400   53.342    0.365   16.469
 1086.220   51.576    0.363   16.478
 1087.040   48.612    0.359   16.182
 1087.860   45.664    0.356   16.197
 1088.680   45.089    0.352   15.909
 1089.500   43.930    0.353   15.924
 1090.320   43.355    0.359   15.935
 1091.140   42.788    0.367   15.941
 1091.960   41.630    0.377   15.953
 1092.780   41.062    0.384   15.967
 1093.600   39.888    0.392   15.979
 1094.420   38.738    0.394   15.991
 1095.240   37.571    0.383   16.002
 1096.060   36.996    0.375   16.017
 1096.880   35.238    0.367   16.026
 1097.700   34.679    0.367   16.044
 1098.520   34.096    0.370   16.358
 1099.340   34.136    0.375   16.379
 1100.160   34.161    0.382   16.388
 1100.980   34.808    0.381   16.397
 1101.800   34.832    0.357   16.409
 1102.620   35.472    0.347   16.424
 1103.440   35.496    0.353   16.433
 1104.270   35.544    0.359   16.764
 1105.090   36.168    0.365   16.773
 1105.910   36.208    0.372   16.785
 1106.730   36.232    0.375   16.798
 1107.550   35.690    0.378   16.810
 1108.370   35.706    0.374   16.505
 1109.190   35.130    0.374   16.212
 1110.010   35.163    0.376   15.924
 1110.830   34.612    0.383   15.935
 1111.650   34.636    0.384   15.947
 1112.470   34.668    0.387   15.959
 1113.290   34.708    0.400   15.967
 1114.110   35.340    0.398   15.979
 1114.930   35.364    0.395   15.996
 1115.750   35.995    0.383   16.005
 1116.570   36.044    0.379   16.325
 1117.390   36.076    0.375   16.334
 1118.210   36.100    0.374   16.346
 1119.030   36.148    0.374   16.358
 1119.850   36.165    0.376   16.376
 1120.670   35.597    0.375   16.388
 1121.490   33.233    0.375   16.712
 1122.310   32.074    0.375   16.727
 1123.130   33.904    0.375   16.733
 1123.950   35.759    0.375   17.064
 1124.770   36.382    0.376   17.411
 1125.590   36.406    0.377   17.417
 1126.410   36.430    0.376   17.765
 1127.230   36.479    0.375   17.778
 1128.050   37.102    0.374   18.130
 1128.870   37.134    0.372   18.143
 1129.690   38.973    0.370   18.502
 1130.510   39.596    0.369   18.515
 1131.330   42.633    0.367   18.881
 1132.150   45.670    0.365   18.899
 1132.970   48.707    0.364   18.913
 1133.790   50.521    0.360   18.226
 1134.610   54.149    0.353   16.918
 1135.430   57.178    0.345   15.704
 1136.250   61.413    0.336   15.128
 1137.070   64.450    0.320   13.520
 1137.890   66.871    0.277   11.638
 1138.710   68.110    0.268   10.399
 1139.530   68.142    0.272    9.122
 1140.350   66.377    0.277    8.466
 1141.170   64.611    0.284    7.711
 1141.990   61.047    0.299    7.157
 1142.810   57.484    0.314    7.027
 1143.640   56.916    0.321    7.584
 1144.460   57.564    0.320    8.182
 1145.280   57.580    0.312    8.998
 1146.100   56.414    0.307    9.896
 1146.920   54.049    0.301   10.884
 1147.740   51.684    0.308   11.745
 1148.560   50.517    0.320   12.438
 1149.380   50.558    0.335   13.168
 1150.200   50.590    0.345   13.684
 1151.020   51.229    0.353   13.957
 1151.840   51.262    0.353   13.968
 1152.660   51.294    0.353   13.978
 1153.480   51.326    0.353   13.729
 1154.300   49.568    0.354   13.739
 1155.120   48.993    0.351   13.495
 1155.940   47.827    0.346   13.255
 1156.760   47.859    0.342   13.013
 1157.580   48.490    0.333   12.309
 1158.400   50.920    0.325   11.860
 1159.220   53.949    0.314   10.801
 1160.040   59.982    0.287    9.473
 1160.860   65.408    0.271    7.704
 1161.680   70.834    0.259    6.266
 1162.500   73.863    0.259    5.927
 1163.320   73.903    0.265    6.276
 1164.140   73.936    0.277    6.646
 1164.960   75.166    0.288    6.651
 1165.780   78.211    0.301    6.533
 1166.600   80.033    0.305    6.180
 1167.420   81.864    0.306    6.066
 1168.240   84.908    0.297    5.631
 1169.060   86.123    0.285    5.130
 1169.880   87.953    0.273    4.942
 1170.700   89.192    0.268    4.418
 1171.520   88.625    0.266    4.101
 1172.340   88.649    0.263    3.950
 1173.160   88.098    0.261    3.667
 1173.980   88.122    0.258    3.468
 1174.800   88.163    0.256    3.280
 1175.620   88.802    0.254    3.102
 1176.440   88.818    0.253    2.989
 1177.260   90.049    0.253    2.881
 1178.080   90.681    0.262    2.830
 1178.900   90.130    0.269    2.779
 1179.720   87.157    0.277    2.780
 1180.540   79.998    0.283    2.836
 1181.360   77.633    0.296    2.891
 1182.190   76.474    0.305    2.949
 1183.010   75.899    0.298    3.182
 1183.830   76.531    0.284    3.566
 1184.650   76.563    0.285    3.921
 1185.470   76.595    0.289    4.312
 1186.290   76.036    0.297    4.653
 1187.110   74.278    0.302    5.022
 1187.930   73.703    0.302    5.420
 1188.750   71.946    0.294    5.633
 1189.570   71.986    0.277    5.744
 1190.390   71.411    0.272    5.642
 1191.210   71.435    0.272    5.540
 1192.030   70.876    0.275    5.439
 1192.850   69.710    0.279    5.243
 1193.670   69.742    0.281    5.246
 1194.490   69.782    0.284    5.251
 1195.310   69.806    0.293    5.457
 1196.130   70.454    0.285    5.671
 1196.950   71.077    0.277    5.675
 1197.770   71.118    0.268    5.469
 1198.590   71.150    0.265    5.370
 1199.410   69.975    0.265    4.985
 1200.230   68.809    0.269    4.805
 1201.050   66.444    0.281    4.718
 1201.870   65.277    0.292    4.812
 1202.690   63.512    0.297    4.999
 1203.510   61.754    0.297    5.196
 1204.330   61.179    0.299    5.503
 1205.150   58.830    0.307    6.168
