~VERSION INFORMATION
 VERS.                 2.0:   CWLS LOG ASCII STANDARD -VERSION 2.0
 WRAP.                  NO:   ONE LINE PER DEPTH STEP
~WELL INFORMATION BLOCK
#MNEM.UNIT           DATA                    DESCRIPTION OF MNEMONIC
#---------    -------------------            -------------------------------
# Generated from Intellog Unique Number	nealta/WELL/2359
WELL.         HB MARTEN HILLS 10-34          : Well_name    - WELL              
LOC .         10-34-074-01W5                 : Location     - LOCATION          
UWI .         00/10-34-074-01W5/0            : Uwi          - UNIQUE WELL ID    
ENTR.         JAYE                           : Entered      - ENTERED BY        
SRVC.         SCHLUMBERGER                   : Scn          - SERVICE COMPANY   
DATE.         27 MAR 74                      : Date         - LOG DATE          
STRT.M        454.152                        : top_depth    - START DEPTH       
STOP.M        655.402                        : bot_depth    - STOP DEPTH        
STEP.M        0.25                           : increment    - STEP LENGTH       
NULL.         -999.250                       : null         - NULL VALUE       
~CURVE INFORMATION BLOCK
#MNEM UNIT       ERCB CURVE CODE    CURVE DESCRIPTION
#-----------   ------------------   ----------------------------------
DEPT.M        00 001 00 00         : DEPTH        - DEPTH                       
DPHI.V/V      00 890 00 00         : PHID         - DENSITY POROSITY (SANDSTONE)
CALI.MM       00 280 01 00         : CAL          - CALIPER                     
GR  .API      00 310 00 00         : GR           - GAMMA RAY                   
ILD .OHMM     00 120 00 00         : RESD         - DEEP RESISTIVITY (DIL)      
NPHI.V/V      00 330 00 00         : PHIN         - NEUTRON POROSITY (SANDSTONE)
~PARAMETER INFORMATION       
#MNEM.UNIT           DATA             DESCRIPTION OF MNEMONIC
#---------         -----------     ------------------------------
GL  .M        721.766              : gl           - GROUND LEVEL ELEVATION      
EREF.M        725.119              : kb           - ELEVATION OF DEPTH REFERENCE
DATM.M        721.766              : datum        - DATUM ELEVATION             
TDD .M        685.8                : tdd          - TOTAL DEPTH DRILLER         
RUN .         ONE                  : Run          - RUN NUMBER                  
ENG .         SIROIS/SMILEY        : Engineer     - RECORDING ENGINEER          
WIT .         FILLO/JASTER         : Witness      - WITNESSED BY                
BASE.         EDM                  : Branch       - HOME BASE OF LOGGING UNIT   
MUD .         GEL CHEM             : Mud_type     - MUD TYPE                    
MATR.         SANDSTONE            : Logunit      - NEUTRON MATRIX              
TMAX.C        26.6667              : BHT          - MAXIMUM RECORDED TEMPERATURE
BHTD.M        685.8                : BHTDEP       - MAXIMUM RECORDED TEMPERATURE
RMT .C        -12.3889             : MDTP         - TEMPERATURE OF MUD          
MUDD.KG/M     7800                 : MWT          - MUD DENSITY                 
NEUT.         1                    : NEUTRON      - NEUTRON TYPE                
RESI.         0                    : RESIST       - RESISTIVITY TYPE            
RM  .OHMM     4.1                  : RM           - RESISTIVITY OF MUD          
RMC .OHMM     2.5                  : RMC          - RESISTIVITY OF MUD CAKE     
RMF .OHMM     2.13                 : RMF          - RESISTIVITY OF MUD FILTRATE 
SUFT.C        -17.7778             : SUFT         - SURFACE TEMPERATURE         
~A  DEPTH     PHID      CAL       GR     RESD     PHIN
# ...
  636.652    0.114  207.821   72.854    6.955    0.277
  636.902    0.141  202.893   56.858    7.715    0.243
  637.152    0.167  197.855   48.049    9.509    0.227
  637.402    0.198  196.461   39.671   13.025    0.212
  637.652    0.266  195.593   33.564   15.819    0.198
  637.902    0.284  195.132   29.852   18.176    0.182
  638.152    0.299  192.597   29.030   19.756    0.172
  638.402    0.311  191.821   27.963   19.041    0.166
  638.652    0.322  192.718   27.328   16.885    0.198
  638.902    0.317  194.866   27.000   11.817    0.231
  639.152    0.301  196.273   26.793    8.905    0.293
  639.402    0.254  197.586   26.765    6.301    0.328
  639.652    0.232  198.062   27.162    4.982    0.347
  639.902    0.189  196.669   28.858    4.227    0.359
  640.152    0.165  193.817   31.596    4.134    0.344
  640.402    0.108  192.637   33.849    4.387    0.330
  640.652    0.135  193.739   34.437    4.604    0.311
  640.902    0.265  195.364   34.720    4.562    0.295
  641.152    0.290  196.570   34.815    4.175    0.333
  641.402    0.278  197.565   35.229    3.899    0.344
  641.652    0.268  197.727   35.381    3.555    0.342
  641.902    0.243  197.492   36.038    3.253    0.344
  642.152    0.225  197.334   36.313    3.016    0.358
  642.402    0.231  197.295   36.973    2.848    0.361
  642.652    0.234  197.458   37.802    2.776    0.367
  642.902    0.219  197.622   38.823    2.735    0.376
  643.152    0.220  198.006   39.414    2.695    0.373
  643.402    0.223  197.853   39.631    2.666    0.375
  643.652    0.215  197.607   39.666    2.661    0.380
  643.902    0.208  197.143   39.583    2.711    0.378
  644.152    0.215  196.688   39.682    2.788    0.371
  644.402    0.214  196.441   39.902    2.893    0.363
  644.652    0.204  196.085   39.200    3.019    0.352
  644.902    0.190  196.362   39.420    3.174    0.308
  645.152    0.171  196.730   40.685    3.495    0.295
  645.402    0.153  197.003   48.095    3.709    0.332
  645.652    0.161  197.380   55.013    3.856    0.381
  645.902    0.189  197.959   59.594    3.958    0.366
  646.152    0.194  198.552   56.683    4.062    0.371
  646.402    0.178  198.806   57.333    4.162    0.359
  646.652    0.161  198.875   59.705    4.383    0.338
  646.902    0.147  198.832   63.734    4.729    0.329
  647.152    0.149  198.792   65.920    5.474    0.321
  647.402    0.136  198.746   62.827    5.608    0.322
  647.652    0.131  198.814   61.821    5.516    0.338
  647.902    0.140  198.769   64.622    5.316    0.346
  648.152    0.139  199.043   67.361    5.162    0.360
  648.402    0.131  198.993   68.565    5.030    0.381
  648.652    0.203  199.366   66.756    4.948    0.385
  648.902    0.236  199.542   68.573    4.930    0.409
  649.152    0.374  199.601   78.316    4.967    0.429
  649.402    0.229  199.875   91.866    5.136    0.443
  649.652    0.197  200.241  117.950    5.420    0.455
  649.902    0.170  201.139  127.878    5.751    0.454
  650.152    0.126  202.764  124.473    6.136    0.438
  650.402    0.085  204.067  114.559    6.440    0.315
  650.652    0.070  205.589  101.511    6.573    0.320
  650.902    0.048  205.857  103.268    6.489    0.346
  651.152    0.041  203.428  118.169    6.335    0.378
  651.402    0.041  202.139  127.175    6.050    0.419
  651.652    0.058  201.778  126.906    5.766    0.461
  651.902    0.068  201.535  128.662    5.425    0.550
  652.152    0.095  201.591  131.218    4.847    0.552
  652.402    0.094  201.660  128.681    4.569    0.486
  652.652    0.082  202.035  130.556    4.536    0.451
  652.902    0.098  202.090  134.951    4.595    0.379
  653.152    0.120  202.162  142.606    4.752    0.343
  653.402    0.114  202.232  146.883    5.014    0.321
  653.652    0.097  202.284  149.745    5.460    0.295
  653.902    0.043  201.826  110.957    6.216    0.263
  654.152    0.016  201.674   85.133    7.397    0.225
  654.402   -0.001  201.633   68.030    8.236    0.082
  654.652   -0.005  201.592   52.710    9.119    0.055
  654.902   -0.002  201.037   31.680    9.499    0.045
  655.152    0.018  200.478   26.431    9.858    0.064
  655.402    0.021  199.804   25.058   10.538    0.090
