~VERSION INFORMATION
 VERS.                 2.0:   CWLS LOG ASCII STANDARD -VERSION 2.0
 WRAP.                  NO:   ONE LINE PER DEPTH STEP
~WELL INFORMATION BLOCK
#MNEM.UNIT           DATA                    DESCRIPTION OF MNEMONIC
#---------    -------------------            -------------------------------
# Generated from Intellog Unique Number	CS_67_68/WELL/822
WELL.         ESSO RESOURCES CANADA LTD      : Well_name    - WELL
LOC .         00/11-19-068-06W4/0            : Location     - LOCATION
UWI .         00/11-19-068-06W4/0            : Uwi          - UNIQUE WELL ID
ENTR.         SP                             : Entered      - ENTERED BY
SRVC.         SCHLUMBERGER                   : Scn          - SERVICE COMPANY
STRT.M        330                            : top_depth    - START DEPTH
STOP.M        550                            : bot_depth    - STOP DEPTH
STEP.M        0.25                           : increment    - STEP LENGTH
 NULL. -999.2500:NULL Value
~CURVE INFORMATION BLOCK
#MNEM UNIT       ERCB CURVE CODE    CURVE DESCRIPTION
#-----------   ------------------   ----------------------------------
DEPT.M        00 001 00 00         : DEPTH        - DEPTH
ILD .OHMM     00 120 00 00         : RESD         - DEEP RESISTIVITY (DIL)
DPHI.V/V      00 890 00 00         : PHID         - DENSITY POROSITY (LIMESTONE)
NPHI.V/V      00 330 00 00         : PHIN         - NEUTRON POROSITY (LIMESTONE)
GR  .API      00 310 00 00         : GR           - GAMMA RAY
~PARAMETER INFORMATION
#MNEM.UNIT           DATA             DESCRIPTION OF MNEMONIC
#---------         -----------     ------------------------------
GL  .M        668.73               : gl           - GROUND LEVEL ELEVATION
EREF.M        672                  : kb           - ELEVATION OF DEPTH REFERENCE
DATM.M        672.6                : datum        - DATUM ELEVATION
TDD .M        557                  : tdd          - TOTAL DEPTH DRILLER
RUN .         ONE                  : Run          - RUN NUMBER
ENG .         BILL                 : Engineer     - RECORDING ENGINEER
WIT .         JIM                  : Witness      - WITNESSED BY
MUD .         GEL                  : Mud_type     - MUD TYPE
MATR.         LIMESTONE            : Logunit      - NEUTRON MATRIX
TMAX.C        28                   : BHT          - MAXIMUM RECORDED TEMPERATURE
BHTD.M        557                  : BHTDEP       - MAXIMUM RECORDED TEMPERATURE
MATR.         1                    : LOGUNIT      - NEUTRON MATRIX
RMT .C        25                   : MDTP         - TEMPERATURE OF MUD
NEUT.         1                    : NEUTRON      - NEUTRON TYPE
RESI.         0                    : RESIST       - RESISTIVITY TYPE
RMC .OHMM     0.25                 : RMC          - RESISTIVITY OF MUD CAKE
RMF .OHMM     0.25                 : RMF          - RESISTIVITY OF MUD FILTRATE
SUFT.C        15                   : SUFT         - SURFACE TEMPERATURE
~A  DEPTH     RESD     PHID     PHIN       GR
# ...
  417.000    1.799    0.269    0.514   97.167
  417.250    1.576    0.265    0.518   98.567
  417.500    1.580    0.260    0.527   98.850
  417.750    1.672    0.268    0.542   98.442
  418.000    1.773    0.270    0.556   96.974
  418.250    1.856    0.277    0.591   93.763
  418.500    1.972    0.288    0.620   87.619
  418.750    2.018    0.288    0.535   83.652
  419.000    1.976    0.283    0.488   90.546
  419.250    2.384    0.278    0.579   84.158
  419.500    2.815    0.274    0.613   80.253
  419.750    3.130    0.274    0.574   75.170
  420.000    3.513    0.272    0.512   69.963
  420.250    3.840    0.284    0.490   68.428
  420.500    4.151    0.290    0.492   72.335
  420.750    4.410    0.295    0.485   73.921
  421.000    4.538    0.297    0.478   72.515
  421.250    4.625    0.300    0.477   72.733
  421.500    4.679    0.308    0.490   75.510
  421.750    4.698    0.311    0.478   77.223
  422.000    4.681    0.297    0.465   75.509
  422.250    4.673    0.283    0.482   71.111
  422.500    4.683    0.293    0.501   67.769
  422.750    4.658    0.304    0.498   66.616
  423.000    4.641    0.302    0.500   71.638
  423.250    4.625    0.307    0.495   72.041
  423.500    4.626    0.304    0.483   72.821
  423.750    4.618    0.292    0.470   75.849
  424.000    4.593    0.278    0.474   78.626
  424.250    4.585    0.262    0.485   80.903
  424.500    4.595    0.262    0.479   82.491
  424.750    4.595    0.268    0.470   83.708
  425.000    4.675    0.275    0.481   80.744
  425.250    4.765    0.271    0.489   80.649
  425.500    4.904    0.265    0.467   82.056
  425.750    5.074    0.260    0.453   82.960
  426.000    5.271    0.252    0.479   83.364
  426.250    5.527    0.262    0.481   83.643
  426.500    5.633    0.258    0.456   84.610
  426.750    5.731    0.252    0.436   85.015
  427.000    5.689    0.247    0.447   84.611
  427.250    5.637    0.243    0.460   85.264
  427.500    5.450    0.242    0.472   86.855
  427.750    5.288    0.252    0.482   88.073
  428.000    5.240    0.246    0.485   87.292
  428.250    5.163    0.229    0.497   84.764
  428.500    5.144    0.214    0.482   83.860
  428.750    5.049    0.215    0.472   85.512
  429.000    5.012    0.219    0.485   87.417
  429.250    4.938    0.220    0.487   88.133
  429.500    4.837    0.220    0.480   86.043
  429.750    4.730    0.219    0.483   86.821
  430.000    4.616    0.215    0.492   89.662
  430.250    4.454    0.213    0.503   91.125
  430.500    4.290    0.227    0.491   88.350
  430.750    4.179    0.245    0.466   86.633
  431.000    4.078    0.258    0.460   88.474
  431.250    3.958    0.281    0.481   91.000
  431.500    3.884    0.312    0.497   93.277
  431.750    3.798    0.294    0.519   95.740
  432.000    3.700    0.275    0.537   98.642
  432.250    3.611    0.265    0.552  101.106
  432.500    3.491    0.259    0.539  100.949
  432.750    3.336    0.250    0.555   98.048
  433.000    3.177    0.249    0.559   99.269
  433.250    3.196    0.253    0.535   96.177
  433.500    3.239    0.256    0.513   85.041
  433.750    3.314    0.257    0.477   79.018
  434.000    3.328    0.265    0.433   77.058
  434.250    3.260    0.274    0.413   80.335
  434.500    3.116    0.268    0.431   83.353
  434.750    2.990    0.261    0.475   88.262
  435.000    2.956    0.277    0.508   90.032
  435.250    3.013    0.294    0.533   90.871
  435.500    3.136    0.306    0.532   90.277
  435.750    3.295    0.316    0.514   89.809
  436.000    3.429    0.305    0.487   87.096
  436.250    3.542    0.293    0.474   83.510
  436.500    3.590    0.298    0.487   83.725
  436.750    3.597    0.294    0.487   86.065
  437.000    3.571    0.285    0.475   87.969
  437.250    3.498    0.278    0.497   83.944
  437.500    3.427    0.287    0.506   73.428
  437.750    3.376    0.306    0.487   68.158
  438.000    3.307    0.328    0.474   66.254
  438.250    3.222    0.339    0.480   68.474
  438.500    3.156    0.339    0.488   70.499
  438.750    3.121    0.334    0.493   71.715
  439.000    3.110    0.332    0.499   70.497
  439.250    3.128    0.339    0.510   68.965
  439.500    3.171    0.348    0.504   67.375
  439.750    3.201    0.351    0.495   66.157
  440.000    3.226    0.352    0.501   65.691
  440.250    3.245    0.351    0.490   66.970
  440.500    3.258    0.347    0.482   68.498
  440.750    3.277    0.343    0.476   69.713
  441.000    3.322    0.333    0.481   69.993
  441.250    3.354    0.326    0.485   66.409
  441.500    3.438    0.332    0.476   64.815
  441.750    3.633    0.333    0.466   67.469
  442.000    3.816    0.331    0.465   70.367
  442.250    4.047    0.330    0.474   73.273
  442.500    4.416    0.306    0.481   73.859
  442.750    4.854    0.271    0.459   67.964
  443.000    5.286    0.166    0.397   64.067
  443.250    5.491    0.149    0.373   63.348
  443.500    5.329    0.177    0.356   66.809
  443.750    4.776    0.268    0.393   69.649
  444.000    4.455    0.307    0.424   71.115
  444.250    4.171    0.316    0.432   70.395
  444.500    4.009    0.309    0.442   66.308
  444.750    3.840    0.314    0.458   62.533
  445.000    3.719    0.326    0.468   64.563
  445.250    3.671    0.334    0.468   65.592
  445.500    3.679    0.336    0.472   64.562
  445.750    3.872    0.334    0.480   62.220
  446.000    4.169    0.332    0.466   64.186
  446.250    4.480    0.326    0.474   59.411
  446.500    5.019    0.306    0.449   54.266
  446.750    5.455    0.274    0.378   57.360
  447.000    5.699    0.218    0.362   60.128
  447.250    5.711    0.303    0.399   63.528
  447.500    5.438    0.304    0.449   65.120
  447.750    4.847    0.294    0.469   66.712
  448.000    4.312    0.289    0.485   67.176
  448.250    4.022    0.289    0.471   64.775
  448.500    3.801    0.291    0.458   67.490
  448.750    3.599    0.308    0.465   65.897
  449.000    3.553    0.322    0.487   65.555
  449.250    3.580    0.322    0.501   67.519
  449.500    3.650    0.318    0.477   70.736
  449.750    3.699    0.313    0.462   73.008
  450.000    3.756    0.308    0.465   73.352
  450.250    3.843    0.302    0.490   74.194
  450.500    3.924    0.292    0.493   75.722
  450.750    4.023    0.280    0.477   77.312
  451.000    4.093    0.271    0.473   79.719
  451.250    4.132    0.262    0.467   79.746
  451.500    4.133    0.258    0.452   80.712
  451.750    4.095    0.256    0.431   83.426
  452.000    4.058    0.251    0.420   86.951
  452.250    4.028    0.242    0.428   89.727
  452.500    3.843    0.244    0.447   88.010
  452.750    3.355    0.242    0.455   84.612
  453.000    2.973    0.226    0.459   82.831
  453.250    2.655    0.200    0.467   82.304
  453.500    2.444    0.329    0.498   81.146
  453.750    2.228    0.357    0.583   77.683
  454.000    2.106    0.369    0.611   75.280
  454.250    2.009    0.346    0.611   76.000
  454.500    1.961    0.329    0.580   77.650
  454.750    1.946    0.326    0.561   80.177
  455.000    1.947    0.321    0.592   80.083
  455.250    1.951    0.328    0.609   82.111
  455.500    1.981    0.325    0.620   85.199
  455.750    2.042    0.310    0.597   81.426
  456.000    2.035    0.299    0.575   76.901
  456.250    2.020    0.303    0.567   75.621
  456.500    2.024    0.314    0.570   74.841
  456.750    2.040    0.311    0.575   74.750
  457.000    2.091    0.305    0.601   75.154
  457.250    2.168    0.304    0.603   75.619
  457.500    2.282    0.309    0.579   76.963
  457.750    2.471    0.311    0.558   78.802
  458.000    2.722    0.330    0.565   82.201
  458.250    2.998    0.349    0.563   85.975
  458.500    3.114    0.338    0.528   87.880
  458.750    3.449    0.352    0.496   79.988
  459.000    3.714    0.395    0.520   73.217
  459.250    3.946    0.420    0.538   69.752
  459.500    4.114    0.418    0.523   68.224
  459.750    4.092    0.357    0.515   69.502
  460.000    4.001    0.281    0.507   71.529
  460.250    3.957    0.243    0.496   70.937
