~VERSION INFORMATION
 VERS.                 2.0:   CWLS LOG ASCII STANDARD -VERSION 2.0
 WRAP.                  NO:   ONE LINE PER DEPTH STEP
~WELL INFORMATION BLOCK
#MNEM.UNIT           DATA                    DESCRIPTION OF MNEMONIC
#---------    -------------------            -------------------------------
# Generated from Intellog Unique Number	CW_82_90/WELL/3076
WELL.         PARA ET AL LIVOCK 11-16        : Well_name    - WELL
LOC .         00/11-16-085-20W4/0            : Location     - LOCATION
UWI .         00/11-16-085-20W4/0            : Uwi          - UNIQUE WELL ID
ENTR.         JAYE                           : Entered      - ENTERED BY
SRVC.         COMPUTALOG                     : Scn          - SERVICE COMPANY
DATE.         24 JAN 78                      : Date         - LOG DATE
STRT.M        198.12                         : top_depth    - START DEPTH
STOP.M        374.87                         : bot_depth    - STOP DEPTH
STEP.M        0.25                           : increment    - STEP LENGTH
 NULL. -999.2500:NULL Value
~CURVE INFORMATION BLOCK
#MNEM UNIT       ERCB CURVE CODE    CURVE DESCRIPTION
#-----------   ------------------   ----------------------------------
DEPT.M        00 001 00 00         : DEPTH        - DEPTH
ILD .OHMM     00 120 00 00         : RESD         - DEEP RESISTIVITY (DIL)
CALI.MM       00 280 01 00         : CAL          - CALIPER
GR  .API      00 310 00 00         : GR           - GAMMA RAY
NPHI.V/V      00 330 00 00         : PHIN         - NEUTRON POROSITY (SANDSTONE)
DPHI.V/V      00 890 00 00         : PHID         - DENSITY POROSITY (SANDSTONE)
COND.MMHO                          : COND         - DEEP CONDUCTIVITY (DIL)
~PARAMETER INFORMATION
#MNEM.UNIT           DATA             DESCRIPTION OF MNEMONIC
#---------         -----------     ------------------------------
GL  .M        623.621              : gl           - GROUND LEVEL ELEVATION
EREF.M        626.669              : kb           - ELEVATION OF DEPTH REFERENCE
DATM.M        623.621              : datum        - DATUM ELEVATION
TDD .M        377.952              : tdd          - TOTAL DEPTH DRILLER
RUN .         ONE                  : Run          - RUN NUMBER
ENG .         KING                 : Engineer     - RECORDING ENGINEER
MUD .         GEL CHEM SAWDUST     : Mud_type     - MUD TYPE
MATR.         SANDSTONE            : Logunit      - NEUTRON MATRIX
TMAX.C        16.1111              : BHT          - MAXIMUM RECORDED TEMPERATURE
BHTD.M        377.952              : BHTDEP       - MAXIMUM RECORDED TEMPERATURE
RMT .C        14.4444              : MDTP         - TEMPERATURE OF MUD
MUDD.KG/M     9400                 : MWT          - MUD DENSITY
NEUT.         1                    : NEUTRON      - NEUTRON TYPE
RESI.         0                    : RESIST       - RESISTIVITY TYPE
RM  .OHMM     4.35                 : RM           - RESISTIVITY OF MUD
RMC .OHMM     0                    : RMC          - RESISTIVITY OF MUD CAKE
RMF .OHMM     4.1                  : RMF          - RESISTIVITY OF MUD FILTRATE
SUFT.C        -17.7778             : SUFT         - SURFACE TEMPERATURE
~A  DEPTH     RESD      CAL       GR     PHIN     PHID     COND
# ...
  291.870    9.854  158.419  115.200    0.466    0.326  101.487
  292.120   10.012  157.124  116.898    0.461    0.289   99.878
  292.370   10.109  155.503  109.773    0.443    0.317   98.918
  292.620   10.229  153.259  107.467    0.437    0.310   97.759
  292.870   10.508  151.021  112.674    0.437    0.306   95.162
  293.120   11.073  149.293  113.136    0.411    0.281   90.308
  293.370   11.532  147.672   99.790    0.370    0.255   86.715
  293.620   12.151  146.783   96.490    0.354    0.256   82.298
  293.870   13.152  147.674   91.218    0.341    0.295   76.034
  294.120   14.003  148.785   85.089    0.363    0.308   71.414
  294.370   14.533  149.567   86.725    0.348    0.300   68.810
  294.620   14.700  149.927   84.409    0.337    0.295   68.029
  294.870   14.604  150.396   84.015    0.329    0.292   68.475
  295.120   14.377  150.663   84.596    0.323    0.292   69.554
  295.370   13.769  150.502   84.200    0.373    0.282   72.625
  295.620   13.760  150.134   86.028    0.368    0.268   72.676
  295.870   13.597  149.873   87.159    0.362    0.251   73.548
  296.120   13.263  149.925   89.404    0.352    0.251   75.400
  296.370   13.110  150.298   95.047    0.370    0.279   76.275
  296.620   13.138  150.659   98.350    0.357    0.282   76.116
  296.870   12.757  150.821   96.407    0.343    0.296   78.390
  297.120   12.213  150.870   99.086    0.352    0.289   81.878
  297.370   11.852  151.026   95.423    0.407    0.278   84.375
  297.620   11.410  151.086   96.497    0.422    0.278   87.645
  297.870   11.245  151.350  100.968    0.434    0.291   88.927
  298.120   10.892  151.188   97.056    0.453    0.290   91.813
  298.370   10.381  151.144  102.016    0.437    0.277   96.329
  298.620   10.120  150.667  101.244    0.441    0.270   98.810
  298.870    9.854  151.242  102.940    0.432    0.261  101.482
  299.120    9.618  153.484  109.140    0.461    0.251  103.975
  299.370    9.689  154.267  106.210    0.442    0.238  103.206
  299.620   10.293  154.014  104.395    0.420    0.234   97.149
  299.870   10.691  155.107   97.150    0.420    0.317   93.541
  300.120   10.708  157.254   97.492    0.419    0.303   93.389
  300.370   10.521  158.235   98.752    0.437    0.283   95.050
  300.620   10.405  158.289   99.774    0.456    0.271   96.109
  300.870   10.018  156.779  102.206    0.424    0.278   99.820
  301.120    9.177  155.997  102.175    0.434    0.303  108.968
  301.370    9.070  156.046  102.704    0.421    0.315  110.254
  301.620    9.307  157.483  102.792    0.427    0.320  107.446
  301.870    9.337  157.833  102.148    0.414    0.303  107.099
  302.120    8.815  158.605  105.505    0.442    0.272  113.443
  302.370    8.210  162.328  101.281    0.487    0.300  121.802
  302.620    8.248  162.790  104.770    0.528    0.369  121.244
  302.870    8.203  159.496  108.319    0.507    0.269  121.909
  303.120    8.092  154.336  108.157    0.473    0.244  123.573
  303.370    8.077  154.703  101.408    0.393    0.280  123.805
  303.620    7.905  155.904  102.979    0.390    0.306  126.508
  303.870    6.743  158.996  100.174    0.416    0.334  148.291
  304.120    5.677  162.681   90.159    0.470    0.328  176.164
  304.370    4.763  174.845   88.772    0.517    0.343  209.941
  304.620    4.029  192.330  106.991    0.567    0.510  248.172
  304.870    3.873  185.179  107.086    0.571    0.530  258.175
  305.120    3.813  176.788  104.221    0.564    0.531  262.289
  305.370    4.135  173.073  104.679    0.572    0.513  241.811
  305.620    4.819  169.478  109.828    0.542    0.444  207.515
  305.870    5.780  166.090  114.357    0.455    0.377  173.020
  306.120    6.547  164.264  111.799    0.404    0.330  152.746
  306.370    7.458  163.167  119.969    0.442    0.232  134.085
  306.620    7.962  162.181  121.791    0.469    0.227  125.602
  306.870    8.408  161.914  119.910    0.452    0.224  118.940
  307.120    8.795  161.863  119.572    0.433    0.221  113.695
  307.370    8.986  161.386  119.172    0.457    0.207  111.290
  307.620    9.164  160.709  124.870    0.441    0.273  109.126
  307.870    9.626  160.354  124.351    0.441    0.272  103.882
  308.120    9.873  160.512  121.419    0.428    0.267  101.289
  308.370    9.850  162.224  123.115    0.398    0.273  101.528
  308.620    9.747  166.045  129.132    0.446    0.300  102.595
  308.870    9.862  162.128  129.232    0.423    0.303  101.401
  309.120   10.268  160.612  128.573    0.427    0.306   97.394
  309.370   10.975  159.418  124.535    0.404    0.285   91.118
  309.620   11.561  158.837  124.142    0.345    0.257   86.498
  309.870   12.123  158.171  122.069    0.345    0.227   82.491
  310.120   12.842  157.796  120.564    0.349    0.233   77.868
  310.370   13.808  157.340  127.618    0.375    0.230   72.420
  310.620   14.707  157.384  125.801    0.371    0.227   67.995
  310.870   15.151  157.341  119.234    0.268    0.220   66.004
  311.120   16.399  157.167  113.226    0.197    0.208   60.978
  311.370   19.908  156.923  105.735    0.176    0.188   50.230
  311.620   22.426  156.563  100.711    0.162    0.164   44.591
  311.870   25.535  155.987   92.789    0.145    0.122   39.162
  312.120   30.575  155.506   86.969    0.132    0.129   32.707
  312.370   35.373  154.845   87.429    0.133    0.141   28.270
  312.620   36.648  154.574   91.842    0.169    0.154   27.287
  312.870   32.485  154.824   95.753    0.208    0.180   30.783
  313.120   27.378  155.095  104.414    0.349    0.200   36.525
  313.370   21.395  155.347  113.260    0.364    0.208   46.740
  313.620   18.485  155.712  118.160    0.342    0.237   54.099
  313.870   16.659  156.288  129.103    0.348    0.239   60.029
  314.120   16.262  155.507  126.616    0.352    0.238   61.494
  314.370   17.524  155.978  123.494    0.328    0.229   57.065
  314.620   19.299  157.184  121.183    0.267    0.220   51.817
  314.870   22.148  158.380  115.854    0.226    0.198   45.150
  315.120   24.795  159.378  110.087    0.221    0.183   40.331
  315.370   25.950  160.190  100.624    0.220    0.148   38.535
  315.620   25.770  160.442  107.068    0.228    0.136   38.805
  315.870   23.994  160.584  115.113    0.330    0.192   41.677
  316.120   22.032  160.850  119.337    0.371    0.209   45.388
  316.370   19.108  160.684  117.950    0.359    0.208   52.333
  316.620   17.843  160.731  117.002    0.354    0.205   56.044
  316.870   17.456  160.483  122.944    0.358    0.215   57.287
  317.120   17.436  160.536  125.626    0.362    0.213   57.354
  317.370   17.548  160.899  124.242    0.355    0.207   56.988
  317.620   18.048  160.951  123.037    0.371    0.201   55.407
  317.870   18.445  160.790  119.125    0.351    0.190   54.216
  318.120   18.931  160.630  122.853    0.335    0.195   52.822
  318.370   19.587  160.161  122.949    0.342    0.205   51.054
  318.620   20.379  160.334  119.284    0.361    0.217   49.070
  318.870   20.531  160.489  119.186    0.339    0.210   48.708
  319.120   20.267  160.532  130.745    0.338    0.199   49.341
  319.370   19.762  160.377  130.349    0.353    0.209   50.603
  319.620   19.502  159.920  134.755    0.350    0.204   51.276
  319.870   19.330  160.086  135.221    0.351    0.212   51.733
  320.120   19.322  160.219  131.735    0.338    0.223   51.754
  320.370   18.928  160.067  129.425    0.331    0.217   52.832
  320.620   18.485  159.811  131.244    0.350    0.208   54.099
  320.870   18.471  159.549  117.834    0.365    0.211   54.138
  321.120   18.737  158.669  118.547    0.354    0.203   53.370
  321.370   19.700  158.399  114.999    0.313    0.178   50.761
  321.620   21.118  158.144   99.555    0.193    0.151   47.352
  321.870   23.414  157.787   92.251    0.088    0.124   42.709
  322.120   26.241  157.614   83.653    0.027    0.096   38.108
  322.370   30.418  158.404   85.042   -0.045    0.063   32.875
  322.620   33.048  159.213   95.000   -0.024    0.090   30.259
  322.870   32.983  159.458  103.660    0.011    0.132   30.318
