~VERSION INFORMATION
 VERS.                 2.0:   CWLS LOG ASCII STANDARD -VERSION 2.0
 WRAP.                  NO:   ONE LINE PER DEPTH STEP
~WELL INFORMATION BLOCK
#MNEM.UNIT           DATA                    DESCRIPTION OF MNEMONIC
#---------    -------------------            -------------------------------
# Generated from Intellog Unique Number	CW_76_78/WELL/3587
WELL.         SASKATCHEWAN OIL & GAS CORP.   : Well_name    - WELL
LOC .         00/11-06-076-19W4/0            : Location     - LOCATION
UWI .         00/11-06-076-19W4/0            : Uwi          - UNIQUE WELL ID
ENTR.         JO                             : Entered      - ENTERED BY
SRVC.         SCHLUMBERGER                   : Scn          - SERVICE COMPANY
DATE.         05/25/92                       : Date         - LOG DATE
STRT.M        215                            : top_depth    - START DEPTH
STOP.M        460                            : bot_depth    - STOP DEPTH
STEP.M        0.25                           : increment    - STEP LENGTH
 NULL. -999.2500:NULL Value
~CURVE INFORMATION BLOCK
#MNEM UNIT       ERCB CURVE CODE    CURVE DESCRIPTION
#-----------   ------------------   ----------------------------------
DEPT.M        00 001 00 00         : DEPTH        - DEPTH
NPHI.V/V      00 330 00 00         : PHIN         - NEUTRON POROSITY (SANDSTONE)
GR  .API      00 310 00 00         : GR           - GAMMA RAY
DPHI.V/V      00 890 00 00         : PHID         - DENSITY POROSITY (SANDSTONE)
ILD .OHMM     00 120 00 00         : RESD         - DEEP RESISTIVITY (DIL)
~PARAMETER INFORMATION
#MNEM.UNIT           DATA             DESCRIPTION OF MNEMONIC
#---------         -----------     ------------------------------
GL  .M        590.9                : gl           - GROUND LEVEL ELEVATION
EREF.M        594.7                : kb           - ELEVATION OF DEPTH REFERENCE
DATM.M        594.7                : datum        - DATUM ELEVATION
TDD .M        465                  : tdd          - TOTAL DEPTH DRILLER
RUN .         ONE                  : Run          - RUN NUMBER
ENG .         BILL                 : Engineer     - RECORDING ENGINEER
WIT .         JIM                  : Witness      - WITNESSED BY
MUD .         GEL                  : Mud_type     - MUD TYPE
MATR.         SANDSTONE            : Logunit      - NEUTRON MATRIX
TMAX.C        35                   : BHT          - MAXIMUM RECORDED TEMPERATURE
BHTD.M        465                  : BHTDEP       - MAXIMUM RECORDED TEMPERATURE
MATR.         1                    : LOGUNIT      - NEUTRON MATRIX
RMT .C        12                   : MDTP         - TEMPERATURE OF MUD
NEUT.         1                    : NEUTRON      - NEUTRON TYPE
RESI.         0                    : RESIST       - RESISTIVITY TYPE
RMC .OHMM     2.24                 : RMC          - RESISTIVITY OF MUD CAKE
RMF .OHMM     2.38                 : RMF          - RESISTIVITY OF MUD FILTRATE
SUFT.C        5                    : SUFT         - SURFACE TEMPERATURE
~A  DEPTH     PHIN       GR     PHID     RESD
# ...
  389.000    0.394   90.168    0.177    7.085
  389.250    0.393   98.368    0.204    7.218
  389.500    0.395  101.293    0.218    7.086
  389.750    0.403  101.873    0.206    6.829
  390.000    0.414   98.933    0.203    6.461
  390.250    0.425   97.167    0.208    6.227
  390.500    0.430   96.578    0.208    6.002
  390.750    0.428   93.640    0.207    5.892
  391.000    0.424   91.290    0.217    5.893
  391.250    0.435   87.180    0.230    5.785
  391.500    0.424   83.072    0.186    5.893
  391.750    0.397   78.376    0.209    6.230
  392.000    0.416   70.164    0.271    6.586
  392.250    0.423   62.538    0.295    7.092
  392.500    0.428   57.255    0.309    8.073
  392.750    0.416   53.145    0.183    8.855
  393.000    0.378   47.865    0.142   10.854
  393.250    0.314   49.030    0.107   12.128
  393.500    0.237   51.370    0.077   13.552
  393.750    0.214   51.949    0.064   14.865
  394.000    0.199   46.669    0.046   16.610
  394.250    0.159   42.555    0.027   18.907
  394.500    0.134   43.138    0.009   24.046
  394.750    0.140   45.474    0.008   28.932
  395.000    0.173   46.643    0.031   31.737
  395.250    0.220   50.153    0.143   29.476
  395.500    0.269   52.493    0.178   25.900
  395.750    0.283   56.004    0.166   21.135
  396.000    0.304   62.446    0.164   18.231
  396.250    0.307   62.440    0.181   15.437
  396.500    0.320   61.847    0.210   13.817
  396.750    0.329   64.187    0.234   12.141
  397.000    0.393   68.871    0.259   11.070
  397.250    0.416   73.554    0.282    9.908
  397.500    0.389   79.410    0.290    8.706
  397.750    0.370   85.852    0.280    7.650
  398.000    0.389   83.500    0.260    6.975
  398.250    0.398   84.666    0.263    6.599
  398.500    0.405   87.591    0.261    6.479
  398.750    0.407   86.999    0.249    6.600
  399.000    0.389   86.994    0.241    6.600
  399.250    0.384   88.747    0.237    6.724
  399.500    0.442   92.258    0.237    6.725
  399.750    0.445   94.597    0.241    6.725
  400.000    0.446   96.936    0.246    6.603
  400.250    0.442   98.688    0.239    6.363
  400.500    0.438   98.682    0.233    5.802
  400.750    0.430   97.504    0.231    5.489
  401.000    0.428   95.151    0.240    5.005
  401.250    0.465   96.318    0.252    4.824
  401.500    0.460   96.897    0.264    5.006
  401.750    0.451   95.718    0.270    5.390
  402.000    0.440   92.197    0.265    5.698
  402.250    0.433   87.501    0.262    5.913
  402.500    0.428   86.909    0.259    6.024
  402.750    0.423   86.903    0.258    6.368
  403.000    0.411   87.483    0.256    6.488
  403.250    0.415   90.994    0.252    6.733
  403.500    0.426   88.642    0.245    6.987
  403.750    0.418   85.707    0.235    7.251
  404.000    0.402   82.184    0.221    7.386
  404.250    0.404   80.418    0.186    7.525
  404.500    0.410   79.241    0.180    7.666
  404.750    0.409   81.580    0.182    7.810
  405.000    0.404   82.746    0.183    8.104
  405.250    0.394   82.740    0.174    8.410
  405.500    0.370   84.493    0.163    8.728
  405.750    0.363   89.175    0.157    8.892
  406.000    0.392   90.929    0.185    8.892
  406.250    0.409   86.819    0.203    8.413
  406.500    0.415   85.053    0.208    7.671
  406.750    0.415   85.633    0.200    7.393
  407.000    0.411   85.041    0.185    7.258
  407.250    0.340   76.829    0.064    8.573
  407.500    0.186   60.410    0.055   11.959
  407.750    0.191   46.335    0.028   13.612
  408.000    0.200   53.950    0.006   15.211
  408.250    0.208   64.495    0.017   14.660
  408.500    0.208   72.696    0.034   13.122
  408.750    0.249   80.896    0.175   11.964
  409.000    0.299   88.511    0.187   11.111
  409.250    0.355   93.780    0.194    9.763
  409.500    0.378   92.602    0.198    9.068
  409.750    0.392   92.010    0.198    8.579
  410.000    0.401   92.004    0.196    8.117
  410.250    0.391   90.825    0.194    7.823
  410.500    0.381   87.887    0.193    7.680
  410.750    0.391   90.814    0.197    7.540
  411.000    0.409   96.082    0.207    7.541
  411.250    0.415   97.836    0.204    7.403
  411.500    0.411   99.588    0.198    7.404
  411.750    0.407   96.651    0.192    7.404
  412.000    0.398   98.403    0.189    7.405
  412.250    0.396  102.500    0.191    7.405
  412.500    0.401  105.426    0.193    7.406
  412.750    0.414  102.489    0.184    7.545
  413.000    0.410   94.275    0.176    7.546
  413.250    0.407   97.200    0.173    7.546
  413.500    0.398  101.884    0.178    7.547
  413.750    0.398   97.774    0.173    7.409
  414.000    0.407  100.112    0.161    7.274
  414.250    0.412  104.210    0.168    7.141
  414.500    0.394  104.204    0.185    7.142
  414.750    0.363  100.678    0.184    7.276
  415.000    0.353  100.089    0.187    7.550
  415.250    0.383  103.600    0.197    7.692
  415.500    0.401  108.284    0.201    8.131
  415.750    0.394  112.967    0.196    8.283
  416.000    0.363  104.755    0.185    7.837
  416.250    0.359   95.370    0.167    7.279
  416.500    0.347   90.087    0.154    7.015
  416.750    0.339   93.013    0.165    7.416
  417.000    0.370   94.178    0.184    7.839
  417.250    0.362   94.174    0.185    8.288
  417.500    0.351   92.407    0.177    8.288
  417.750    0.342   90.644    0.166    7.698
  418.000    0.333   87.708    0.154    7.419
  418.250    0.342   84.769    0.131    7.842
  418.500    0.335   81.246    0.121    8.763
  418.750    0.329   75.965    0.107   11.353
  419.000    0.315   80.062    0.085   12.002
  419.250    0.297   87.090    0.150   12.924
  419.500    0.338   91.772    0.173   13.412
  419.750    0.355   91.180    0.166   12.229
  420.000    0.365   89.415    0.114   11.786
  420.250    0.338   88.237    0.109   10.746
  420.500    0.331   90.577    0.142    9.798
  420.750    0.352   95.261    0.161    9.100
  421.000    0.395   99.943    0.174    7.996
  421.250    0.405  101.111    0.176    6.897
  421.500    0.393   95.243    0.168    6.406
  421.750    0.376   95.822    0.154    6.648
  422.000    0.393   96.403    0.152    7.027
  422.250    0.390   98.742    0.155    7.567
  422.500    0.390  101.081    0.149    7.568
  422.750    0.396  104.592    0.150    7.569
  423.000    0.387  108.101    0.167    7.569
  423.250    0.387  106.337    0.175    7.570
  423.500    0.393  104.574    0.175    7.432
  423.750    0.396  102.223    0.175    7.432
  424.000    0.383   99.871    0.167    7.433
  424.250    0.337   98.108    0.141    7.858
  424.500    0.311   73.481    0.118    8.154
  424.750    0.290   76.992    0.097    8.781
  425.000    0.318   86.951    0.088    8.945
  425.250    0.345   94.565    0.103    9.283
  425.500    0.359   96.318    0.155    9.113
  425.750    0.361   98.657    0.173    8.622
  426.000    0.355  102.754    0.173    7.301
  426.250    0.387  106.265    0.177    5.636
  426.500    0.396  106.844    0.205    4.600
  426.750    0.425  105.081    0.240    3.685
  427.000    0.456  101.558    0.254    3.007
  427.250    0.511   97.447    0.261    2.365
  427.500    0.524   95.098    0.271    2.279
  427.750    0.507   98.023    0.277    2.500
  428.000    0.481  115.016    0.252    2.643
  428.250    0.463  109.734    0.223    2.846
  428.500    0.450  100.936    0.196    3.008
  428.750    0.415   95.068    0.178    3.361
  429.000    0.376   95.648    0.155    4.355
  429.250    0.359  100.918    0.116    5.747
  429.500    0.342  101.498    0.149    6.542
  429.750    0.347   95.630    0.162    7.310
  430.000    0.327   93.278    0.159    7.872
  430.250    0.321   93.270    0.151    7.728
  430.500    0.386   92.678    0.157    7.448
  430.750    0.406   90.914    0.162    7.047
  431.000    0.413   92.668    0.172    6.307
  431.250    0.428   98.524    0.180    5.967
  431.500    0.423  102.621    0.175    5.751
  431.750    0.409  101.443    0.165    5.752
  432.000    0.392   96.747    0.134    5.859
  432.250    0.357   88.534    0.109    5.969
