~VERSION INFORMATION
 VERS.                 2.0:   CWLS LOG ASCII STANDARD -VERSION 2.0
 WRAP.                  NO:   ONE LINE PER DEPTH STEP
~WELL INFORMATION BLOCK
#MNEM.UNIT           DATA                    DESCRIPTION OF MNEMONIC
#---------    -------------------            -------------------------------
# Generated from Intellog Unique Number	CC_80_83/WELL/2439
NULL.         -999.25                        : NULL_VALUE
WELL.         CWWE CORNER                    : Well_name    - WELL
LOC .         15-10-080-10W4                 : Location     - LOCATION          
UWI .         00/15-10-080-10W400            : Uwi          - UNIQUE WELL ID    
ENTR.         DW                             : Entered      - ENTERED BY        
SRVC.         SCHLUMBERGER                   : Scn          - SERVICE COMPANY   
DATE.         15 JAN 85                      : Date         - LOG DATE
STRT.M        260                            : top_depth    - START DEPTH       
STOP.M        494.89                         : bot_depth    - STOP DEPTH        
STEP.M        0.3                            : increment    - STEP LENGTH       
~CURVE INFORMATION BLOCK
#MNEM UNIT       ERCB CURVE CODE    CURVE DESCRIPTION
#-----------   ------------------   ----------------------------------
DEPT.M        00 001 00 00         : DEPTH        - DEPTH                       
DPHI.V/V      00 890 00 00         : PHID         - DENSITY POROSITY (LIMESTONE)
NPHI.V/V      00 330 00 00         : PHIN         - NEUTRON POROSITY (LIMESTONE)
GR  .API      00 310 00 00         : GR           - GAMMA RAY                   
ILD .OHMM     00 120 00 00         : RESD         - DEEP RESISTIVITY (DIL)      
~PARAMETER INFORMATION       
#MNEM.UNIT           DATA             DESCRIPTION OF MNEMONIC
#---------         -----------     ------------------------------
GL  .M        696                  : gl           - GROUND LEVEL ELEVATION      
EREF.M        699.2                : kb           - ELEVATION OF DEPTH REFERENCE
DATM.M        699.2                : datum        - DATUM ELEVATION             
TDD .M        504                  : tdd          - TOTAL DEPTH DRILLER         
RUN .         ONE                  : Run          - RUN NUMBER                  
ENG .         BILL                 : Engineer     - RECORDING ENGINEER          
WIT .         JIM                  : Witness      - WITNESSED BY                
MUD .         GEL                  : Mud_type     - MUD TYPE                    
MATR.         LIMESTONE            : Logunit      - NEUTRON MATRIX              
TMAX.C        22                   : BHT          - MAXIMUM RECORDED TEMPERATURE
BHTD.M        502                  : BHTDEP       - MAXIMUM RECORDED TEMPERATURE
MATR.         1                    : LOGUNIT      - NEUTRON MATRIX              
RMT .C        25                   : MDTP         - TEMPERATURE OF MUD          
NEUT.         1                    : NEUTRON      - NEUTRON TYPE                
RESI.         0                    : RESIST       - RESISTIVITY TYPE            
RMC .OHMM     0.25                 : RMC          - RESISTIVITY OF MUD CAKE     
RMF .OHMM     0.25                 : RMF          - RESISTIVITY OF MUD FILTRATE 
SUFT.C        15                   : SUFT         - SURFACE TEMPERATURE         
~A  DEPTH     PHID     PHIN       GR     RESD
# ...
  312.198    0.273    0.448   93.651   10.673
  312.498    0.276    0.454   91.181   10.465
  312.798    0.278    0.486   88.094   10.062
  313.098    0.286    0.465   86.242    9.674
  313.398    0.276    0.444   85.624    8.948
  313.698    0.268    0.444   88.092    7.959
  313.998    0.266    0.468   93.028    8.112
  314.298    0.272    0.492   93.027    9.113
  314.598    0.283    0.465   86.237   10.236
  314.898    0.298    0.446   86.236   11.498
  315.198    0.307    0.436   93.025   12.668
  315.498    0.312    0.429   91.172   13.167
  315.798    0.296    0.436   83.765   14.788
  316.098    0.293    0.441   71.419   15.673
  316.398    0.302    0.410   56.606   17.951
  316.698    0.307    0.407   48.581   20.165
  316.998    0.311    0.415   46.111   21.370
  317.298    0.317    0.400   46.727   22.640
  317.598    0.307    0.387   47.961   22.635
  317.898    0.296    0.393   49.194   22.629
  318.198    0.296    0.390   48.576   22.615
  318.498    0.306    0.385   47.341   22.609
  318.798    0.316    0.382   52.895   22.601
  319.098    0.324    0.377   53.511   23.039
  319.398    0.327    0.375   50.424   23.941
  319.698    0.322    0.377   50.423   23.935
  319.998    0.327    0.380   48.570   24.872
  320.298    0.337    0.397   47.952   24.866
  320.598    0.339    0.410   49.186   25.343
  320.898    0.341    0.420   46.716   25.833
  321.198    0.336    0.409   44.246   26.327
  321.497    0.337    0.412   44.245   26.322
  321.797    0.344    0.410   44.244   26.310
  322.097    0.349    0.390   47.329   25.794
  322.397    0.349    0.404   50.414   25.789
  322.697    0.348    0.423   51.648   25.777
  322.997    0.347    0.437   46.709   25.770
  323.297    0.347    0.428   49.177   25.262
  323.597    0.347    0.403   51.028   25.252
  323.897    0.348    0.387   49.792   25.246
  324.197    0.349    0.382   45.471   25.234
  324.497    0.352    0.400   50.408   25.229
  324.797    0.352    0.409   53.493   25.218
  325.097    0.351    0.383   54.109   25.703
  325.397    0.346    0.397   51.639   26.195
  325.697    0.342    0.410   51.638   26.703
  325.997    0.341    0.414   51.020   26.697
  326.297    0.342    0.398   49.785   26.169
  326.597    0.349    0.387   51.019   26.161
  326.897    0.369    0.399   52.252   25.651
  327.197    0.368    0.415   50.400   24.185
  327.497    0.361    0.423   51.016   23.715
  327.797    0.358    0.422   55.335   22.799
  328.097    0.361    0.410   55.952   22.354
  328.397    0.376    0.409   53.482   22.341
  328.697    0.372    0.444   55.949   22.336
  328.997    0.361    0.432   55.948   22.331
  329.297    0.353    0.415   52.244   22.320
  329.597    0.348    0.404   51.626   22.315
  329.897    0.353    0.414   55.329   21.875
  330.197    0.363    0.442   55.945   21.032
  330.497    0.368    0.430   53.475   21.026
  330.797    0.369    0.401   54.091   21.430
  331.097    0.398    0.397   53.473   21.425
  331.397    0.404    0.430   51.003   21.838
  331.697    0.373    0.412   46.065   22.693
  331.997    0.363    0.393   44.829   23.133
  332.297    0.377    0.402   51.000   23.575
  332.597    0.371    0.442   49.765   23.570
  332.897    0.363    0.457   46.678   23.562
  333.197    0.364    0.455   46.677   23.549
  333.497    0.379    0.432   46.676   23.541
  333.797    0.386    0.415   46.058   23.533
  334.097    0.378    0.429   48.526   23.525
  334.397    0.372    0.434   52.846   23.980
  334.697    0.367    0.437   49.141   24.441
  334.997    0.358    0.430   45.437   24.912
  335.297    0.362    0.437   42.967   24.906
  335.597    0.364    0.445   42.966   24.411
  335.897    0.363    0.422   41.114   24.406
  336.197    0.358    0.414   45.433   23.924
  336.497    0.352    0.418   47.901   23.918
  336.797    0.360    0.423   46.666   23.451
  337.097    0.364    0.425   42.344   23.437
  337.397    0.367    0.424   38.023   23.431
  337.697    0.369    0.425   34.319   23.426
  337.997    0.368    0.422   36.787   23.419
  338.297    0.356    0.414   42.341   23.409
  338.597    0.362    0.417   44.809   23.401
  338.897    0.368    0.407   42.339   23.850
  339.197    0.367    0.407   38.635   23.840
  339.497    0.362    0.421   37.399   23.836
  339.797    0.360    0.428   38.633   23.824
  340.097    0.362    0.419   43.569   23.360
  340.397    0.365    0.417   42.952   23.348
  340.697    0.368    0.407   39.247   23.342
  340.997    0.370    0.394   39.863   23.788
  341.297    0.371    0.387   42.331   24.249
  341.597    0.368    0.394   42.330   23.775
  341.897    0.361    0.428   40.478   24.228
  342.197    0.361    0.422   41.094   24.222
  342.497    0.362    0.411   40.476   24.215
  342.797    0.367    0.408   37.389   24.202
  343.097    0.373    0.407   40.474   23.729
  343.397    0.370    0.406   42.942   23.723
  343.697    0.360    0.406   39.238   23.712
  343.997    0.360    0.408   40.471   23.704
  344.297    0.363    0.422   42.322   23.696
  344.597    0.367    0.421   42.321   23.687
  344.897    0.367    0.419   39.851   24.147
  345.197    0.368    0.432   39.850   24.138
  345.497    0.367    0.434   42.935   24.128
  345.797    0.361    0.439   42.934   24.592
  346.096    0.360    0.436   44.168   26.059
  346.396    0.361    0.417   46.636   27.617
  346.696    0.357    0.423   47.869   32.251
  346.996    0.256    0.468   47.251   32.875
  347.296    0.057    0.428   39.227   33.508
  347.596    0.117    0.251   37.991   32.219
  347.896    0.285    0.329   42.310   28.658
  348.196    0.352    0.432   48.482   25.997
  348.496    0.365    0.431   49.098   22.241
  348.796    0.368    0.442   49.714   21.387
  349.096    0.366    0.458   48.479   20.167
  349.396    0.362    0.438   46.009   20.161
  349.696    0.361    0.427   45.391   20.549
  349.996    0.362    0.428   47.859   20.543
  350.296    0.370    0.432   49.709   20.136
  350.596    0.373    0.438   49.091   19.744
  350.896    0.371    0.451   50.942   17.909
  351.196    0.348    0.446   54.027    7.912
  351.496    0.275    0.439   67.605    4.414
  351.796    0.246    0.457   81.182    3.563
  352.096    0.258    0.473   87.353    3.425
  352.396    0.276    0.519   86.118    3.560
  352.696    0.283    0.509   91.055    3.921
  352.996    0.275    0.479   97.843    3.997
  353.296    0.274    0.487   94.756    3.919
  353.596    0.279    0.510   84.880    4.073
  353.896    0.284    0.508   78.707    4.401
  354.196    0.286    0.490   76.237    5.041
  354.496    0.290    0.467   74.385    5.774
  354.796    0.304    0.515   73.149    6.743
  355.096    0.320    0.483   70.062    7.008
  355.396    0.305    0.507   77.468    7.005
  355.696    0.309    0.558   72.529    7.280
  355.996    0.319    0.558   66.356    8.022
  356.296    0.331    0.499   62.652    9.930
  356.596    0.355    0.479   65.120   11.155
  356.896    0.364    0.473   63.267   10.519
  357.196    0.351    0.457   63.883    8.491
  357.496    0.339    0.457   70.055    5.981
  357.796    0.294    0.502   79.929    5.118
  358.096    0.296    0.533   79.928    5.749
  358.396    0.332    0.509   70.669    6.458
  358.696    0.354    0.463   63.262    7.543
  358.996    0.347    0.451   58.940    9.157
  359.296    0.345    0.457   56.471    9.894
  359.596    0.344    0.452   62.024   10.485
  359.896    0.355    0.464   65.109   10.480
  360.196    0.359    0.457   64.491    9.884
  360.496    0.350    0.427   64.490    7.673
  360.796    0.344    0.412   72.513    6.194
  361.096    0.339    0.444   79.301    6.073
  361.396    0.335    0.518   77.449    7.517
  361.696    0.325    0.486   68.807    8.123
  361.996    0.228    0.454   63.868    8.949
  362.296    0.237    0.354   62.016    8.605
  362.596    0.286    0.381   62.632    7.221
  362.896    0.319    0.466   73.124    5.829
  363.196    0.336    0.498   82.381    4.352
  363.496    0.324    0.530   85.466    3.582
  363.796    0.301    0.554   91.020    3.065
  364.096    0.293    0.564   95.340    2.674
