~VERSION INFORMATION
 VERS.                 2.0:   CWLS LOG ASCII STANDARD -VERSION 2.0
 WRAP.                  NO:   ONE LINE PER DEPTH STEP
~WELL INFORMATION BLOCK
#MNEM.UNIT           DATA                    DESCRIPTION OF MNEMONIC
#---------    -------------------            -------------------------------
# Generated from Intellog Unique Number	CW_76_78/WELL/2803
WELL.         10-04-078-01W5                 : Well_name    - WELL
LOC .         00/10-04-078-01W5/0            : Location     - LOCATION
UWI .         00/10-04-078-01W5/0            : Uwi          - UNIQUE WELL ID
ENTR.         JJ                             : Entered      - ENTERED BY
SRVC.         WESTERN ATLAS                  : Scn          - SERVICE COMPANY
DATE.         21 JAN 73                      : Date         - LOG DATE
STRT.M        398.069                        : top_depth    - START DEPTH
STOP.M        526.069                        : bot_depth    - STOP DEPTH
STEP.M        0.25                           : increment    - STEP LENGTH
 NULL. -999.2500:NULL Value
~CURVE INFORMATION BLOCK
#MNEM UNIT       ERCB CURVE CODE    CURVE DESCRIPTION
#-----------   ------------------   ----------------------------------
DEPT.M        00 001 00 00         : DEPTH        - DEPTH
DELT.US/F     00 520 00 00         : DELT         - SONIC TRAVEL TIME
GR  .API      00 310 00 00         : GR           - GAMMA RAY
ILD .OHMM     00 120 00 00         : RESD         - DEEP RESISTIVITY (DIL)
~PARAMETER INFORMATION
#MNEM.UNIT           DATA             DESCRIPTION OF MNEMONIC
#---------         -----------     ------------------------------
GL  .M        613.41               : gl           - GROUND LEVEL ELEVATION
EREF.M        617.311              : kb           - ELEVATION OF DEPTH REFERENCE
DATM.M        613.41               : datum        - DATUM ELEVATION
TDD .M        529.133              : tdd          - TOTAL DEPTH DRILLER
RUN .         ONE                  : Run          - RUN NUMBER
ENG .         DUNCAN               : Engineer     - RECORDING ENGINEER
WIT .         GRIGGS-KIRKPATRICK   : Witness      - WITNESSED BY
BASE.         R.D.                 : Branch       - HOME BASE OF LOGGING UNIT
MUD .         GEL                  : Mud_type     - MUD TYPE
MATR.         SANDSTONE            : Logunit      - NEUTRON MATRIX
TMAX.C        24.4444              : BHT          - MAXIMUM RECORDED TEMPERATURE
BHTD.M        527.609              : BHTDEP       - MAXIMUM RECORDED TEMPERATURE
RMT .C        15.5556              : MDTP         - TEMPERATURE OF MUD
MUDD.KG/M     1224                 : MWT          - MUD DENSITY
NEUT.         1                    : NEUTRON      - NEUTRON TYPE
RESI.         0                    : RESIST       - RESISTIVITY TYPE
RM  .OHMM     5.1                  : RM           - RESISTIVITY OF MUD
RMC .OHMM     4.5                  : RMC          - RESISTIVITY OF MUD CAKE
RMF .OHMM     5.8                  : RMF          - RESISTIVITY OF MUD FILTRATE
SUFT.C        5                    : SUFT         - SURFACE TEMPERATURE
~A  DEPTH     DELT       GR     RESD
  398.069  405.707   78.368    5.357
  398.319  390.869   80.591    5.512
  398.569  372.691   83.861    5.748
  398.819  349.391   80.931    6.023
  399.069  371.745   77.817    6.696
  399.319  375.662   74.603    7.671
  399.569  354.243   75.450    9.326
  399.819  339.818   70.608   10.301
  400.069  348.416   60.426   10.755
  400.319  361.531   54.783   10.894
  400.569  369.357   54.682   10.970
  400.819  375.118   54.569   10.985
  401.069  381.370   55.042   10.944
  401.319  384.495   57.209   10.760
  401.569  384.471   57.439   10.457
  401.819  382.154   55.380   10.115
  402.069  378.336   58.241    9.910
  402.319  373.087   60.300    9.846
  402.569  371.817   61.304    9.944
  402.819  388.502   64.505   10.139
  403.069  400.698   66.641   10.495
  403.319  404.620   66.365   10.691
  403.569  400.027   65.451   10.229
  403.819  392.659   63.638   10.083
  404.069  385.178   60.069   10.441
  404.319  378.567   61.037   11.216
  404.569  379.668   65.440   12.090
  404.819  385.704   68.599   13.285
  405.069  390.076   66.613   13.980
  405.319  385.951   69.013   12.320
  405.569  372.348   71.169   10.660
  405.819  365.887   76.041    9.296
  406.069  363.303   77.543    7.956
  406.319  357.674   74.801    7.353
  406.569  353.348   70.341    7.609
  406.819  390.046   73.773    8.145
  407.069  401.538   77.828    8.500
  407.319  397.861   82.548    7.919
  407.569  395.790   88.131    7.115
  407.819  394.418   88.133    6.213
  408.069  392.382   81.687    5.573
  408.319  390.925   75.347    5.470
  408.569  389.565   75.130    5.544
  408.819  386.871   79.909    5.980
  409.069  389.945   79.449    6.437
  409.319  398.475   77.134    6.670
  409.569  397.890   80.664    6.449
  409.819  395.164   82.035    5.925
  410.069  397.388   81.975    6.062
  410.319  398.196   84.381    6.080
  410.569  395.178   84.758    6.359
  410.819  394.007   84.921    6.510
  411.069  393.415   80.716    6.467
  411.319  390.138   80.565    6.443
  411.569  390.874   77.002    6.499
  411.819  395.463   74.371    6.456
  412.069  397.657   74.739    6.296
  412.319  394.643   75.529    6.150
  412.569  393.625   79.287    6.006
  412.819  394.826   81.681    5.902
  413.069  396.441   83.715    5.799
  413.319  395.339   86.677    5.838
  413.569  394.774   88.036    5.872
  413.819  391.995   87.239    5.949
  414.069  390.994   83.355    6.384
  414.319  393.372   78.094    7.060
  414.569  388.936   74.787    7.735
  414.819  386.261   68.887    8.476
  415.069  387.824   64.502    8.928
  415.319  384.679   65.936    9.561
  415.569  380.397   73.214    9.140
  415.819  364.861   78.955    8.277
  416.069  331.231   73.093    8.114
  416.319  319.265   63.435    9.129
  416.569  320.094   61.173   10.467
  416.819  333.224   64.692   11.119
  417.069  350.546   71.024   11.034
  417.319  360.348   78.314    9.654
  417.569  373.325   83.080    8.292
  417.819  393.561   83.690    7.230
  418.069  392.497   83.508    6.408
  418.319  394.731   85.090    6.345
  418.569  398.294   79.180    6.780
  418.819  396.349   72.283    7.276
  419.069  391.270   67.346    7.811
  419.319  388.932   66.333    8.346
  419.569  391.456   68.596    8.924
  419.819  390.430   69.235    9.259
  420.069  389.755   68.392    9.535
  420.319  390.218   67.790    9.611
  420.569  388.016   65.801    9.688
  420.819  382.012   67.916    9.982
  421.069  369.758   65.813   10.924
  421.319  360.719   66.424   11.394
  421.569  371.588   67.712   12.229
  421.819  382.724   68.868   12.848
  422.069  384.469   68.080   12.661
  422.319  382.517   67.570   12.039
  422.569  382.356   68.574   11.557
  422.819  384.578   67.066   11.212
  423.069  385.377   67.504   10.931
  423.319  383.814   69.555   10.547
  423.569  379.391   72.385    9.926
  423.819  378.272   75.633    9.184
  424.069  380.523   79.204    8.502
  424.319  376.893   83.853    7.877
  424.569  374.342   88.467    7.453
  424.819  374.441   87.923    7.450
  425.069  375.531   83.135    7.945
  425.319  379.753   73.786    8.923
  425.569  383.732   67.155    9.917
  425.819  378.071   62.337   11.252
  426.069  377.308   60.825   12.364
  426.319  380.832   61.204   13.780
  426.569  374.974   59.048   15.116
  426.819  359.698   56.179   16.070
  427.069  324.454   55.881   17.602
  427.319  294.343   56.171   18.638
  427.569  290.689   54.990   19.634
  427.819  291.243   54.640   20.729
  428.069  286.991   54.371   21.564
  428.319  277.072   55.440   22.058
  428.569  270.796   58.683   20.976
  428.819  299.915   62.735   16.780
  429.069  336.621   66.632   13.102
  429.319  356.078   71.321   10.202
  429.569  369.324   76.174    8.003
  429.819  378.681   80.487    6.740
  430.069  385.369   80.750    6.317
  430.319  384.193   81.989    6.094
  430.569  387.388   79.953    6.033
  430.819  385.473   76.835    5.954
  431.069  382.527   80.174    6.009
  431.319  387.493   81.858    6.103
  431.569  390.485   85.082    6.177
  431.819  387.302   84.572    6.215
  432.069  388.580   80.463    6.253
  432.319  384.840   81.471    6.229
  432.569  381.677   80.957    6.202
  432.819  387.772   84.913    6.042
  433.069  395.744   84.453    5.736
  433.319  398.835   86.533    5.335
  433.569  398.415   89.952    5.291
  433.819  403.009   88.857    5.445
  434.069  404.413   88.409    5.722
  434.319  397.170   91.462    6.240
  434.569  389.074   87.860    6.594
  434.819  382.518   83.380    6.971
  435.069  380.814   79.769    7.147
  435.319  384.171   82.859    7.104
  435.569  390.318   83.136    7.003
  435.819  383.704   82.095    6.918
  436.069  381.969   81.219    7.532
  436.319  380.472   80.441    7.375
  436.569  377.063   78.868    7.137
  436.819  376.459   80.395    7.303
  437.069  384.385   83.944    7.428
  437.319  389.568   85.632    7.331
  437.569  389.646   85.701    7.254
  437.819  390.318   83.076    7.197
  438.069  388.438   78.919    7.162
  438.319  388.421   80.043    7.206
  438.569  396.603   79.116    7.291
  438.819  394.594   80.523    7.497
  439.069  396.279   80.062    7.905
  439.319  391.505   76.807    8.656
  439.569  382.650   70.859   10.316
  439.819  356.374   66.612   13.854
  440.069  328.208   67.183   17.150
  440.319  298.720   63.335   19.193
  440.569  305.998   60.800   17.097
  440.819  336.291   64.178   14.355
  441.069  351.931   69.609   12.642
  441.319  347.382   74.440   12.323
  441.569  291.681   69.874   12.732
  441.819  280.700   64.809   13.240
  442.069  307.594   67.476   12.739
  442.319  344.135   72.377   11.027
  442.569  351.018   76.003    9.375
  442.819  351.781   76.726    8.269
  443.069  354.525   75.783    8.293
  443.319  352.549   72.911    9.751
  443.569  336.729   69.641   10.724
  443.819  304.685   69.106   11.738
  444.069  289.894   70.910   11.903
  444.319  335.132   74.597   10.979
  444.569  358.377   79.779    9.893
  444.819  366.244   82.720    9.028
  445.069  361.896   78.869    8.264
  445.319  358.498   79.306    8.067
  445.569  360.333   76.450    8.030
  445.819  357.351   77.592    8.297
  446.069  356.175   83.152    8.382
  446.319  364.068   86.519    8.225
  446.569  369.717   88.124    7.905
  446.819  371.348   90.837    7.567
  447.069  368.948   87.292    7.570
  447.319  366.740   84.260    7.897
  447.569  372.069   80.632    8.245
  447.819  375.119   76.054    8.007
  448.069  370.136   77.139    7.365
  448.319  368.030   77.792    7.046
  448.569  371.590   76.747    7.090
  448.819  374.101   78.357    7.235
  449.069  374.084   80.006    7.502
  449.319  379.236   79.533    7.930
  449.569  382.781   81.270    8.399
  449.819  383.181   79.346    8.908
  450.069  387.600   75.611    8.770
  450.319  388.441   78.367    8.189
  450.569  385.529   85.817    7.688
  450.819  383.954   91.075    7.329
  451.069  385.712   89.868    8.019
  451.319  385.832   94.556    9.941
  451.569  375.807   93.313   13.399
  451.819  382.994   85.326   16.149
  452.069  385.562   73.508   21.343
