~VERSION INFORMATION
 VERS.                 2.0:   CWLS LOG ASCII STANDARD -VERSION 2.0
 WRAP.                  NO:   ONE LINE PER DEPTH STEP
~WELL INFORMATION BLOCK
#MNEM.UNIT           DATA                    DESCRIPTION OF MNEMONIC
#---------    -------------------            -------------------------------
# Generated from Intellog Unique Number	CS_77_79/WELL/958
WELL.         AMOCO CANADA PETROLEUM         : Well_name    - WELL
LOC .         00/10-22-077-09W4/0            : Location     - LOCATION
UWI .         00/10-22-077-09W4/0            : Uwi          - UNIQUE WELL ID
ENTR.         SP                             : Entered      - ENTERED BY
SRVC.         SCHLUMBERGER                   : Scn          - SERVICE COMPANY
STRT.M        158.496                        : top_depth    - START DEPTH
STOP.M        383.746                        : bot_depth    - STOP DEPTH
STEP.M        0.25                           : increment    - STEP LENGTH
 NULL. -999.2500:NULL Value
~CURVE INFORMATION BLOCK
#MNEM UNIT       ERCB CURVE CODE    CURVE DESCRIPTION
#-----------   ------------------   ----------------------------------
DEPT.M        00 001 00 00         : DEPTH        - DEPTH
GR  .API      00 310 00 00         : GR           - GAMMA RAY
DPHI.V/V      00 890 00 00         : PHID         - DENSITY POROSITY (SANDSTONE)
NPHI.V/V      00 330 00 00         : PHIN         - NEUTRON POROSITY (SANDSTONE)
ILD .OHMM     00 120 00 00         : RESD         - DEEP RESISTIVITY (DIL)
~PARAMETER INFORMATION
#MNEM.UNIT           DATA             DESCRIPTION OF MNEMONIC
#---------         -----------     ------------------------------
GL  .M        583.387              : gl           - GROUND LEVEL ELEVATION
EREF.M        586.13               : kb           - ELEVATION OF DEPTH REFERENCE
DATM.M        583.387              : datum        - DATUM ELEVATION
TDD .M        393.192              : tdd          - TOTAL DEPTH DRILLER
RUN .         ONE                  : Run          - RUN NUMBER
ENG .         BILL                 : Engineer     - RECORDING ENGINEER
WIT .         JIM                  : Witness      - WITNESSED BY
MUD .         GEL                  : Mud_type     - MUD TYPE
MATR.         SANDSTONE            : Logunit      - NEUTRON MATRIX
TMAX.C        17.7778              : BHT          - MAXIMUM RECORDED TEMPERATURE
BHTD.M        393.192              : BHTDEP       - MAXIMUM RECORDED TEMPERATURE
MATR.         1                    : LOGUNIT      - NEUTRON MATRIX
RMT .C        25                   : MDTP         - TEMPERATURE OF MUD
NEUT.         1                    : NEUTRON      - NEUTRON TYPE
RESI.         0                    : RESIST       - RESISTIVITY TYPE
RMC .OHMM     0.25                 : RMC          - RESISTIVITY OF MUD CAKE
RMF .OHMM     0.25                 : RMF          - RESISTIVITY OF MUD FILTRATE
SUFT.C        15                   : SUFT         - SURFACE TEMPERATURE
~A  DEPTH       GR     PHID     PHIN     RESD
  158.496  112.486    0.297    0.584    2.641
  158.746  111.349    0.286    0.574    2.675
  158.996  109.349    0.271    0.570    2.686
  159.246  109.982    0.278    0.579    2.739
  159.496  111.265    0.296    0.561    2.769
  159.746  112.392    0.306    0.567    2.789
  159.996  111.956    0.281    0.567    2.840
  160.246  108.305    0.281    0.571    2.875
  160.496  106.901    0.278    0.591    2.842
  160.746  107.346    0.278    0.600    2.842
  160.996  108.358    0.273    0.579    2.901
  161.246  108.650    0.265    0.587    2.955
  161.496  110.352    0.269    0.579    2.994
  161.746  112.999    0.264    0.571    3.017
  161.996  114.492    0.244    0.560    3.178
  162.246  115.507    0.225    0.543    3.303
  162.496  115.780    0.234    0.531    3.603
  162.746  113.045    0.250    0.515    3.881
  162.996  109.757    0.240    0.517    4.208
  163.246  110.391    0.240    0.511    4.439
  163.496  112.447    0.244    0.517    4.518
  163.746  114.241    0.239    0.528    4.358
  163.996  115.493    0.237    0.543    4.188
  164.246  113.073    0.247    0.557    4.057
  164.496  112.752    0.240    0.538    4.046
  164.746  113.673    0.227    0.522    4.045
  164.996  113.744    0.236    0.520    4.098
  165.246  113.475    0.232    0.520    4.136
  165.496  115.306    0.240    0.510    4.270
  165.746  118.563    0.235    0.511    4.360
  165.996  120.770    0.228    0.525    4.343
  166.246  120.111    0.230    0.531    4.282
  166.496  117.890    0.235    0.508    4.201
  166.746  112.565    0.225    0.527    4.121
  166.996  108.103    0.229    0.540    4.127
  167.246  104.822    0.240    0.551    4.109
  167.496  100.151    0.219    0.531    4.371
  167.746   95.126    0.202    0.499    4.552
  167.996   99.792    0.185    0.436    4.852
  168.246  108.434    0.158    0.462    4.963
  168.496  110.642    0.197    0.478    4.908
  168.746  104.713    0.204    0.504    4.884
  168.996   98.725    0.174    0.492    5.213
  169.246   93.453    0.156    0.456    5.699
  169.496   87.620    0.186    0.436    6.578
  169.746   97.259    0.264    0.440    8.150
  169.996  100.838    0.255    0.448    9.437
  170.246  103.703    0.258    0.457   10.409
  170.496  105.597    0.271    0.474   11.656
  170.746  108.263    0.278    0.445   11.764
  170.996  109.486    0.254    0.421   11.547
  171.246  105.489    0.246    0.432   11.418
  171.496  100.712    0.220    0.450   12.374
  171.746   88.094    0.238    0.470   13.105
  171.996   67.712    0.280    0.459   15.124
  172.246   59.437    0.304    0.420   16.874
  172.496   58.055    0.324    0.423   18.680
  172.746   59.726    0.331    0.433   23.254
  172.996   59.885    0.331    0.437   28.410
  173.246   59.895    0.327    0.443   32.194
  173.496   58.785    0.324    0.450   32.315
  173.746   56.765    0.328    0.443   31.657
  173.996   57.409    0.335    0.433   29.685
  174.246   59.505    0.336    0.419   29.208
  174.496   62.100    0.322    0.421   27.921
  174.746   64.714    0.322    0.426   26.727
  174.996   67.643    0.314    0.433   26.346
  175.246   68.593    0.292    0.438   25.945
  175.496   65.860    0.241    0.433   25.883
  175.746   60.897    0.200    0.414   27.147
  175.996   58.037    0.119    0.364   28.423
  176.246   55.388    0.124    0.396   28.502
  176.496   58.845    0.161    0.423   27.900
  176.746   65.563    0.246    0.433   27.088
  176.996   67.967    0.308    0.437   26.295
  177.246   68.986    0.318    0.434   25.523
  177.496   70.029    0.296    0.430   25.536
  177.746   73.918    0.288    0.434   25.504
  177.996   76.620    0.298    0.441   26.002
  178.246   78.957    0.304    0.449   26.314
  178.496   80.342    0.308    0.456   26.597
  178.746   77.546    0.318    0.452   26.980
  178.996   79.061    0.325    0.441   27.508
  179.246   85.290    0.321    0.439   28.056
  179.496   88.678    0.326    0.438   28.069
  179.746   91.966    0.322    0.444   27.504
  179.996   96.918    0.325    0.451   26.988
  180.246  101.910    0.319    0.454   26.188
  180.496  105.432    0.319    0.444   25.269
  180.746  108.533    0.304    0.435   24.233
  180.996  111.929    0.300    0.441   23.042
  181.246  113.320    0.294    0.445   22.289
  181.496  115.443    0.284    0.442   21.722
  181.746  118.390    0.275    0.447   21.114
  181.996  120.481    0.277    0.452   20.557
  182.246  118.274    0.281    0.465   20.241
  182.496  115.808    0.281    0.471   20.033
  182.746  115.746    0.281    0.468   19.823
  182.996  120.859    0.277    0.466   18.996
  183.246  123.349    0.284    0.457   17.591
  183.496  127.372    0.255    0.441   17.133
  183.746  128.379    0.238    0.436   16.437
  183.996  127.803    0.226    0.450   15.448
  184.246  123.838    0.230    0.465   14.834
  184.496  116.837    0.219    0.458   13.694
  184.746  113.456    0.232    0.469   12.940
  184.996  116.130    0.240    0.468   11.793
  185.246  121.116    0.236    0.482   10.471
  185.496  123.781    0.226    0.515    9.083
  185.746  123.468    0.215    0.552    7.583
  185.996  118.691    0.193    0.553    6.286
  186.246  117.632    0.165    0.560    4.982
  186.496  119.871    0.261    0.578    4.264
  186.746  112.490    0.272    0.554    4.048
  186.996   93.054    0.288    0.466    4.350
  187.246   72.879    0.296    0.415    5.184
  187.496   68.977    0.303    0.423    7.186
  187.746   67.692    0.293    0.430   13.397
  187.996   61.322    0.313    0.411   22.167
  188.246   58.117    0.323    0.401   29.433
  188.496   56.681    0.319    0.399   33.064
  188.746   55.604    0.315    0.396   35.286
  188.996   56.072    0.327    0.398   35.023
  189.246   56.422    0.325    0.410   33.075
  189.496   60.750    0.316    0.420   29.513
  189.746   66.663    0.304    0.426   26.216
  189.996   67.471    0.313    0.416   24.561
  190.246   70.315    0.329    0.426   22.961
  190.496   73.611    0.321    0.425   22.297
  190.746   76.233    0.319    0.424   22.110
  190.996   78.378    0.314    0.428   22.295
  191.246   80.648    0.285    0.434   21.936
  191.496   83.498    0.294    0.429   21.085
  191.746   90.179    0.298    0.410   20.292
  191.996   94.737    0.279    0.424   19.713
  192.246  100.992    0.264    0.425   18.611
  192.496  103.332    0.253    0.437   17.552
  192.746  105.571    0.258    0.447   16.626
  192.996  110.143    0.272    0.456   15.183
  193.246  116.910    0.260    0.465   13.602
  193.496  126.266    0.227    0.478   11.947
  193.746  135.758    0.219    0.508   10.354
  193.996  140.064    0.220    0.528    9.313
  194.246  137.338    0.202    0.535    8.419
  194.496  136.986    0.177    0.528    7.621
  194.746  136.886    0.161    0.513    6.731
  194.996  138.983    0.184    0.491    6.409
  195.246  138.193    0.177    0.492    6.568
  195.496  141.901    0.202    0.475    6.840
  195.746  140.139    0.235    0.465    7.632
  195.996  128.258    0.244    0.452    9.344
  196.246  126.344    0.266    0.455   11.005
  196.496  124.704    0.278    0.452   12.982
  196.746  121.932    0.291    0.437   15.495
  196.996  117.997    0.283    0.431   17.014
  197.246  115.233    0.251    0.442   17.689
  197.496  116.881    0.239    0.451   17.104
  197.746  119.646    0.246    0.462   15.458
  197.996  119.287    0.250    0.455   14.322
  198.246  117.120    0.254    0.441   13.229
  198.496  117.036    0.258    0.426   13.310
  198.746  112.403    0.266    0.432   13.455
  198.996  104.041    0.250    0.442   14.151
  199.246   91.648    0.274    0.435   14.724
  199.496   81.573    0.291    0.418   16.156
  199.746   70.282    0.297    0.414   18.221
  199.996   64.443    0.319    0.426   20.456
  200.246   62.995    0.321    0.428   22.768
  200.496   68.805    0.320    0.425   25.777
  200.746   74.279    0.314    0.420   27.747
  200.996   79.364    0.303    0.431   30.530
  201.246   86.669    0.288    0.423   30.344
  201.496   93.189    0.272    0.408   30.035
  201.746   99.518    0.250    0.399   28.335
