~VERSION INFORMATION
 VERS.                 2.0:   CWLS LOG ASCII STANDARD -VERSION 2.0
 WRAP.                  NO:   ONE LINE PER DEPTH STEP
~WELL INFORMATION BLOCK
#MNEM.UNIT           DATA                    DESCRIPTION OF MNEMONIC
#---------    -------------------            -------------------------------
# Generated from Intellog Unique Number	CN_94_101/WELL/3811
WELL.         11-09-096-17W4                 : Well_name    - WELL
LOC .         00/11-09-096-17W4/0            : Location     - LOCATION
UWI .         00/11-09-096-17W400            : Uwi          - UNIQUE WELL ID
ENTR.         T                              : Entered      - ENTERED BY
SRVC.         SCHLUMBERGER                   : Scn          - SERVICE COMPANY
DATE.         07/31/92                       : Date         - LOG DATE
STRT.M        300                            : top_depth    - START DEPTH
STOP.M        475                            : bot_depth    - STOP DEPTH
STEP.M        0.25                           : increment    - STEP LENGTH
 NULL. -999.2500:NULL Value
~CURVE INFORMATION BLOCK
#MNEM UNIT       ERCB CURVE CODE    CURVE DESCRIPTION
#-----------   ------------------   ----------------------------------
DEPT.M        00 001 00 00         : DEPTH        - DEPTH
GR  .API      00 310 00 00         : GR           - GAMMA RAY
CALI.MM       00 280 01 00         : CAL          - CALIPER
NPHI.V/V      00 330 00 00         : PHIN         - NEUTRON POROSITY (SANDSTONE)
DPHI.V/V      00 890 00 00         : PHID         - DENSITY POROSITY (SANDSTONE)
ILD .OHMM     00 120 00 00         : RESD         - DEEP RESISTIVITY (DIL)
~PARAMETER INFORMATION
#MNEM.UNIT           DATA             DESCRIPTION OF MNEMONIC
#---------         -----------     ------------------------------
GL  .M        743                  : gl           - GROUND LEVEL ELEVATION
EREF.M        747.4                : kb           - ELEVATION OF DEPTH REFERENCE
DATM.M        747.4                : datum        - DATUM ELEVATION
TDD .M        482                  : tdd          - TOTAL DEPTH DRILLER
RUN .         0.000000             : Run          - RUN NUMBER
MUD .         GEL                  : Mud_type     - MUD TYPE
MATR.         SANDSTONE            : Logunit      - NEUTRON MATRIX
TMAX.C        0                    : BHT          - MAXIMUM RECORDED TEMPERATURE
BHTD.M        103.632              : BHTDEP       - MAXIMUM RECORDED TEMPERATURE
RMT .C        -1.11111             : MDTP         - TEMPERATURE OF MUD
MUDD.KG/M     8900                 : MWT          - MUD DENSITY
NEUT.         1                    : NEUTRON      - NEUTRON TYPE
RESI.         0                    : RESIST       - RESISTIVITY TYPE
RM  .OHMM     3.69                 : RM           - RESISTIVITY OF MUD
RMC .OHMM     3.69                 : RMC          - RESISTIVITY OF MUD CAKE
RMF .OHMM     0                    : RMF          - RESISTIVITY OF MUD FILTRATE
SUFT.C        -15                  : SUFT         - SURFACE TEMPERATURE
BTZC.MM       0                    : BITZC        - BIT SIZE CONSTANT
MDW .KG/M     0                    : MDW          - MUD WEIGHT
~A  DEPTH       GR      CAL     PHIN     PHID     RESD
# ...
  409.500  115.823  158.266    0.469    0.209   11.220
  409.750  115.190  158.266    0.455    0.229   11.220
  410.000  114.557  158.266    0.442    0.241   11.465
  410.250  113.924  157.258    0.432    0.245   11.971
  410.500  111.392  157.258    0.427    0.242   11.971
  410.750  110.127  157.258    0.421    0.216   12.772
  411.000  110.127  157.258    0.439    0.209   12.232
  411.250  109.958  157.258    0.442    0.195   11.971
  411.500  108.051  157.258    0.417    0.178   11.715
  411.750  102.331  157.258    0.320    0.116   13.050
  412.000   97.246  157.258    0.339    0.142   13.626
  412.250  101.695  157.258    0.377    0.222   13.335
  412.500  104.237  157.258    0.429    0.232   12.772
  412.750  106.780  157.258    0.420    0.237   12.499
  413.000  109.958  157.258    0.426    0.239   12.232
  413.250  111.392  156.250    0.430    0.242   11.971
  413.500  109.494  156.250    0.416    0.228   11.715
  413.750  108.228  156.250    0.412    0.209   11.465
  414.000  111.392  156.250    0.411    0.203   11.220
  414.250  117.089  156.250    0.415    0.200   11.465
  414.500  120.253  156.250    0.432    0.197   11.465
  414.750  120.886  156.250    0.444    0.204   11.465
  415.000  120.886  156.250    0.466    0.209   11.465
  415.250  120.253  156.250    0.449    0.218   11.465
  415.500  117.722  156.250    0.434    0.222   11.465
  415.750  114.557  156.250    0.441    0.213   11.465
  416.000  114.557  155.242    0.441    0.203   11.465
  416.250  116.456  155.242    0.437    0.192   11.465
  416.500  119.620  155.242    0.468    0.193   11.220
  416.750  122.152  155.242    0.494    0.189   11.220
  417.000  124.684  155.242    0.447    0.169   11.220
  417.250  120.253  155.242    0.383    0.134   11.220
  417.500  105.063  155.242    0.352    0.159   11.220
  417.750   92.405  155.242    0.381    0.208   11.220
  418.000   95.570  155.242    0.379    0.169   11.220
  418.250   90.506  155.242    0.252    0.147   11.220
  418.500   71.519  155.242    0.200    0.087   11.220
  418.750   38.608  154.234    0.169    0.018   11.465
  419.000   37.975  154.234    0.179    0.020   11.465
  419.250   37.975  154.234    0.245    0.088   10.981
  419.500   51.266  154.234    0.304    0.155   10.517
  419.750   69.620  154.234    0.366    0.190   10.292
  420.000  104.430  154.234    0.435    0.217    9.042
  420.250  114.557  153.226    0.512    0.224    6.131
  420.500  122.152  155.242    0.509    0.229    4.247
  420.750  125.316  161.290    0.498    0.193    4.157
  421.000  122.785  161.290    0.474    0.179    4.340
  421.250  118.987  163.306    0.402    0.178    4.532
  421.500  115.336  163.306    0.403    0.192    4.630
  421.750  109.034  156.250    0.406    0.185    5.158
  422.000  107.143  154.234    0.384    0.176    6.978
  422.250  105.252  154.234    0.347    0.134   10.292
  422.500  100.840  154.234    0.310    0.092   10.981
  422.750   97.059  154.234    0.406    0.134   12.232
  423.000  101.471  154.234    0.420    0.164   13.050
  423.250  107.773  154.234    0.439    0.189   12.232
  423.500  115.336  154.234    0.453    0.193   11.220
  423.750  110.127  154.234    0.418    0.174   10.517
  424.000   93.671  154.234    0.335    0.153   10.517
  424.250   91.139  154.234    0.344    0.170   10.981
  424.500  103.165  154.234    0.412    0.188   11.715
  424.750  116.456  154.234    0.415    0.195   12.232
  425.000  118.987  154.234    0.391    0.176   12.499
  425.250  118.354  154.234    0.354    0.140   12.499
  425.500  115.190  154.234    0.359    0.124   12.499
  425.750  113.445  154.234    0.397    0.145   12.772
  426.000  112.815  154.234    0.436    0.197   12.772
  426.250  111.555  154.234    0.427    0.202   13.050
  426.500  112.185  154.234    0.406    0.195   13.050
  426.750  113.445  154.234    0.383    0.175   13.050
  427.000  109.034  154.234    0.296    0.101   13.335
  427.250  105.252  154.234    0.299    0.097   13.335
  427.500  106.513  154.234    0.326    0.132   13.626
  427.750  113.445  154.234    0.371    0.198   13.626
  428.000  117.857  154.234    0.427    0.200   14.538
  428.250  119.118  154.234    0.425    0.199   12.772
  428.500  121.639  154.234    0.421    0.194   12.772
  428.750  119.118  154.234    0.413    0.192   12.772
  429.000  115.336  154.234    0.412    0.188   12.499
  429.250  117.857  154.234    0.417    0.193   12.232
  429.500  121.639  154.234    0.417    0.198   12.499
  429.750  123.529  154.234    0.422    0.192   12.499
  430.000  126.050  154.234    0.429    0.176   12.772
  430.250  124.790  154.234    0.429    0.166   12.772
  430.500  122.269  154.234    0.434    0.151   13.335
  430.750  122.269  154.234    0.437    0.149   14.227
  431.000  117.857  154.234    0.418    0.141   14.538
  431.250  113.445  154.234    0.384    0.124   15.849
  431.500  109.034  154.234    0.374    0.131   16.909
  431.750  106.513  154.234    0.398    0.170   17.655
  432.000  106.513  154.234    0.421    0.190   18.836
  432.250  112.185  154.234    0.431    0.185   18.836
  432.500  119.748  154.234    0.436    0.183   18.041
  432.750  119.118  154.234    0.416    0.160   17.655
  433.000  111.555  154.234    0.308    0.127   16.909
  433.250  102.101  154.234    0.325    0.178   15.849
  433.500  102.101  154.234    0.387    0.214   17.655
  433.750  103.992  154.234    0.395    0.233   17.278
  434.000  105.882  154.234    0.407    0.234   16.909
  434.250  103.992  154.234    0.412    0.233   16.909
  434.500  102.101  154.234    0.415    0.216   15.510
  434.750  102.101  154.234    0.277    0.175   15.510
  435.000   96.203  154.234    0.238    0.107   17.655
  435.250   79.747  154.234    0.194    0.042   21.909
  435.500   77.848  154.234    0.185    0.004   26.607
  435.750   77.848  155.242    0.176    0.000   34.475
  436.000   77.215  155.242    0.175    0.001   42.781
  436.250   79.412  155.242    0.208    0.074   55.431
  436.500   86.975  155.242    0.260    0.139   50.845
  436.750   98.319  155.242    0.402    0.175   28.387
  437.000  102.731  155.242    0.422    0.198   19.668
  437.250  106.513  155.242    0.454    0.195   15.510
  437.500  108.403  155.242    0.456    0.189   12.232
  437.750  105.882  155.242    0.463    0.179    9.239
  438.000  106.513  155.242    0.473    0.171    8.849
  438.250  112.815  155.242    0.497    0.176    8.660
  438.500  120.378  155.242    0.483    0.176    8.294
  438.750  124.160  155.242    0.488    0.171    8.117
  439.000  126.681  155.242    0.504    0.165    7.943
  439.250  127.941  155.242    0.504    0.161    7.286
  439.500  125.420  155.242    0.485    0.163    6.541
  439.750  121.639  156.250    0.482    0.170    5.746
  440.000  121.519  156.250    0.484    0.175    5.623
  440.250  122.152  156.250    0.476    0.173    5.872
  440.500  122.152  156.250    0.466    0.169    6.401
  440.750  122.152  156.250    0.474    0.175    5.872
  441.000  122.785  156.250    0.471    0.180    6.401
  441.250  121.519  156.250    0.439    0.161    6.978
  441.500  119.620  156.250    0.431    0.125    6.978
  441.750  120.886  156.250    0.444    0.130    6.978
  442.000  125.949  156.250    0.459    0.163    6.978
  442.250  128.481  155.242    0.470    0.168    6.978
  442.500  127.941  151.210    0.441    0.155    6.978
  442.750  118.487  148.185    0.401    0.142    6.978
  443.000  114.706  147.177    0.429    0.163    6.829
  443.250  120.378  145.161    0.463    0.182    6.541
  443.500  126.050  145.161    0.482    0.175    6.401
  443.750  125.420  149.194    0.485    0.165    6.131
  444.000  122.269  153.226    0.475    0.150    6.131
  444.250  123.529  154.234    0.473    0.155    6.000
  444.500  126.050  155.242    0.478    0.160    6.000
  444.750  129.202  155.242    0.479    0.165    6.131
  445.000  129.747  156.250    0.476    0.153    6.131
  445.250  126.582  155.242    0.463    0.130    6.131
  445.500  125.949  155.242    0.459    0.147    6.541
  445.750  125.316  155.242    0.460    0.156    6.683
