~VERSION INFORMATION
 VERS.                 2.0:   CWLS LOG ASCII STANDARD -VERSION 2.0
 WRAP.                  NO:   ONE LINE PER DEPTH STEP
~WELL INFORMATION BLOCK
#MNEM.UNIT           DATA                    DESCRIPTION OF MNEMONIC
#---------    -------------------            -------------------------------
# Generated from Intellog Unique Number	CS_77_79/WELL/988
WELL.         HOME OIL COMPANY               : Well_name    - WELL
LOC .         00/11-06-077-07W4/0            : Location     - LOCATION
UWI .         00/11-06-077-07W4/0            : Uwi          - UNIQUE WELL ID
ENTR.         SP                             : Entered      - ENTERED BY
SRVC.         SCHLUMBERGER                   : Scn          - SERVICE COMPANY
STRT.M        145                            : top_depth    - START DEPTH
STOP.M        380                            : bot_depth    - STOP DEPTH
STEP.M        0.25                           : increment    - STEP LENGTH
 NULL. -999.2500:NULL Value
~CURVE INFORMATION BLOCK
#MNEM UNIT       ERCB CURVE CODE    CURVE DESCRIPTION
#-----------   ------------------   ----------------------------------
DEPT.M        00 001 00 00         : DEPTH        - DEPTH
ILD .OHMM     00 120 00 00         : RESD         - DEEP RESISTIVITY (DIL)
DPHI.V/V      00 890 00 00         : PHID         - DENSITY POROSITY (LIMESTONE)
NPHI.V/V      00 330 00 00         : PHIN         - NEUTRON POROSITY (LIMESTONE)
GR  .API      00 310 00 00         : GR           - GAMMA RAY
~PARAMETER INFORMATION
#MNEM.UNIT           DATA             DESCRIPTION OF MNEMONIC
#---------         -----------     ------------------------------
GL  .M        571.96               : gl           - GROUND LEVEL ELEVATION
EREF.M        575.65               : kb           - ELEVATION OF DEPTH REFERENCE
DATM.M        571.96               : datum        - DATUM ELEVATION
TDD .M        390.3                : tdd          - TOTAL DEPTH DRILLER
RUN .         ONE                  : Run          - RUN NUMBER
ENG .         BILL                 : Engineer     - RECORDING ENGINEER
WIT .         JIM                  : Witness      - WITNESSED BY
MUD .         GEL                  : Mud_type     - MUD TYPE
MATR.         LIMESTONE            : Logunit      - NEUTRON MATRIX
TMAX.C        28                   : BHT          - MAXIMUM RECORDED TEMPERATURE
BHTD.M        390.3                : BHTDEP       - MAXIMUM RECORDED TEMPERATURE
MATR.         0                    : LOGUNIT      - NEUTRON MATRIX
RMT .C        25                   : MDTP         - TEMPERATURE OF MUD
NEUT.         1                    : NEUTRON      - NEUTRON TYPE
RESI.         0                    : RESIST       - RESISTIVITY TYPE
RMC .OHMM     0.25                 : RMC          - RESISTIVITY OF MUD CAKE
RMF .OHMM     0.25                 : RMF          - RESISTIVITY OF MUD FILTRATE
SUFT.C        15                   : SUFT         - SURFACE TEMPERATURE
~A  DEPTH     RESD     PHID     PHIN       GR
# ...
  232.000    5.452    0.214    0.411  105.259
  232.250    4.528    0.210    0.428  105.254
  232.500    4.204    0.217    0.447  110.692
  232.750    3.903    0.221    0.423  112.501
  233.000    3.557    0.225    0.463  105.238
  233.250    3.492    0.229    0.497  104.628
  233.500    3.763    0.230    0.517  108.252
  233.750    3.907    0.245    0.543  112.481
  234.000    4.289    0.247    0.501  116.105
  234.250    4.537    0.230    0.461  118.518
  234.500    4.623    0.241    0.491  111.256
  234.750    4.373    0.255    0.541  108.831
  235.000    4.061    0.266    0.600  106.407
  235.250    3.987    0.245    0.534  104.587
  235.500    4.063    0.244    0.541  105.187
  235.750    4.064    0.254    0.590  106.997
  236.000    4.066    0.256    0.593  108.806
  236.250    3.991    0.239    0.546  105.171
  236.500    3.919    0.244    0.557  102.748
  236.750    3.777    0.248    0.544  104.556
  237.000    3.640    0.237    0.463  108.785
  237.250    3.508    0.235    0.496  113.618
  237.500    3.443    0.233    0.528  114.217
  237.750    3.444    0.235    0.538  113.609
  238.000    3.445    0.235    0.550  114.811
  238.250    3.447    0.226    0.565  113.598
  238.500    3.447    0.225    0.592  107.544
  238.750    3.385    0.217    0.618  111.772
  239.000    3.323    0.217    0.564  112.372
  239.250    3.263    0.220    0.571  111.762
  239.500    3.325    0.229    0.577  113.572
  239.750    3.388    0.234    0.531  109.333
  240.000    3.453    0.243    0.567  106.909
  240.250    3.653    0.253    0.631  110.533
  240.500    3.792    0.259    0.703  111.736
  240.750    4.163    0.247    0.675  109.918
  241.000    4.322    0.237    0.617  102.654
  241.250    4.404    0.231    0.583  100.230
  241.500    4.489    0.238    0.506   99.620
  241.750    4.490    0.241    0.492   99.613
  242.000    4.408    0.242    0.547   99.004
  242.250    4.493    0.241    0.548   97.790
  242.500    4.493    0.241    0.504   98.390
  242.750    4.495    0.239    0.524   99.594
  243.000    4.496    0.238    0.553  100.193
  243.250    4.333    0.241    0.567  102.003
  243.500    4.175    0.248    0.569  103.207
  243.750    4.099    0.259    0.503  103.808
  244.000    4.759    0.260    0.536   98.963
  244.250    5.629    0.280    0.582   91.701
  244.500    6.296    0.292    0.605   78.995
  244.750    7.874    0.296    0.630   72.337
  245.000    8.808    0.322    0.494   71.727
  245.250    9.493    0.329    0.516   73.537
  245.500    9.674    0.332    0.508   71.717
  245.750    9.676    0.338    0.482   69.897
  246.000    9.679    0.344    0.464   69.287
  246.250    9.681    0.338    0.488   68.676
  246.500    9.683    0.332    0.503   68.671
  246.750   10.054    0.331    0.526   69.271
  247.000   10.245    0.326    0.518   69.871
  247.250   10.247    0.334    0.503   68.052
  247.500   10.250    0.351    0.481   65.021
  247.750   10.446    0.346    0.440   65.018
  248.000   10.448    0.347    0.429   69.245
  248.250   10.453    0.338    0.440   70.450
  248.500   10.456    0.345    0.453   68.630
  248.750   10.655    0.356    0.480   67.416
  249.000   10.658    0.367    0.498   67.411
  249.250   10.861    0.354    0.490   66.196
  249.500   11.068    0.341    0.484   66.796
  249.750   11.070    0.347    0.507   63.766
  250.000   11.073    0.343    0.528   64.972
  250.250   11.076    0.341    0.497   63.757
  250.500   10.874    0.348    0.465   60.728
  250.750   10.678    0.339    0.436   60.722
  251.000   10.682    0.322    0.436   63.136
  251.250   10.684    0.326    0.439   67.362
  251.500   10.687    0.331    0.469   69.173
  251.750   10.493    0.318    0.506   70.379
  252.000   10.496    0.305    0.508   68.559
  252.250   10.498    0.311    0.513   65.529
  252.500   10.501    0.324    0.505   64.919
  252.750   10.504    0.326    0.464   66.123
  253.000   10.507    0.325    0.437   66.724
  253.250   10.315    0.324    0.431   66.114
  253.500   10.318    0.327    0.458   64.899
  253.750   10.321    0.334    0.455   64.893
  254.000   10.133    0.342    0.441   66.098
  254.250   10.135    0.340    0.459   67.906
  254.500   10.139    0.340    0.479   68.507
  254.750    9.954    0.349    0.489   69.107
  255.000    9.956    0.363    0.507   66.682
  255.250    9.418    0.378    0.529   68.491
  255.500    8.744    0.308    0.602   73.326
  255.750    8.119    0.267    0.522   81.183
  256.000    7.680    0.252    0.507   90.855
  256.250    7.402    0.249    0.472   94.478
  256.500    7.267    0.247    0.440   93.868
  256.750    7.003    0.251    0.466   98.701
  257.000    6.876    0.260    0.469  101.116
  257.250    6.626    0.267    0.467   96.876
  257.500    6.386    0.256    0.454   93.243
  257.750    6.270    0.244    0.438   96.866
  258.000    6.043    0.237    0.441  101.700
  258.250    5.823    0.232    0.445  102.905
  258.500    5.612    0.240    0.432  104.108
  258.750    5.408    0.230    0.421  101.079
  259.000    5.021    0.228    0.434   99.259
  259.250    4.492    0.235    0.456   99.859
  259.500    4.018    0.227    0.456  100.459
  259.750    3.731    0.229    0.450  102.268
  260.000    3.400    0.255    0.524  102.263
  260.250    3.041    0.268    0.571   99.234
  260.500    2.772    0.272    0.618   99.229
  260.750    2.574    0.294    0.648   98.014
  261.000    2.574    0.284    0.651   99.218
  261.250    2.623    0.284    0.637  100.423
  261.500    2.723    0.275    0.666   99.208
  261.750    3.103    0.267    0.664   94.365
  262.000    3.671    0.259    0.728   93.150
  262.250    4.591    0.260    0.704   96.773
  262.500    5.743    0.260    0.642   99.792
  262.750    6.792    0.255    0.629   99.788
  263.000    7.884    0.269    0.588   95.549
  263.250   10.047    0.295    0.537   95.544
  263.500   11.029    0.336    0.490   87.071
  263.750   13.540    0.369    0.276   82.228
  264.000   16.316    0.384    0.300   81.013
  264.250   19.661    0.371    0.337   82.216
  264.500   21.990    0.343    0.381   84.027
  264.750   24.141    0.375    0.341   85.231
  265.000   27.003    0.398    0.295   85.830
  265.250   30.203    0.413    0.255   87.034
  265.500   31.356    0.410    0.269   88.240
  265.750   31.956    0.365    0.259   82.791
  266.000   30.799    0.389    0.248   77.948
  266.250   30.237    0.416    0.277   73.104
  266.500   29.688    0.427    0.294   73.099
  266.750   29.693    0.419    0.313   72.489
  267.000   31.411    0.417    0.332   70.668
  267.250   32.608    0.404    0.326   69.454
  267.500   37.860    0.393    0.313   68.240
  267.750   39.303    0.389    0.305   65.815
  268.000   42.353    0.380    0.319   63.996
  268.250   43.166    0.371    0.320   63.386
  268.500   42.376    0.369    0.309   65.194
  268.750   40.085    0.361    0.293   66.398
  269.000   35.858    0.354    0.288   67.602
  269.250   33.295    0.359    0.301   67.598
  269.500   32.090    0.364    0.321   66.989
  269.750   31.504    0.374    0.326   66.379
  270.000   30.361    0.373    0.330   66.373
  270.250   29.808    0.357    0.336   67.577
  270.500   29.268    0.360    0.343   68.781
  270.750   28.732    0.375    0.375   69.380
  271.000   26.678    0.381    0.368   69.377
  271.250   24.770    0.380    0.334   68.767
  271.500   22.998    0.364    0.349   67.552
  271.750   18.745    0.364    0.331   63.919
  272.000   15.856    0.371    0.326   61.495
  272.250   11.996    0.376    0.320   66.327
  272.500   10.731    0.374    0.324   67.532
  272.750    9.249    0.362    0.347   64.503
  273.000    8.274    0.348    0.413   66.310
  273.250    7.973    0.326    0.439   66.910
  273.500    7.683    0.329    0.414   64.487
  273.750    7.544    0.340    0.459   65.086
  274.000    7.407    0.341    0.473   66.292
  274.250    7.272    0.343    0.487   66.891
  274.500    7.274    0.342    0.468   67.491
  274.750    7.276    0.341    0.442   68.089
  275.000    7.278    0.340    0.440   66.271
  275.250    7.280    0.336    0.459   63.847
