~VERSION INFORMATION
 VERS.                 2.0:   CWLS LOG ASCII STANDARD -VERSION 2.0
 WRAP.                  NO:   ONE LINE PER DEPTH STEP
~WELL INFORMATION BLOCK
#MNEM.UNIT           DATA                    DESCRIPTION OF MNEMONIC
#---------    -------------------            -------------------------------
# Generated from Intellog Unique Number	CS_73_76/WELL/3272
WELL.         TOTAL PETROLEUM (N.A.) LTD     : Well_name    - WELL
LOC .         00/12-14-075-08W4/0            : Location     - LOCATION
UWI .         00/12-14-075-08W4/0            : Uwi          - UNIQUE WELL ID
ENTR.         SP                             : Entered      - ENTERED BY
SRVC.         SCHLUMBERGER                   : Scn          - SERVICE COMPANY
STRT.M        250                            : top_depth    - START DEPTH
STOP.M        495                            : bot_depth    - STOP DEPTH
STEP.M        0.25                           : increment    - STEP LENGTH
 NULL. -999.2500:NULL Value
~CURVE INFORMATION BLOCK
#MNEM UNIT       ERCB CURVE CODE    CURVE DESCRIPTION
#-----------   ------------------   ----------------------------------
DEPT.M        00 001 00 00         : DEPTH        - DEPTH
ILD .OHMM     00 120 00 00         : RESD         - DEEP RESISTIVITY (DIL)
DPHI.V/V      00 890 00 00         : PHID         - DENSITY POROSITY (LIMESTONE)
NPHI.V/V      00 330 00 00         : PHIN         - NEUTRON POROSITY (LIMESTONE)
GR  .API      00 310 00 00         : GR           - GAMMA RAY
~PARAMETER INFORMATION
#MNEM.UNIT           DATA             DESCRIPTION OF MNEMONIC
#---------         -----------     ------------------------------
GL  .M        668.17               : gl           - GROUND LEVEL ELEVATION
EREF.M        671.17               : kb           - ELEVATION OF DEPTH REFERENCE
DATM.M        668.17               : datum        - DATUM ELEVATION
TDD .M        504                  : tdd          - TOTAL DEPTH DRILLER
RUN .         ONE                  : Run          - RUN NUMBER
ENG .         BILL                 : Engineer     - RECORDING ENGINEER
WIT .         JIM                  : Witness      - WITNESSED BY
MUD .         GEL                  : Mud_type     - MUD TYPE
MATR.         LIMESTONE            : Logunit      - NEUTRON MATRIX
TMAX.C        23.5                 : BHT          - MAXIMUM RECORDED TEMPERATURE
BHTD.M        504                  : BHTDEP       - MAXIMUM RECORDED TEMPERATURE
MATR.         1                    : LOGUNIT      - NEUTRON MATRIX
RMT .C        25                   : MDTP         - TEMPERATURE OF MUD
NEUT.         1                    : NEUTRON      - NEUTRON TYPE
RESI.         0                    : RESIST       - RESISTIVITY TYPE
RMC .OHMM     0.25                 : RMC          - RESISTIVITY OF MUD CAKE
RMF .OHMM     0.25                 : RMF          - RESISTIVITY OF MUD FILTRATE
SUFT.C        15                   : SUFT         - SURFACE TEMPERATURE
~A  DEPTH     RESD     PHID     PHIN       GR
  250.000   26.446    0.298    0.392   67.347
  250.250   26.451    0.286    0.400   69.186
  250.500   25.964    0.279    0.408   71.024
  250.750   25.010    0.270    0.415   67.352
  251.000   23.642    0.299    0.420   71.027
  251.250   23.646    0.255    0.407   72.865
  251.500   23.210    0.237    0.391   69.194
  251.750   22.360    0.248    0.383   66.134
  252.000   21.945    0.266    0.382   66.135
  252.250   21.139    0.282    0.392   73.484
  252.500   19.984    0.232    0.388   78.384
  252.750   19.249    0.209    0.377   78.997
  253.000   18.196    0.248    0.372   77.162
  253.250   17.527    0.232    0.372   77.163
  253.500   16.569    0.205    0.378   76.553
  253.750   15.960    0.194    0.383   74.717
  254.000   15.374    0.209    0.380   73.494
  254.250   15.376    0.227    0.371   73.496
  254.500   15.380    0.237    0.381   72.273
  254.750   15.676    0.228    0.384   75.336
  255.000   15.977    0.224    0.389   77.174
  255.250   16.284    0.213    0.383   79.013
  255.500   16.597    0.208    0.380   80.238
  255.750   17.238    0.213    0.378   75.954
  256.000   17.569    0.211    0.386   75.343
  256.250   17.906    0.209    0.398   73.509
  256.500   18.251    0.209    0.410   70.449
  256.750   18.600    0.230    0.418   70.450
  257.000   18.605    0.249    0.408   65.554
  257.250   18.261    0.261    0.356   63.106
  257.500   17.263    0.243    0.346   67.394
  257.750   16.014    0.237    0.359   73.518
  258.000   14.040    0.228    0.360   74.743
  258.250   12.544    0.219    0.373   78.419
  258.500   11.206    0.215    0.382   80.257
  258.750   10.396    0.226    0.399   84.544
  259.000   10.595    0.239    0.415   86.995
  259.250   12.794    0.246    0.429   82.710
  259.500   13.538    0.208    0.402   74.752
  259.750   16.345    0.197    0.378   70.468
  260.000   20.111    0.183    0.375   64.348
  260.250   24.742    0.195    0.346   61.900
  260.500   29.873    0.225    0.331   60.677
  260.750   34.732    0.263    0.305   64.352
  261.000   45.216    0.286    0.247   59.456
  261.250   54.592    0.282    0.235   57.620
  261.500   63.474    0.257    0.278   55.173
  261.750   73.804    0.235    0.213   52.725
  262.000   85.816    0.426    0.181   47.829
  262.250   97.924    0.446    0.149   43.545
  262.500  107.608    0.434    0.131   41.710
  262.750  113.887    0.414    0.125   43.548
  263.000  101.746    0.389    0.120   47.835
  263.250   87.540    0.371    0.180   47.836
  263.500   66.023    0.326    0.240   49.062
  263.750   52.686    0.257    0.239   53.963
  264.000   42.042    0.172    0.256   56.413
  264.250   34.837    0.180    0.293   59.475
  264.500   30.542    0.235    0.337   58.865
  264.750   28.872    0.272    0.391   53.356
  265.000   28.881    0.304    0.376   49.684
  265.250   29.435    0.279    0.365   47.849
  265.500   30.568    0.271    0.355   47.850
  265.750   31.749    0.261    0.364   51.525
  266.000   32.358    0.268    0.373   51.527
  266.250   32.366    0.275    0.370   48.467
  266.500   32.372    0.276    0.367   44.184
  266.750   32.378    0.285    0.365   42.348
  267.000   30.610    0.296    0.356   39.900
  267.250   30.042    0.283    0.350   41.126
  267.500   27.870    0.279    0.350   47.862
  267.750   25.856    0.275    0.357   55.823
  268.000   24.440    0.275    0.378   60.111
  268.250   23.102    0.286    0.403   61.336
  268.500   21.839    0.296    0.416   63.787
  268.750   19.512    0.286    0.411   67.462
  269.000   17.106    0.281    0.408   63.791
  269.250   14.175    0.278    0.395   62.567
  269.500   13.149    0.264    0.384   68.691
  269.750   12.666    0.247    0.399   76.652
  270.000   12.433    0.228    0.415   78.490
  270.250   12.913    0.216    0.384   75.431
  270.500   13.160    0.206    0.365   72.371
  270.750   13.669    0.197    0.368   71.148
  271.000   13.931    0.193    0.361   71.149
  271.250   14.468    0.188    0.344   71.151
  271.500   15.027    0.199    0.345   71.152
  271.750   15.607    0.214    0.364   69.930
  272.000   16.517    0.201    0.354   69.931
  272.250   16.833    0.192    0.359   72.381
  272.500   17.482    0.178    0.362   73.608
  272.750   17.819    0.172    0.328   71.772
  273.000   17.491    0.175    0.318   70.549
  273.250   17.169    0.186    0.311   66.265
  273.500   16.852    0.193    0.321   63.818
  273.750   16.855    0.204    0.335   66.880
  274.000   17.179    0.208    0.341   68.106
  274.250   17.842    0.208    0.350   66.271
  274.500   18.882    0.211    0.339   68.110
  274.750   19.983    0.212    0.317   69.336
  275.000   21.552    0.209    0.312   68.725
  275.250   22.381    0.200    0.316   66.277
  275.500   24.595    0.195    0.310   61.994
  275.750   27.542    0.193    0.296   58.934
  276.000   30.266    0.181    0.268   57.098
  276.250   33.261    0.146    0.241   56.487
  276.500   34.544    0.127    0.256   55.877
  276.750   33.278    0.148    0.285   53.430
  277.000   31.455    0.203    0.301   55.268
  277.250   28.103    0.242    0.308   57.106
  277.500   25.107    0.232    0.327   62.006
  277.750   22.011    0.222    0.348   66.905
  278.000   19.298    0.216    0.357   69.356
  278.250   16.919    0.205    0.354   71.194
  278.500   14.834    0.206    0.357   76.093
  278.750   13.504    0.201    0.371   75.482
  279.000   13.008    0.192    0.367   72.423
  279.250   13.011    0.201    0.371   74.261
  279.500   13.770    0.219    0.354   68.752
  279.750   14.035    0.227    0.337   64.468
  280.000   14.304    0.187    0.326   65.082
  280.250   14.578    0.170    0.339   68.757
  280.500   14.044    0.171    0.349   71.207
  280.750   13.784    0.175    0.350   68.760
  281.000   14.050    0.190    0.365   68.149
  281.250   13.790    0.206    0.379   69.987
  281.500   13.283    0.225    0.349   71.826
  281.750   12.556    0.208    0.337   73.052
  282.000   11.870    0.204    0.365   78.564
  282.250   11.650    0.217    0.383   84.075
  282.500   11.437    0.216    0.387   79.791
  282.750   11.225    0.203    0.359   75.507
  283.000   10.220    0.195    0.352   73.059
  283.250   10.030    0.194    0.383   75.510
  283.500   10.033    0.190    0.392   78.573
  283.750   10.618    0.177    0.414   80.411
  284.000   11.668    0.203    0.417   79.188
  284.250   14.089    0.247    0.403   72.455
  284.500   14.909    0.236    0.373   68.171
  284.750   16.696    0.223    0.357   66.335
  285.000   18.005    0.232    0.373   66.949
  285.250   18.008    0.260    0.409   62.053
  285.500   17.024    0.265    0.432   63.279
  285.750   16.398    0.230    0.366   68.178
  286.000   15.797    0.193    0.341   72.465
  286.250   15.504    0.171    0.324   68.794
  286.500   17.039    0.190    0.339   64.510
  286.750   17.695    0.241    0.373   60.225
  287.000   19.084    0.270    0.399   56.553
  287.250   19.450    0.302    0.400   66.963
  287.500   19.823    0.305    0.390   73.699
  287.750   19.829    0.291    0.401   70.028
  288.000   19.461    0.319    0.428   68.192
  288.250   19.466    0.350    0.477   67.581
  288.500   19.840    0.416    0.497   70.032
  288.750   20.221    0.432    0.459   74.319
  289.000   21.403    0.342    0.445   74.933
  289.250   21.812    0.327    0.441   62.077
  289.500   23.085    0.339    0.433   54.120
  289.750   24.896    0.338    0.428   50.448
  290.000   25.372    0.333    0.431   49.837
  290.250   26.353    0.317    0.421   49.226
  290.500   26.857    0.311    0.411   48.615
  290.750   25.388    0.314    0.408   49.841
  291.000   23.112    0.313    0.412   54.128
  291.250   19.887    0.314    0.421   61.477
  291.500   17.110    0.303    0.428   71.275
  291.750   14.447    0.242    0.422   79.235
  292.000   12.666    0.192    0.428   91.482
  292.250    9.919    0.170    0.448  101.279
  292.500    8.534    0.170    0.467  107.403
  292.750    7.206    0.176    0.487  111.078
  293.000    6.812    0.192    0.483  115.978
  293.250    6.202    0.203    0.504  117.204
