~VERSION INFORMATION
 VERS.                 2.0:   CWLS LOG ASCII STANDARD -VERSION 2.0
 WRAP.                  NO:   ONE LINE PER DEPTH STEP
~WELL INFORMATION BLOCK
#MNEM.UNIT           DATA                    DESCRIPTION OF MNEMONIC
#---------    -------------------            -------------------------------
# Generated from Intellog Unique Number	CW_79_81/WELL/2482
WELL.         11-09-080-21W4                 : Well_name    - WELL
LOC .         00/11-09-080-21W4/0            : Location     - LOCATION
UWI .         00/11-09-080-21W4/0            : Uwi          - UNIQUE WELL ID
ENTR.         MAX                            : Entered      - ENTERED BY
SRVC.         WESTERN ATLAS                  : Scn          - SERVICE COMPANY
STRT.M        213.36                         : top_depth    - START DEPTH
STOP.M        447.86                         : bot_depth    - STOP DEPTH
STEP.M        0.25                           : increment    - STEP LENGTH
 NULL. -999.2500:NULL Value
~CURVE INFORMATION BLOCK
#MNEM UNIT       ERCB CURVE CODE    CURVE DESCRIPTION
#-----------   ------------------   ----------------------------------
DEPT.M        00 001 00 00         : DEPTH        - DEPTH
ILD .OHMM     00 120 00 00         : RESD         - DEEP RESISTIVITY (DIL)
NPHI.V/V      00 330 00 00         : PHIN         - NEUTRON POROSITY (SANDSTONE)
DPHI.V/V      00 890 00 00         : PHID         - DENSITY POROSITY (SANDSTONE)
GR  .API      00 310 00 00         : GR           - GAMMA RAY
CALI.MM       00 280 01 00         : CAL          - CALIPER
~PARAMETER INFORMATION
#MNEM.UNIT           DATA             DESCRIPTION OF MNEMONIC
#---------         -----------     ------------------------------
GL  .M        584.545              : gl           - GROUND LEVEL ELEVATION
EREF.M        588.051              : kb           - ELEVATION OF DEPTH REFERENCE
DATM.M        584.545              : datum        - DATUM ELEVATION
TDD .M        496.214              : tdd          - TOTAL DEPTH DRILLER
RUN .         ONE                  : Run          - RUN NUMBER
ENG .         BILL                 : Engineer     - RECORDING ENGINEER
WIT .         JIM                  : Witness      - WITNESSED BY
MUD .         GEL                  : Mud_type     - MUD TYPE
MATR.         SANDSTONE            : Logunit      - NEUTRON MATRIX
TMAX.C        19.4444              : BHT          - MAXIMUM RECORDED TEMPERATURE
BHTD.M        496.214              : BHTDEP       - MAXIMUM RECORDED TEMPERATURE
MATR.         1                    : LOGUNIT      - NEUTRON MATRIX
RMT .C        20                   : MDTP         - TEMPERATURE OF MUD
NEUT.         1                    : NEUTRON      - NEUTRON TYPE
RESI.         0                    : RESIST       - RESISTIVITY TYPE
RMC .OHMM     4                    : RMC          - RESISTIVITY OF MUD CAKE
RMF .OHMM     7.1                  : RMF          - RESISTIVITY OF MUD FILTRATE
SUFT.C        -6.66667             : SUFT         - SURFACE TEMPERATURE
~A  DEPTH     RESD     PHIN     PHID       GR      CAL
# ...
  249.860    4.903    0.425    0.329   90.802  180.195
  250.110    5.584    0.428    0.335   84.681  171.844
  250.360    7.234    0.432    0.340   77.786  160.266
  250.610   17.475    0.433    0.353   74.474  157.886
  250.860   30.440    0.439    0.357   73.678  158.643
  251.110   38.117    0.433    0.358   74.333  158.939
  251.360   42.868    0.433    0.359   75.341  158.630
  251.610   44.742    0.432    0.359   74.092  158.734
  251.860   45.321    0.428    0.359   71.302  159.451
  252.110   46.190    0.418    0.358   71.392  160.400
  252.360   47.525    0.408    0.358   73.318  161.556
  252.610   48.851    0.406    0.359   71.122  162.273
  252.860   50.482    0.404    0.360   70.882  162.063
  253.110   52.814    0.401    0.361   70.587  161.563
  253.360   55.503    0.397    0.365   69.998  160.970
  253.610   57.135    0.392    0.371   70.883  159.941
  253.860   57.445    0.384    0.369   72.061  159.451
  254.110   56.118    0.377    0.363   74.861  159.344
  254.360   53.291    0.374    0.360   74.979  159.553
  254.610   49.412    0.373    0.362   74.802  160.663
  254.860   45.033    0.371    0.364   75.700  162.369
  255.110   40.051    0.368    0.366   78.156  163.461
  255.360   37.359    0.363    0.366   78.845  163.369
  255.610   36.216    0.351    0.366   77.118  161.250
  255.860   36.480    0.339    0.270   74.148  159.750
  256.110   37.082    0.327    0.147   73.021  159.250
  256.360   37.423    0.312    0.108   74.391  159.646
  256.610   37.462    0.291    0.308   76.119  160.327
  256.860   37.960    0.317    0.326   74.320  160.246
  257.110   39.020    0.383    0.333   74.019  160.139
  257.360   40.327    0.394    0.338   73.366  160.032
  257.610   41.757    0.391    0.343   72.361  159.935
  257.860   43.162    0.392    0.347   71.415  159.842
  258.110   44.692    0.397    0.351   71.193  159.717
  258.360   46.345    0.404    0.352   70.396  159.626
  258.610   46.943    0.413    0.351   70.101  159.538
  258.860   47.285    0.418    0.351   70.153  159.436
  259.110   46.850    0.419    0.354   70.455  158.921
  259.360   45.840    0.414    0.356   70.944  158.211
  259.610   45.008    0.400    0.353   71.582  158.115
  259.860   44.602    0.398    0.348   71.522  158.023
  260.110   43.549    0.386    0.346   71.465  157.916
  260.360   42.533    0.388    0.348   71.585  158.118
  260.610   41.385    0.385    0.350   71.647  158.222
  260.860   40.194    0.376    0.352   71.825  158.228
  261.110   39.056    0.370    0.353   72.751  158.522
  261.360   38.115    0.374    0.353   72.945  158.421
  261.610   36.956    0.381    0.351   74.081  158.333
  261.860   32.310    0.381    0.345   74.501  158.533
  262.110   27.800    0.379    0.328   75.512  158.637
  262.360   24.435    0.376    0.289   76.998  158.544
  262.610   21.729    0.375    0.223   77.648  158.417
  262.860   20.257    0.382    0.265   78.838  158.316
  263.110   19.357    0.388    0.309   79.250  158.228
  263.360   18.907    0.390    0.320   79.488  158.118
  263.610   18.873    0.393    0.317   79.434  158.021
  263.860   18.728    0.396    0.311   79.201  158.036
  264.110   16.856    0.399    0.300   79.075  158.397
  264.360   14.172    0.403    0.290   78.762  158.725
  264.610   11.211    0.400    0.285   80.141  158.618
  264.860    9.386    0.395    0.287   83.473  160.027
  265.110    8.206    0.388    0.303   87.336  165.774
  265.360    7.435    0.383    0.324   89.715  173.841
  265.610    6.949    0.380    0.322   87.784  175.417
  265.860    6.938    0.378    0.328   86.734  165.674
  266.110    7.341    0.387    0.375   84.544  184.900
  266.360    8.016    0.396    0.393   82.875  190.240
  266.610    8.924    0.395    0.372   80.433  184.103
  266.860   10.006    0.388    0.326   77.341  171.619
  267.110   11.386    0.389    0.297   74.639  160.534
  267.360   12.653    0.400    0.303   72.109  160.024
  267.610   13.678    0.414    0.310   69.675  159.514
  267.860   14.789    0.409    0.323   66.346  159.012
  268.110   15.722    0.401    0.334   62.365  158.316
  268.360   16.488    0.395    0.337   57.198  157.622
  268.610   17.760    0.394    0.333   49.177  157.590
  268.860   18.702    0.398    0.333   47.384  157.918
  269.110   19.494    0.397    0.341   48.753  157.821
  269.360   19.903    0.390    0.348   49.043  157.716
  269.610   20.094    0.382    0.355   48.748  157.609
  269.860   20.206    0.376    0.357   48.162  157.610
  270.110   20.342    0.372    0.351   47.319  158.080
  270.360   20.460    0.374    0.347   47.018  158.807
  270.610   20.720    0.378    0.346   47.441  159.112
  270.860   20.990    0.377    0.347   48.930  159.108
  271.110   21.184    0.378    0.350   50.417  159.011
  271.360   21.262    0.379    0.353   51.490  158.719
  271.610   21.253    0.379    0.357   52.673  157.631
  271.860   21.376    0.376    0.360   54.092  156.702
  272.110   21.483    0.379    0.363   54.991  156.192
  272.360   21.606    0.379    0.363   56.233  155.984
  272.610   21.807    0.380    0.362   56.527  155.892
  272.860   22.086    0.381    0.361   55.639  155.809
  273.110   22.366    0.383    0.359   53.992  155.692
  273.360   22.338    0.385    0.357   51.958  155.590
  273.610   21.334    0.387    0.356   51.187  155.876
  273.860   20.263    0.382    0.357   52.195  155.889
  274.110   19.366    0.380    0.358   54.038  156.204
  274.360   18.607    0.383    0.359   55.588  156.810
  274.610   17.635    0.389    0.362   55.465  157.177
  274.860   16.942    0.391    0.366   55.163  157.485
  275.110   17.046    0.389    0.365   55.819  157.378
  275.360   17.613    0.385    0.348   56.300  156.991
  275.610   18.629    0.383    0.334   56.008  156.697
  275.860   20.180    0.382    0.331   54.401  156.592
  276.110   22.763    0.378    0.331   50.545  156.395
  276.360   24.155    0.374    0.332   48.269  155.895
  276.610   24.290    0.369    0.336   47.736  154.983
  276.860   23.896    0.368    0.338   49.698  154.689
  277.110   23.424    0.369    0.337   52.136  154.597
  277.360   23.084    0.372    0.333   54.217  154.494
  277.610   22.869    0.378    0.331   56.486  154.359
  277.860   22.832    0.384    0.332   57.422  154.268
  278.110   22.449    0.389    0.338   58.553  153.768
  278.360   22.090    0.393    0.351   60.396  153.872
  278.610   21.496    0.395    0.360   60.574  154.182
  278.860   20.730    0.392    0.363   59.028  154.492
  279.110   20.063    0.382    0.362   57.666  154.767
  279.360   19.875    0.380    0.361   55.868  154.666
  279.610   19.695    0.376    0.360   55.335  155.766
  279.860   19.625    0.374    0.358   55.519  156.571
  280.110   19.660    0.375    0.358   56.056  156.877
  280.360   19.732    0.379    0.358   56.590  156.583
  280.610   19.694    0.389    0.358   56.368  155.508
  280.860   19.658    0.391    0.356   54.328  154.548
  281.110   20.203    0.389    0.355   51.656  155.256
  281.360   20.315    0.393    0.356   52.014  155.367
  281.610   20.279    0.395    0.357   54.092  155.274
  281.860   20.208    0.393    0.357   56.527  155.076
  282.110   20.016    0.389    0.354   58.036  154.558
  282.360   19.983    0.384    0.348   58.706  154.467
  282.610   20.098    0.385    0.342   58.429  154.360
  282.860   20.098    0.391    0.341   58.668  154.562
  283.110   20.062    0.400    0.341   59.558  154.872
  283.360   20.030    0.403    0.339   60.511  155.081
  283.610   20.017    0.392    0.331   60.600  155.124
  283.860   20.130    0.387    0.320   62.520  155.871
  284.110   20.094    0.388    0.311   65.088  156.981
  284.360   20.166    0.384    0.299   69.607  157.487
  284.610   20.205    0.384    0.289   76.682  157.395
  284.860   20.173    0.390    0.285   84.889  156.799
  285.110   20.134    0.392    0.290   91.361  155.699
  285.360   20.097    0.389    0.301   94.271  154.759
  285.610   19.909    0.393    0.310   89.456  154.672
  285.860   19.730    0.404    0.319   85.535  154.871
  286.110   19.556    0.415    0.325   79.894  154.975
