~VERSION INFORMATION
 VERS.                 2.0:   CWLS LOG ASCII STANDARD -VERSION 2.0
 WRAP.                  NO:   ONE LINE PER DEPTH STEP
~WELL INFORMATION BLOCK
#MNEM.UNIT           DATA                    DESCRIPTION OF MNEMONIC
#---------    -------------------            -------------------------------
# Generated from Intellog Unique Number	CW_79_81/WELL/879
WELL.         PARAMOUNT ET AL HORIZON        : Well_name    - WELL
LOC .         00/10-35-079-19W4/0            : Location     - LOCATION
UWI .         00/10-35-079-19W4/0            : Uwi          - UNIQUE WELL ID
ENTR.         MAX                            : Entered      - ENTERED BY
SRVC.         COMPUTALOG                     : Scn          - SERVICE COMPANY
STRT.M        198.12                         : top_depth    - START DEPTH
STOP.M        367.62                         : bot_depth    - STOP DEPTH
STEP.M        0.25                           : increment    - STEP LENGTH
 NULL. -999.2500:NULL Value
~CURVE INFORMATION BLOCK
#MNEM UNIT       ERCB CURVE CODE    CURVE DESCRIPTION
#-----------   ------------------   ----------------------------------
DEPT.M        00 001 00 00         : DEPTH        - DEPTH
ILD .OHMM     00 120 00 00         : RESD         - DEEP RESISTIVITY (DIL)
NPHI.V/V      00 330 00 00         : PHIN         - NEUTRON POROSITY (SANDSTONE)
DPHI.V/V      00 890 00 00         : PHID         - DENSITY POROSITY (SANDSTONE)
CALI.MM       00 280 01 00         : CAL          - CALIPER
GR  .API      00 310 00 00         : GR           - GAMMA RAY
~PARAMETER INFORMATION
#MNEM.UNIT           DATA             DESCRIPTION OF MNEMONIC
#---------         -----------     ------------------------------
GL  .M        563.88               : gl           - GROUND LEVEL ELEVATION
EREF.M        566.928              : kb           - ELEVATION OF DEPTH REFERENCE
DATM.M        563.88               : datum        - DATUM ELEVATION
TDD .M        368.198              : tdd          - TOTAL DEPTH DRILLER
RUN .         ONE                  : Run          - RUN NUMBER
ENG .         BILL                 : Engineer     - RECORDING ENGINEER
WIT .         JIM                  : Witness      - WITNESSED BY
MUD .         GEL                  : Mud_type     - MUD TYPE
MATR.         SANDSTONE            : Logunit      - NEUTRON MATRIX
TMAX.C        16.1111              : BHT          - MAXIMUM RECORDED TEMPERATURE
BHTD.M        368.198              : BHTDEP       - MAXIMUM RECORDED TEMPERATURE
RMT .C        15                   : MDTP         - TEMPERATURE OF MUD
MUDD.KG/M     9800                 : MWT          - MUD DENSITY
NEUT.         1                    : NEUTRON      - NEUTRON TYPE
RESI.         0                    : RESIST       - RESISTIVITY TYPE
RM  .OHMM     1.35                 : RM           - RESISTIVITY OF MUD
RMC .OHMM     0                    : RMC          - RESISTIVITY OF MUD CAKE
RMF .OHMM     1.05                 : RMF          - RESISTIVITY OF MUD FILTRATE
SUFT.C        -20.5556             : SUFT         - SURFACE TEMPERATURE
~A  DEPTH     RESD     PHIN     PHID      CAL       GR
# ...
  234.620   13.405    0.347    0.328  159.609   64.757
  234.870   13.088    0.348    0.329  159.636   65.067
  235.120   12.850    0.355    0.343  158.156   70.403
  235.370   12.850    0.366    0.353  157.183   68.054
  235.620   13.328    0.376    0.354  156.710   68.661
  235.870   13.805    0.381    0.359  156.745   72.519
  236.120   12.772    0.386    0.359  157.770   75.787
  236.370   11.660    0.393    0.357  159.298   74.917
  236.620   10.350    0.408    0.356  161.324   71.092
  236.870    8.960    0.445    0.368  162.863   68.154
  237.120    8.603    0.498    0.415  161.883   63.443
  237.370    9.000    0.522    0.514  160.910   53.117
  237.620   10.153    0.488    0.495  159.944   38.360
  237.870   13.093    0.441    0.348  158.971   46.058
  238.120   13.927    0.343    0.322  158.495   48.738
  238.370   14.444    0.326    0.327  158.519   49.643
  238.620   14.524    0.320    0.332  158.554   50.248
  238.870   14.564    0.329    0.335  157.574   47.310
  239.120   14.723    0.332    0.341  158.102   42.894
  239.370   15.081    0.339    0.354  159.634   43.499
  239.620   15.519    0.341    0.339  158.161   44.109
  239.870   15.758    0.344    0.339  156.187   44.716
  240.120   15.957    0.360    0.340  153.713   46.798
  240.370   16.036    0.358    0.339  152.740   48.883
  240.620   16.196    0.364    0.340  153.268   51.560
  240.870   16.276    0.371    0.345  153.299   55.422
  241.120   16.395    0.374    0.339  152.823   54.256
  241.370   16.395    0.369    0.334  151.357   51.905
  241.620   16.356    0.371    0.317  149.880   52.807
  241.870   16.356    0.374    0.319  149.904   52.233
  242.120   16.198    0.371    0.323  149.432   48.706
  242.370   16.119    0.372    0.326  147.962   47.834
  242.620   16.119    0.384    0.331  147.496   51.102
  242.870   16.120    0.385    0.341  148.514   51.118
  243.120   16.041    0.381    0.353  150.543   49.658
  243.370   15.962    0.384    0.339  151.081   48.490
  243.620   15.883    0.386    0.331  150.102   47.916
  243.870   15.883    0.386    0.348  146.631   49.705
  244.120   15.883    0.384    0.348  148.159   52.678
  244.370   15.804    0.374    0.342  151.185   55.353
  244.620   15.725    0.367    0.344  153.714   58.326
  244.870   15.726    0.371    0.356  156.247   55.681
  245.120   15.726    0.380    0.361  156.775   51.266
  245.370   15.726    0.377    0.361  156.299   50.395
  245.620   15.687    0.374    0.359  155.329   48.048
  245.870   15.846    0.377    0.358  154.857   49.839
  246.120   15.847    0.376    0.361  154.884   50.149
  246.370   15.768    0.375    0.362  155.412   46.031
  246.620   15.530    0.373    0.359  155.444   49.886
  246.870   15.371    0.368    0.347  154.967   53.748
  247.120   15.372    0.366    0.333  154.495   52.287
  247.370   15.372    0.366    0.343  154.022   52.894
  247.620   15.373    0.369    0.345  154.053   52.317
  247.870   15.413    0.371    0.332  154.078   51.451
  248.120   15.413    0.357    0.331  154.109   53.532
  248.370   15.374    0.357    0.343  153.639   57.980
  248.620   15.374    0.364    0.333  153.660   57.996
  248.870   15.335    0.374    0.325  153.688   54.763
  249.120   15.335    0.373    0.308  153.219   52.415
  249.370   15.335    0.371    0.326  152.746   50.068
  249.620   15.336    0.372    0.338  152.781   50.380
  249.870   15.297    0.371    0.350  152.801   50.989
  250.120   15.257    0.359    0.352  152.829   50.710
  250.370   15.258    0.346    0.342  153.861   51.321
  250.620   15.218    0.349    0.340  153.885   54.288
  250.870   15.179    0.351    0.340  154.416   59.034
  251.120   15.179    0.360    0.343  154.944   58.753
  251.370   15.101    0.352    0.349  154.972   56.405
  251.620   15.061    0.351    0.349  154.499   54.944
  251.870   15.061    0.356    0.348  154.531   54.665
  252.120   15.141    0.360    0.350  154.558   56.163
  252.370   15.142    0.346    0.341  155.079   58.243
  252.620   15.102    0.344    0.333  155.611   60.626
  252.870   15.103    0.346    0.337  156.142   60.346
  253.120   15.103    0.350    0.342  156.667   60.954
  253.370   15.183    0.354    0.341  156.197   61.267
  253.620   15.303    0.356    0.339  155.225   61.282
  253.870   15.382    0.355    0.337  154.248   60.120
  254.120   15.502    0.352    0.339  153.779   58.657
  254.370   15.582    0.346    0.341  154.307   59.267
  254.620   15.701    0.346    0.317  154.835   60.167
  254.870   15.781    0.348    0.322  154.859   61.661
  255.120   15.901    0.346    0.336  152.889   64.927
  255.370   16.020    0.340    0.333  154.418   61.396
  255.620   16.458    0.322    0.328  155.950   64.665
  255.870   17.292    0.285    0.318  153.976   65.272
  256.120   19.160    0.250    0.277  153.500   59.379
  256.370   20.153    0.224   -0.029  157.537   56.740
  256.620   22.378    0.201   -0.038  160.063   52.321
  256.870   24.444    0.176   -0.042  160.587   47.905
  257.120   25.160    0.009   -0.046  160.615   38.172
  257.370   26.312    0.009   -0.048  160.643   36.122
  257.620   26.948    0.010   -0.046  160.670   36.431
  257.870   27.267    0.015   -0.041  159.197   39.698
  258.120   27.267    0.029   -0.031  155.726   42.080
  258.370   26.791    0.046   -0.005  155.253   44.753
  258.620   24.805    0.108    0.037  155.788   48.611
  258.870   20.475    0.160    0.105  157.313   52.172
  259.120   18.410    0.197    0.220  155.837   60.464
  259.370   15.947    0.244    0.294  153.863   66.980
  259.620   15.153    0.334    0.306  151.396   69.655
  259.870   14.915    0.323    0.308  150.924   69.967
  260.120   14.916    0.325    0.308  150.948   69.392
  260.370   14.916    0.339    0.308  151.472   75.320
  260.620   14.916    0.353    0.310  152.000   74.747
  260.870   14.797    0.356    0.312  152.535   70.032
  261.120   14.718    0.342    0.310  152.062   64.144
  261.370   14.639    0.342    0.311  151.583   64.156
  261.620   14.402    0.365    0.311  152.615   59.152
  261.870   14.283    0.376    0.313  152.642   63.600
  262.120   14.402    0.346    0.316  152.673   63.025
  262.370   14.442    0.319    0.314  153.205   62.451
  262.620   14.403    0.314    0.312  153.229   59.217
  262.870   14.364    0.355    0.314  153.260   60.120
  263.120   14.285    0.362    0.313  153.281   60.431
  263.370   14.285    0.352    0.318  152.311   60.450
  263.620   14.127    0.353    0.318  151.839   62.534
  263.870   13.730    0.353    0.315  151.370   60.776
  264.120   13.412    0.348    0.321  151.397   59.024
  264.370   13.413    0.340    0.323  151.422   60.513
  264.620   13.254    0.338    0.322  150.945   63.486
  264.870   13.016    0.377    0.322  150.973   65.866
  265.120   12.500    0.386    0.319  151.505   66.473
  265.370   12.103    0.374    0.313  151.032   66.196
  265.620   11.985    0.354    0.315  151.066   67.985
  265.870   12.184    0.359    0.304  152.088   71.250
  266.120   12.343    0.349    0.309  152.616   73.630
  266.370   12.383    0.339    0.318  152.643   71.578
  266.620   12.264    0.354    0.316  152.675   72.776
  266.870   11.867    0.386    0.300  149.697   75.749
  267.120   11.232    0.398    0.282  153.727   80.788
  267.370   10.041    0.394    0.267  155.259   86.713
  267.620    8.770    0.387    0.270  156.784   82.889
  267.870    8.254    0.400    0.270  157.816   82.023
  268.120    8.215    0.395    0.284  156.343   81.149
  268.370    8.334    0.388    0.289  155.370   79.392
  268.620    8.573    0.388    0.304  154.897   77.640
  268.870    8.891    0.388    0.307  151.933   77.063
  269.120    8.971    0.355    0.290  150.950   78.850
  269.370    8.971    0.366    0.278  149.981   83.007
  269.620    8.932    0.389    0.279  149.511   91.003
  269.870    8.853    0.402    0.277  149.532   92.788
  270.120    8.575    0.421    0.260  149.563   98.713
  270.370    8.099    0.414    0.264  150.088  101.389
  270.620    7.742    0.413    0.281  151.620   98.157
  270.870    7.702    0.397    0.278  153.649   92.262
