~VERSION INFORMATION
 VERS.                 2.0:   CWLS LOG ASCII STANDARD -VERSION 2.0
 WRAP.                  NO:   ONE LINE PER DEPTH STEP
~WELL INFORMATION BLOCK
#MNEM.UNIT           DATA                    DESCRIPTION OF MNEMONIC
#---------    -------------------            -------------------------------
# Generated from Intellog Unique Number	CW_70_72/WELL/1064
NULL.         -999.25                        : NULL_VALUE
WELL.         LANDBANK ET AL MITSUE 11-36    : Well_name    - WELL              
LOC .         11-36-072-03W5                 : Location     - LOCATION          
UWI .         00/11-36-072-03W5/0            : Uwi          - UNIQUE WELL ID    
ENTR.         JAYE                           : Entered      - ENTERED BY        
SRVC.         SCHLUMBERGER                   : Scn          - SERVICE COMPANY   
DATE.         29 FEB 79                      : Date         - LOG DATE          
STRT.M        395                            : top_depth    - START DEPTH       
STOP.M        635                            : bot_depth    - STOP DEPTH        
STEP.M        0.25                           : increment    - STEP LENGTH       
~CURVE INFORMATION BLOCK
#MNEM UNIT       ERCB CURVE CODE    CURVE DESCRIPTION
#-----------   ------------------   ----------------------------------
DEPT.M        00 001 00 00         : DEPTH        - DEPTH                       
DPHI.V/V      00 890 00 00         : PHID         - DENSITY POROSITY (SANDSTONE)
NPHI.V/V      00 330 00 00         : PHIN         - NEUTRON POROSITY (SANDSTONE)
GR  .API      00 310 00 00         : GR           - GAMMA RAY                   
CALI.MM       00 280 01 00         : CAL          - CALIPER                     
ILD .OHMM     00 120 00 00         : RESD         - DEEP RESISTIVITY (DIL)      
~PARAMETER INFORMATION       
#MNEM.UNIT           DATA             DESCRIPTION OF MNEMONIC
#---------         -----------     ------------------------------
GL  .M        589                  : gl           - GROUND LEVEL ELEVATION      
EREF.M        591.7                : kb           - ELEVATION OF DEPTH REFERENCE
DATM.M        589                  : datum        - DATUM ELEVATION             
TDD .M        637                  : tdd          - TOTAL DEPTH DRILLER         
RUN .         ONE                  : Run          - RUN NUMBER                  
ENG .         MARSCHNER            : Engineer     - RECORDING ENGINEER          
WIT .         LOWTHER              : Witness      - WITNESSED BY                
BASE.         EDM                  : Branch       - HOME BASE OF LOGGING UNIT   
MUD .         GEL XHEM             : Mud_type     - MUD TYPE                    
MATR.         SANDSTONE            : Logunit      - NEUTRON MATRIX              
TMAX.C        25.5                 : BHT          - MAXIMUM RECORDED TEMPERATURE
BHTD.M        638                  : BHTDEP       - MAXIMUM RECORDED TEMPERATURE
RMT .C        7.8                  : MDTP         - TEMPERATURE OF MUD          
MUDD.KG/M     1190                 : MWT          - MUD DENSITY                 
NEUT.         1                    : NEUTRON      - NEUTRON TYPE                
RESI.         0                    : RESIST       - RESISTIVITY TYPE            
RM  .OHMM     4.55                 : RM           - RESISTIVITY OF MUD          
RMC .OHMM     0                    : RMC          - RESISTIVITY OF MUD CAKE     
RMF .OHMM     4.7                  : RMF          - RESISTIVITY OF MUD FILTRATE 
SUFT.C        32                   : SUFT         - SURFACE TEMPERATURE         
~A  DEPTH     PHID     PHIN       GR      CAL     RESD
  395.000    0.214    0.504  123.026  183.847    2.120
  395.250    0.209    0.503  120.422  184.831    2.145
  395.500    0.192    0.523  122.856  185.821    2.158
  395.750    0.192    0.526  122.834  185.983    2.159
  396.000    0.207    0.508  120.414  185.946    2.213
  396.250    0.203    0.513  120.634  186.116    2.272
  396.500    0.191    0.525  121.105  187.099    2.359
  396.750    0.196    0.521  120.837  188.495    2.432
  397.000    0.190    0.509  120.627  189.488    2.474
  397.250    0.177    0.496  119.807  191.603    2.475
  397.500    0.198    0.516  117.691  193.100    2.503
  397.750    0.214    0.490  116.315  192.448    2.629
  398.000    0.218    0.466  112.664  189.331    2.735
  398.250    0.198    0.467  108.211  186.528    2.792
  398.500    0.187    0.447  102.898  182.074    2.900
  398.750    0.202    0.415   95.863  178.756    3.068
  399.000    0.195    0.381   83.968  175.745    3.368
  399.250    0.183    0.355   70.904  171.918    3.993
  399.500    0.161    0.330   59.377  166.857    4.426
  399.750    0.108    0.272   52.034  167.227    4.562
  400.000    0.141    0.301   56.375  170.266    4.283
  400.250    0.165    0.339   59.550  169.193    3.853
  400.500    0.209    0.369   62.727  167.215    3.638
  400.750    0.230    0.392   66.276  165.431    3.571
  401.000    0.222    0.403   69.757  164.778    3.573
  401.250    0.227    0.416   68.934  164.637    3.621
  401.500    0.267    0.429   65.590  164.494    3.636
  401.750    0.251    0.413   68.149  164.248    3.658
  402.000    0.249    0.403   71.573  163.900    3.625
  402.250    0.256    0.403   75.979  163.561    3.654
  402.500    0.276    0.395   72.266  163.010    3.696
  402.750    0.263    0.392   71.936  162.048    3.816
  403.000    0.260    0.402   75.481  161.903    3.993
  403.250    0.246    0.404   79.640  162.490    4.107
  403.500    0.248    0.398   82.692  164.187    4.218
  403.750    0.246    0.390   84.637  165.587    4.275
  404.000    0.223    0.387   88.614  167.396    4.082
  404.250    0.204    0.399   95.788  168.997    3.825
  404.500    0.183    0.409  103.824  170.387    3.571
  404.750    0.199    0.425  112.474  171.485    3.212
  405.000    0.181    0.457  111.344  173.498    2.949
  405.250    0.211    0.490  107.815  174.485    2.692
  405.500    0.200    0.481  107.853  174.236    2.435
  405.750    0.223    0.456  111.705  173.176    2.170
  406.000    0.235    0.471  114.328  172.415    2.038
  406.250    0.241    0.478  105.568  173.403    2.180
  406.500    0.238    0.491   96.257  175.216    2.281
  406.750    0.221    0.456   88.913  177.328    2.472
  407.000    0.213    0.442   81.078  178.626    2.650
  407.250    0.245    0.428   77.796  173.052    3.003
  407.500    0.257    0.420   77.280  168.298    3.274
  407.750    0.259    0.426   83.902  165.995    3.368
  408.000    0.238    0.433   95.259  167.193    3.344
  408.250    0.217    0.443  103.479  169.004    3.157
  408.500    0.223    0.453  109.792  171.318    2.920
  408.750    0.215    0.463  109.646  172.305    2.661
  409.000    0.220    0.492  107.593  172.371    2.499
  409.250    0.237    0.511  108.184  175.719    2.359
  409.500    0.236    0.528  106.993  182.755    2.286
  409.750    0.253    0.555  104.387  190.815    2.313
  410.000    0.273    0.479   90.215  184.420    2.465
  410.250    0.291    0.454   79.982  173.611    2.633
  410.500    0.286    0.434   71.654  168.452    2.801
  410.750    0.288    0.423   65.355  168.716    3.019
  411.000    0.279    0.417   66.748  167.244    3.236
  411.250    0.281    0.429   66.662  166.081    3.354
  411.500    0.273    0.443   67.622  166.042    3.450
  411.750    0.252    0.427   69.694  166.108    3.549
  412.000    0.244    0.424   71.576  166.582    3.631
  412.250    0.267    0.429   72.658  166.747    3.763
  412.500    0.260    0.423   74.360  167.120    3.864
  412.750    0.257    0.416   78.335  167.800    3.924
  413.000    0.229    0.419   82.620  168.378    3.992
  413.250    0.235    0.435   86.410  167.101    4.045
  413.500    0.234    0.466   78.697  166.147    4.092
  413.750    0.217    0.463   76.829  165.698    4.094
  414.000    0.260    0.436   81.235  165.352    4.111
  414.250    0.253    0.432   84.903  165.315    4.261
  414.500    0.224    0.437   83.096  165.988    4.474
  414.750    0.216    0.446   84.058  166.976    4.162
  415.000    0.188    0.451   91.847  168.377    3.785
  415.250    0.239    0.452   97.854  171.724    3.469
  415.500    0.211    0.468  106.320  173.734    3.312
  415.750    0.221    0.482  107.588  175.235    3.204
  416.000    0.228    0.467  109.531  175.095    3.241
  416.250    0.205    0.425  114.124  176.795    3.310
  416.500    0.175    0.452  108.134  178.606    3.367
  416.750    0.188    0.440   97.346  175.386    3.393
  417.000    0.241    0.424   89.511  168.892    3.530
  417.250    0.272    0.432   80.752  164.138    3.673
  417.500    0.272    0.414   89.341  163.281    3.647
  417.750    0.243    0.391   96.947  165.800    3.717
  418.000    0.218    0.403  116.055  168.530    3.746
  418.250    0.213    0.426  106.311  172.593    3.651
  418.500    0.221    0.428   94.908  176.452    3.578
  418.750    0.254    0.434   80.738  173.238    3.519
  419.000    0.276    0.416   63.430  164.794    3.541
  419.250    0.264    0.398   60.147  164.442    3.588
  419.500    0.273    0.407   66.029  164.510    3.610
  419.750    0.265    0.404   71.048  164.060    3.544
  420.000    0.280    0.410   69.182  163.511    3.230
  420.250    0.288    0.419   57.348  162.445    2.982
  420.500    0.305    0.411   48.589  161.789    2.800
  420.750    0.297    0.415   58.775  162.577    2.796
  421.000    0.279    0.409   67.060  164.073    2.991
  421.250    0.264    0.402   75.894  166.089    3.303
  421.500    0.250    0.405   83.868  168.918    3.675
  421.750    0.236    0.422   93.565  169.805    4.013
  422.000    0.211    0.434  100.431  169.660    4.253
  422.250    0.229    0.427   92.166  168.701    4.351
  422.500    0.246    0.398   89.497  166.708    4.233
  422.750    0.253    0.407   85.475  165.546    4.141
  423.000    0.268    0.410   78.441  165.304    4.043
  423.250    0.281    0.389   80.323  165.780    3.948
  423.500    0.267    0.390   89.590  166.972    3.912
  423.750    0.249    0.389  102.239  168.167    3.849
  424.000    0.226    0.377  114.335  170.383    3.695
  424.250    0.195    0.403  122.615  173.627    3.393
  424.500    0.166    0.430  131.020  179.122    3.150
  424.750    0.196    0.478  130.444  185.649    2.849
  425.000    0.227    0.514  125.007  180.584    2.695
  425.250    0.221    0.540  123.815  184.136    2.651
  425.500    0.225    0.428  117.149  189.118    2.805
  425.750    0.238    0.398  110.298  173.292    3.233
  426.000    0.236    0.385  105.846  174.380    3.692
  426.250    0.204    0.375   98.318  174.138    4.280
  426.500    0.205    0.363   88.638  166.308    4.691
  426.750    0.226    0.351   80.311  165.144    4.513
  427.000    0.243    0.340   83.794  165.403    3.969
  427.250    0.243    0.351   84.017  165.682    3.465
  427.500    0.251    0.370   73.904  166.771    2.953
  427.750    0.300    0.385   64.841  162.223    2.612
  428.000    0.321    0.367   47.840  161.361    2.310
  428.250    0.308    0.371   45.479  162.552    2.222
  428.500    0.327    0.378   49.207  163.746    2.215
  428.750    0.331    0.381   50.907  162.787    2.261
  429.000    0.313    0.374   52.299  163.155    2.366
  429.250    0.307    0.360   56.952  164.043    2.508
  429.500    0.292    0.359   67.692  165.543    2.698
  429.750    0.247    0.365   81.819  166.118    2.886
  430.000    0.244    0.375   96.251  166.493    3.093
  430.250    0.252    0.397   98.936  167.575    3.334
  430.500    0.241    0.398  105.063  168.562    3.528
  430.750    0.213    0.395  113.035  169.350    3.683
  431.000    0.191    0.408  117.012  169.104    3.839
  431.250    0.189    0.418  120.372  168.549    3.979
