~VERSION INFORMATION
 VERS.                 2.0:   CWLS LOG ASCII STANDARD -VERSION 2.0
 WRAP.                  NO:   ONE LINE PER DEPTH STEP
~WELL INFORMATION BLOCK
#MNEM.UNIT           DATA                    DESCRIPTION OF MNEMONIC
#---------    -------------------            -------------------------------
# Generated from Intellog Unique Number	CW_79_81/WELL/2492
WELL.         HB GODIN                       : Well_name    - WELL
LOC .         00/15-19-081-01W5/0            : Location     - LOCATION
UWI .         00/15-19-081-01W5/0            : Uwi          - UNIQUE WELL ID
ENTR.         MAX                            : Entered      - ENTERED BY
SRVC.         SCHLUMBERGER                   : Scn          - SERVICE COMPANY
STRT.M        243.84                         : top_depth    - START DEPTH
STOP.M        450.84                         : bot_depth    - STOP DEPTH
STEP.M        0.25                           : increment    - STEP LENGTH
 NULL. -999.2500:NULL Value
~CURVE INFORMATION BLOCK
#MNEM UNIT       ERCB CURVE CODE    CURVE DESCRIPTION
#-----------   ------------------   ----------------------------------
DEPT.M        00 001 00 00         : DEPTH        - DEPTH
ILD .OHMM     00 120 00 00         : RESD         - DEEP RESISTIVITY (DIL)
NPHI.V/V      00 330 00 00         : PHIN         - NEUTRON POROSITY (SANDSTONE)
DPHI.V/V      00 890 00 00         : PHID         - DENSITY POROSITY (SANDSTONE)
GR  .API      00 310 00 00         : GR           - GAMMA RAY
CALI.MM       00 280 01 00         : CAL          - CALIPER
~PARAMETER INFORMATION
#MNEM.UNIT           DATA             DESCRIPTION OF MNEMONIC
#---------         -----------     ------------------------------
GL  .M        586.13               : gl           - GROUND LEVEL ELEVATION
EREF.M        590.093              : kb           - ELEVATION OF DEPTH REFERENCE
DATM.M        586.13               : datum        - DATUM ELEVATION
TDD .M        501.091              : tdd          - TOTAL DEPTH DRILLER
RUN .         ONE                  : Run          - RUN NUMBER
ENG .         BILL                 : Engineer     - RECORDING ENGINEER
WIT .         JIM                  : Witness      - WITNESSED BY
MUD .         GEL                  : Mud_type     - MUD TYPE
MATR.         SANDSTONE            : Logunit      - NEUTRON MATRIX
TMAX.C        23.3333              : BHT          - MAXIMUM RECORDED TEMPERATURE
BHTD.M        501.091              : BHTDEP       - MAXIMUM RECORDED TEMPERATURE
MATR.         1                    : LOGUNIT      - NEUTRON MATRIX
RMT .C        11.1111              : MDTP         - TEMPERATURE OF MUD
NEUT.         1                    : NEUTRON      - NEUTRON TYPE
RESI.         0                    : RESIST       - RESISTIVITY TYPE
RMC .OHMM     7.55                 : RMC          - RESISTIVITY OF MUD CAKE
RMF .OHMM     3.88                 : RMF          - RESISTIVITY OF MUD FILTRATE
SUFT.C        -12.2222             : SUFT         - SURFACE TEMPERATURE
~A  DEPTH     RESD     PHIN     PHID       GR      CAL
# ...
  316.840   13.125    0.480    0.325   69.996  207.433
  317.090   12.502    0.482    0.317   71.826  208.371
  317.340   11.774    0.483    0.315   73.804  208.833
  317.590   10.785    0.492    0.304   80.392  209.669
  317.840    9.444    0.510    0.286   86.804  210.211
  318.090    8.595    0.517    0.270   93.159  210.655
  318.340    8.217    0.510    0.260   98.284  211.199
  318.590    7.870    0.496    0.261   99.528  212.385
  318.840    7.356    0.499    0.282   98.581  214.087
  319.090    6.739    0.518    0.306   96.266  216.113
  319.340    6.038    0.535    0.337   92.368  219.928
  319.590    5.546    0.554    0.376   86.889  225.926
  319.840    5.323    0.573    0.424   81.586  236.584
  320.090    5.444    0.589    0.485   80.271  257.471
  320.340    5.914    0.599    0.518   81.770  262.489
  320.590    7.340    0.553    0.488   84.375  264.907
  320.840    9.495    0.537    0.443   84.694  248.291
  321.090   11.791    0.535    0.440   83.196  241.594
  321.340   13.166    0.531    0.466   80.646  244.318
  321.590   13.660    0.512    0.441   77.959  229.824
  321.840   13.251    0.503    0.424   77.259  246.408
  322.090   12.500    0.524    0.421   76.579  296.054
  322.340   12.123    0.516    0.406   75.727  315.044
  322.590   12.204    0.504    0.375   74.934  313.902
  322.840   12.755    0.499    0.336   74.026  303.243
  323.090   14.023    0.490    0.312   71.934  286.496
  323.340   15.824    0.482    0.331   69.523  250.169
  323.590   17.349    0.492    0.312   67.906  220.461
  323.840   18.157    0.511    0.324   64.008  212.471
  324.090   17.545    0.528    0.335   60.640  211.330
  324.340   15.821    0.538    0.334   59.441  209.991
  324.590   13.550    0.536    0.327   61.614  209.168
  324.840   11.944    0.525    0.318   65.298  208.804
  325.090   10.467    0.505    0.300   67.439  208.884
  325.340    9.341    0.497    0.290   68.870  209.219
  325.590    8.641    0.502    0.303   70.652  210.836
  325.840    8.380    0.522    0.334   72.965  215.836
  326.090    8.722    0.554    0.361   75.355  239.881
  326.340    9.261    0.543    0.354   76.607  302.337
  326.590    9.664    0.549    0.473   77.098  333.330
  326.840    9.767    0.564    0.484   77.417  305.110
  327.090    9.515    0.550    0.396   78.618  286.506
  327.340    8.923    0.498    0.269   81.283  290.724
  327.590    7.937    0.423    0.205   86.897  268.609
  327.840    7.311    0.443    0.164   93.760  235.180
  328.090    6.997    0.469    0.145   97.773  214.199
  328.340    6.921    0.484    0.195   99.498  211.370
  328.590    6.918    0.492    0.234   99.056  214.393
  328.840    6.916    0.500    0.251   96.800  217.809
  329.090    6.943    0.518    0.312   93.026  224.764
  329.340    7.098    0.535    0.366   91.591  233.492
  329.590    7.407    0.555    0.413   89.042  249.415
  329.840    7.894    0.555    0.415   86.495  271.876
  330.090    8.158    0.532    0.398   86.054  270.732
  330.340    7.914    0.483    0.363   88.481  243.202
  330.590    6.971    0.405    0.269   93.689  213.566
  330.840    5.968    0.434    0.177   96.158  211.962
  331.090    5.838    0.468    0.199   95.017  214.389
  331.340    5.836    0.509    0.235   94.400  218.308
  331.590    5.959    0.540    0.271   95.363  225.495
  331.840    6.229    0.552    0.301   96.621  234.169
  332.090    6.811    0.537    0.314   94.693  236.348
  332.340    7.454    0.503    0.266   95.454  223.174
  332.590    7.890    0.525    0.309   96.182  240.673
  332.840    8.091    0.540    0.327   95.510  252.524
  333.090    8.146    0.537    0.361   95.421  254.950
  333.340    8.157    0.523    0.394   96.734  244.581
  333.590    8.237    0.524    0.340   99.064  222.337
  333.840    8.357    0.528    0.297   98.850  241.807
  334.090    8.475    0.533    0.376   96.769  237.890
  334.340    8.548    0.533    0.423   96.795  229.206
  334.590    8.576    0.527    0.428   97.992  229.648
  334.840    8.588    0.520    0.391   99.368  241.502
  335.090    8.645    0.531    0.340   99.726  255.858
  335.340    8.642    0.529    0.426   99.020  257.979
  335.590    8.953    0.547    0.469   97.880  268.340
  335.840    9.424    0.546    0.453   96.913  281.975
  336.090   10.082    0.527    0.416   95.534  259.613
  336.340   10.966    0.499    0.375   93.333  213.830
  336.590   12.314    0.477    0.325   89.450  208.222
  336.840   13.274    0.465    0.263   86.306  203.751
  337.090   13.751    0.450    0.254   86.568  205.757
  337.340   13.352    0.432    0.268   84.548  207.485
  337.590   12.262    0.411    0.308   81.298  209.510
  337.840   10.998    0.397    0.363   77.929  213.122
  338.090    9.836    0.416    0.420   75.277  226.770
  338.340    8.993    0.467    0.469   73.592  259.049
  338.590    8.484    0.529    0.520   71.045  339.639
  338.840    8.093    0.573    0.539   67.792  363.400
  339.090    7.863    0.599    0.541   65.360  362.259
  339.340    7.830    0.606    0.543   64.510  356.254
  339.590    8.219    0.600    0.561   65.928  352.621
  339.840    9.133    0.611    0.553   69.376  348.124
  340.090   10.014    0.613    0.543   75.029  332.710
  340.340   10.704    0.615    0.512   78.217  323.526
  340.590   11.177    0.612    0.417   81.990  300.954
  340.840   11.438    0.582    0.286   87.641  258.350
  341.090   11.445    0.481    0.220   95.049  201.569
  341.340   11.103    0.471    0.258   96.792  199.134
  341.590   10.627    0.496    0.282   95.412  199.984
  341.840   10.285    0.522    0.270   93.678  202.604
  342.090   10.136    0.523    0.250   93.469  208.205
  342.340   10.114    0.505    0.240   94.844  214.707
  342.590   10.021    0.512    0.248   95.808  215.671
  342.840    9.943    0.491    0.263   94.617  210.339
  343.090    9.939    0.465    0.239   94.414  209.994
  343.340    9.935    0.474    0.242   95.084  212.319
  343.590    9.966    0.488    0.238   96.749  215.141
  343.840   10.016    0.489    0.225   98.825  217.173
  344.090    9.996    0.475    0.227  100.372  218.856
  344.340    9.917    0.506    0.219  102.109  223.042
  344.590    9.771    0.496    0.232   99.329  222.287
  344.840    9.733    0.497    0.233  100.060  218.270
  345.090    9.764    0.501    0.248  100.555  218.117
  345.340    9.847    0.506    0.274   99.527  225.597
  345.590   10.016    0.510    0.281   98.106  240.138
  345.840   10.163    0.503    0.305   97.891  235.228
  346.090   10.306    0.493    0.307   98.390  237.654
  346.340   10.450    0.485    0.320   99.237  230.561
  346.590   10.635    0.477    0.304  100.552  221.288
  346.840   10.883    0.473    0.268  101.694  215.586
  347.090   11.311    0.485    0.280  100.775  219.357
  347.340   11.918    0.480    0.323   98.358  228.084
  347.590   12.975    0.451    0.343   93.697  226.941
  347.840   14.426    0.393    0.325   86.755  217.762
  348.090   17.016    0.363    0.301   82.332  209.676
  348.340   20.872    0.364    0.289   81.891  206.651
  348.590   22.577    0.353    0.293   83.466  207.414
  348.840   20.951    0.353    0.306   83.004  207.050
  349.090   19.052    0.379    0.293   82.798  206.710
  349.340   17.529    0.395    0.280   84.351  206.356
  349.590   16.188    0.406    0.265   86.372  206.002
  349.840   14.927    0.418    0.251   87.863  205.655
  350.090   13.594    0.427    0.250   87.982  205.322
  350.340   13.091    0.387    0.282   87.282  205.362
  350.590   12.898    0.414    0.261   85.433  205.409
  350.840   13.265    0.413    0.270   83.588  205.453
  351.090   13.797    0.410    0.272   82.329  205.502
  351.340   14.043    0.413    0.257   81.889  205.557
  351.590   13.354    0.416    0.239   82.305  205.613
  351.840   12.483    0.431    0.243   83.060  205.657
  352.090   12.123    0.445    0.258   83.559  206.096
  352.340   11.774    0.455    0.260   84.055  206.542
  352.590   11.644    0.448    0.257   84.902  206.788
  352.840   11.724    0.434    0.259   86.104  206.832
  353.090   11.856    0.447    0.281   87.747  206.971
