~VERSION INFORMATION
 VERS.                 2.0:   CWLS LOG ASCII STANDARD -VERSION 2.0
 WRAP.                  NO:   ONE LINE PER DEPTH STEP
~WELL INFORMATION BLOCK
#MNEM.UNIT           DATA                    DESCRIPTION OF MNEMONIC
#---------    -------------------            -------------------------------
# Generated from Intellog Unique Number	CW_73_75/WELL/1029
WELL.         PACIFIC AMADOU 10-32           : Well_name    - WELL
LOC .         00/10-32-075-20W4/0            : Location     - LOCATION
UWI .         00/10-32-075-20W4/0            : Uwi          - UNIQUE WELL ID
ENTR.         JAYE                           : Entered      - ENTERED BY
SRVC.         SCHLUMBERGER                   : Scn          - SERVICE COMPANY
DATE.         20 MAR 74                      : Date         - LOG DATE
STRT.M        301.752                        : top_depth    - START DEPTH
STOP.M        475.502                        : bot_depth    - STOP DEPTH
STEP.M        0.25                           : increment    - STEP LENGTH
 NULL. -999.2500:NULL Value
~CURVE INFORMATION BLOCK
#MNEM UNIT       ERCB CURVE CODE    CURVE DESCRIPTION
#-----------   ------------------   ----------------------------------
DEPT.M        00 001 00 00         : DEPTH        - DEPTH
CALI.MM       00 280 01 00         : CAL          - CALIPER
GR  .API      00 310 00 00         : GR           - GAMMA RAY
NPHI.V/V      00 330 00 00         : PHIN         - NEUTRON POROSITY (SANDSTONE)
DPHI.V/V      00 890 00 00         : PHID         - DENSITY POROSITY (SANDSTONE)
ILD .OHMM     00 120 00 00         : RESD         - DEEP RESISTIVITY (DIL)
~PARAMETER INFORMATION
#MNEM.UNIT           DATA             DESCRIPTION OF MNEMONIC
#---------         -----------     ------------------------------
GL  .M        619.049              : gl           - GROUND LEVEL ELEVATION
EREF.M        623.103              : kb           - ELEVATION OF DEPTH REFERENCE
DATM.M        619.049              : datum        - DATUM ELEVATION
TDD .M        478.536              : tdd          - TOTAL DEPTH DRILLER
RUN .         ONE                  : Run          - RUN NUMBER
ENG .         BROWN                : Engineer     - RECORDING ENGINEER
WIT .         WADDELL              : Witness      - WITNESSED BY
BASE.         EDM                  : Branch       - HOME BASE OF LOGGING UNIT
MUD .         GEL CHEM             : Mud_type     - MUD TYPE
MATR.         SANDSTONE            : Logunit      - NEUTRON MATRIX
TMAX.C        18.3333              : BHT          - MAXIMUM RECORDED TEMPERATURE
BHTD.M        479.755              : BHTDEP       - MAXIMUM RECORDED TEMPERATURE
RMT .C        15.5556              : MDTP         - TEMPERATURE OF MUD
MUDD.KG/M     1044                 : MWT          - MUD DENSITY
NEUT.         1                    : NEUTRON      - NEUTRON TYPE
RESI.         0                    : RESIST       - RESISTIVITY TYPE
RM  .OHMM     9.59                 : RM           - RESISTIVITY OF MUD
RMC .OHMM     0                    : RMC          - RESISTIVITY OF MUD CAKE
RMF .OHMM     5.7                  : RMF          - RESISTIVITY OF MUD FILTRATE
SUFT.C        -17.7778             : SUFT         - SURFACE TEMPERATURE
~A  DEPTH      CAL       GR     PHIN     PHID     RESD
# ...
  374.752  150.490   47.508    0.482    0.316    4.332
  375.002  150.024   48.808    0.493    0.298    4.330
  375.252  149.762   50.169    0.508    0.289    4.338
  375.502  149.710   47.588    0.533    0.291    4.328
  375.752  149.542   47.794    0.525    0.300    4.351
  376.002  149.283   46.180    0.537    0.285    4.366
  376.252  148.815   43.900    0.544    0.282    4.397
  376.502  148.753   43.260    0.525    0.296    4.404
  376.752  148.689   44.620    0.502    0.298    4.378
  377.002  148.632   45.069    0.494    0.291    4.353
  377.252  148.669   44.005    0.489    0.300    4.327
  377.502  148.913   44.514    0.489    0.315    4.278
  377.752  149.462   45.024    0.497    0.306    4.261
  378.002  149.608   45.415    0.495    0.309    4.260
  378.252  149.547   46.954    0.481    0.329    4.282
  378.502  149.188   48.073    0.470    0.324    4.280
  378.752  148.418   47.674    0.465    0.308    4.279
  379.002  147.540   48.550    0.469    0.301    4.278
  379.252  147.068   50.089    0.479    0.301    4.317
  379.502  146.906   52.482    0.495    0.297    4.420
  379.752  146.948   53.781    0.500    0.315    4.518
  380.002  146.484   54.289    0.480    0.304    4.533
  380.252  146.319   57.530    0.504    0.294    4.557
  380.502  146.361   56.464    0.533    0.293    4.547
  380.752  149.968   54.368    0.508    0.271    4.530
  381.002  152.960   54.210    0.521    0.271    4.528
  381.252  155.546   52.658    0.538    0.294    4.527
  381.502  156.508   51.955    0.497    0.320    4.492
  381.752  154.914   53.438    0.481    0.312    4.433
  382.002  152.008   56.797    0.500    0.304    4.294
  382.252  151.334   60.159    0.503    0.313    4.191
  382.502  151.375   63.520    0.498    0.310    4.113
  382.752  151.420   65.793    0.498    0.284    4.051
  383.002  152.072   68.424    0.500    0.264    4.050
  383.252  153.232   71.968    0.510    0.245    4.132
  383.502  155.104   70.358    0.493    0.248    4.223
  383.752  157.795   72.383    0.499    0.215    4.261
  384.002  157.430   74.414    0.545    0.227    4.308
  384.252  157.375   73.161    0.541    0.260    4.282
  384.502  157.616   71.613    0.540    0.277    4.164
  384.752  158.170   72.912    0.519    0.267    3.989
  385.002  158.623   79.731    0.501    0.230    3.822
  385.252  158.763   81.212    0.526    0.223    3.634
  385.502  159.415   82.629    0.551    0.202    3.547
  385.752  160.879   84.597    0.571    0.257    3.546
  386.002  162.347   87.411    0.515    0.248    3.665
  386.252  165.542   87.075    0.502    0.237    3.916
  386.502  172.007   82.853    0.502    0.255    4.154
  386.752  175.708   82.455    0.533    0.245    4.589
  387.002  177.476   84.783    0.567    0.232    5.023
  387.252  177.724   84.205    0.564    0.240    4.603
  387.502  173.996   84.353    0.548    0.255    3.699
  387.752  165.489   85.226    0.539    0.230    3.079
  388.002  159.724   87.555    0.537    0.184    2.438
  388.252  156.610   90.371    0.524    0.199    2.113
  388.502  155.127   91.306    0.495    0.205    1.890
  388.752  157.406   94.485    0.548    0.293    1.929
  389.002  174.145   94.937    0.579    0.319    2.139
  389.252  162.173   95.508    0.579    0.236    2.755
  389.502  158.957   96.319    0.563    0.198    3.200
  389.752  159.204   94.040    0.551    0.182    3.594
  390.002  166.068   88.729    0.586    0.202    3.813
  390.252  178.223   86.811    0.604    0.236    4.007
  390.502  180.303   84.957    0.645    0.253    4.290
  390.752  168.738   83.711    0.585    0.294    4.748
  391.002  156.765   82.339    0.549    0.260    5.314
  391.252  147.647   75.328    0.495    0.270    5.763
  391.502  143.105   72.564    0.483    0.280    5.420
  391.752  147.423   71.496    0.495    0.276    4.655
  392.002  151.128   72.128    0.515    0.275    3.918
  392.252  153.008   74.098    0.496    0.264    3.441
  392.502  153.760   76.488    0.458    0.246    3.212
  392.752  154.010   79.909    0.442    0.228    3.158
  393.002  154.254   83.938    0.434    0.218    3.362
  393.252  154.701   83.780    0.440    0.200    3.941
  393.502  155.355   81.501    0.481    0.213    4.427
  393.752  155.804   82.317    0.496    0.204    4.652
  394.002  156.552   83.858    0.505    0.190    4.862
  394.252  157.425   84.489    0.518    0.191    5.025
  394.502  157.758   83.786    0.544    0.199    5.184
  394.752  157.806   83.995    0.540    0.180    5.358
  395.002  157.841   83.536    0.503    0.195    5.497
  395.252  157.582   84.712    0.496    0.188    5.599
  395.502  157.518   87.466    0.507    0.206    5.576
  395.752  157.263   87.676    0.507    0.195    5.462
  396.002  157.096   83.817    0.515    0.187    5.341
  396.252  157.031   80.265    0.533    0.204    5.241
  396.502  157.079   77.500    0.511    0.189    5.239
  396.752  157.012   74.555    0.483    0.183    5.345
  397.002  156.959   70.150    0.464    0.189    5.535
  397.252  155.976   63.684    0.482    0.172    6.299
  397.502  153.885   61.894    0.474    0.205    7.508
  397.752  152.495   60.763    0.304    0.190   10.074
  398.002  153.050   55.937    0.300    0.140   13.245
  398.252  155.533   52.141    0.351    0.173   19.786
  398.502  148.857   47.802    0.387    0.198   27.961
  398.752  144.721   44.064    0.388    0.099   42.550
  399.002  149.550   39.296    0.221    0.056   54.410
  399.252  153.870   37.139    0.141   -0.025   51.934
  399.502  155.744   36.134    0.128   -0.039   44.524
  399.752  156.086   35.614    0.125   -0.037   32.615
  400.002  155.629   34.546    0.128   -0.019   25.255
  400.252  155.870   33.725    0.140    0.007   15.148
  400.502  155.706   35.872    0.160    0.031   12.331
  400.752  154.933   39.656    0.208    0.068    9.252
  401.002  153.345   42.775    0.359    0.107    7.151
  401.252  150.741   45.166    0.393    0.142    5.996
  401.502  150.372   46.465    0.424    0.243    5.505
  401.752  150.824   47.828    0.445    0.232    5.274
  402.002  151.173   48.945    0.470    0.232    5.461
  402.252  151.723   49.999    0.495    0.253    5.814
  402.502  152.071   50.693    0.525    0.237    6.247
  402.752  152.421   52.538    0.427    0.256    6.433
  403.002  151.950   52.077    0.394    0.243    6.503
  403.252  149.036   49.859    0.383    0.224    6.562
  403.502  149.588   49.398    0.380    0.207    6.344
  403.752  151.666   49.851    0.391    0.208    6.157
  404.002  153.443   50.056    0.411    0.232    5.737
  404.252  153.581   48.687    0.454    0.236    5.297
  404.502  152.913   51.625    0.459    0.262    4.881
  404.752  151.837   52.861    0.476    0.275    4.616
  405.002  151.365   52.465    0.480    0.278    4.414
  405.252  151.304   52.369    0.466    0.295    4.324
  405.502  151.450   52.755    0.434    0.293    4.291
  405.752  152.003   53.390    0.459    0.288    4.289
  406.002  152.757   54.325    0.487    0.288    4.312
  406.252  153.405   54.836    0.504    0.293    4.311
  406.502  153.965   55.223    0.498    0.289    4.238
  406.752  153.388   56.097    0.456    0.299    4.001
  407.002  148.545   62.127    0.474    0.301    3.755
  407.252  148.489   63.915    0.490    0.321    3.605
  407.502  150.866   66.791    0.503    0.291    3.550
  407.752  158.237   71.364    0.519    0.241    3.549
  408.002  163.776   74.848    0.532    0.257    3.696
  408.252  167.280   76.265    0.563    0.277    3.971
  408.502  169.357   80.902    0.565    0.278    4.212
  408.752  167.162   78.319    0.591    0.282    4.645
  409.002  162.011   75.492    0.581    0.266    5.047
  409.252  154.825   74.003    0.546    0.245    5.265
  409.502  151.614   75.301    0.512    0.235    5.411
  409.752  150.841   81.089    0.491    0.229    5.552
  410.002  150.677   84.816    0.516    0.232    5.622
  410.252  151.129   83.080    0.512    0.235    5.684
  410.502  151.581   81.651    0.499    0.245    5.650
  410.752  152.028   82.585    0.504    0.230    5.649
  411.002  152.273   81.155    0.481    0.216    5.584
