~VERSION INFORMATION
 VERS.                 2.0:   CWLS LOG ASCII STANDARD -VERSION 2.0
 WRAP.                  NO:   ONE LINE PER DEPTH STEP
~WELL INFORMATION BLOCK
#MNEM.UNIT           DATA                    DESCRIPTION OF MNEMONIC
#---------    -------------------            -------------------------------
# Generated from Intellog Unique Number	CS_67_68/WELL/804
WELL.         DOME PETROLEUM LIMITED         : Well_name    - WELL
LOC .         00/10-08-068-02W4/0            : Location     - LOCATION
UWI .         00/10-08-068-02W4/0            : Uwi          - UNIQUE WELL ID
ENTR.         SP                             : Entered      - ENTERED BY
SRVC.         SCHLUMBERGER                   : Scn          - SERVICE COMPANY
STRT.M        410                            : top_depth    - START DEPTH
STOP.M        665                            : bot_depth    - STOP DEPTH
STEP.M        0.25                           : increment    - STEP LENGTH
 NULL. -999.2500:NULL Value
~CURVE INFORMATION BLOCK
#MNEM UNIT       ERCB CURVE CODE    CURVE DESCRIPTION
#-----------   ------------------   ----------------------------------
DEPT.M        00 001 00 00         : DEPTH        - DEPTH
ILD .OHMM     00 120 00 00         : RESD         - DEEP RESISTIVITY (DIL)
DPHI.V/V      00 890 00 00         : PHID         - DENSITY POROSITY (LIMESTONE)
NPHI.V/V      00 330 00 00         : PHIN         - NEUTRON POROSITY (LIMESTONE)
GR  .API      00 310 00 00         : GR           - GAMMA RAY
~PARAMETER INFORMATION
#MNEM.UNIT           DATA             DESCRIPTION OF MNEMONIC
#---------         -----------     ------------------------------
GL  .M        743.94               : gl           - GROUND LEVEL ELEVATION
EREF.M        746.86               : kb           - ELEVATION OF DEPTH REFERENCE
DATM.M        743.94               : datum        - DATUM ELEVATION
TDD .M        667                  : tdd          - TOTAL DEPTH DRILLER
RUN .         ONE                  : Run          - RUN NUMBER
ENG .         BILL                 : Engineer     - RECORDING ENGINEER
WIT .         JIM                  : Witness      - WITNESSED BY
MUD .         GEL                  : Mud_type     - MUD TYPE
MATR.         LIMESTONE            : Logunit      - NEUTRON MATRIX
TMAX.C        31                   : BHT          - MAXIMUM RECORDED TEMPERATURE
BHTD.M        667                  : BHTDEP       - MAXIMUM RECORDED TEMPERATURE
MATR.         1                    : LOGUNIT      - NEUTRON MATRIX
RMT .C        25                   : MDTP         - TEMPERATURE OF MUD
NEUT.         1                    : NEUTRON      - NEUTRON TYPE
RESI.         0                    : RESIST       - RESISTIVITY TYPE
RMC .OHMM     0.25                 : RMC          - RESISTIVITY OF MUD CAKE
RMF .OHMM     0.25                 : RMF          - RESISTIVITY OF MUD FILTRATE
SUFT.C        15                   : SUFT         - SURFACE TEMPERATURE
~A  DEPTH     RESD     PHID     PHIN       GR
# ...
  584.000    7.924    0.237    0.334   72.150
  584.250    8.070    0.238    0.331   72.706
  584.500    8.235    0.229    0.330   74.112
  584.750    8.450    0.222    0.331   76.188
  585.000    8.621    0.214    0.330   78.263
  585.250    8.507    0.208    0.335   79.488
  585.500    8.116    0.216    0.341   79.437
  585.750    7.831    0.221    0.335   76.105
  586.000    7.429    0.234    0.341   69.858
  586.250    7.182    0.258    0.337   43.197
  586.500    7.034    0.289    0.327   37.435
  586.750    6.761    0.299    0.320   34.104
  587.000    6.584    0.317    0.314   31.502
  587.250    6.448    0.311    0.305   38.254
  587.500    6.362    0.258    0.349   76.720
  587.750    6.325    0.239    0.374   85.053
  588.000    6.346    0.250    0.373   79.171
  588.250    6.356    0.269    0.380   71.950
  588.500    6.378    0.280    0.390   64.244
  588.750    6.399    0.289    0.378   57.693
  589.000    6.397    0.294    0.358   51.749
  589.250    6.383    0.295    0.337   54.249
  589.500    6.393    0.299    0.364   58.329
  589.750    6.390    0.305    0.348   53.540
  590.000    6.400    0.324    0.333   56.528
  590.250    6.386    0.324    0.330   64.860
  590.500    6.396    0.304    0.353   73.619
  590.750    6.381    0.275    0.370   79.459
  591.000    6.355    0.258    0.388   80.137
  591.250    6.330    0.250    0.373   78.385
  591.500    6.362    0.262    0.387   69.829
  591.750    6.372    0.289    0.366   55.744
  592.000    6.346    0.301    0.345   42.874
  592.250    6.332    0.316    0.334   36.931
  592.500    6.307    0.323    0.333   34.997
  592.750    6.258    0.324    0.329   32.879
  593.000    6.151    0.316    0.325   28.636
  593.250    6.103    0.318    0.325   23.907
  593.500    6.045    0.320    0.327   28.777
  593.750    5.875    0.315    0.333   34.377
  594.000    5.786    0.309    0.330   39.186
  594.250    5.699    0.305    0.320   42.232
  594.500    5.739    0.304    0.331   48.927
  594.750    5.857    0.304    0.352   53.309
  595.000    6.020    0.316    0.348   53.683
  595.250    6.132    0.310    0.337   48.651
  595.500    6.210    0.288    0.328   56.923
  595.750    6.139    0.277    0.321   65.135
  596.000    6.068    0.301    0.322   62.835
  596.250    5.932    0.318    0.327   48.508
  596.500    5.733    0.300    0.345   47.182
  596.750    5.668    0.298    0.358   53.328
  597.000    5.698    0.311    0.340   51.027
  597.250    5.792    0.302    0.321   50.796
  597.500    5.900    0.291    0.325   55.422
  597.750    6.031    0.285    0.340   59.868
  598.000    6.154    0.278    0.344   61.396
  598.250    6.256    0.269    0.352   64.929
  598.500    6.336    0.264    0.368   67.854
  598.750    6.357    0.268    0.388   70.597
  599.000    6.379    0.286    0.398   68.420
  599.250    6.400    0.285    0.379   63.630
  599.500    6.386    0.260    0.375   72.085
  599.750    6.384    0.238    0.385   81.270
  600.000    6.382    0.239    0.376   82.128
  600.250    6.356    0.267    0.352   69.380
  600.500    6.305    0.283    0.338   61.554
  600.750    6.292    0.270    0.343   65.146
  601.000    6.197    0.283    0.348   66.797
  601.250    6.115    0.293    0.355   62.311
  601.500    5.944    0.300    0.358   67.485
  601.750    5.799    0.263    0.376   85.599
  602.000    5.690    0.243    0.412   93.323
  602.250    5.562    0.301    0.413   66.359
  602.500    5.478    0.325    0.371   41.886
  602.750    5.345    0.345    0.344   29.867
  603.000    5.274    0.341    0.339   24.530
  603.250    5.184    0.334    0.353   30.919
  603.500    5.124    0.329    0.379   38.947
  603.750    5.123    0.327    0.386   45.823
  604.000    5.207    0.319    0.358   42.916
  604.250    5.333    0.302    0.343   46.572
  604.500    5.412    0.289    0.358   49.680
  604.750    5.491    0.294    0.354   53.395
  605.000    5.582    0.289    0.351   50.489
  605.250    5.612    0.278    0.357   57.485
  605.500    5.662    0.269    0.362   63.509
  605.750    5.660    0.263    0.373   66.981
  606.000    5.658    0.271    0.364   59.398
  606.250    5.593    0.289    0.331   42.943
  606.500    5.529    0.331    0.311   33.779
  606.750    5.465    0.321    0.327   37.072
  607.000    5.453    0.298    0.361   44.370
  607.250    5.442    0.275    0.379   58.292
  607.500    5.470    0.279    0.389   58.119
  607.750    5.519    0.304    0.375   47.801
  608.000    5.632    0.303    0.352   43.376
  608.250    5.746    0.290    0.341   52.073
  608.500    5.842    0.271    0.358   62.289
  608.750    5.916    0.256    0.371   73.781
  609.000    6.026    0.247    0.384   82.782
  609.250    6.103    0.252    0.363   79.754
  609.500    6.123    0.259    0.351   70.957
  609.750    6.087    0.262    0.344   66.531
  610.000    6.006    0.299    0.356   61.497
  610.250    5.926    0.332    0.350   48.567
  610.500    5.696    0.325    0.334   39.403
  610.750    5.537    0.322    0.327   32.729
  611.000    5.433    0.325    0.320   29.945
  611.250    5.310    0.333    0.324   29.104
  611.500    5.240    0.350    0.375   30.390
  611.750    5.170    0.363    0.398   32.100
  612.000    5.092    0.370    0.394   32.049
  612.250    5.005    0.361    0.381   30.966
  612.500    4.994    0.357    0.371   29.943
  612.750    4.993    0.355    0.363   29.527
  613.000    5.056    0.358    0.358   30.086
  613.250    5.140    0.368    0.372   30.579
  613.500    5.167    0.366    0.395   31.561
  613.750    5.233    0.357    0.409   35.034
  614.000    5.389    0.349    0.391   39.357
  614.250    5.469    0.340    0.371   43.923
  614.500    5.549    0.331    0.364   48.309
  614.750    5.620    0.322    0.373   51.233
  615.000    5.682    0.317    0.355   45.896
  615.250    5.776    0.319    0.343   37.706
  615.500    5.848    0.324    0.336   36.317
  615.750    5.457    0.336    0.337   39.060
  616.000    5.466    0.331    0.344   44.114
  616.250    5.495    0.317    0.355   48.740
  616.500    5.493    0.303    0.362   53.671
  616.750    5.359    0.313    0.368   52.647
  617.000    5.209    0.318    0.360   51.807
  617.250    5.130    0.314    0.358   54.368
  617.500    5.081    0.308    0.358   56.626
  617.750    5.089    0.304    0.371   58.945
  618.000    5.125    0.318    0.369   61.020
  618.250    5.143    0.335    0.364   56.412
  618.500    5.141    0.335    0.359   51.865
  618.750    5.139    0.333    0.359   53.454
  619.000    5.156    0.330    0.373   53.585
  619.250    5.116    0.323    0.378   49.099
  619.500    5.086    0.316    0.378   47.773
  619.750    5.037    0.319    0.372   49.485
  620.000    4.970    0.323    0.367   50.890
  620.250    4.931    0.314    0.359   49.869
  620.500    4.920    0.308    0.362   49.939
  620.750    4.927    0.322    0.367   49.644
  621.000    5.142    0.334    0.372   46.495
  621.250    5.169    0.340    0.364   42.616
  621.500    5.274    0.337    0.358   43.598
  621.750    5.341    0.325    0.357   45.614
  622.000    5.400    0.305    0.379   47.627
  622.250    5.489    0.295    0.385   50.250
  622.500    5.590    0.300    0.379   53.297
  622.750    5.652    0.292    0.370   56.952
  623.000    5.734    0.286    0.361   60.789
  623.250    5.732    0.285    0.374   65.903
  623.500    5.709    0.295    0.386   69.192
  623.750    5.686    0.298    0.382   64.523
  624.000    5.610    0.291    0.375   62.711
  624.250    5.587    0.284    0.366   67.338
  624.500    5.585    0.291    0.367   72.877
  624.750    5.583    0.301    0.363   60.675
  625.000    4.890    0.271    0.361   59.720
  625.250    5.742    0.282    0.371   61.115
  625.500    5.585    0.291    0.383   58.379
  625.750    5.432    0.307    0.389   54.245
  626.000    5.264    0.319    0.382   51.996
  626.250    5.187    0.322    0.378   57.522
  626.500    5.150    0.316    0.384   56.304
  626.750    5.151    0.323    0.385   49.133
  627.000    5.200    0.336    0.371   43.238
  627.250    5.340    0.334    0.364   44.815
