~VERSION INFORMATION
 VERS.                 2.0:   CWLS LOG ASCII STANDARD -VERSION 2.0
 WRAP.                  NO:   ONE LINE PER DEPTH STEP
~WELL INFORMATION BLOCK
#MNEM.UNIT           DATA                    DESCRIPTION OF MNEMONIC
#---------    -------------------            -------------------------------
# Generated from Intellog Unique Number	CW_73_75/WELL/3527
WELL.         pan american                   : Well_name    - WELL
LOC .         00/11-24-075-26W4/0            : Location     - LOCATION
UWI .         00/11-24-075-26W4/0            : Uwi          - UNIQUE WELL ID
ENTR.         TIM                            : Entered      - ENTERED BY
SRVC.         SCHLUMBERGER                   : Scn          - SERVICE COMPANY
STRT.M        502.92                         : top_depth    - START DEPTH
STOP.M        771.17                         : bot_depth    - STOP DEPTH
STEP.M        0.25                           : increment    - STEP LENGTH
 NULL. -999.2500:NULL Value
~CURVE INFORMATION BLOCK
#MNEM UNIT       ERCB CURVE CODE    CURVE DESCRIPTION
#-----------   ------------------   ----------------------------------
DEPT.M        00 001 00 00         : DEPTH        - DEPTH
ILD .OHMM     00 120 00 00         : RESD         - DEEP RESISTIVITY (DIL)
GR  .API      00 310 00 00         : GR           - GAMMA RAY
DELT.US/F     00 520 00 00         : DELT         - SONIC TRAVEL TIME
~PARAMETER INFORMATION
#MNEM.UNIT           DATA             DESCRIPTION OF MNEMONIC
#---------         -----------     ------------------------------
GL  .M        810.768              : gl           - GROUND LEVEL ELEVATION
EREF.M        814.426              : kb           - ELEVATION OF DEPTH REFERENCE
DATM.M        814.426              : datum        - DATUM ELEVATION
TDD .M        773.582              : tdd          - TOTAL DEPTH DRILLER
RUN .         ONE                  : Run          - RUN NUMBER
ENG .         BILL                 : Engineer     - RECORDING ENGINEER
WIT .         JIM                  : Witness      - WITNESSED BY
MUD .         GEL                  : Mud_type     - MUD TYPE
MATR.         SANDSTONE            : Logunit      - NEUTRON MATRIX
TMAX.C        30.5556              : BHT          - MAXIMUM RECORDED TEMPERATURE
BHTD.M        773.582              : BHTDEP       - MAXIMUM RECORDED TEMPERATURE
MATR.         1                    : LOGUNIT      - NEUTRON MATRIX
RMT .C        21.1111              : MDTP         - TEMPERATURE OF MUD
NEUT.         1                    : NEUTRON      - NEUTRON TYPE
RESI.         0                    : RESIST       - RESISTIVITY TYPE
RMC .OHMM     4.6                  : RMC          - RESISTIVITY OF MUD CAKE
RMF .OHMM     2.8                  : RMF          - RESISTIVITY OF MUD FILTRATE
SUFT.C        5                    : SUFT         - SURFACE TEMPERATURE
~A  DEPTH     RESD       GR     DELT
# ...
  557.170    4.803   58.873  403.794
  557.420    5.217   58.388  401.131
  557.670    5.838   56.926  405.781
  557.920    6.457   56.439  411.760
  558.170    7.078   55.955  418.405
  558.420    7.286   55.959  413.746
  558.670    7.286   57.922  404.433
  558.920    6.875   56.459  391.795
  559.170    6.258   54.995  235.539
  559.420    5.433   53.041  226.890
  559.670    4.610   49.619  258.801
  559.920    4.198   46.687  299.355
  560.170    3.786   51.588  403.741
  560.420    3.581   56.490  420.359
  560.670    3.376   54.047  425.672
  560.920    3.171   52.093  414.364
  561.170    3.172   51.611  406.381
  561.420    3.173   53.572  402.386
  561.670    3.174   55.535  399.722
  561.920    3.175   62.394  396.393
  562.170    3.383   65.337  394.395
  562.420    3.384   68.769  393.724
  562.670    3.385   66.327  393.721
  562.920    3.387   62.416  395.045
  563.170    3.388   59.482  396.371
  563.420    3.389   57.039  399.025
  563.670    3.390   56.556  400.351
  563.920    3.391   57.540  401.010
  564.170    3.393   61.461  401.673
  564.420    3.394   67.341  401.667
  564.670    3.189   71.263  399.003
  564.920    3.190   80.570  397.002
  565.170    3.191   88.408  396.999
  565.420    2.986   87.924  393.670
  565.670    2.987   82.053  397.655
  565.920    2.989   76.674  406.959
  566.170    2.990   77.657  384.348
  566.420    2.991   80.110  385.673
  566.670    2.993   82.566  391.653
  566.920    3.200   84.528  385.664
  567.170    3.407   86.491  388.984
  567.420    3.408   89.923  396.958
  567.670    3.616   94.825  394.958
  567.920    3.617   96.297  377.666
  568.170    3.618   92.875  382.316
  568.420    3.620   88.965  387.631
  568.670    3.415   85.543  390.951
  568.920    3.416   82.119  389.616
  569.170    3.211   79.678  387.615
  569.420    2.799   82.129  388.942
  569.670    2.594   84.094  389.601
  569.920    2.183   84.099  386.937
  570.170    1.977   84.594  386.932
  570.420    1.772   85.578  388.923
  570.670    1.980   88.031  390.248
  570.920    2.187   93.421  388.915
  571.170    2.395   99.301  394.229
  571.420    2.396  104.691  433.453
  571.670    2.397  108.124  434.777
  571.920    2.398  110.086  438.097
  572.170    2.606  113.520  442.083
  572.420    2.607  113.523  446.733
  572.670    2.815  114.997  451.383
  572.920    2.816  114.514  456.032
  573.170    2.818  110.603  457.358
  573.420    2.819  108.159  360.278
  573.670    2.820  105.227  388.199
  573.920    2.615  100.826  405.482
  574.170    2.616   97.403  377.552
  574.420    2.618   96.919  371.562
  574.670    2.618  102.309  386.183
  574.920    2.619  101.826  387.511
  575.170    2.827  100.852  394.820
  575.420    3.860  101.346  405.454
  575.670    4.067  101.351  419.412
  575.920    4.688   98.907  404.115
  576.170    5.308   93.037  406.770
  576.420    6.135   83.250  410.755
  576.670    6.755   72.974  410.086
  576.920    6.962   72.979  404.761
  577.170    6.139   71.518  407.416
  577.420    5.933   70.543  405.417
  577.670    5.110   69.568  402.754
  577.920    5.110   66.637  397.428
  578.170    4.699   67.132  398.754
  578.420    4.493   69.095  403.403
  578.670    4.495   74.484  406.059
  578.920    4.290   79.387  406.718
  579.170    4.497   76.452  406.050
  579.420    4.499   69.603  399.396
  579.670    4.293   69.118  402.051
  579.920    3.882   71.082  406.701
  580.170    3.677   73.045  403.372
  580.420    3.471   77.947  403.368
  580.670    3.060   85.785  406.022
  580.920    3.061   87.259  408.012
  581.170    3.063   86.285  404.682
  581.420    3.270   83.842  401.353
  581.670    3.890   81.889  397.360
  581.920    4.305   77.978  395.361
  582.170    4.306   74.556  394.026
  582.420    4.100   71.133  399.341
  582.670    3.895   67.222  408.645
  582.920    3.691   64.778  415.289
  583.170    3.485   61.356  419.274
  583.420    3.486   59.894  433.233
  583.670    3.281   60.878  437.218
  583.920    3.282   60.883  443.862
  584.170    3.077   61.868  441.198
  584.420    3.078   61.385  429.890
  584.670    3.286   58.939  421.241
  584.920    3.700   53.069  421.235
  585.170    4.527   50.137  419.901
  585.420    4.940   50.631  417.236
  585.670    5.354   52.596  416.568
  585.920    5.768   53.090  415.233
  586.170    7.007   54.566  414.564
  586.420    8.247   55.550  413.894
  586.670    9.280   57.022  411.896
  586.920   10.725   58.496  406.572
  587.170   11.964   58.990  378.642
  587.420   12.585   58.506  355.366
  587.670   11.142   56.065  324.775
  587.920   10.524   56.069  306.818
  588.170    8.874   56.073  286.202
  588.420    7.431   56.078  256.277
  588.670    5.988   54.615  267.574
  588.920    4.751   53.641  288.183
  589.170    3.927   54.136  301.475
  589.420    3.309   55.118  313.440
  589.670    3.104   57.573  328.063
  589.920    3.931   61.003  396.542
  590.170    4.551   64.436  395.872
  590.420    5.171   67.379  392.545
  590.670    5.998   67.874  390.546
  590.920    6.618   68.859  400.515
  591.170    7.238   70.824  409.819
  591.420    7.858   71.805  410.479
  591.670    8.479   72.300  409.810
  591.920    8.480   69.367  405.814
  592.170    8.275   64.966  402.486
  592.420    7.657   60.075  395.832
  592.670    6.626   60.570  385.189
  592.920    5.596   61.064  312.711
  593.170    5.184   61.069  276.137
  593.420    5.185   60.585  244.882
  593.670    5.394   55.695  256.181
  593.920    5.394   56.188  280.111
  594.170    5.602   59.131  297.394
  594.420    6.429   63.545  325.980
  594.670    7.668   65.017  365.870
  594.920    9.526   64.532  387.807
  595.170   12.829   64.048  391.126
  595.420   14.068   64.543  389.128
  595.670   15.514   64.547  387.792
  595.920   16.341   63.573  386.458
  596.170   15.104   62.109  384.459
  596.420   14.279   61.135  378.471
  596.670   12.630   61.142  201.603
  596.920   11.187   57.229  196.278
  597.170    9.331   51.848  193.614
  597.420    7.681   47.938  208.901
  597.670    6.651   49.411  238.818
  597.920    6.033   50.885  359.827
  598.170    5.828   53.338  418.334
  598.420    5.829   54.322  418.994
  598.670    6.862   57.757  400.371
  598.920    7.275   58.738  401.031
  599.170    7.483   58.745  405.014
  599.420    7.278   58.261  406.340
  599.670    7.073   57.774  409.662
  599.920    6.661   58.270  411.652
  600.170    6.456   59.254  412.311
  600.420    6.045   60.727  411.643
  600.670    5.634   62.202  410.971
  600.920    5.428   62.206  410.303
  601.170    5.223   62.212  408.970
  601.420    4.812   62.217  406.305
  601.670    4.813   62.221  403.641
  601.920    5.433   61.248  399.646
  602.170    6.466   59.294  391.663
  602.420    7.086   57.831  378.360
  602.670    6.469   58.327  359.074
  602.920    6.057   58.819  292.579
  603.170    5.646   57.355  275.952
  603.420    5.234   53.935  274.618
  603.670    4.617   51.981  283.922
  603.920    4.618   54.434  314.503
  604.170    4.413   57.375  416.228
  604.420    4.207   60.809  432.181
  604.670    4.208   58.855  436.165
  604.920    4.003   56.902  414.885
  605.170    3.798   55.928  405.572
  605.420    3.593   62.297  405.566
  605.670    3.388   67.688  405.561
  605.920    3.389   71.609  408.216
  606.170    3.391   75.531  421.509
  606.420    3.392   79.942  424.165
  606.670    3.393   84.843  420.171
  606.920    3.394   86.317  407.533
  607.170    3.395   85.343  400.880
  607.420    3.603   83.392  396.884
  607.670    3.810   79.968  398.211
  607.920    4.018   76.546  402.196
  608.170    4.225   73.124  404.850
  608.420    4.227   69.703  401.522
  608.670    4.021   68.238  396.861
  608.920    4.022   66.776  396.857
  609.170    4.024   67.759  396.187
  609.420    4.024   67.274  397.512
  609.670    4.027   64.831  396.843
  609.920    4.028   63.369  392.849
  610.170    4.029   62.883  388.190
  610.420    4.030   62.399  384.197
  610.670    4.031   62.404  362.916
  610.920    4.033   63.877  320.358
  611.170    4.034   66.332  299.742
