~VERSION INFORMATION
 VERS.                 2.0:   CWLS LOG ASCII STANDARD -VERSION 2.0
 WRAP.                  NO:   ONE LINE PER DEPTH STEP
~WELL INFORMATION BLOCK
#MNEM.UNIT           DATA                    DESCRIPTION OF MNEMONIC
#---------    -------------------            -------------------------------
# Generated from Intellog Unique Number	CW_73_75/WELL/2979
WELL.         ANR ET AL FRANCIS 15-09        : Well_name    - WELL
LOC .         00/15-09-073-21W4/0            : Location     - LOCATION
UWI .         00/15-09-073-21W4/0            : Uwi          - UNIQUE WELL ID
ENTR.         JAYE                           : Entered      - ENTERED BY
SRVC.         WESTERN ATLAS                  : Scn          - SERVICE COMPANY
DATE.         30 JAN 81                      : Date         - LOG DATE
STRT.M        360                            : top_depth    - START DEPTH
STOP.M        560                            : bot_depth    - STOP DEPTH
STEP.M        0.25                           : increment    - STEP LENGTH
 NULL. -999.2500:NULL Value
~CURVE INFORMATION BLOCK
#MNEM UNIT       ERCB CURVE CODE    CURVE DESCRIPTION
#-----------   ------------------   ----------------------------------
DEPT.M        00 001 00 00         : DEPTH        - DEPTH
NPHI.V/V      00 330 00 00         : PHIN         - NEUTRON POROSITY (SANDSTONE)
ILD .OHMM     00 120 00 00         : RESD         - DEEP RESISTIVITY (DIL)
CALI.MM       00 280 01 00         : CAL          - CALIPER
GR  .API      00 310 00 00         : GR           - GAMMA RAY
DPHI.V/V      00 890 00 00         : PHID         - DENSITY POROSITY (SANDSTONE)
~PARAMETER INFORMATION
#MNEM.UNIT           DATA             DESCRIPTION OF MNEMONIC
#---------         -----------     ------------------------------
GL  .M        657.4                : gl           - GROUND LEVEL ELEVATION
EREF.M        660.4                : kb           - ELEVATION OF DEPTH REFERENCE
DATM.M        657.4                : datum        - DATUM ELEVATION
TDD .M        560                  : tdd          - TOTAL DEPTH DRILLER
RUN .         ONE                  : Run          - RUN NUMBER
ENG .         VINCENT              : Engineer     - RECORDING ENGINEER
WIT .         FARMER               : Witness      - WITNESSED BY
BASE.         EDM                  : Branch       - HOME BASE OF LOGGING UNIT
MUD .         GEL CHEM             : Mud_type     - MUD TYPE
MATR.         SANDSTONE            : Logunit      - NEUTRON MATRIX
TMAX.C        19                   : BHT          - MAXIMUM RECORDED TEMPERATURE
BHTD.M        559.1                : BHTDEP       - MAXIMUM RECORDED TEMPERATURE
RMT .C        18                   : MDTP         - TEMPERATURE OF MUD
MUDD.KG/M     1000                 : MWT          - MUD DENSITY
NEUT.         1                    : NEUTRON      - NEUTRON TYPE
RESI.         0                    : RESIST       - RESISTIVITY TYPE
RM  .OHMM     4.25                 : RM           - RESISTIVITY OF MUD
RMC .OHMM     4.9                  : RMC          - RESISTIVITY OF MUD CAKE
RMF .OHMM     4                    : RMF          - RESISTIVITY OF MUD FILTRATE
SUFT.C        0                    : SUFT         - SURFACE TEMPERATURE
~A  DEPTH     PHIN     RESD      CAL       GR     PHID
# ...
  469.500    0.346    3.738  156.406   82.390    0.311
  469.750    0.341    3.805  156.235   80.793    0.327
  470.000    0.317    4.044  156.062   76.954    0.277
  470.250    0.306    4.145  155.992   73.054    0.249
  470.500    0.295    4.156  155.716   71.519    0.263
  470.750    0.280    4.246  155.436   71.790    0.303
  471.000    0.265    4.481  155.261   77.162    0.333
  471.250    0.230    5.056  156.439   79.364    0.344
  471.500    0.179    6.433  158.133   76.893    0.289
  471.750    0.168    8.087  158.894   68.636    0.178
  472.000    0.170   11.345  159.655   70.214    0.090
  472.250    0.202   14.584  159.482   76.147    0.105
  472.500    0.254   17.505  158.896   86.873    0.122
  472.750    0.275   14.236  157.479   87.703    0.197
  473.000    0.301   10.960  156.162   78.201    0.220
  473.250    0.321    8.944  156.303   75.670    0.238
  473.500    0.331    7.337  156.441   71.771    0.291
  473.750    0.329    6.402  156.478   68.616    0.318
  474.000    0.344    5.510  156.095   70.442    0.326
  474.250    0.355    4.890  155.921   71.832    0.317
  474.500    0.361    4.446  155.754   73.347    0.314
  474.750    0.359    4.119  155.580   72.683    0.316
  475.000    0.350    3.889  155.410   71.210    0.315
  475.250    0.345    3.716  155.441   71.107    0.309
  475.500    0.343    3.618  155.167   68.326    0.305
  475.750    0.340    3.523  155.508   66.730    0.308
  476.000    0.342    3.442  155.754   68.493    0.324
  476.250    0.348    3.416  155.995   68.950    0.346
  476.500    0.353    3.360  156.343   70.339    0.355
  476.750    0.355    3.317  156.582   71.668    0.361
  477.000    0.350    3.263  156.624   71.252    0.359
  477.250    0.345    3.233  156.447   72.830    0.336
  477.500    0.342    3.224  156.480   75.464    0.314
  477.750    0.341    3.216  156.615   78.659    0.314
  478.000    0.341    3.240  156.649   81.481    0.325
  478.250    0.341    3.316  156.483   82.187    0.336
  478.500    0.342    3.359  156.103   80.900    0.337
  478.750    0.347    3.373  155.617   79.241    0.322
  479.000    0.354    3.370  155.959   79.262    0.304
  479.250    0.360    3.355  156.202   80.651    0.292
  479.500    0.361    3.317  156.236   83.224    0.309
  479.750    0.359    3.275  154.403   86.607    0.317
  480.000    0.352    3.266  151.645   86.130    0.321
  480.250    0.342    3.263  150.637   84.035    0.317
  480.500    0.335    3.300  150.151   82.063    0.296
  480.750    0.329    3.354  150.394   79.470    0.279
  481.000    0.327    3.450  152.194   80.863    0.280
  481.250    0.329    3.518  153.891   81.877    0.279
  481.500    0.331    3.594  155.063   84.573    0.276
  481.750    0.327    3.653  156.555   88.391    0.271
  482.000    0.329    3.656  157.519   91.526    0.262
  482.250    0.338    3.677  158.487   91.793    0.259
  482.500    0.339    3.680  159.457   91.380    0.260
  482.750    0.327    3.702  160.013   90.528    0.256
  483.000    0.332    3.737  160.461   95.653    0.264
  483.250    0.336    3.792  160.495   96.421    0.276
  483.500    0.330    3.860  161.252   91.651    0.274
  483.750    0.330    3.937  161.498   87.811    0.259
  484.000    0.326    3.967  161.742   91.255    0.245
  484.250    0.338    3.977  161.883   93.455    0.231
  484.500    0.347    3.946  162.119   97.957    0.222
  484.750    0.356    3.843  162.671  103.952    0.231
  485.000    0.361    3.729  163.227  102.231    0.244
  485.250    0.354    3.575  163.676  107.605    0.248
  485.500    0.351    3.352  163.815  106.941    0.252
  485.750    0.364    3.063  164.160  107.086    0.266
  486.000    0.378    2.623  164.195  112.274    0.287
  486.250    0.385    2.324  163.710  115.345    0.286
  486.500    0.376    2.135  163.540  118.663    0.259
  486.750    0.370    2.050  163.784  119.867    0.236
  487.000    0.363    2.038  163.401  119.078    0.233
  487.250    0.340    2.284  163.228  117.544    0.216
  487.500    0.346    2.741  162.847  117.316    0.206
  487.750    0.341    3.041  162.989  115.532    0.212
  488.000    0.331    3.198  162.819  111.880    0.216
  488.250    0.339    3.301  162.743  111.154    0.207
  488.500    0.345    3.384  162.989  112.607    0.194
  488.750    0.349    3.451  162.918  113.001    0.194
  489.000    0.342    3.520  162.956  111.527    0.209
  489.250    0.328    3.566  163.301  111.487    0.211
  489.500    0.334    3.655  163.333  113.063    0.199
  489.750    0.337    3.740  163.168  115.449    0.205
  490.000    0.322    3.867  163.198  112.422    0.211
  490.250    0.324    3.991  163.125  111.819    0.193
  490.500    0.311    4.212  162.746  108.229    0.168
  490.750    0.305    4.601  161.536  102.275    0.179
  491.000    0.316    4.923  160.946   96.009    0.204
  491.250    0.316    5.064  160.879  101.507    0.213
  491.500    0.319    5.060  160.498  108.500    0.216
  491.750    0.311    5.003  160.428  108.209    0.222
  492.000    0.298    4.780  160.258  105.616    0.215
  492.250    0.297    4.576  160.295  101.590    0.202
  492.500    0.301    4.432  160.329  105.969    0.208
  492.750    0.301    4.398  159.954  108.480    0.219
  493.000    0.302    4.417  159.772  111.798    0.234
  493.250    0.314    4.458  159.291  108.459    0.226
  493.500    0.314    4.570  158.910  102.567    0.217
  493.750    0.301    4.709  159.053  101.467    0.222
  494.000    0.297    4.852  159.290   99.497    0.202
  494.250    0.299    4.957  159.639  105.056    0.170
  494.500    0.306    5.004  159.466   96.115    0.154
  494.750    0.309    5.025  159.500   87.919    0.226
  495.000    0.314    5.063  159.535   99.953    0.223
  495.250    0.314    5.058  159.783  106.074    0.217
  495.500    0.315    4.959  159.917  104.600    0.212
  495.750    0.318    4.854  159.739  103.813    0.211
  496.000    0.318    4.718  159.259   99.476    0.208
  496.250    0.315    4.626  158.253  105.036    0.210
  496.500    0.304    4.551  158.288  105.741    0.221
  496.750    0.300    4.500  158.639  106.075    0.228
  497.000    0.311    4.496  159.086  105.099    0.232
  497.250    0.321    4.484  159.223  106.800    0.219
  497.500    0.324    4.465  159.154  106.759    0.208
  497.750    0.314    4.430  159.499  104.542    0.215
  498.000    0.308    4.365  159.747  105.120    0.218
  498.250    0.315    4.309  159.677  103.337    0.211
  498.500    0.329    4.240  159.504  109.456    0.198
  498.750    0.340    4.171  158.605  110.162    0.196
  499.000    0.336    4.103  158.225  106.386    0.225
  499.250    0.320    4.044  157.944  102.548    0.256
  499.500    0.302    3.978  157.566   98.089    0.266
  499.750    0.301    3.920  157.391   95.121    0.260
  500.000    0.301    3.923  157.119   94.147    0.258
  500.250    0.298    3.940  157.148   92.237    0.265
  500.500    0.284    3.977  157.289   85.846    0.261
  500.750    0.255    4.084  158.361   79.830    0.259
  501.000    0.237    4.422  160.268   73.751    0.242
  501.250    0.221    5.155  160.815   68.481    0.227
  501.500    0.217    6.052  160.642   65.453    0.162
  501.750    0.237    6.713  159.329   68.461    0.175
  502.000    0.243    7.706  157.288   68.918    0.169
  502.250    0.256    8.315  155.664   69.685    0.168
  502.500    0.280    7.784  154.660   68.835    0.172
  502.750    0.306    6.827  155.115   69.478    0.250
  503.000    0.296    6.070  154.733   73.485    0.266
  503.250    0.284    5.566  153.519   76.179    0.260
  503.500    0.288    4.790  153.041   76.014    0.260
  503.750    0.255    4.325  153.280   72.611    0.265
  504.000    0.255    3.960  153.520   72.383    0.250
  504.250    0.251    4.066  153.970   76.885    0.200
  504.500    0.246    4.284  155.360   78.090    0.165
  504.750    0.251    4.576  156.531   74.064    0.157
  505.000    0.272    5.173  157.187   75.890    0.157
  505.250    0.292    5.757  157.428   76.597    0.177
  505.500    0.309    6.192  157.568   78.545    0.216
  505.750    0.310    5.746  157.188   81.679    0.254
