~VERSION INFORMATION
 VERS.                 2.0:   CWLS LOG ASCII STANDARD -VERSION 2.0
 WRAP.                  NO:   ONE LINE PER DEPTH STEP
~WELL INFORMATION BLOCK
#MNEM.UNIT           DATA                    DESCRIPTION OF MNEMONIC
#---------    -------------------            -------------------------------
# Generated from Intellog Unique Number	CS_73_76/WELL/3270
WELL.         TOTAL PETROLEUM (N.A) LTD.     : Well_name    - WELL
LOC .         00/12-10-075-09W4/0            : Location     - LOCATION
UWI .         00/12-10-075-09W4/0            : Uwi          - UNIQUE WELL ID
ENTR.         SP                             : Entered      - ENTERED BY
SRVC.         SCHLUMBERGER                   : Scn          - SERVICE COMPANY
STRT.M        270                            : top_depth    - START DEPTH
STOP.M        490                            : bot_depth    - STOP DEPTH
STEP.M        0.25                           : increment    - STEP LENGTH
 NULL. -999.2500:NULL Value
~CURVE INFORMATION BLOCK
#MNEM UNIT       ERCB CURVE CODE    CURVE DESCRIPTION
#-----------   ------------------   ----------------------------------
DEPT.M        00 001 00 00         : DEPTH        - DEPTH
ILD .OHMM     00 120 00 00         : RESD         - DEEP RESISTIVITY (DIL)
GR  .API      00 310 00 00         : GR           - GAMMA RAY
NPHI.V/V      00 330 00 00         : PHIN         - NEUTRON POROSITY (LIMESTONE)
DPHI.V/V      00 890 00 00         : PHID         - DENSITY POROSITY (LIMESTONE)
~PARAMETER INFORMATION
#MNEM.UNIT           DATA             DESCRIPTION OF MNEMONIC
#---------         -----------     ------------------------------
GL  .M        659.92               : gl           - GROUND LEVEL ELEVATION
EREF.M        662.92               : kb           - ELEVATION OF DEPTH REFERENCE
DATM.M        659.92               : datum        - DATUM ELEVATION
TDD .M        502                  : tdd          - TOTAL DEPTH DRILLER
RUN .         ONE                  : Run          - RUN NUMBER
ENG .         BILL                 : Engineer     - RECORDING ENGINEER
WIT .         JIM                  : Witness      - WITNESSED BY
MUD .         GEL                  : Mud_type     - MUD TYPE
MATR.         LIMESTONE            : Logunit      - NEUTRON MATRIX
TMAX.C        22.5                 : BHT          - MAXIMUM RECORDED TEMPERATURE
BHTD.M        502                  : BHTDEP       - MAXIMUM RECORDED TEMPERATURE
MATR.         1                    : LOGUNIT      - NEUTRON MATRIX
RMT .C        25                   : MDTP         - TEMPERATURE OF MUD
NEUT.         1                    : NEUTRON      - NEUTRON TYPE
RESI.         0                    : RESIST       - RESISTIVITY TYPE
RMC .OHMM     0.25                 : RMC          - RESISTIVITY OF MUD CAKE
RMF .OHMM     0.25                 : RMF          - RESISTIVITY OF MUD FILTRATE
SUFT.C        15                   : SUFT         - SURFACE TEMPERATURE
~A  DEPTH     RESD       GR     PHIN     PHID
# ...
  313.500    6.176   70.029    0.444    0.322
  313.750    6.176   68.197    0.447    0.318
  314.000    6.785   88.406    0.461    0.313
  314.250    7.595   98.819    0.477    0.305
  314.500    7.886  105.559    0.488    0.291
  314.750    8.188  108.012    0.490    0.294
  315.000    8.664  109.854    0.476    0.306
  315.250    8.503  109.246    0.468    0.290
  315.500    8.346  106.803    0.452    0.270
  315.750    8.192  104.972    0.446    0.263
  316.000    8.348  104.363    0.449    0.261
  316.250    8.349  104.367    0.456    0.283
  316.500    8.669  106.209    0.445    0.275
  316.750    8.834  103.153    0.453    0.270
  317.000    9.003   96.425    0.471    0.258
  317.250    9.174   93.979    0.482    0.268
  317.500    9.175   89.698    0.475    0.246
  317.750    9.708   86.031    0.471    0.218
  318.000   10.466   82.976    0.451    0.250
  318.250   11.283   84.203    0.439    0.263
  318.500   12.395   92.779    0.444    0.257
  318.750   13.363  105.029    0.461    0.248
  319.000   13.617  116.054    0.480    0.237
  319.250   10.085  118.507    0.501    0.224
  319.500    8.680  117.289    0.499    0.245
  319.750    7.612  113.619    0.494    0.252
  320.000    6.931  105.666    0.466    0.268
  320.250    6.311   98.324    0.453    0.276
  320.500    6.079   92.206    0.477    0.289
  320.750    6.195   90.374    0.485    0.287
  321.000    6.196   90.379    0.478    0.297
  321.250    6.196   95.894    0.468    0.297
  321.500    5.968  101.409    0.517    0.284
  321.750    5.858  106.312    0.517    0.286
  322.000    6.316   92.849    0.486    0.302
  322.250    6.682   84.281    0.456    0.300
  322.500    7.621   77.552    0.442    0.303
  322.750    8.857   75.107    0.453    0.333
  323.000   10.101   72.664    0.463    0.345
  323.250   12.419   69.609    0.473    0.348
  323.500   13.643   66.553    0.473    0.345
  323.750   14.167   64.720    0.467    0.349
  324.000   13.647   63.500    0.479    0.338
  324.250   13.395   64.119    0.484    0.322
  324.500   13.396   64.735    0.465    0.322
  324.750   13.398   68.414    0.456    0.343
  325.000   13.150   72.091    0.456    0.334
  325.250   12.906   75.769    0.458    0.327
  325.500   12.908   78.223    0.462    0.319
  325.750   12.909   79.453    0.457    0.324
  326.000   12.910   81.906    0.453    0.318
  326.250   12.911   84.974    0.455    0.321
  326.500   12.673   87.426    0.467    0.317
  326.750   12.438   89.879    0.473    0.313
  327.000   12.675   89.886    0.481    0.303
  327.250   12.676   88.052    0.476    0.316
  327.500   13.164   82.547    0.462    0.330
  327.750   13.669   78.879    0.468    0.338
  328.000   14.193   75.210    0.459    0.334
  328.250   14.463   72.154    0.437    0.340
  328.500   14.465   75.220    0.422    0.327
  328.750   13.933   81.349    0.425    0.320
  329.000   13.675   83.801    0.427    0.316
  329.250   12.688   86.254    0.437    0.308
  329.500   12.689   88.708    0.449    0.319
  329.750   12.690   86.877    0.463    0.313
  330.000   13.427   82.597    0.473    0.303
  330.250   14.206   78.314    0.479    0.318
  330.500   15.902   70.361    0.484    0.341
  330.750   16.511   68.529    0.459    0.328
  331.000   17.469   67.310    0.447    0.331
  331.250   18.834   66.704    0.426    0.329
  331.500   20.305   66.094    0.400    0.318
  331.750   20.691   64.874    0.371    0.291
  332.000   21.086   62.433    0.325    0.258
  332.250   20.696   62.437    0.416    0.226
  332.500   20.313   64.892    0.442    0.323
  332.750   19.204   66.119    0.456    0.333
  333.000   18.849   67.349    0.445    0.343
  333.250   18.851   66.129    0.452    0.347
  333.500   18.852   62.461    0.439    0.342
  333.750   18.854   61.241    0.428    0.336
  334.000   19.213   62.469    0.423    0.330
  334.250   18.859   63.699    0.428    0.320
  334.500   18.509   64.930    0.427    0.320
  334.750   17.829   64.322    0.427    0.329
  335.000   17.499   63.102    0.443    0.333
  335.250   17.177   61.884    0.455    0.340
  335.500   16.859   62.500    0.448    0.349
  335.750   16.860   64.340    0.440    0.356
  336.000   16.548   67.408    0.428    0.346
  336.250   16.242   70.475    0.437    0.345
  336.500   15.646   71.090    0.449    0.344
  336.750   15.070   71.708    0.453    0.339
  337.000   13.982   74.161    0.445    0.329
  337.250   13.218   78.453    0.433    0.331
  337.500   12.732   80.905    0.437    0.338
  337.750   11.813   87.035    0.442    0.307
  338.000   11.378   88.875    0.438    0.291
  338.250   10.557   90.716    0.427    0.288
  338.500   10.361   92.557    0.422    0.288
  338.750    9.981   93.786    0.427    0.284
  339.000    9.796   96.852    0.432    0.275
  339.250    9.797   98.694    0.437    0.297
  339.500    9.616   98.699    0.445    0.301
  339.750    9.617   96.866    0.454    0.288
  340.000    9.986   95.647    0.456    0.288
  340.250   10.566   94.427    0.456    0.292
  340.500   10.971   90.760    0.448    0.295
  340.750   11.392   87.092    0.444    0.303
  341.000   11.828   84.035    0.440    0.301
  341.250   12.054   81.590    0.438    0.295
  341.500   12.055   80.982    0.434    0.287
  341.750   11.612   85.275    0.429    0.285
  342.000    9.808   86.503    0.434    0.277
  342.250    8.131   90.180    0.445    0.280
  342.500    6.998   96.310    0.452    0.287
  342.750    5.587   98.762    0.459    0.277
  343.000    4.808  103.052    0.463    0.267
  343.250    4.461  108.568    0.468    0.265
  343.500    4.546  110.408    0.492    0.253
  343.750    5.485  110.413    0.509    0.240
  344.000    7.548  103.073    0.539    0.232
  344.250    8.609   98.180    0.535    0.259
  344.500   10.785   92.673    0.505    0.288
  344.750   12.771   84.719    0.489    0.337
  345.000   14.030   82.276    0.487    0.359
  345.250   15.125   82.892    0.483    0.350
  345.500   15.414   78.612    0.474    0.346
  345.750   15.128   74.331    0.476    0.352
  346.000   14.573   70.663    0.466    0.353
  346.250   14.304   69.443    0.462    0.353
  346.500   14.039   68.835    0.461    0.344
  346.750   13.780   71.903    0.462    0.337
  347.000   13.781   73.132    0.476    0.340
  347.250   13.782   73.749    0.482    0.355
  347.500   13.783   73.752    0.480    0.362
  347.750   13.785   73.757    0.472    0.364
  348.000   14.314   73.151    0.490    0.355
  348.250   15.432   73.770    0.500    0.347
  348.500   16.327   74.385    0.499    0.352
  348.750   17.602   73.777    0.488    0.356
  349.000   18.623   72.557    0.480    0.351
  349.250   16.957   70.727    0.468    0.331
  349.500   12.325   69.507    0.444    0.305
  349.750    9.129   69.513    0.369    0.232
  350.000    7.427   70.128    0.278    0.189
  350.250    7.021   72.583    0.311    0.150
  350.500    6.763   77.487    0.445    0.190
  350.750    6.158   79.939    0.505    0.264
  351.000    5.400   85.455    0.533    0.318
  351.250    4.736   88.520    0.538    0.325
  351.500    3.781   89.749    0.491    0.324
  351.750    3.378   87.917    0.474    0.313
  352.000    3.134   90.985    0.491    0.309
  352.250    2.908   92.825    0.502    0.299
  352.500    2.854   95.891    0.513    0.283
  352.750    2.909   99.570    0.545    0.288
  353.000    2.909  102.636    0.571    0.293
  353.250    3.136  105.089    0.578    0.277
  353.500    3.256  108.767    0.553    0.261
  353.750    3.381  113.669    0.562    0.257
  354.000    3.578  119.185    0.553    0.273
  354.250    3.715  121.638    0.549    0.253
  354.500    3.715  116.133    0.540    0.239
  354.750    3.716  115.526    0.534    0.260
  355.000    3.647  116.144    0.533    0.223
  355.250    3.579  112.475    0.528    0.237
  355.500    3.448  110.031    0.525    0.243
  355.750    3.448  108.198    0.530    0.280
  356.000    3.449  104.530    0.538    0.276
  356.250    3.649  106.373    0.538    0.276
  356.500    3.861  106.989    0.538    0.277
  356.750    4.162  106.993    0.543    0.277
