~VERSION INFORMATION
 VERS.                 2.0:   CWLS LOG ASCII STANDARD -VERSION 2.0
 WRAP.                  NO:   ONE LINE PER DEPTH STEP
~WELL INFORMATION BLOCK
#MNEM.UNIT           DATA                    DESCRIPTION OF MNEMONIC
#---------    -------------------            -------------------------------
# Generated from Intellog Unique Number	CS_73_76/WELL/833
WELL.         PACIFIC  CRIST                 : Well_name    - WELL
LOC .         00/10-24-073-08W4/0            : Location     - LOCATION
UWI .         00/10-24-073-08W4/0            : Uwi          - UNIQUE WELL ID
ENTR.         SP                             : Entered      - ENTERED BY
SRVC.         SCHLUMBERGER                   : Scn          - SERVICE COMPANY
STRT.M        310                            : top_depth    - START DEPTH
STOP.M        530                            : bot_depth    - STOP DEPTH
STEP.M        0.25                           : increment    - STEP LENGTH
 NULL. -999.2500:NULL Value
~CURVE INFORMATION BLOCK
#MNEM UNIT       ERCB CURVE CODE    CURVE DESCRIPTION
#-----------   ------------------   ----------------------------------
DEPT.M        00 001 00 00         : DEPTH        - DEPTH
ILD .OHMM     00 120 00 00         : RESD         - DEEP RESISTIVITY (DIL)
DPHI.V/V      00 890 00 00         : PHID         - DENSITY POROSITY (LIMESTONE)
NPHI.V/V      00 330 00 00         : PHIN         - NEUTRON POROSITY (LIMESTONE)
GR  .API      00 310 00 00         : GR           - GAMMA RAY
~PARAMETER INFORMATION
#MNEM.UNIT           DATA             DESCRIPTION OF MNEMONIC
#---------         -----------     ------------------------------
GL  .M        694.3                : gl           - GROUND LEVEL ELEVATION
EREF.M        697.6                : kb           - ELEVATION OF DEPTH REFERENCE
DATM.M        694.3                : datum        - DATUM ELEVATION
TDD .M        540                  : tdd          - TOTAL DEPTH DRILLER
RUN .         ONE                  : Run          - RUN NUMBER
ENG .         BILL                 : Engineer     - RECORDING ENGINEER
WIT .         JIM                  : Witness      - WITNESSED BY
MUD .         GEL                  : Mud_type     - MUD TYPE
MATR.         LIMESTONE            : Logunit      - NEUTRON MATRIX
TMAX.C        12.8                 : BHT          - MAXIMUM RECORDED TEMPERATURE
BHTD.M        540                  : BHTDEP       - MAXIMUM RECORDED TEMPERATURE
MATR.         1                    : LOGUNIT      - NEUTRON MATRIX
RMT .C        25                   : MDTP         - TEMPERATURE OF MUD
NEUT.         1                    : NEUTRON      - NEUTRON TYPE
RESI.         0                    : RESIST       - RESISTIVITY TYPE
RMC .OHMM     0.25                 : RMC          - RESISTIVITY OF MUD CAKE
RMF .OHMM     0.25                 : RMF          - RESISTIVITY OF MUD FILTRATE
SUFT.C        15                   : SUFT         - SURFACE TEMPERATURE
~A  DEPTH     RESD     PHID     PHIN       GR
  310.000    3.222    0.260    0.576   93.748
  310.250    3.352    0.257    0.567   90.114
  310.500    3.357    0.245    0.563   90.111
  310.750    3.423    0.251    0.551   94.945
  311.000    3.493    0.257    0.557   99.174
  311.250    3.497    0.254    0.563   97.959
  311.500    3.505    0.243    0.569   96.746
  311.750    3.508    0.238    0.564   96.742
  312.000    3.579    0.250    0.549   95.529
  312.250    3.584    0.242    0.554   97.337
  312.500    3.590    0.242    0.557   99.147
  312.750    3.597    0.231    0.560  100.353
  313.000    3.601    0.222    0.568  100.956
  313.250    3.608    0.211    0.565   99.136
  313.500    3.820    0.232    0.554   96.714
  313.750    4.047    0.226    0.528   94.896
  314.000    4.127    0.239    0.523   93.076
  314.250    4.289    0.221    0.520   93.072
  314.500    4.376    0.213    0.535   95.487
  314.750    4.465    0.219    0.548   96.089
  315.000    4.472    0.205    0.525   94.874
  315.250    4.564    0.191    0.507   92.450
  315.500    4.657    0.184    0.498   90.632
  315.750    4.750    0.205    0.516   92.442
  316.000    4.849    0.219    0.539   94.254
  316.250    4.854    0.222    0.523   94.854
  316.500    4.772    0.220    0.527   94.851
  316.750    4.691    0.218    0.515   98.474
  317.000    4.699    0.238    0.519  101.494
  317.250    4.707    0.247    0.545  102.700
  317.500    4.715    0.230    0.557  102.696
  317.750    4.634    0.219    0.563  101.482
  318.000    4.472    0.218    0.564   99.059
  318.250    4.316    0.226    0.562   96.031
  318.500    4.244    0.241    0.570   95.422
  318.750    4.249    0.220    0.519   95.417
  319.000    4.418    0.224    0.519   94.809
  319.250    4.425    0.210    0.546   95.410
  319.500    4.271    0.198    0.558   94.196
  319.750    4.196    0.226    0.552   95.401
  320.000    4.203    0.241    0.524   94.187
  320.250    4.452    0.209    0.466   91.765
  320.500    5.078    0.214    0.449   88.736
  320.750    6.011    0.242    0.436   89.337
  321.000    6.984    0.255    0.435   92.357
  321.250    8.419    0.266    0.445   94.167
  321.500   10.732    0.253    0.440   94.163
  321.750   12.943    0.243    0.434   98.392
  322.000   13.961    0.229    0.440  101.412
  322.250   14.518    0.230    0.440  103.828
  322.500   14.542    0.256    0.435   95.356
  322.750   14.573    0.278    0.442   86.885
  323.000   14.868    0.291    0.357   75.993
  323.250   15.156    0.291    0.322   70.546
  323.500   16.655    0.276    0.299   66.913
  323.750   19.364    0.273    0.282   63.280
  324.000   20.495    0.276    0.290   60.251
  324.250   22.527    0.281    0.337   64.480
  324.500   23.404    0.323    0.387   68.106
  324.750   23.441    0.316    0.411   72.336
  325.000   20.256    0.316    0.422   75.961
  325.250   19.174    0.322    0.423   75.956
  325.500   17.831    0.284    0.413   75.348
  325.750   16.886    0.257    0.404   74.133
  326.000   16.000    0.257    0.412   74.130
  326.250   15.170    0.264    0.416   74.125
  326.500   14.638    0.251    0.415   74.121
  326.750   14.386    0.253    0.415   78.954
  327.000   14.404    0.258    0.432   81.369
  327.250   14.429    0.236    0.440   83.785
  327.500   14.716    0.240    0.436   87.410
  327.750   14.467    0.248    0.432   92.849
  328.000   13.702    0.229    0.429   94.661
  328.250   12.510    0.211    0.442   97.681
  328.500   11.629    0.210    0.439   99.492
  328.750   10.812    0.240    0.434   92.230
  329.000   11.035    0.264    0.430   85.572
  329.250   11.471    0.263    0.430   81.939
  329.500   12.148    0.262    0.428   83.749
  329.750   13.110    0.246    0.422   83.745
  330.000   13.877    0.252    0.411   82.531
  330.250   14.699    0.264    0.408   80.712
  330.500   15.269    0.275    0.405   80.104
  330.750   15.872    0.262    0.394   80.703
  331.000   15.314    0.236    0.381   82.514
  331.250   13.475    0.195    0.376   85.534
  331.500   12.073    0.205    0.400   87.950
  331.750   11.020    0.213    0.411   85.525
  332.000   10.434    0.190    0.405   83.707
  332.250   10.649    0.225    0.402   78.259
  332.500   11.700    0.246    0.406   74.022
  332.750   13.611    0.251    0.408   70.994
  333.000   14.412    0.240    0.397   69.176
  333.250   14.981    0.242    0.415   65.543
  333.500   15.566    0.264    0.420   56.465
  333.750   15.579    0.281    0.408   54.043
  334.000   15.606    0.282    0.402   52.829
  334.250   15.925    0.276    0.400   52.220
  334.500   16.246    0.268    0.402   57.054
  334.750   16.884    0.257    0.397   68.541
  335.000   15.992    0.229    0.397   76.400
  335.250   13.556    0.204    0.434   83.050
  335.500   11.698    0.151    0.450   91.514
  335.750    9.205    0.154    0.478  101.186
  336.000    7.799    0.130    0.498  105.416
  336.250    6.489    0.123    0.510  108.436
  336.500    5.813    0.166    0.531  117.504
  336.750    5.405    0.187    0.543  119.920
  337.000    4.844    0.195    0.555  117.496
  337.250    4.422    0.195    0.563  114.467
  337.500    4.113    0.203    0.542  112.044
  337.750    3.966    0.209    0.536  111.436
  338.000    3.622    0.204    0.528  112.035
  338.250    3.430    0.211    0.521  109.612
  338.500    3.249    0.208    0.515  104.165
  338.750    3.079    0.249    0.571   94.483
  339.000    3.082    0.285    0.526   87.222
  339.250    4.234    0.325    0.467   78.145
  339.500    5.924    0.311    0.437   73.908
  339.750    7.983    0.280    0.425   72.088
  340.000   10.367    0.263    0.439   67.850
  340.250   12.501    0.267    0.459   64.217
  340.500   14.003    0.279    0.462   62.399
  340.750   14.291    0.298    0.451   63.605
  341.000   14.572    0.304    0.459   67.834
  341.250   14.323    0.307    0.462   70.854
  341.500   14.090    0.308    0.451   70.245
  341.750   13.847    0.287    0.443   69.029
  342.000   13.123    0.285    0.439   69.026
  342.250   12.899    0.275    0.444   69.627
  342.500   11.999    0.266    0.450   71.438
  342.750   11.791    0.240    0.451   73.248
  343.000   11.176    0.243    0.470   71.429
  343.250   10.979    0.251    0.467   68.400
  343.500   10.793    0.267    0.463   67.794
  343.750   10.415    0.260    0.455   68.998
  344.000   10.436    0.255    0.453   71.414
  344.250   10.448    0.245    0.456   75.039
  344.500   10.463    0.237    0.461   76.850
  344.750   10.490    0.232    0.455   78.055
  345.000   10.311    0.227    0.449   77.446
  345.250   10.321    0.230    0.437   76.837
  345.500   10.148    0.238    0.424   73.808
  345.750   10.159    0.268    0.419   70.779
  346.000    9.988    0.268    0.412   74.405
  346.250   10.007    0.251    0.426   77.426
  346.500   10.024    0.239    0.438   75.606
  346.750   10.044    0.244    0.435   76.812
  347.000   10.055    0.242    0.439   77.413
  347.250   10.065    0.259    0.437   79.223
  347.500   10.473    0.266    0.448   81.638
  347.750   10.683    0.271    0.459   83.448
  348.000   10.896    0.282    0.454   83.444
  348.250   11.327    0.282    0.448   84.651
  348.500   12.001    0.273    0.442   79.202
  348.750   12.469    0.266    0.437   73.150
  349.000   12.955    0.259    0.437   62.259
  349.250   13.718    0.289    0.424   51.973
  349.500   14.799    0.267    0.409   50.155
  349.750   16.263    0.239    0.397   53.175
  350.000   17.545    0.277    0.431   56.194
  350.250   18.229    0.292    0.444   56.190
  350.500   18.616    0.301    0.438   59.210
  350.750   18.299    0.273    0.432   64.044
  351.000   17.658    0.238    0.426   67.669
  351.250   17.037    0.200    0.432   70.689
  351.500   16.139    0.186    0.456   73.709
  351.750   15.571    0.235    0.450   77.335
  352.000   14.485    0.243    0.440   85.193
  352.250   13.717    0.227    0.437   89.422
  352.500   12.993    0.226    0.434   93.652
  352.750   12.084    0.235    0.423   96.673
  353.000   11.443    0.229    0.420   96.667
  353.250   10.645    0.213    0.417   98.479
