~VERSION INFORMATION
 VERS.                 2.0:   CWLS LOG ASCII STANDARD -VERSION 2.0
 WRAP.                  NO:   ONE LINE PER DEPTH STEP
~WELL INFORMATION BLOCK
#MNEM.UNIT           DATA                    DESCRIPTION OF MNEMONIC
#---------    -------------------            -------------------------------
# Generated from Intellog Unique Number	CW_73_75/WELL/2747
WELL.         GAO ET AL AMADO4 11-31         : Well_name    - WELL
LOC .         00/11-31-073-19W4/0            : Location     - LOCATION
UWI .         00/11-31-073-19W4/0            : Uwi          - UNIQUE WELL ID
ENTR.         JAYE                           : Entered      - ENTERED BY
SRVC.         SCHLUMBERGER                   : Scn          - SERVICE COMPANY
DATE.         10 JAN 74                      : Date         - LOG DATE
STRT.M        353.568                        : top_depth    - START DEPTH
STOP.M        594.318                        : bot_depth    - STOP DEPTH
STEP.M        0.25                           : increment    - STEP LENGTH
 NULL. -999.2500:NULL Value
~CURVE INFORMATION BLOCK
#MNEM UNIT       ERCB CURVE CODE    CURVE DESCRIPTION
#-----------   ------------------   ----------------------------------
DEPT.M        00 001 00 00         : DEPTH        - DEPTH
ILD .OHMM     00 120 00 00         : RESD         - DEEP RESISTIVITY (DIL)
NPHI.V/V      00 330 00 00         : PHIN         - NEUTRON POROSITY (SANDSTONE)
DPHI.V/V      00 890 00 00         : PHID         - DENSITY POROSITY (SANDSTONE)
GR  .API      00 310 00 00         : GR           - GAMMA RAY
CALI.MM       00 280 01 00         : CAL          - CALIPER
~PARAMETER INFORMATION
#MNEM.UNIT           DATA             DESCRIPTION OF MNEMONIC
#---------         -----------     ------------------------------
GL  .M        671.779              : gl           - GROUND LEVEL ELEVATION
EREF.M        674.827              : kb           - ELEVATION OF DEPTH REFERENCE
DATM.M        671.779              : datum        - DATUM ELEVATION
TDD .M        600.456              : tdd          - TOTAL DEPTH DRILLER
RUN .         ONE                  : Run          - RUN NUMBER
BASE.         EDM                  : Branch       - HOME BASE OF LOGGING UNIT
MATR.         SANDSTONE            : Logunit      - NEUTRON MATRIX
TMAX.C        29.4444              : BHT          - MAXIMUM RECORDED TEMPERATURE
BHTD.M        603.504              : BHTDEP       - MAXIMUM RECORDED TEMPERATURE
RMT .C        13.3333              : MDTP         - TEMPERATURE OF MUD
MUDD.KG/M     0                    : MWT          - MUD DENSITY
NEUT.         1                    : NEUTRON      - NEUTRON TYPE
RESI.         0                    : RESIST       - RESISTIVITY TYPE
RM  .OHMM     0.843                : RM           - RESISTIVITY OF MUD
RMC .OHMM     0                    : RMC          - RESISTIVITY OF MUD CAKE
RMF .OHMM     1.17                 : RMF          - RESISTIVITY OF MUD FILTRATE
SUFT.C        -17.7778             : SUFT         - SURFACE TEMPERATURE
~A  DEPTH     RESD     PHIN     PHID       GR      CAL
# ...
  499.568    4.796    0.442    0.305   61.645  138.762
  499.818    4.826    0.438    0.307   62.647  138.931
  500.068    4.838    0.435    0.308   64.167  138.993
  500.318    4.895    0.441    0.298   64.780  138.730
  500.568    4.925    0.471    0.303   65.009  138.569
  500.818    4.992    0.487    0.307   65.881  138.626
  501.068    5.060    0.474    0.266   66.757  139.011
  501.318    5.204    0.452    0.241   65.562  140.490
  501.568    5.342    0.393    0.214   65.986  144.594
  501.818    5.316    0.382    0.188   68.084  144.105
  502.068    5.130    0.408    0.270   71.411  141.974
  502.318    4.948    0.440    0.296   76.999  140.500
  502.568    4.696    0.444    0.279   87.364  142.853
  502.818    4.456    0.436    0.221   94.694  145.866
  503.068    4.145    0.442    0.202  100.668  149.087
  503.318    3.933    0.452    0.220  105.481  151.773
  503.568    3.760    0.485    0.207  104.545  154.566
  503.818    3.648    0.481    0.218  101.352  156.593
  504.068    3.564    0.470    0.232   98.932  155.880
  504.318    3.458    0.457    0.248   99.542  153.865
  504.568    3.410    0.465    0.251  100.999  155.778
  504.818    3.394    0.485    0.246  105.363  159.115
  505.068    3.396    0.487    0.232  107.333  162.667
  505.318    3.417    0.476    0.222  107.044  164.803
  505.568    3.444    0.487    0.218  107.076  164.978
  505.818    3.484    0.511    0.241  108.013  160.001
  506.068    3.532    0.519    0.236  108.695  158.313
  506.318    3.613    0.499    0.245  108.278  157.821
  506.568    3.688    0.479    0.260  109.862  158.097
  506.818    3.759    0.461    0.269  106.343  158.045
  507.068    3.831    0.471    0.254  100.761  159.524
  507.318    3.904    0.452    0.222   96.015  161.443
  507.568    4.016    0.456    0.218   94.823  159.313
  507.818    4.107    0.471    0.236   96.340  154.014
  508.068    4.225    0.455    0.196   97.924  151.440
  508.318    4.361    0.472    0.219  100.929  150.735
  508.568    4.477    0.471    0.215   99.737  150.678
  508.818    4.647    0.458    0.225   97.576  150.634
  509.068    4.806    0.454    0.236   92.897  150.574
  509.318    4.871    0.455    0.214   92.928  150.852
  509.568    4.919    0.465    0.195   95.805  151.133
  509.818    4.958    0.466    0.183   98.680  151.282
  510.068    5.007    0.452    0.213  101.748  151.579
  510.318    5.002    0.462    0.201  103.656  151.958
  510.568    4.969    0.461    0.186  106.465  152.345
  510.818    4.909    0.462    0.199  111.214  152.293
  511.068    4.823    0.463    0.208  108.017  152.023
  511.318    4.782    0.458    0.198  105.599  151.756
  511.568    4.768    0.451    0.192  104.470  151.704
  511.818    4.789    0.438    0.206  105.215  152.852
  512.068    4.792    0.432    0.199  103.634  154.222
  512.318    4.858    0.438    0.188  103.798  155.924
  512.568    4.959    0.445    0.201  106.609  156.855
  512.818    5.092    0.444    0.232  106.255  150.131
  513.068    5.151    0.445    0.234  102.156  148.879
  513.318    5.154    0.438    0.222  104.450  150.576
  513.568    5.130    0.438    0.210  106.099  153.037
  513.818    5.133    0.450    0.207  107.422  154.190
  514.068    5.203    0.470    0.218  104.035  148.670
  514.318    5.284    0.486    0.238   95.160  142.934
  514.568    5.364    0.473    0.213   85.508  142.007
  514.818    5.467    0.477    0.238   84.638  141.847
  515.068    5.716    0.467    0.241   86.286  143.103
  515.318    6.066    0.434    0.201   86.255  143.815
  515.568    6.376    0.409    0.164   80.608  143.766
  515.818    6.814    0.392    0.139   79.996  142.950
  516.068    7.350    0.384    0.157   76.477  141.261
  516.318    7.784    0.421    0.149   72.509  139.669
  516.568    7.963    0.433    0.141   77.257  138.968
  516.818    7.824    0.412    0.161   84.328  139.019
  517.068    7.715    0.408    0.170   85.201  139.950
  517.318    7.608    0.378    0.170   83.622  141.324
  517.568    7.544    0.356    0.153   84.105  143.241
  517.818    7.251    0.399    0.147   86.208  144.502
  518.068    6.794    0.439    0.174   91.730  145.653
  518.318    6.377    0.449    0.186   99.061  146.474
  518.568    5.975    0.435    0.172   98.126  147.083
  518.818    5.882    0.437    0.175   97.644  148.887
  519.068    5.853    0.450    0.194  100.518  151.015
  519.318    5.793    0.453    0.186  102.230  151.847
  519.568    5.765    0.440    0.177  105.493  151.902
  519.818    5.823    0.434    0.185  108.173  151.634
  520.068    5.912    0.431    0.188  108.919  150.810
  520.318    6.059    0.424    0.193  107.984  149.011
  520.568    6.163    0.431    0.197  106.597  146.667
  520.818    6.247    0.437    0.195  105.663  143.883
  521.068    6.320    0.441    0.184  106.925  146.780
  521.318    6.417    0.428    0.181  108.440  143.452
  521.568    6.481    0.414    0.181  109.896  140.558
  521.818    6.520    0.404    0.184  113.160  145.536
  522.068    6.574    0.401    0.183  118.100  148.546
  522.318    6.470    0.408    0.175  112.386  148.494
  522.568    6.369    0.406    0.180  109.322  148.109
  522.818    6.235    0.403    0.188  108.711  148.278
  523.068    6.082    0.402    0.181  108.936  149.976
  523.318    5.921    0.404    0.173  109.487  151.128
  523.568    5.786    0.421    0.190  109.588  145.720
  523.818    5.716    0.416    0.198  108.780  149.820
  524.068    5.731    0.401    0.167  109.140  144.632
  524.318    5.756    0.394    0.147  104.847  142.937
  524.568    5.759    0.405    0.121  103.654  147.481
  524.818    5.806    0.413    0.171  107.109  149.499
  525.068    5.756    0.424    0.194  108.371  149.449
  525.318    5.594    0.432    0.193  106.597  149.183
  525.568    4.944    0.431    0.174  105.403  149.126
  525.818    4.400    0.415    0.191  105.694  149.404
  526.068    3.688    0.427    0.206  106.373  149.794
  526.318    2.969    0.493    0.226  107.442  154.878
  526.568    2.543    0.527    0.252  107.864  156.575
  526.818    2.207    0.548    0.282  109.254  149.198
  527.068    1.961    0.543    0.245  109.934  147.830
  527.318    1.794    0.540    0.219  110.678  147.783
  527.568    1.750    0.542    0.219  110.840  147.075
  527.818    1.958    0.531    0.212  112.038  146.260
  528.068    2.288    0.516    0.205  110.586  145.878
  528.318    2.569    0.428    0.193  101.840  145.719
  528.568    3.042    0.412    0.184  105.876  144.680
  528.818    3.595    0.419    0.193  108.168  145.505
  529.068    4.134    0.431    0.190  109.302  146.217
  529.318    4.299    0.440    0.180  110.692  151.414
  529.568    4.544    0.450    0.185  110.339  147.537
  529.818    5.001    0.444    0.154  104.756  142.344
  530.068    5.544    0.335    0.145   94.133  141.530
  530.318    6.329    0.312    0.122   89.325  145.084
  530.568    6.788    0.360    0.087   92.004  147.109
  530.818    6.918    0.379    0.122  100.113  148.700
  531.068    6.613    0.391    0.123  104.860  144.821
  531.318    6.151    0.404    0.144  104.246  142.035
  531.568    5.680    0.423    0.151  101.893  143.401
  531.818    5.361    0.444    0.120  102.638  145.102
  532.068    5.162    0.434    0.132  104.738  146.363
  532.318    5.035    0.425    0.150  107.870  145.762
  532.568    4.965    0.415    0.132  107.906  145.708
  532.818    4.915    0.413    0.158  107.292  145.550
  533.068    4.891    0.420    0.170  109.717  146.812
  533.318    4.876    0.429    0.174  114.270  151.351
  533.568    4.853    0.440    0.169  114.043  151.626
  533.818    4.830    0.438    0.153  111.173  149.170
  534.068    4.737    0.433    0.159  108.367  147.583
  534.318    4.662    0.425    0.154  108.849  147.316
  534.568    4.556    0.439    0.152  109.595  147.478
  534.818    4.477    0.449    0.135  111.763  146.883
  535.068    4.406    0.442    0.182  111.020  144.430
  535.318    4.251    0.454    0.167  112.863  141.642
  535.568    4.101    0.456    0.151  113.993  143.995
  535.818    3.964    0.451    0.184  110.476  146.680
