~VERSION INFORMATION
 VERS.                 2.0:   CWLS LOG ASCII STANDARD -VERSION 2.0
 WRAP.                  NO:   ONE LINE PER DEPTH STEP
~WELL INFORMATION BLOCK
#MNEM.UNIT           DATA                    DESCRIPTION OF MNEMONIC
#---------    -------------------            -------------------------------
# Generated from Intellog Unique Number	CC_80_83/WELL/2331
NULL.         -999.25                        : NULL_VALUE
WELL.         GULF PONY                      : Well_name    - WELL              
LOC .         10-03-081-09W4                 : Location     - LOCATION          
UWI .         00/10-03-081-09W400            : Uwi          - UNIQUE WELL ID    
ENTR.         DW                             : Entered      - ENTERED BY        
SRVC.         SCHLUMBERGER                   : Scn          - SERVICE COMPANY   
DATE.         01 FEB 75                      : Date         - LOG DATE
STRT.M        259.08                         : top_depth    - START DEPTH       
STOP.M        496.831                        : bot_depth    - STOP DEPTH        
STEP.M        0.305                          : increment    - STEP LENGTH       
~CURVE INFORMATION BLOCK
#MNEM UNIT       ERCB CURVE CODE    CURVE DESCRIPTION
#-----------   ------------------   ----------------------------------
DEPT.M        00 001 00 00         : DEPTH        - DEPTH                       
GR  .API      00 310 00 00         : GR           - GAMMA RAY                   
NPHI.V/V      00 330 00 00         : PHIN         - NEUTRON POROSITY (LIMESTONE)
DPHI.V/V      00 890 00 00         : PHID         - DENSITY POROSITY (LIMESTONE)
~PARAMETER INFORMATION       
#MNEM.UNIT           DATA             DESCRIPTION OF MNEMONIC
#---------         -----------     ------------------------------
GL  .M        702.259              : gl           - GROUND LEVEL ELEVATION      
EREF.M        706.039              : kb           - ELEVATION OF DEPTH REFERENCE
DATM.M        706.039              : datum        - DATUM ELEVATION             
TDD .M        499.872              : tdd          - TOTAL DEPTH DRILLER         
RUN .         ONE                  : Run          - RUN NUMBER                  
ENG .         BILL                 : Engineer     - RECORDING ENGINEER          
WIT .         JIM                  : Witness      - WITNESSED BY                
MUD .         GEL                  : Mud_type     - MUD TYPE                    
MATR.         LIMESTONE            : Logunit      - NEUTRON MATRIX              
TMAX.C        22.2222              : BHT          - MAXIMUM RECORDED TEMPERATURE
BHTD.M        499.872              : BHTDEP       - MAXIMUM RECORDED TEMPERATURE
MATR.         1                    : LOGUNIT      - NEUTRON MATRIX              
RMT .C        25                   : MDTP         - TEMPERATURE OF MUD          
NEUT.         1                    : NEUTRON      - NEUTRON TYPE                
RESI.         0                    : RESIST       - RESISTIVITY TYPE            
RMC .OHMM     0.25                 : RMC          - RESISTIVITY OF MUD CAKE     
RMF .OHMM     0.25                 : RMF          - RESISTIVITY OF MUD FILTRATE 
SUFT.C        4                    : SUFT         - SURFACE TEMPERATURE         
~A  DEPTH       GR     PHIN     PHID
# ...
  325.224   99.406    0.524    0.256
  325.528   96.371    0.545    0.257
  325.833   93.943    0.545    0.268
  326.138   93.347    0.526    0.241
  326.443   92.150    0.504    0.267
  326.748   89.716    0.493    0.291
  327.053   84.226    0.520    0.293
  327.357   80.572    0.535    0.295
  327.662   75.081    0.500    0.302
  327.967   66.528    0.468    0.292
  328.272   72.064    0.489    0.241
  328.577   61.060    0.510    0.254
  328.881   48.219    0.478    0.270
  329.186   49.469    0.440    0.273
  329.491   46.430    0.436    0.291
  329.796   45.227    0.444    0.299
  330.101   47.699    0.450    0.308
  330.405   50.779    0.442    0.293
  330.710   46.516    0.436    0.297
  331.015   43.480    0.437    0.315
  331.320   47.175    0.453    0.325
  331.625   50.256    0.464    0.315
  331.929   47.828    0.452    0.314
  332.234   44.787    0.449    0.313
  332.539   42.976    0.453    0.310
  332.844   42.999    0.466    0.320
  333.149   43.634    0.457    0.327
  333.454   44.875    0.452    0.331
  333.758   45.510    0.455    0.334
  334.063   45.539    0.455    0.335
  334.368   45.562    0.448    0.327
  334.673   46.805    0.447    0.307
  334.978   49.275    0.453    0.311
  335.282   47.456    0.449    0.332
  335.587   50.546    0.460    0.322
  335.892   51.181    0.446    0.329
  336.197   51.817    0.440    0.322
  336.502   53.057    0.452    0.308
  336.806   53.695    0.460    0.301
  337.111   50.651    0.458    0.298
  337.416   50.674    0.445    0.314
  337.721   53.759    0.433    0.328
  338.026   53.783    0.425    0.329
  338.330   48.294    0.447    0.327
  338.635   48.928    0.459    0.323
  338.940   50.786    0.447    0.332
  339.245   50.810    0.445    0.331
  339.550   52.670    0.447    0.336
  339.855   53.917    0.452    0.349
  340.159   51.488    0.458    0.347
  340.464   51.508    0.463    0.336
  340.769   53.366    0.463    0.339
  341.074   52.163    0.464    0.338
  341.379   52.800    0.473    0.336
  341.683   54.661    0.486    0.350
  341.988   54.682    0.471    0.329
  342.293   51.028    0.461    0.328
  342.598   48.599    0.455    0.345
  342.903   48.627    0.458    0.362
  343.207   49.256    0.517    0.387
  343.512   51.727    0.472    0.323
  343.817   53.586    0.489    0.339
  344.122   57.283    0.473    0.354
  344.427   60.985    0.463    0.344
  344.731   61.004    0.463    0.341
  345.036   54.290    0.451    0.334
  345.341   57.376    0.438    0.326
  345.646   54.336    0.444    0.334
  345.951   51.903    0.453    0.318
  346.256   48.867    0.450    0.324
  346.560   48.885    0.450    0.325
  346.865   47.686    0.474    0.334
  347.170   51.992    0.495    0.351
  347.475   50.788    0.487    0.333
  347.780   46.528    0.479    0.322
  348.084   47.162    0.471    0.339
  348.389   50.242    0.469    0.338
  348.694   49.652    0.479    0.339
  348.999   45.997    0.492    0.347
  349.304   44.183    0.492    0.361
  349.608   44.819    0.482    0.356
  349.913   47.902    0.479    0.355
  350.218   49.765    0.487    0.349
  350.523   49.783    0.500    0.348
  350.828   47.971    0.503    0.351
  351.132   46.152    0.511    0.352
  351.437   43.724    0.491    0.340
  351.742   43.133    0.489    0.334
  352.047   48.056    0.508    0.344
  352.352   48.082    0.495    0.358
  352.657   43.814    0.472    0.342
  352.961   42.610    0.461    0.333
  353.266   46.309    0.469    0.339
  353.571   46.328    0.471    0.356
  353.876   46.352    0.471    0.353
  354.181   46.377    0.462    0.357
  354.485   47.625    0.458    0.352
  354.790   49.480    0.462    0.348
  355.095   49.500    0.477    0.341
  355.400   49.528    0.469    0.346
  355.705   50.773    0.468    0.336
  356.009   52.632    0.467    0.341
  356.314   54.489    0.489    0.333
  356.619   57.577    0.490    0.327
  356.924   60.658    0.477    0.326
  357.229   68.031    0.477    0.295
  357.533   76.627    0.487    0.234
  357.838   87.063    0.518    0.201
  358.143   95.047    0.520    0.228
  358.448   96.913    0.541    0.211
  358.753   96.315    0.537    0.224
  359.058   95.727    0.544    0.246
  359.362   95.133    0.547    0.237
  359.667   95.768    0.550    0.230
  359.972   99.466    0.556    0.209
  360.277   97.040    0.571    0.215
  360.582   92.159    0.553    0.218
  360.886   89.731    0.531    0.209
  361.191   89.144    0.520    0.231
  361.496   90.393    0.540    0.235
  361.801   91.637    0.551    0.242
  362.106   90.434    0.555    0.259
  362.410   83.718    0.568    0.250
  362.715   80.678    0.577    0.268
  363.020   74.576    0.541    0.287
  363.325   73.374    0.527    0.296
  363.630   74.621    0.519    0.292
  363.934   77.093    0.514    0.281
  364.239   81.399    0.517    0.270
  364.544   85.098    0.553    0.278
  364.849   82.670    0.563    0.295
  365.154   68.602    0.532    0.308
  365.459   68.627    0.519    0.305
  365.763   73.546    0.516    0.293
  366.068   83.981    0.527    0.241
  366.373   95.028    0.552    0.223
  366.678   97.502    0.559    0.236
  366.983   98.751    0.588    0.249
  367.287   98.770    0.625    0.259
  367.592   96.344    0.612    0.257
  367.897   89.627    0.590    0.242
  368.202   81.685    0.547    0.261
  368.507   79.870    0.526    0.286
  368.811   87.242    0.538    0.290
  369.116   94.615    0.556    0.227
  369.421  100.154    0.568    0.222
  369.726  101.399    0.594    0.233
  370.031   99.579    0.632    0.248
  370.335   98.377    0.636    0.241
  370.640   99.626    0.648    0.216
  370.945  100.880    0.640    0.214
  371.250  102.127    0.632    0.228
  371.555  102.140    0.612    0.242
  371.860   97.263    0.619    0.238
  372.164   97.284    0.606    0.238
  372.469   99.148    0.590    0.244
  372.774   99.778    0.607    0.257
  373.079  102.250    0.622    0.262
  373.384   96.761    0.624    0.244
  373.688   91.881    0.595    0.240
  373.993   93.744    0.568    0.251
  374.298   92.538    0.570    0.244
  374.603   91.949    0.573    0.246
  374.908   90.744    0.527    0.240
  375.212   87.093    0.557    0.247
  375.517   82.221    0.552    0.267
  375.822   82.235    0.528    0.241
  376.127   84.099    0.547    0.223
  376.432   85.348    0.508    0.235
  376.736   85.983    0.501    0.256
  377.041   87.842    0.525    0.245
  377.346   90.309    0.546    0.241
  377.651   95.230    0.568    0.229
  377.956   96.486    0.594    0.230
  378.261   95.279    0.552    0.241
  378.565   92.849    0.541    0.230
  378.870   90.418    0.521    0.226
  379.175   86.773    0.517    0.211
  379.480   86.180    0.539    0.233
  379.785   84.978    0.551    0.231
  380.089   85.612    0.545    0.229
  380.394   83.792    0.515    0.235
  380.699   83.202    0.480    0.259
  381.004   81.389    0.482    0.251
  381.309   82.632    0.493    0.252
  381.613   85.104    0.518    0.245
  381.918   83.292    0.538    0.263
  382.223   80.248    0.514    0.271
  382.528   75.986    0.525    0.256
  382.833   74.784    0.509    0.253
  383.137   74.194    0.493    0.255
  383.442   74.217    0.495    0.253
  383.747   75.458    0.515    0.255
  384.052   77.328    0.514    0.252
  384.357   78.575    0.505    0.253
  384.662   79.206    0.488    0.239
  384.966   79.837    0.493    0.231
  385.271   79.245    0.522    0.240
  385.576   75.594    0.520    0.252
  385.881   75.613    0.512    0.258
  386.186   75.022    0.501    0.221
  386.490   75.045    0.499    0.230
  386.795   76.909    0.512    0.249
  387.100   75.704    0.516    0.241
  387.405   75.112    0.508    0.236
  387.710   78.201    0.508    0.231
  388.014   79.444    0.503    0.220
  388.319   76.407    0.497    0.239
  388.624   76.423    0.496    0.251
  388.929   80.126    0.506    0.244
  389.234   83.209    0.496    0.237
  389.538   85.066    0.503    0.229
  389.843   84.476    0.503    0.229
  390.148   85.729    0.526    0.254
  390.453   85.743    0.559    0.254
  390.758   87.603    0.588    0.244
  391.063   88.852    0.564    0.236
