~VERSION INFORMATION
 VERS.                 2.0:   CWLS LOG ASCII STANDARD -VERSION 2.0
 WRAP.                  NO:   ONE LINE PER DEPTH STEP
~WELL INFORMATION BLOCK
#MNEM.UNIT           DATA                    DESCRIPTION OF MNEMONIC
#---------    -------------------            -------------------------------
# Generated from Intellog Unique Number	CS_69_70/WELL/898
WELL.         PROVIDENT RESOURCES LTD.       : Well_name    - WELL
LOC .         00/11-31-070-17W4/0            : Location     - LOCATION
UWI .         00/11-31-070-17W4/0            : Uwi          - UNIQUE WELL ID
ENTR.         SP                             : Entered      - ENTERED BY
SRVC.         SCHLUMBERGER                   : Scn          - SERVICE COMPANY
STRT.M        283.464                        : top_depth    - START DEPTH
STOP.M        475.214                        : bot_depth    - STOP DEPTH
STEP.M        0.25                           : increment    - STEP LENGTH
 NULL. -999.2500:NULL Value
~CURVE INFORMATION BLOCK
#MNEM UNIT       ERCB CURVE CODE    CURVE DESCRIPTION
#-----------   ------------------   ----------------------------------
DEPT.M        00 001 00 00         : DEPTH        - DEPTH
GR  .API      00 310 00 00         : GR           - GAMMA RAY
DPHI.V/V      00 890 00 00         : PHID         - DENSITY POROSITY (SANDSTONE)
NPHI.V/V      00 330 00 00         : PHIN         - NEUTRON POROSITY (SANDSTONE)
ILD .OHMM     00 120 00 00         : RESD         - DEEP RESISTIVITY (DIL)
~PARAMETER INFORMATION
#MNEM.UNIT           DATA             DESCRIPTION OF MNEMONIC
#---------         -----------     ------------------------------
GL  .M        566.318              : gl           - GROUND LEVEL ELEVATION
EREF.M        569.062              : kb           - ELEVATION OF DEPTH REFERENCE
DATM.M        566.318              : datum        - DATUM ELEVATION
TDD .M        502.92               : tdd          - TOTAL DEPTH DRILLER
RUN .         ONE                  : Run          - RUN NUMBER
ENG .         BILL                 : Engineer     - RECORDING ENGINEER
WIT .         JIM                  : Witness      - WITNESSED BY
MUD .         GEL                  : Mud_type     - MUD TYPE
MATR.         SANDSTONE            : Logunit      - NEUTRON MATRIX
TMAX.C        22.2222              : BHT          - MAXIMUM RECORDED TEMPERATURE
BHTD.M        502.92               : BHTDEP       - MAXIMUM RECORDED TEMPERATURE
MATR.         1                    : LOGUNIT      - NEUTRON MATRIX
RMT .C        25                   : MDTP         - TEMPERATURE OF MUD
NEUT.         1                    : NEUTRON      - NEUTRON TYPE
RESI.         0                    : RESIST       - RESISTIVITY TYPE
RMC .OHMM     0.25                 : RMC          - RESISTIVITY OF MUD CAKE
RMF .OHMM     0.25                 : RMF          - RESISTIVITY OF MUD FILTRATE
SUFT.C        15                   : SUFT         - SURFACE TEMPERATURE
~A  DEPTH       GR     PHID     PHIN     RESD
  283.464  106.336    0.184    0.514    2.374
  283.714  102.882    0.180    0.510    2.553
  283.964  100.589    0.176    0.509    2.673
  284.214   96.200    0.172    0.505    2.725
  284.464   93.176    0.172    0.510    2.609
  284.714   98.342    0.188    0.520    2.519
  284.964  102.279    0.200    0.517    2.436
  285.214  105.576    0.210    0.520    2.393
  285.464  108.312    0.218    0.529    2.416
  285.714  109.533    0.204    0.534    2.550
  285.964  110.784    0.192    0.535    2.712
  286.214  109.275    0.195    0.529    2.767
  286.464  108.355    0.196    0.523    2.750
  286.714  110.937    0.198    0.521    2.710
  286.964  114.217    0.211    0.533    2.657
  287.214  118.530    0.203    0.545    2.629
  287.464  115.449    0.202    0.551    2.646
  287.714  111.537    0.206    0.539    2.711
  287.964  109.868    0.216    0.530    2.806
  288.214  110.531    0.208    0.529    2.867
  288.464  111.645    0.203    0.532    2.882
  288.714  112.859    0.203    0.539    2.864
  288.964  114.322    0.188    0.554    2.941
  289.214  115.069    0.188    0.560    3.042
  289.464  115.113    0.200    0.553    3.168
  289.714  113.941    0.194    0.535    3.292
  289.964  110.835    0.184    0.518    3.329
  290.214  109.617    0.173    0.503    3.342
  290.464  109.817    0.171    0.507    3.470
  290.714  109.956    0.181    0.499    3.579
  290.964  108.436    0.168    0.486    3.594
  291.214  107.023    0.164    0.474    3.549
  291.464  109.311    0.166    0.468    3.473
  291.714  112.310    0.161    0.486    3.382
  291.964  115.627    0.155    0.496    3.293
  292.214  116.833    0.150    0.494    3.222
  292.464  109.121    0.175    0.482    3.158
  292.714  104.285    0.188    0.480    3.113
  292.964  103.990    0.175    0.480    3.069
  293.214  102.023    0.183    0.499    3.018
  293.464   99.744    0.186    0.521    3.005
  293.714   96.207    0.177    0.534    3.216
  293.964   92.207    0.159    0.531    3.453
  294.214   87.730    0.090    0.521    3.768
  294.464   83.466    0.048    0.466    4.018
  294.714   84.455    0.055    0.390    4.323
  294.964   91.222    0.129    0.404    4.616
  295.214   96.721    0.151    0.413    4.855
  295.464   98.230    0.156    0.418    5.197
  295.714   96.691    0.178    0.415    5.822
  295.964   87.029    0.240    0.450    6.363
  296.214   76.065    0.355    0.500    6.330
  296.464   60.264    0.524    0.528    5.763
  296.714   48.680    0.552    0.567    5.174
  296.964   47.666    0.524    0.620    4.749
  297.214   52.968    0.297    0.679    4.217
  297.464   58.483    0.289    0.654    3.936
  297.714   65.117    0.274    0.628    3.613
  297.964   70.573    0.254    0.414    3.739
  298.214   76.736    0.235    0.431    3.738
  298.464   81.945    0.225    0.421    3.733
  298.714   85.837    0.227    0.414    3.719
  298.964   87.291    0.226    0.417    3.732
  299.214   88.065    0.241    0.418    3.763
  299.464   87.983    0.240    0.409    3.818
  299.714   87.351    0.251    0.401    3.865
  299.964   88.959    0.257    0.413    3.928
  300.214   92.016    0.254    0.429    4.055
  300.464   90.615    0.247    0.437    4.204
  300.714   93.727    0.240    0.433    4.355
  300.964   97.026    0.222    0.423    4.504
  301.214   98.592    0.210    0.416    4.681
  301.464   99.436    0.213    0.409    4.762
  301.714   99.282    0.221    0.409    4.603
  301.964   97.744    0.230    0.421    4.483
  302.214   91.316    0.250    0.444    4.537
  302.464   86.882    0.276    0.470    4.826
  302.714   81.661    0.301    0.507    5.098
  302.964   76.385    0.318    0.517    5.314
  303.214   75.590    0.175    0.396    5.064
  303.464   74.207    0.149    0.365    4.530
  303.714   71.145    0.197    0.385    4.097
  303.964   69.124    0.219    0.395    3.746
  304.214   67.020    0.235    0.396    3.488
  304.464   68.430    0.250    0.387    3.241
  304.714   80.828    0.235    0.393    3.448
  304.964   90.720    0.210    0.400    3.670
  305.214   99.417    0.184    0.405    3.883
  305.464  108.298    0.157    0.427    3.952
  305.714  114.344    0.132    0.441    3.929
  305.964  118.080    0.112    0.452    3.899
  306.214  119.362    0.094    0.453    3.722
  306.464  119.503    0.079    0.468    3.556
  306.714  118.729    0.126    0.482    3.455
  306.964  115.894    0.156    0.493    3.439
  307.214  116.523    0.162    0.498    3.532
  307.464  123.171    0.148    0.495    3.625
  307.714  129.773    0.156    0.482    3.665
  307.964  128.910    0.165    0.473    3.548
  308.214  125.139    0.164    0.467    3.418
  308.464  129.284    0.160    0.476    3.233
  308.714  133.014    0.177    0.508    3.057
  308.964  131.138    0.189    0.517    2.979
  309.214  124.827    0.197    0.523    3.299
  309.464  115.245    0.213    0.519    3.495
  309.714  109.096    0.223    0.464    3.897
  309.964  101.507    0.221    0.446    4.290
  310.214   96.347    0.214    0.444    4.705
  310.464   89.820    0.204    0.437    4.907
  310.714   87.371    0.190    0.431    5.003
  310.964   90.653    0.180    0.438    5.019
  311.214   91.570    0.185    0.444    5.032
  311.464   92.051    0.194    0.449    5.184
  311.714   93.220    0.188    0.452    5.380
  311.964   94.127    0.179    0.454    5.468
  312.214   93.641    0.162    0.446    5.369
  312.464   90.848    0.138    0.433    5.145
  312.714   90.413    0.106    0.435    5.028
  312.964   92.067    0.166    0.438    4.915
  313.214   94.446    0.170    0.432    4.860
  313.464   95.799    0.143    0.447    4.824
  313.714   95.439    0.189    0.457    4.768
  313.964   86.835    0.209    0.445    4.597
  314.214   76.769    0.235    0.435    4.334
  314.464   71.468    0.246    0.434    4.244
  314.714   75.839    0.241    0.434    4.245
  314.964   79.173    0.238    0.440    4.307
  315.214   82.591    0.232    0.431    4.473
  315.464   91.151    0.213    0.419    4.590
  315.714   94.887    0.189    0.431    4.654
  315.964   98.639    0.172    0.460    4.638
  316.214  101.725    0.188    0.482    4.493
  316.464  102.390    0.210    0.489    4.389
  316.714   99.969    0.229    0.473    4.364
  316.964   92.395    0.243    0.463    4.445
  317.214   86.304    0.251    0.454    4.598
  317.464   81.986    0.257    0.441    4.701
  317.714   79.519    0.269    0.443    4.843
  317.964   78.693    0.279    0.450    4.877
  318.214   78.312    0.259    0.456    4.828
  318.464   82.136    0.243    0.454    4.697
  318.714   88.096    0.250    0.448    4.606
  318.964   92.570    0.249    0.443    4.689
  319.214   95.562    0.231    0.440    4.893
  319.464   95.290    0.198    0.462    5.191
  319.714   91.882    0.182    0.477    5.443
  319.964   90.983    0.188    0.471    5.605
  320.214   96.360    0.195    0.440    5.751
  320.464  100.824    0.186    0.417    5.813
  320.714  103.494    0.180    0.415    5.832
  320.964  103.893    0.194    0.413    5.851
  321.214  104.218    0.184    0.423    5.811
  321.464  105.673    0.191    0.442    5.739
  321.714  106.825    0.195    0.456    5.569
  321.964  108.606    0.209    0.468    5.370
  322.214  112.494    0.201    0.459    5.299
  322.464  118.541    0.205    0.451    5.286
  322.714  122.544    0.209    0.443    5.307
  322.964  125.677    0.197    0.435    5.340
  323.214  128.667    0.187    0.450    5.374
  323.464  127.145    0.207    0.461    5.421
  323.714  121.830    0.217    0.458    5.524
  323.964  114.901    0.217    0.445    5.682
  324.214  110.936    0.204    0.424    5.864
  324.464  107.352    0.191    0.408    6.022
  324.714  109.531    0.183    0.398    6.006
  324.964  112.082    0.186    0.399    5.651
  325.214  116.906    0.189    0.429    5.162
  325.464  119.436    0.195    0.449    4.697
  325.714  121.539    0.201    0.465    4.287
  325.964  122.054    0.221    0.480    4.055
  326.214  122.281    0.271    0.496    3.887
  326.464  121.922    0.298    0.506    3.872
  326.714  116.963    0.261    0.499    3.951
