~VERSION INFORMATION
 VERS.                 2.0:   CWLS LOG ASCII STANDARD -VERSION 2.0
 WRAP.                  NO:   ONE LINE PER DEPTH STEP
~WELL INFORMATION BLOCK
#MNEM.UNIT           DATA                    DESCRIPTION OF MNEMONIC
#---------    -------------------            -------------------------------
# Generated from Intellog Unique Number	CW_73_75/WELL/993
WELL.         HB MARTEN HILLS 10-27          : Well_name    - WELL
LOC .         00/10-27-074-01W5/0            : Location     - LOCATION
UWI .         00/10-27-074-01W5/0            : Uwi          - UNIQUE WELL ID
ENTR.         JAYE                           : Entered      - ENTERED BY
SRVC.         SCHLUMBERGER                   : Scn          - SERVICE COMPANY
DATE.         3 MAR 75                       : Date         - LOG DATE
STRT.M        466.344                        : top_depth    - START DEPTH
STOP.M        673.594                        : bot_depth    - STOP DEPTH
STEP.M        0.25                           : increment    - STEP LENGTH
 NULL. -999.2500:NULL Value
~CURVE INFORMATION BLOCK
#MNEM UNIT       ERCB CURVE CODE    CURVE DESCRIPTION
#-----------   ------------------   ----------------------------------
DEPT.M        00 001 00 00         : DEPTH        - DEPTH
ILD .OHMM     00 120 00 00         : RESD         - DEEP RESISTIVITY (DIL)
NPHI.V/V      00 330 00 00         : PHIN         - NEUTRON POROSITY (SANDSTONE)
DPHI.V/V      00 890 00 00         : PHID         - DENSITY POROSITY (SANDSTONE)
GR  .API      00 310 00 00         : GR           - GAMMA RAY
CALI.MM       00 280 01 00         : CAL          - CALIPER
~PARAMETER INFORMATION
#MNEM.UNIT           DATA             DESCRIPTION OF MNEMONIC
#---------         -----------     ------------------------------
GL  .M        720.547              : gl           - GROUND LEVEL ELEVATION
EREF.M        730.301              : kb           - ELEVATION OF DEPTH REFERENCE
DATM.M        720.547              : datum        - DATUM ELEVATION
TDD .M        688.848              : tdd          - TOTAL DEPTH DRILLER
RUN .         ONE                  : Run          - RUN NUMBER
ENG .         CROCKFORD            : Engineer     - RECORDING ENGINEER
WIT .         CAMPBELL/GARBIES     : Witness      - WITNESSED BY
BASE.         EDM                  : Branch       - HOME BASE OF LOGGING UNIT
MUD .         GEL CHEM             : Mud_type     - MUD TYPE
MATR.         SANDSTONE            : Logunit      - NEUTRON MATRIX
TMAX.C        25.5556              : BHT          - MAXIMUM RECORDED TEMPERATURE
BHTD.M        690.982              : BHTDEP       - MAXIMUM RECORDED TEMPERATURE
RMT .C        18.3333              : MDTP         - TEMPERATURE OF MUD
MUDD.KG/M     1152                 : MWT          - MUD DENSITY
NEUT.         1                    : NEUTRON      - NEUTRON TYPE
RESI.         0                    : RESIST       - RESISTIVITY TYPE
RM  .OHMM     5.2                  : RM           - RESISTIVITY OF MUD
RMC .OHMM     0                    : RMC          - RESISTIVITY OF MUD CAKE
RMF .OHMM     0                    : RMF          - RESISTIVITY OF MUD FILTRATE
SUFT.C        -17.7778             : SUFT         - SURFACE TEMPERATURE
~A  DEPTH     RESD     PHIN     PHID       GR      CAL
# ...
  502.844    7.486    0.297    0.116   65.369  203.521
  503.094    6.988    0.303    0.101   70.004  201.817
  503.344    5.961    0.314    0.132   73.899  200.422
  503.594    5.198    0.343    0.155   74.976  199.226
  503.844    4.297    0.379    0.199   75.562  198.553
  504.094    3.501    0.441    0.253   76.023  197.888
  504.344    2.948    0.468    0.295   76.485  197.217
  504.594    2.614    0.482    0.312   77.687  196.859
  504.844    2.458    0.482    0.312   79.865  196.913
  505.094    2.465    0.482    0.299   81.802  197.175
  505.344    2.527    0.487    0.284   83.244  196.926
  505.594    2.553    0.506    0.279   79.537  195.935
  505.844    2.551    0.517    0.266   75.153  195.268
  506.094    2.517    0.495    0.301   73.654  194.603
  506.344    2.487    0.463    0.322   77.002  193.926
  506.594    2.391    0.484    0.290   82.860  193.158
  506.844    2.207    0.503    0.280   86.458  192.584
  507.094    2.019    0.503    0.284   89.186  192.648
  507.344    2.014    0.488    0.267   93.755  192.703
  507.594    2.130    0.478    0.272   90.910  193.066
  507.844    2.443    0.478    0.259   86.160  193.440
  508.094    2.772    0.492    0.270   80.425  193.809
  508.344    3.162    0.476    0.293   67.330  194.586
  508.594    3.433    0.457    0.312   57.243  195.891
  508.844    3.474    0.445    0.326   56.174  196.988
  509.094    3.408    0.440    0.337   55.654  197.049
  509.344    3.319    0.426    0.331   52.437  196.370
  509.594    3.298    0.429    0.324   52.043  195.285
  509.844    3.351    0.452    0.324   53.485  193.891
  510.094    3.410    0.477    0.328   55.604  192.389
  510.344    3.407    0.469    0.327   56.128  191.203
  510.594    3.379    0.443    0.323   57.206  190.642
  510.844    3.339    0.436    0.323   56.321  190.491
  511.094    3.301    0.439    0.324   52.672  191.272
  511.344    3.262    0.452    0.311   49.639  192.258
  511.594    3.241    0.448    0.316   48.142  193.557
  511.844    3.180    0.437    0.320   49.766  194.859
  512.094    3.159    0.439    0.317   53.053  196.373
  512.344    3.216    0.451    0.309   54.682  197.365
  512.594    3.358    0.453    0.316   55.389  197.836
  512.844    3.418    0.448    0.302   56.589  198.109
  513.094    3.396    0.447    0.280   59.505  198.265
  513.344    3.200    0.448    0.260   62.050  198.426
  513.594    3.003    0.438    0.236   61.840  198.477
  513.844    2.898    0.462    0.241   59.173  198.230
  514.094    2.885    0.492    0.274   55.528  197.876
  514.344    2.925    0.479    0.332   57.277  197.714
  514.594    3.033    0.474    0.313   59.273  197.979
  514.844    3.190    0.467    0.305   61.270  198.138
  515.094    3.314    0.449    0.310   61.488  198.196
  515.344    3.410    0.445    0.320   62.871  198.249
  515.594    3.490    0.455    0.306   62.474  198.323
  515.844    3.578    0.469    0.299   63.429  198.379
  516.094    3.662    0.443    0.287   67.941  198.533
  516.344    3.768    0.408    0.272   71.408  198.903
  516.594    3.892    0.414    0.250   75.122  198.949
  516.844    3.860    0.444    0.240   77.056  199.016
  517.094    3.637    0.465    0.285   70.772  199.071
  517.344    3.314    0.436    0.301   69.460  199.025
  517.594    3.100    0.433    0.282   68.999  198.872
  517.844    2.883    0.444    0.301   66.518  198.520
  518.094    2.696    0.456    0.326   66.065  198.354
  518.344    2.601    0.452    0.335   65.052  198.005
  518.594    2.505    0.453    0.315   64.716  197.743
  518.844    2.417    0.454    0.308   66.836  197.391
  519.094    2.324    0.456    0.305   71.101  196.927
  519.344    2.234    0.450    0.284   75.245  196.775
  519.594    2.128    0.465    0.268   79.633  196.627
  519.844    2.072    0.481    0.252   83.837  196.576
  520.094    2.144    0.501    0.256   84.791  196.420
  520.344    2.264    0.515    0.246   82.434  196.070
  520.594    2.386    0.497    0.256   79.092  196.014
  520.844    2.566    0.496    0.281   73.605  196.073
  521.094    2.656    0.496    0.300   69.284  196.141
  521.344    2.653    0.467    0.304   67.844  196.191
  521.594    2.666    0.485    0.315   67.634  195.928
  521.844    2.654    0.494    0.320   70.246  195.991
  522.094    2.731    0.469    0.321   72.118  195.952
  522.344    2.831    0.477    0.317   72.580  195.787
  522.594    2.892    0.475    0.312   72.490  195.853
  522.844    2.890    0.465    0.302   71.052  195.699
  523.094    2.872    0.485    0.290   70.532  195.556
  523.344    2.812    0.471    0.284   72.285  195.502
  523.594    2.630    0.469    0.276   73.544  194.830
  523.844    2.528    0.481    0.278   74.315  193.430
  524.094    2.719    0.449    0.291   76.984  192.549
  524.344    3.242    0.458    0.308   82.477  191.879
  524.594    3.894    0.511    0.312   86.803  190.902
  524.844    4.772    0.581    0.382   74.447  190.858
  525.094    7.213    0.657    0.517   58.042  192.053
  525.344    7.772    0.741    0.591   51.635  194.286
  525.594    6.654    0.740    0.615   54.184  196.838
  525.844    5.791    0.733    0.592   69.246  194.087
  526.094    4.976    0.731    0.563   73.512  191.554
  526.344    4.107    0.602    0.536   77.286  192.129
  526.594    3.562    0.576    0.420   80.143  196.440
  526.844    3.175    0.524    0.340   83.671  199.716
  527.094    2.969    0.485    0.279   84.992  201.238
  527.344    2.892    0.459    0.243   84.414  201.700
  527.594    2.927    0.453    0.240   83.833  202.496
  527.844    2.963    0.448    0.243   82.700  202.757
  528.094    2.998    0.442    0.226   80.098  202.908
  528.344    3.057    0.437    0.234   76.697  202.974
  528.594    3.054    0.444    0.229   73.170  203.023
  528.844    3.069    0.456    0.228   72.532  203.297
  529.094    3.101    0.466    0.237   74.653  203.350
  529.344    3.238    0.468    0.246   76.770  203.613
  529.594    3.426    0.466    0.238   77.294  203.979
  529.844    3.631    0.476    0.223   77.081  204.138
  530.094    3.912    0.483    0.237   75.828  204.191
  530.344    4.262    0.473    0.264   73.653  203.834
  530.594    4.799    0.472    0.277   71.539  202.751
  530.844    5.296    0.461    0.288   69.547  199.587
  531.094    5.603    0.453    0.295   68.046  198.087
  531.344    5.798    0.456    0.296   67.590  197.831
  531.594    5.933    0.471    0.296   68.053  198.200
  531.844    5.830    0.475    0.295   68.091  198.468
  532.094    5.741    0.478    0.291   67.935  198.421
  532.344    5.705    0.478    0.285   68.214  198.378
  532.594    5.743    0.464    0.287   70.089  198.008
  532.844    5.964    0.456    0.294   70.183  197.765
  533.094    6.403    0.454    0.300   66.843  197.401
  533.344    7.224    0.452    0.282   65.282  196.834
  533.594    8.471    0.444    0.278   63.786  195.535
  533.844    9.417    0.434    0.282   62.036  191.855
  534.094    9.376    0.406    0.265   59.677  189.833
  534.344    8.930    0.395    0.263   58.178  189.162
  534.594    8.320    0.416    0.273   60.173  192.649
  534.844    7.612    0.433    0.283   61.619  196.232
  535.094    7.318    0.464    0.299   62.081  198.272
  535.344    7.558    0.479    0.308   61.685  198.529
  535.594    8.574    0.467    0.301   61.784  198.689
  535.844   10.073    0.446    0.294   61.506  199.163
  536.094   12.737    0.439    0.277   58.412  196.415
  536.344   14.503    0.423    0.252   54.703  194.911
  536.594   12.810    0.389    0.232   50.811  196.008
  536.844   11.029    0.350    0.218   49.681  198.043
  537.094    8.676    0.324    0.203   51.555  199.651
  537.344    6.788    0.465    0.182   54.653  196.807
  537.594    6.118    0.500    0.291   57.141  195.617
  537.844    6.113    0.508    0.346   58.096  195.153
  538.094    6.302    0.479    0.331   58.250  194.895
  538.344    6.333    0.479    0.325   58.900  194.848
  538.594    5.976    0.473    0.314   59.668  194.906
  538.844    5.620    0.466    0.303   59.950  194.549
  539.094    5.198    0.463    0.294   60.040  194.080
