~V
VERS. 2.00: Ver 2.00
WRAP. NO:
VEND. PRIZM:GeoGraphix
~W
STRT.M 63.0000:START DEPTH
STOP.M 270.0000:STOP DEPTH
STEP.M 0.3000:STEP
NULL. -999.2500:NULL VALUE
WELL. 00/11-34-083-05W4/0 :WELL
COMP. :COMPANY
UWI. 00_11-34-083-05W4_0:UNIQUE WELL ID
FLD. :FIELD
CNTY. :COUNTY
STAT. :STATE
CTRY. :COUNTRY
PDAT. :PERMANENT DATUM
LMF. :LOG MEASURED FROM
DMF. :DRILLING MEASURED FROM
LOC1. :LOCATION LINE 1
LOC2. :LOCATION LINE 2
LOC3. :LOCATION LINE 3
SEC. :SECTION
TWP. :TOWNSHIP
RAN. :RANGE
SRVC. :Logging Company
BASE. :Logging Unit Location
ENG. :Logging Engineer
WITN. :Witnessed By
RUN. :Run No.
MUD_TYPE. :Type Fluid in Hole
MUDS. :Source of Mud Sample
RMFS. :Source of Mud Filtrate
RMCS. :Source of Mud Cake
LOC. :LOCATION
DATE. :LOG DATE
~C
DEPT.M :DEPTH
PHID. :Density Pososity
NPHI. :NPHI
RHOB.KGM3 :Bulk Density
GR.API :GR
ILD.Ohmm :ILD
~P
EKB. -999.2500:ELEVATION OF KELLY BUSHING
EDF. -999.2500:ELEVATION OF DRILLING FLOOR
EGL. -999.2500:ELEVATION OF GROUND LEVEL
EPD. -999.2500:ELEVATION OF PERMANENT DATUM
APD. -999.2500:LMF DISTANCE ABOVE PERMANENT DATUM
LAT. -999.2500:LATITUDE OF WELL LOCATION
LONG. -999.2500:LONGITUDE OF WELL LOCATION
TDD. -999.2500:Total Depth Driller
TDL. -999.2500:Total Depth Logger
LCSG1. -999.2500:Depth of Casing from Logger
CSIZE. -999.2500:Casing Size
CWT. -999.2500:Casing Weight
BS. -999.2500:Bit Size
TLI. 63.0000:Top Logged Interval
BLI. 270.0000:Bottom Logged Interval
MRT. 0.0000:Maximum Recorded Temperature
WMUD. -999.2500:Drilling Mud Density
DFV. -999.2500:Drilling Mud Viscosity
PH. -999.2500:Drilling Mud pH
DFL. -999.2500:Drilling Mud Fluid Loss
RM. -999.2500:Resistivity of Drilling Fluid
RMT. -999.2500:Measured Temp. of Drilling Fluid
RMF. -999.2500:Resistivity of Drilling Fluid Filtrate
RMFT. -999.2500:Measured Temp. of Drilling Fluid Filtrate
RMC. -999.2500:Resistivity of Mud Cake
RMCT. -999.2500:Measured Temp. of Mud Cake
PHImax.V/V 0.3900:Maximum allowable Porosity
RwBnd.OHMM 0.1500:Bound Water Resistivity
RhoHy.KG/MT 1000.0000:Hydrocarbon Bulk density
SwCutoff.V/V 0.7000:Water Saturation Cutoff
PHINsh.V/V 0.4800:New Description
Rw.OHMM 1.0000:Formation Water Resistivity
Rshl.OHMM 5.0000:Resistivity shale
Trw.DEGC 25.0000:Rw measured at Lab conditions
ShaleCutoff.V/V 0.4000:New Description
GRcln.API 45.0000:Gamma Ray clean
RhoM.KG/MT 2650.0000:Bulk Density Matrix
GRshl.API 90.0000:Gamma Ray shale
m. 2.0000:Archie "m"
n. 2.0000:Archie "n"
GasTol.V/V 0.0500:Gas Tollerance
BHTemp.DEGC 25.0000:Bottom Hole Temperature
BHTDepth.M 1000.0000:Bottom Hole Depth
PHIDsh.US/MT 0.1800:New Description
a. 1.0000:Archie "a"
Gas Tol.V/V 0.0500:Gas Tollerance
RhoF.KG/MT 1000.0000:Bulk Density Fluid
RhoShl.KG/MT 2300.0000:Bulk Density Shale
TarCutoff.V/V 0.0300:New Description
SurfTemp.DEGC 10.0000:New Description
HIshl.V/V 0.4000:Neutron Hydrogen Index shale
NULL. -999.2500:
~A
   63.0000     0.4819  -999.2500  1854.8965    44.6779    23.2936 
   63.3000     0.3880     0.3918  2009.8314    46.7330    24.2756 
   63.6000     0.3569     0.3862  2061.1582    50.7617    24.3466 
   63.9000     0.3690     0.3870  2041.2170    56.1582    23.8023 
   64.2000     0.3757     0.3807  2030.0304    52.2888    23.0647 
   64.5000     0.3607     0.3717  2054.7866    47.1965    22.2458 
   64.8000     0.3465     0.3907  2078.2927    53.1840    21.3677 
   65.1000     0.3520     0.3991  2069.1892    62.3829    20.4703 
   65.4000     0.3262     0.4002  2111.7476    69.2176    19.5850 
   65.7000     0.3212     0.4097  2119.9700    68.7560    18.7093 
   66.0000     0.3407     0.3977  2087.8347    60.5160    17.9101 
   66.3000     0.3332     0.3921  2100.2974    64.7743    17.6921 
   66.6000     0.3033     0.3982  2149.5767    71.1350    17.4740 
   66.9000     0.3079     0.4130  2142.0088    74.6357    17.3944 
   67.2000     0.3225     0.4251  2117.8333    80.3521    17.4389 
   67.5000     0.3378     0.4187  2092.5496    94.6465    17.4833 
   67.8000     0.3360     0.4057  2095.5618   108.7341    17.7054 
   68.1000     0.3087     0.4015  2140.6104   105.7935    18.0724 
   68.4000     0.3013     0.4017  2152.8853    99.4029    18.4394 
   68.7000     0.3070     0.3910  2143.3730    94.4028    18.8064 
   69.0000     0.2995     0.3680  2155.8604    85.8318    19.4368 
   69.3000     0.3011     0.3624  2153.1479    70.2385    20.1322 
   69.6000     0.3162     0.3582  2128.2632    58.9992    20.8797 
   69.9000     0.3166     0.3518  2127.6831    44.4859    22.5670 
   70.2000     0.2961     0.3649  2161.5068    45.9883    22.3692 
   70.5000     0.3109     0.3780  2137.0469    58.5656    20.3758 
   70.8000     0.3296     0.3939  2106.2300    72.0358    18.6524 
   71.1000     0.3411     0.4117  2087.2632    80.6940    17.4369 
   71.4000     0.3367     0.4235  2094.3762    85.8982    16.2215 
   71.7000     0.3155     0.3977  2129.4631    89.3959    15.0060 
   72.0000     0.3108     0.4053  2137.1719    93.5674    14.8388 
   72.3000     0.3254     0.4140  2113.0779    93.6889    14.9117 
   72.6000     0.3443     0.4063  2081.9863    91.5743    15.0486 
   72.9000     0.3136     0.4045  2132.5730    96.0463    15.2015 
   73.2000     0.2818     0.3911  2185.0188   102.8424    14.7605 
   73.5000     0.2801     0.3874  2187.9011   102.0732    13.4977 
   73.8000     0.2878     0.4045  2175.1836   106.7219    11.6718 
   74.1000     0.2877     0.4372  2175.3645   116.4086     9.8782 
   74.4000     0.2831     0.4590  2182.8669   124.7419     8.4121 
   74.7000     0.2897     0.4657  2171.9634   126.4404     7.8715 
   75.0000     0.2850     0.4525  2179.8303   127.5551     7.7763 
   75.3000     0.2598     0.4460  2221.2651   128.6648     8.0546 
   75.6000     0.2321     0.4375  2267.0181   128.1170     8.4118 
   75.9000     0.2358     0.4237  2260.9644   125.2955     9.8459 
   76.2000     0.2521     0.4041  2234.0835   126.1520    11.3670 
   76.5000     0.2605     0.3951  2220.1497   127.9341    12.5760 
   76.8000     0.2688     0.3977  2206.5017   119.2553    13.0426 
   77.1000     0.2849     0.3882  2179.8496   108.7565    13.4037 
   77.4000     0.2866     0.3859  2177.0530   106.1969    12.9787 
   77.7000     0.2700     0.3987  2204.4519   119.7091    12.5537 
   78.0000     0.2612     0.4106  2218.9492   129.2791    12.1463 
   78.3000     0.2570     0.4157  2225.9736   133.0379    11.8578 
   78.6000     0.2556     0.4161  2228.1860   129.0618    11.5693 
   78.9000     0.2561     0.4176  2227.4456   120.6156    11.8466 
   79.2000     0.2865     0.4196  2177.2207   126.1194    13.4444 
   79.5000     0.3208     0.4201  2120.6174   121.2895    15.0422 
   79.8000     0.3285     0.4217  2107.9199   113.5221    16.3665 
   80.1000     0.3233     0.4276  2116.6211   114.4244    17.4850 
   80.4000     0.3201     0.4297  2121.8210   103.4339    18.0494 
   80.7000     0.3205     0.4169  2121.1150    98.3716    17.3747 
   81.0000     0.3077     0.4013  2142.3013   102.5435    16.8323 
   81.3000     0.2889     0.3928  2173.3562   105.4522    18.0304 
   81.6000     0.3098     0.4102  2138.8240   104.5209    19.2285 
   81.9000     0.3338     0.4061  2099.1885    71.7144    20.6775 
   82.2000     0.3120     0.3819  2135.1333    69.3093    22.1435 
   82.5000     0.2944     0.3807  2164.1885    80.0438    22.9099 
   82.8000     0.3050     0.3897  2146.7876    83.6196    22.5004 
   83.1000     0.3239     0.3917  2115.5918    73.1774    22.0908 
   83.4000     0.3378     0.4022  2092.5696    66.5451    22.2720 
   83.7000     0.3468     0.3868  2077.7102    61.3440    22.8807 
   84.0000     0.3527     0.3722  2068.0747    58.6699    23.4894 
   84.3000     0.3533     0.3713  2067.0664    62.3206    24.2627 
   84.6000     0.3505     0.3891  2071.6111    57.8498    25.1756 
   84.9000     0.3584     0.4095  2058.7219    53.6842    26.0885 
   85.2000     0.3689     0.4029  2041.2716    51.8731    27.0014 
   85.5000     0.3767     0.3896  2028.5123    52.3434    27.1584 
   85.8000     0.3523     0.3734  2068.7173    53.5930    26.9749 
   86.1000     0.3403     0.3782  2088.4814    56.1779    26.7915 
   86.4000     0.3436     0.3927  2083.0847    59.4071    26.4624 
   86.7000     0.3516     0.4061  2069.8977    60.2861    25.8558 
   87.0000     0.3584     0.4101  2058.7002    55.4761    25.2492 
   87.3000     0.3615     0.4091  2053.5159    55.1560    24.3039 
   87.6000     0.3614     0.4009  2053.6689    55.5657    23.2281 
   87.9000     0.3598     0.4044  2056.3074    56.6880    22.1792 
   88.2000     0.3541     0.4031  2065.7117    57.8102    21.2748 
   88.5000     0.3484     0.3927  2075.1157    58.9467    20.3704 
   88.8000     0.3381     0.3853  2092.1919    60.0836    19.4673 
   89.1000     0.3323     0.3914  2101.7368    62.3680    18.6781 
   89.4000     0.3306     0.4044  2104.5300    64.8185    17.8890 
   89.7000     0.3278     0.4102  2109.1006    70.4285    17.0998 
   90.0000     0.3062     0.4056  2144.6880    77.5653    16.2088 
   90.3000     0.2985     0.3847  2157.4348    85.2849    15.1946 
   90.6000     0.2987     0.3857  2157.1992    91.0252    14.5002 
   90.9000     0.2870     0.3944  2176.4131    93.0764    14.2945 
   91.2000     0.2789     0.4054  2189.7710    89.4745    14.0888 
   91.5000     0.3002     0.4114  2154.7402    79.1930    15.3803 
   91.8000     0.3353     0.3989  2096.7185    60.0527    16.7248 
   92.1000     0.3403     0.3898  2088.4387    59.9963    17.8109 
   92.4000     0.3340     0.3901  2098.9431    65.5156    18.8197 
   92.7000     0.3159     0.3846  2128.7546    68.2164    17.8906 
   93.0000     0.3065     0.3704  2144.2168    68.8239    16.9615 
   93.3000     0.3017     0.3697  2152.2427    66.3476    16.0324 
   93.6000     0.3020     0.3915  2151.7354    72.2146    15.1561 
   93.9000     0.3038     0.4181  2148.7900    75.1208    14.3132 
   94.2000     0.2916     0.4302  2168.8777    75.7682    13.4702 
   94.5000     0.2941     0.4173  2164.7388    76.4759    12.6272 
   94.8000     0.2982     0.4040  2157.9368    80.4454    11.7843 
   95.1000     0.2946     0.4116  2163.9468    83.1432    10.9803 
   95.4000     0.2892     0.4184  2172.8733    84.1570    10.5258 
   95.7000     0.3015     0.4202  2152.5452    83.1240    10.0713 
   96.0000     0.3048     0.4272  2147.0117    84.8769     9.6168 
   96.3000     0.2917     0.4252  2168.6799    89.1642     9.1623 
   96.6000     0.2820     0.4316  2184.6909    92.9903     8.7078 
   96.9000     0.2781     0.4402  2191.1533    93.6732     8.5865 
   97.2000     0.2816     0.4454  2185.3757    91.2782     8.5661 
   97.5000     0.2896     0.4321  2172.1003    91.3292     8.5456 
   97.8000     0.2947     0.4309  2163.7705    93.5059     8.5252 
   98.1000     0.2975     0.4259  2159.1462    94.2446     8.5047 
   98.4000     0.2981     0.4256  2158.1897    92.3585     8.4955 
   98.7000     0.3085     0.4348  2140.9119    89.2567     8.5459 
