~VERSION INFORMATION
 VERS.                 2.0:   CWLS LOG ASCII STANDARD -VERSION 2.0
 WRAP.                  NO:   ONE LINE PER DEPTH STEP
~WELL INFORMATION BLOCK
#MNEM.UNIT           DATA                    DESCRIPTION OF MNEMONIC
#---------    -------------------            -------------------------------
# Generated from Intellog Unique Number	CW_73_75/WELL/1035
WELL.         ANADARKO ER AL FRANCIS 11-08   : Well_name    - WELL
LOC .         00/11-08-074-21W4/0            : Location     - LOCATION
UWI .         00/11-08-074-21W4/0            : Uwi          - UNIQUE WELL ID
ENTR.         JAYE                           : Entered      - ENTERED BY
SRVC.         SCHLUMBERGER                   : Scn          - SERVICE COMPANY
DATE.         9 FEB 79                       : Date         - LOG DATE
STRT.M        380                            : top_depth    - START DEPTH
STOP.M        595                            : bot_depth    - STOP DEPTH
STEP.M        0.25                           : increment    - STEP LENGTH
 NULL. -999.2500:NULL Value
~CURVE INFORMATION BLOCK
#MNEM UNIT       ERCB CURVE CODE    CURVE DESCRIPTION
#-----------   ------------------   ----------------------------------
DEPT.M        00 001 00 00         : DEPTH        - DEPTH
DPHI.V/V      00 890 00 00         : PHID         - DENSITY POROSITY (SANDSTONE)
NPHI.V/V      00 330 00 00         : PHIN         - NEUTRON POROSITY (SANDSTONE)
GR  .API      00 310 00 00         : GR           - GAMMA RAY
CALI.MM       00 280 01 00         : CAL          - CALIPER
ILD .OHMM     00 120 00 00         : RESD         - DEEP RESISTIVITY (DIL)
~PARAMETER INFORMATION
#MNEM.UNIT           DATA             DESCRIPTION OF MNEMONIC
#---------         -----------     ------------------------------
GL  .M        689                  : gl           - GROUND LEVEL ELEVATION
EREF.M        692.8                : kb           - ELEVATION OF DEPTH REFERENCE
DATM.M        689                  : datum        - DATUM ELEVATION
TDD .M        633                  : tdd          - TOTAL DEPTH DRILLER
RUN .         ONE                  : Run          - RUN NUMBER
ENG .         GRSY                 : Engineer     - RECORDING ENGINEER
WIT .         ROGERS               : Witness      - WITNESSED BY
BASE.         EDMONTON             : Branch       - HOME BASE OF LOGGING UNIT
MUD .         GEL CHEM             : Mud_type     - MUD TYPE
MATR.         SANDSTONE            : Logunit      - NEUTRON MATRIX
TMAX.C        32                   : BHT          - MAXIMUM RECORDED TEMPERATURE
BHTD.M        632                  : BHTDEP       - MAXIMUM RECORDED TEMPERATURE
RMT .C        16.11                : MDTP         - TEMPERATURE OF MUD
MUDD.KG/M     1090                 : MWT          - MUD DENSITY
NEUT.         1                    : NEUTRON      - NEUTRON TYPE
RESI.         0                    : RESIST       - RESISTIVITY TYPE
RM  .OHMM     4.11                 : RM           - RESISTIVITY OF MUD
RMC .OHMM     0                    : RMC          - RESISTIVITY OF MUD CAKE
RMF .OHMM     3.86                 : RMF          - RESISTIVITY OF MUD FILTRATE
SUFT.C        0                    : SUFT         - SURFACE TEMPERATURE
~A  DEPTH     PHID     PHIN       GR      CAL     RESD
# ...
  562.500    0.154    0.338   98.474  166.547   14.763
  562.750    0.120    0.323   92.473  166.948   14.819
  563.000    0.103    0.310   89.809  166.320   14.765
  563.250    0.116    0.299   90.050  165.279   15.155
  563.500    0.130    0.330   96.904  163.003   17.294
  563.750    0.078    0.376  109.258  161.241   20.865
  564.000    0.090    0.432  110.673  162.672   28.670
  564.250    0.128    0.457  102.447  165.134   32.959
  564.500    0.114    0.425   93.232  166.669   37.609
  564.750    0.082    0.404   84.264  166.761   42.916
  565.000    0.113    0.385   80.055  162.425   48.069
  565.250    0.132    0.345   78.751  158.808   38.181
  565.500    0.160    0.314   79.734  158.386   31.068
  565.750    0.152    0.290   82.199  158.685   25.421
  566.000    0.174    0.289   95.048  160.012   20.956
  566.250    0.153    0.309  101.222  160.929   16.430
  566.500    0.148    0.357  103.503  161.537   13.671
  566.750    0.153    0.358  110.542  162.042   12.116
  567.000    0.144    0.362  113.378  163.474   11.145
  567.250    0.160    0.391  105.894  165.008   10.542
  567.500    0.176    0.419   98.162  166.233   10.046
  567.750    0.201    0.414  101.493  165.398    9.698
  568.000    0.200    0.392  100.745  161.062    9.485
  568.250    0.161    0.364   96.845  156.003    9.311
  568.500    0.166    0.306   97.395  154.036    9.294
  568.750    0.145    0.276   99.490  153.406    9.469
  569.000    0.138    0.292  100.720  153.912    9.540
  569.250    0.146    0.317  100.652  155.139    9.365
  569.500    0.180    0.341   98.853  157.188    8.567
  569.750    0.188    0.363   93.347  158.516    8.394
  570.000    0.189    0.372   94.206  158.918    8.426
  570.250    0.201    0.361   96.733  158.804    8.553
  570.500    0.200    0.335  104.576  158.483    8.698
  570.750    0.184    0.349   93.877  158.267    8.714
  571.000    0.204    0.389   79.780  158.257    8.460
  571.250    0.197    0.382   77.981  158.144    8.197
  571.500    0.234    0.390   84.341  157.825    7.914
  571.750    0.245    0.394  102.752  158.020    7.527
  572.000    0.245    0.420  115.600  158.833    7.239
  572.250    0.251    0.437   97.548  159.956    7.054
  572.500    0.224    0.421   95.317  160.873    6.912
  572.750    0.225    0.441   90.737  161.583    6.685
  573.000    0.209    0.473   83.067  162.498    6.370
  573.250    0.210    0.452   87.758  162.901    6.219
  573.500    0.211    0.431  108.023  163.303    6.105
  573.750    0.240    0.450  123.776  163.086    6.116
  574.000    0.264    0.475  135.698  162.147    6.105
  574.250    0.294    0.513  130.129  162.343    6.278
  574.500    0.400    0.562   98.171  164.909    7.151
  574.750    0.465    0.613   79.624  165.722    8.580
  575.000    0.477    0.633   71.459  164.476   10.142
  575.250    0.473    0.590   87.707  162.610    9.919
  575.500    0.352    0.449  100.617  161.672    8.238
  575.750    0.289    0.447  112.416  161.044    6.893
  576.000    0.247    0.448  114.758  160.416    5.735
  576.250    0.234    0.441  110.858  159.477    5.083
  576.500    0.264    0.417  100.592  158.644    4.934
  576.750    0.253    0.404   85.939  157.911    4.935
  577.000    0.230    0.392   79.319  157.902    4.926
  577.250    0.212    0.352   82.589  158.200    4.954
  577.500    0.198    0.343   83.448  158.807    5.000
  577.750    0.220    0.380   69.288  159.312    5.029
  578.000    0.265    0.397   69.715  160.022    5.038
  578.250    0.249    0.380   72.798  161.144    5.011
  578.500    0.243    0.371   79.467  162.886    4.983
  578.750    0.246    0.367   85.455  164.112    4.974
  579.000    0.233    0.391   89.775  164.409    4.883
  579.250    0.209    0.416   91.005  163.987    4.662
  579.500    0.171    0.414   81.666  163.049    4.776
  579.750    0.130    0.383   79.559  162.215    5.088
  580.000    0.088    0.354   82.395  161.793    5.330
  580.250    0.117    0.321   90.485  161.679    5.401
  580.500    0.160    0.361  111.121  162.800    5.441
  580.750    0.177    0.407  108.396  164.233    5.492
  581.000    0.140    0.397   90.899  166.900    5.493
  581.250    0.124    0.372   90.769  168.332    5.544
  581.500    0.105    0.352   91.752  170.896    5.628
  581.750    0.114    0.354   92.425  172.432    5.713
  582.000    0.094    0.352   84.261  173.657    5.788
  582.250    0.076    0.334   78.692  173.440    5.930
  582.500    0.076    0.323   73.062  167.971    6.143
  582.750    0.050    0.317   69.038  163.634    7.010
  583.000    0.075    0.336   64.767  162.285    8.395
  583.250    0.117    0.333   60.435  161.347   10.109
  583.500    0.107    0.342   57.462  160.410   11.387
  583.750    0.159    0.372   54.860  159.677   12.897
  584.000    0.107    0.377   50.836  158.739   14.259
  584.250    0.123    0.340   44.032  157.597   15.475
  584.500    0.136    0.325   39.637  156.761   16.002
  584.750    0.162    0.309   42.721  156.030   15.974
  585.000    0.206    0.339   46.485  155.092   15.652
  585.250    0.182    0.355   48.766  154.773   15.279
  585.500    0.166    0.336   48.079  154.660   15.055
  585.750    0.164    0.319   45.106  155.577   14.889
  586.000    0.168    0.309   40.959  156.080   14.973
  586.250    0.165    0.299   37.307  156.894   15.570
  586.500    0.040    0.293   33.530  157.296   16.617
  586.750    0.026    0.281   30.495  156.770   17.868
  587.000    0.042    0.259   31.169  154.596   17.540
  587.250    0.066    0.291   36.292  150.466   16.964
  587.500    0.102    0.281   38.202  149.425   15.986
  587.750    0.127    0.279   41.780  154.874   13.277
  588.000    0.141    0.292   45.482  157.129    9.363
  588.250    0.156    0.294   49.431  155.986    7.633
  588.500    0.198    0.312   54.122  154.842    6.482
  588.750    0.192    0.326   58.504  154.213    5.930
  589.000    0.192    0.345   53.739  154.100    5.692
  589.250    0.181    0.357   47.923  153.882    5.672
  589.500    0.163    0.350   43.467  153.770    5.620
  589.750    0.173    0.347   41.359  153.759    5.506
  590.000    0.159    0.333   41.291  154.058    5.346
  590.250    0.206    0.319   42.335  154.254    5.132
  590.500    0.221    0.340   44.554  154.757    4.818
  590.750    0.229    0.332   42.755  155.054    4.507
  591.000    0.210    0.324   39.288  155.251    4.532
  591.250    0.183    0.331   35.697  155.653    5.210
  591.500    0.134    0.310   26.173  155.849    6.796
  591.750    0.069    0.272   18.627  156.147    8.291
  592.000   -0.005    0.258   18.187  156.549   10.041
  592.250    0.018    0.247   19.047  156.845   13.368
  592.500    0.028    0.258   21.574  157.558   14.481
  592.750    0.066    0.295   24.102  156.518   14.031
  593.000    0.088    0.357   24.961  155.786   13.471
  593.250    0.007    0.307   24.645  156.084   12.836
  593.500   -0.004    0.275   25.937  156.177   12.346
  593.750    0.058    0.291   25.003  156.372   12.579
  594.000    0.103    0.264   25.677  156.773   12.959
  594.250    0.081    0.248   27.463  157.484   13.032
  594.500    0.018    0.245   33.452  158.092   12.604
  594.750    0.043    0.242   39.811  158.596   12.101
  595.000    0.006    0.237   40.052  158.688   10.966
