~Version Information
VERS.                2.00:
WRAP.                  NO:
~Well Information Block
#MNEM.UNIT       Data Type    Information
#---------    -------------   -------------------
FLD.   :FIELD
FLD.   :FIELD
FLD.   :FIELD
FLD.   :FIELD
STRT.M          1950.0000:
STOP.M          4060.0000:
STEP.M             0.8202:
NULL.           -999.2500:
COMP.  MUTUAL EXPLORATION FUNDS:COMPANY
WELL.  MUTES IOE SEAFORTH:WELL
FLD.   :FIELD
LOC.   15-20-095-20W4:LOCATION
CTRY.  CANADA:COUNTRY
PROV.  ALBERTA:PROVINCE
SRVC.  SCHLUMBERGER:SERVICE COMPANY
DATE.  01 MAR 69:LOG DATE
UWI.   00/15-20-095-20W4/0:UNIQUE WELL ID
~Curve Information Block
#MNEM.UNIT        API CODE    Curve Description
#---------    ------------    -----
DEPT.M                    :   DEPTH
CALI.in                   :   CALI
GR  .API                  :   GR
SNP .V/V                  :   SNP
~A  Depth           CALI          GR         SNP
# ...
2757.0768         9.1277     10.7915      0.0213
2757.8970         9.1312     10.4496      0.0282
2758.7172         9.1347      9.8521      0.0352
2759.5374         9.1382      9.6923      0.0291
2760.3576         9.1417      9.7131      0.0210
2761.1778         9.1452     10.1293      0.0167
2761.9980         9.1487     10.5731      0.0174
2762.8182         9.1522     11.2567      0.0187
2763.6384         9.1557     12.2682      0.0216
2764.4586         9.1240     13.1320      0.0234
2765.2788         9.1032     13.1735      0.0216
2766.0990         9.0911     12.0047      0.0192
2766.9192         9.0891     10.8326      0.0173
2767.7394         9.0921      9.6604      0.0163
2768.5596         9.0598      9.6561      0.0161
2769.3798         9.0596     10.8993      0.0166
2770.2000         9.0261     11.9283      0.0175
2771.0202         9.0265     12.8213      0.0203
2771.8404         9.0285     13.3487      0.0248
2772.6606         9.0316     13.1343      0.0301
2773.4808         9.0350     11.8011      0.0369
2774.3010         9.0133     10.2771      0.0432
2775.1212         9.0054      8.7209      0.0479
2775.9414         9.0052      8.3450      0.0390
2776.7616         9.0084      8.9260      0.0275
2777.5818         9.0118      9.4161      0.0310
2778.4020         8.9898      9.8761      0.0355
2779.2222         8.9820     10.4119      0.0326
2780.0424         8.9820     10.8730      0.0322
2780.8626         8.9852     10.6850      0.0362
2781.6828         8.9886      9.9611      0.0395
2782.5030         8.9921      9.5302      0.0357
2783.3232         8.9956      9.4865      0.0344
2784.1434         8.9991      9.5084      0.0306
2784.9636         9.0026      9.8850      0.0249
2785.7838         9.0061      9.2878      0.0221
2786.6040         9.0096      8.8806      0.0211
2787.4242         9.0131      8.8576      0.0202
2788.2444         9.0166      8.8714      0.0201
2789.0646         9.0201      8.9031      0.0208
2789.8848         9.0236      9.2872      0.0231
2790.7050         9.0271      8.7882      0.0255
2791.5252         9.0306      8.6320      0.0293
2792.3454         9.0341      8.6400      0.0340
2793.1656         9.0376      9.3828      0.0470
2793.9858         9.0737     10.9632      0.0599
2794.8060         9.0826     11.9002      0.0760
2795.6262         9.0876     13.1473      0.0853
2796.4464         9.0918     14.4243      0.0974
2797.2666         9.0955     15.1461      0.1089
2798.0868         9.0991     15.7689      0.1158
2798.9070         9.1026     15.8248      0.1222
2799.7272         9.1399     15.0763      0.1103
2800.5474         9.1491     14.3034      0.0278
2801.3676         9.0862     18.2920      0.0269
2802.1878         9.1810     24.4331      0.0303
2803.0080         9.2537     32.2880      0.0486
2803.8282         9.2473     40.2159      0.2074
2804.6484         9.2493     39.0800      0.2000
2805.4686         9.2878     39.5879      0.1709
2806.2888         9.2960     41.4456      0.1453
2807.1090         9.3001     40.3599      0.1197
2807.9292         9.3037     40.9180      0.1052
2808.7494         9.3072     43.5580      0.1117
2809.5696         9.3107     47.6974      0.1464
2810.3898         9.3504     53.9509      0.2839
2811.2100         9.3579     59.7751      0.2915
2812.0302         9.3618     64.7132      0.2991
2812.8504         9.3653     72.7857      0.3193
2813.6706         9.4433     75.6570      0.3610
2814.4908         9.5671     68.7681      0.4073
2815.3110         9.6947     63.0691      0.4458
2816.1312         9.7433     59.3816      0.4950
2816.9514         9.3741     60.3764      0.3186
2817.7716         8.8888     57.3658      0.2977
2818.5918         8.2710     53.3072      0.2898
2819.4120         7.6663     49.2172      0.2980
2820.2322         7.9839     44.2705      0.2571
2821.0524         8.3589     42.1454      0.2343
2821.8726         8.8646     43.5545      0.1618
2822.6928         9.1036     42.5175      0.2182
2823.5130         9.5639     42.1048      0.2745
2824.3332        10.0161     42.1119      0.3062
2825.1534        10.1288     41.3827      0.3667
2825.9736         9.8514     42.5351      0.3692
2826.7938         9.5484     47.9924      0.3717
2827.6140         9.4301     43.2121      0.3741
2828.4342         9.4721     53.1590      0.3766
2829.2544         9.5858     66.9429      0.3012
2830.0746         9.5333     67.1194      0.3008
2830.8948         9.2836     57.5124      0.3003
2831.7150         9.1255     49.9568      0.2998
2832.5352         9.0847     42.9091      0.2993
2833.3554         9.1514     45.9459      0.2503
2834.1756         9.2995     54.3503      0.2404
2834.9958         9.4314     66.5154      0.2646
2835.8160         9.5947     75.2832      0.3014
2836.6362         9.7994     74.0525      0.3004
2837.4564         9.9024     68.1066      0.2997
2838.2766         9.5781     63.6390      0.2995
2839.0968         9.4274     58.3339      0.2994
2839.9170         9.3045     55.9119      0.2993
2840.7372         9.1538     53.2004      0.2170
2841.5574         9.0627     47.1044      0.1853
2842.3776         9.0481     44.2419      0.1695
2843.1978         9.0482     42.4712      0.1934
2844.0180         9.0511     46.8378      0.2298
2844.8382         9.0880     56.9171      0.2662
2845.6584         9.0974     65.4433      0.2854
2846.4786         9.1019     74.0564      0.2849
2847.2988         9.1055     76.4098      0.2695
2848.1190         9.1091     51.9693      0.2324
2848.9392         9.1125     40.7619      0.1667
2849.7594         9.0818     30.8623      0.0527
2850.5796         9.0799     22.3967      0.0365
2851.3998         9.0481     18.4997      0.0301
2852.2200         9.0471     17.5048      0.0376
2853.0402         9.0495     15.3949      0.0316
2853.8604         9.0176     12.9118      0.0243
2854.6806         9.0159     10.5666      0.0151
2855.5008         9.0187     10.9113      0.0124
2856.3210         9.0221     11.2740      0.0115
2857.1412         9.0256     11.7991      0.0128
2857.9614         8.9937     12.4921      0.0121
2858.7816         8.9926     13.9951      0.0113
2859.6018         8.9955     14.6296      0.0097
2860.4220         9.0284     14.7671      0.0094
2861.2422         9.0400     14.4805      0.0086
2862.0624         9.0826     14.8028      0.0070
2862.8826         9.0895     13.8675      0.0068
2863.7028         9.1240     13.7678      0.0101
2864.5230         9.1373     13.7525      0.0126
2865.3432         9.1417     14.1236      0.0116
2866.1634         9.1453     14.2102      0.0093
2866.9836         9.1488     13.1219      0.0082
2867.8038         9.1523     13.4285      0.0093
2868.6240         9.1558     15.6440      0.0108
2869.4442         9.1333     15.9484      0.0116
2870.2644         9.1230     15.1349      0.0111
2871.0846         9.1259     14.5230      0.0109
2871.9048         9.1292     13.0761      0.0101
2872.7250         9.1326     10.8541      0.0093
2873.5452         9.1361      9.5185      0.0064
2874.3654         9.1396      9.3276      0.0045
2875.1856         9.1431     10.7198      0.0061
2876.0058         9.1466     13.1110      0.0089
2876.8260         9.1500     16.8176      0.0135
2877.6462         9.1535     17.5077      0.0159
2878.4664         9.1570     15.7627      0.0140
2879.2866         9.1605     14.5022      0.0118
2880.1068         9.1640     14.1393      0.0091
2880.9270         9.1675     11.8850      0.0068
2881.7472         9.1710      9.8952      0.0073
2882.5674         9.1745      9.1379      0.0050
2883.3876         9.1780      8.9456      0.0041
2884.2078         9.1815      8.9160      0.0040
2885.0280         9.1850      8.9287      0.0040
2885.8482         9.1885      8.9610      0.0039
2886.6684         9.1920      8.6364      0.0030
2887.4886         9.1955      8.6293      0.0023
2888.3088         9.1990      9.0236      0.0014
2889.1290         9.2025      9.0962      0.0012
2889.9492         9.2060     10.2523      0.0003
2890.7694         9.1754     11.5212      0.0010
