~VERSION INFORMATION
 VERS.                 2.0:   CWLS LOG ASCII STANDARD -VERSION 2.0
 WRAP.                  NO:   ONE LINE PER DEPTH STEP
~WELL INFORMATION BLOCK
#MNEM.UNIT           DATA                    DESCRIPTION OF MNEMONIC
#---------    -------------------            -------------------------------
# Generated from Intellog Unique Number	CS_77_79/WELL/1015
WELL.         H. B. LEISMER                  : Well_name    - WELL
LOC .         00/12-30-078-11W4/0            : Location     - LOCATION
UWI .         00/12-30-078-11W4/0            : Uwi          - UNIQUE WELL ID
ENTR.         JHS                            : Entered      - ENTERED BY
SRVC.         SCHLUMBERGER                   : Scn          - SERVICE COMPANY
STRT.M        245                            : top_depth    - START DEPTH
STOP.M        485                            : bot_depth    - STOP DEPTH
STEP.M        0.25                           : increment    - STEP LENGTH
 NULL. -999.2500:NULL Value
~CURVE INFORMATION BLOCK
#MNEM UNIT       ERCB CURVE CODE    CURVE DESCRIPTION
#-----------   ------------------   ----------------------------------
DEPT.M        00 001 00 00         : DEPTH        - DEPTH
DPHI.V/V      00 890 00 00         : PHID         - DENSITY POROSITY (LIMESTONE)
NPHI.V/V      00 330 00 00         : PHIN         - NEUTRON POROSITY (LIMESTONE)
GR  .API      00 310 00 00         : GR           - GAMMA RAY
ILD .OHMM     00 120 00 00         : RESD         - DEEP RESISTIVITY (DIL)
RHOB.KG/M3    00 350 00 00         : DENS         - BULK DENSITY
~PARAMETER INFORMATION
#MNEM.UNIT           DATA             DESCRIPTION OF MNEMONIC
#---------         -----------     ------------------------------
GL  .M        683                  : gl           - GROUND LEVEL ELEVATION
EREF.M        687.9                : kb           - ELEVATION OF DEPTH REFERENCE
DATM.M        687.9                : datum        - DATUM ELEVATION
TDD .M        488                  : tdd          - TOTAL DEPTH DRILLER
RUN .         ONE                  : Run          - RUN NUMBER
ENG .         BILL                 : Engineer     - RECORDING ENGINEER
WIT .         JIM                  : Witness      - WITNESSED BY
MUD .         GEL                  : Mud_type     - MUD TYPE
MATR.         LIMESTONE            : Logunit      - NEUTRON MATRIX
TMAX.C        27.8                 : BHT          - MAXIMUM RECORDED TEMPERATURE
BHTD.M        488                  : BHTDEP       - MAXIMUM RECORDED TEMPERATURE
MATR.         1                    : LOGUNIT      - NEUTRON MATRIX
RMT .C        25                   : MDTP         - TEMPERATURE OF MUD
NEUT.         1                    : NEUTRON      - NEUTRON TYPE
RESI.         0                    : RESIST       - RESISTIVITY TYPE
RMC .OHMM     0.25                 : RMC          - RESISTIVITY OF MUD CAKE
RMF .OHMM     0.25                 : RMF          - RESISTIVITY OF MUD FILTRATE
SUFT.C        15                   : SUFT         - SURFACE TEMPERATURE
~A  DEPTH     PHID     PHIN       GR     RESD     DENS
# ...
  318.000    0.368    0.422   48.184   28.792    0.000
  318.250    0.366    0.442   49.430   28.249    0.000
  318.500    0.360    0.451   50.680   27.195    0.000
  318.750    0.356    0.445   46.992   26.181    0.000
  319.000    0.352    0.441   47.624   25.688    0.000
  319.250    0.356    0.445   47.639   25.203    0.000
  319.500    0.353    0.435   46.418   24.727    0.000
  319.750    0.351    0.420   45.818   24.725    0.000
  320.000    0.348    0.406   45.831   24.260    0.000
  320.250    0.346    0.408   43.994   24.258    0.000
  320.500    0.358    0.415   41.541   24.257    0.000
  320.750    0.365    0.425   39.704   23.799    0.000
  321.000    0.359    0.430   39.718   23.351    0.000
  321.250    0.348    0.438   43.437   22.910    0.000
  321.500    0.341    0.440   45.922   22.478    0.000
  321.750    0.351    0.429   47.169   21.640    0.000
  322.000    0.351    0.428   47.191   21.639    0.000
  322.250    0.349    0.437   47.204   21.637    0.000
  322.500    0.346    0.442   47.221   21.229    0.000
  322.750    0.345    0.441   46.615   21.228    0.000
  323.000    0.354    0.439   46.016   20.828    0.000
  323.250    0.344    0.441   45.413   20.826    0.000
  323.500    0.339    0.440   46.044   20.433    0.000
  323.750    0.330    0.442   48.525   20.432    0.000
  324.000    0.344    0.438   50.390   20.431    0.000
  324.250    0.356    0.436   47.320   20.430    0.000
  324.500    0.360    0.459   46.721   20.044    0.000
  324.750    0.371    0.474   46.731   20.043    0.000
  325.000    0.373    0.459   43.661   20.042    0.000
  325.250    0.373    0.447   40.590   19.664    0.000
  325.500    0.375    0.456   44.929   19.663    0.000
  325.750    0.379    0.441   46.791   19.661    0.000
  326.000    0.385    0.449   47.429   19.660    0.000
  326.250    0.384    0.459   46.826   20.036    0.000
  326.500    0.377    0.463   46.838   20.810    0.000
  326.750    0.368    0.446   47.475   21.613    0.000
  327.000    0.364    0.432   46.865   22.448    0.000
  327.250    0.365    0.431   43.179   23.762    0.000
  327.500    0.356    0.444   41.339   24.215    0.000
  327.750    0.349    0.445   40.738   24.678    0.000
  328.000    0.343    0.443   40.753   25.149    0.000
  328.250    0.332    0.448   41.388   25.148    0.000
  328.500    0.334    0.439   40.782   25.146    0.000
  328.750    0.341    0.427   40.179   25.145    0.000
  329.000    0.342    0.421   38.959   25.143    0.000
  329.250    0.353    0.429   37.744   25.142    0.000
  329.500    0.348    0.439   37.140   25.140    0.000
  329.750    0.343    0.439   37.774   25.139    0.000
  330.000    0.337    0.440   37.785   25.137    0.000
  330.250    0.342    0.443   37.185   25.617    0.000
  330.500    0.344    0.439   37.197   25.616    0.000
  330.750    0.340    0.432   36.597   26.104    0.000
  331.000    0.346    0.440   36.610   26.103    0.000
  331.250    0.339    0.450   37.863   26.601    0.000
  331.500    0.334    0.433   39.111   26.599    0.000
  331.750    0.350    0.422   40.357   27.627    0.000
  332.000    0.344    0.424   39.139   27.626    0.000
  332.250    0.344    0.419   38.537   29.242    0.000
  332.500    0.349    0.417   37.933   30.953    0.000
  332.750    0.349    0.424   37.950   32.764    0.000
  333.000    0.355    0.423   36.729   34.030    0.000
  333.250    0.367    0.426   36.744   36.711    0.000
  333.500    0.373    0.436   36.143   39.604    0.000
  333.750    0.361    0.439   36.778   41.922    0.000
  334.000    0.349    0.440   36.171   44.375    0.000
  334.250    0.347    0.451   34.336   45.222    0.000
  334.500    0.370    0.446   33.733   45.219    0.000
  334.750    0.373    0.441   34.982   43.533    0.000
  335.000    0.358    0.452   36.853   40.348    0.000
  335.250    0.351    0.451   37.481   36.004    0.000
  335.500    0.360    0.461   37.494   34.010    0.000
  335.750    0.372    0.480   35.660   32.741    0.000
  336.000    0.347    0.500   34.440   35.321    0.000
  336.250    0.319    0.456   36.923   40.336    0.000
  336.500    0.252    0.398   36.938   48.762    0.000
  336.750    0.150    0.289   32.634   57.841    0.000
  337.000    0.021    0.102   30.180   72.629    0.000
  337.250    0.013    0.091   29.577   84.531    0.000
  337.500    0.006    0.090   28.973   89.478    0.000
  337.750    0.000    0.087   28.373   86.139    0.000
  338.000    0.000    0.102   29.002   76.864    0.000
  338.250    0.001    0.125   31.493   67.299    0.000
  338.500    0.029    0.146   32.737   53.590    0.000
  338.750    0.052    0.237   34.602   35.973    0.000
  339.000    0.240    0.362   37.087   28.645    0.000
  339.250    0.352    0.371   39.571   23.692    0.000
  339.500    0.369    0.450   40.206   21.546    0.000
  339.750    0.374    0.444   40.834   20.742    0.000
  340.000    0.370    0.459   43.937   20.351    0.000
  340.250    0.368    0.465   44.572   20.350    0.000
  340.500    0.361    0.472   44.586   20.349    0.000
  340.750    0.373    0.469   43.985   20.348    0.000
  341.000    0.376    0.451   43.996   20.346    0.000
  341.250    0.354    0.437   45.866   20.735    0.000
  341.500    0.356    0.462   46.495   20.734    0.000
  341.750    0.369    0.461   46.514   20.732    0.000
  342.000    0.369    0.451   45.910   20.341    0.000
  342.250    0.371    0.450   45.924   20.340    0.000
  342.500    0.371    0.445   45.936   20.338    0.000
  342.750    0.382    0.462   45.955   19.955    0.000
  343.000    0.390    0.498   45.970   19.954    0.000
  343.250    0.373    0.494   45.983   19.578    0.000
  343.500    0.373    0.490   47.849   18.847    0.000
  343.750    0.373    0.499   49.099   18.846    0.000
  344.000    0.367    0.503   46.028   18.491    0.000
  344.250    0.362    0.499   44.809   18.490    0.000
  344.500    0.365    0.493   48.527   18.489    0.000
  344.750    0.371    0.489   51.627   18.488    0.000
  345.000    0.365    0.484   49.178   18.487    0.000
  345.250    0.362    0.500   51.042   18.840    0.000
  345.500    0.360    0.520   51.058   19.567    0.000
  345.750    0.349    0.503   51.687   20.712    0.000
  346.000    0.337    0.475   55.406   22.344    0.000
  346.250    0.316    0.450   60.980   22.343    0.000
  346.500    0.295    0.414   61.610   21.510    0.000
  346.750    0.284    0.401   61.006   19.194    0.000
  347.000    0.309    0.458   65.342   17.789    0.000
  347.250    0.329    0.484   65.357   16.804    0.000
  347.500    0.335    0.493   65.992   16.487    0.000
  347.750    0.336    0.494   67.858   16.486    0.000
  348.000    0.338    0.483   64.785   17.451    0.000
  348.250    0.345    0.494   58.011   18.472    0.000
  348.500    0.342    0.480   54.941   18.471    0.000
  348.750    0.342    0.478   54.955   17.782    0.000
  349.000    0.342    0.486   56.205   17.447    0.000
  349.250    0.346    0.486   58.691   16.480    0.000
  349.500    0.346    0.485   60.556   15.865    0.000
  349.750    0.348    0.479   59.334   15.566    0.000
  350.000    0.351    0.474   56.882   15.272    0.000
  350.250    0.357    0.484   53.811   15.271    0.000
  350.500    0.358    0.491   53.205   15.271    0.000
  350.750    0.359    0.471   53.843   14.983    0.000
  351.000    0.362    0.459   53.853   14.153    0.000
  351.250    0.365    0.464   53.250   12.629    0.000
  351.500    0.370    0.486   55.115   12.870    0.000
  351.750    0.371    0.499   54.517   13.367    0.000
  352.000    0.371    0.496   56.999   13.366    0.000
  352.250    0.360    0.471   60.100   12.626    0.000
  352.500    0.343    0.450   62.587    9.497    0.000
  352.750    0.324    0.436   66.921    7.421    0.000
  353.000    0.331    0.470   71.875    6.255    0.000
  353.250    0.313    0.528   76.826    5.797    0.000
  353.500    0.306    0.552   79.929    5.581    0.000
  353.750    0.306    0.553   76.857    5.076    0.000
  354.000    0.307    0.536   75.637    4.278    0.000
  354.250    0.307    0.532   81.826    3.676    0.000
