~VERSION INFORMATION
 VERS.                 2.0:   CWLS LOG ASCII STANDARD -VERSION 2.0
 WRAP.                  NO:   ONE LINE PER DEPTH STEP
~WELL INFORMATION BLOCK
#MNEM.UNIT           DATA                    DESCRIPTION OF MNEMONIC
#---------    -------------------            -------------------------------
# Generated from Intellog Unique Number	CW_79_81/WELL/2465
WELL.         10-10-080-24W4                 : Well_name    - WELL
LOC .         00/10-10-080-24W4/0            : Location     - LOCATION
UWI .         00/10-10-080-24W4/0            : Uwi          - UNIQUE WELL ID
ENTR.         MAX                            : Entered      - ENTERED BY
SRVC.         SCHLUMBERGER                   : Scn          - SERVICE COMPANY
STRT.M        200                            : top_depth    - START DEPTH
STOP.M        455                            : bot_depth    - STOP DEPTH
STEP.M        0.25                           : increment    - STEP LENGTH
 NULL. -999.2500:NULL Value
~CURVE INFORMATION BLOCK
#MNEM UNIT       ERCB CURVE CODE    CURVE DESCRIPTION
#-----------   ------------------   ----------------------------------
DEPT.M        00 001 00 00         : DEPTH        - DEPTH
ILD .OHMM     00 120 00 00         : RESD         - DEEP RESISTIVITY (DIL)
NPHI.V/V      00 330 00 00         : PHIN         - NEUTRON POROSITY (SANDSTONE)
DPHI.V/V      00 890 00 00         : PHID         - DENSITY POROSITY (SANDSTONE)
GR  .API      00 310 00 00         : GR           - GAMMA RAY
CALI.MM       00 280 01 00         : CAL          - CALIPER
~PARAMETER INFORMATION
#MNEM.UNIT           DATA             DESCRIPTION OF MNEMONIC
#---------         -----------     ------------------------------
GL  .M        558.63               : gl           - GROUND LEVEL ELEVATION
EREF.M        562.83               : kb           - ELEVATION OF DEPTH REFERENCE
DATM.M        558.63               : datum        - DATUM ELEVATION
TDD .M        456.5                : tdd          - TOTAL DEPTH DRILLER
RUN .         ONE                  : Run          - RUN NUMBER
ENG .         BILL                 : Engineer     - RECORDING ENGINEER
WIT .         JIM                  : Witness      - WITNESSED BY
MUD .         GEL                  : Mud_type     - MUD TYPE
MATR.         SANDSTONE            : Logunit      - NEUTRON MATRIX
TMAX.C        24.5                 : BHT          - MAXIMUM RECORDED TEMPERATURE
BHTD.M        456.5                : BHTDEP       - MAXIMUM RECORDED TEMPERATURE
MATR.         1                    : LOGUNIT      - NEUTRON MATRIX
RMT .C        18.5                 : MDTP         - TEMPERATURE OF MUD
NEUT.         1                    : NEUTRON      - NEUTRON TYPE
RESI.         0                    : RESIST       - RESISTIVITY TYPE
RMC .OHMM     7.95                 : RMC          - RESISTIVITY OF MUD CAKE
RMF .OHMM     5.82                 : RMF          - RESISTIVITY OF MUD FILTRATE
SUFT.C        -20                  : SUFT         - SURFACE TEMPERATURE
~A  DEPTH     RESD     PHIN     PHID       GR      CAL
# ...
  273.000   22.319    0.428    0.338   73.524  220.404
  273.250   21.934    0.425    0.323   73.336  221.289
  273.500   20.177    0.425    0.309   73.587  221.708
  273.750   18.735    0.442    0.300   72.392  222.110
  274.000   18.104    0.454    0.304   70.479  222.512
  274.250   17.910    0.444    0.304   71.199  223.113
  274.500   17.946    0.420    0.296   75.450  223.715
  274.750   18.108    0.414    0.286   81.727  223.802
  275.000   18.250    0.423    0.290   81.979  224.221
  275.250   18.253    0.487    0.324   74.079  224.224
  275.500   18.255    0.543    0.369   66.001  223.329
  275.750   18.257    0.557    0.395   58.340  221.936
  276.000   18.360    0.532    0.394   52.057  220.741
  276.250   18.943    0.501    0.372   48.618  220.662
  276.500   19.842    0.476    0.361   49.368  220.250
  276.750   20.888    0.473    0.351   49.609  220.252
  277.000   21.755    0.478    0.353   49.492  221.153
  277.250   22.331    0.475    0.354   48.296  221.755
  277.500   22.583    0.462    0.351   46.742  221.659
  277.750   22.621    0.449    0.350   47.432  221.180
  278.000   22.798    0.449    0.352   49.679  220.767
  278.250   22.802    0.447    0.338   50.160  220.372
  278.500   22.803    0.445    0.333   48.844  219.976
  278.750   22.806    0.443    0.337   46.691  219.779
  279.000   22.812    0.447    0.344   45.017  219.682
  279.250   22.709    0.467    0.346   46.296  219.370
  279.500   22.197    0.466    0.352   50.289  219.788
  279.750   21.875    0.478    0.345   53.403  220.191
  280.000   21.798    0.470    0.331   53.824  221.192
  280.250   21.800    0.454    0.321   52.150  221.793
  280.500   21.763    0.443    0.318   50.057  221.896
  280.750   21.607    0.452    0.324   50.398  222.298
  281.000   21.612    0.458    0.327   50.899  222.302
  281.250   21.614    0.440    0.329   50.422  221.507
  281.500   21.497    0.429    0.333   49.945  220.712
  281.750   21.421    0.424    0.336   49.707  220.315
  282.000   21.424    0.432    0.339   49.769  220.319
  282.250   21.427    0.466    0.340   50.010  220.073
  282.500   21.430    0.475    0.342   50.012  218.829
  282.750   21.430    0.471    0.333   48.817  218.433
  283.000   21.435    0.460    0.322   47.622  218.037
  283.250   21.597    0.453    0.317   48.581  218.639
  283.500   21.920    0.456    0.321   50.798  220.438
  283.750   22.283    0.457    0.326   49.972  223.252
  284.000   22.459    0.443    0.329   48.228  225.333
  284.250   22.459    0.435    0.333   49.666  225.735
  284.500   22.712    0.438    0.335   52.362  225.838
  284.750   23.053    0.438    0.333   54.519  225.841
  285.000   23.398    0.432    0.330   55.598  225.844
  285.250   23.750    0.429    0.331   56.568  225.682
  285.500   23.750    0.423    0.334   57.817  224.853
  285.750   23.756    0.427    0.333   56.861  224.457
  286.000   23.891    0.428    0.339   53.750  224.360
  286.250   23.983    0.428    0.338   50.998  224.164
  286.500   23.942    0.428    0.331   50.222  223.868
  286.750   23.770    0.427    0.332   52.489  223.872
  287.000   23.770    0.426    0.339   54.237  223.874
  287.250   23.602    0.433    0.342   54.239  224.277
  287.500   23.173    0.451    0.341   54.420  224.380
  287.750   22.924    0.462    0.338   54.302  224.383
  288.000   23.010    0.462    0.336   53.706  224.485
  288.250   23.498    0.454    0.331   52.601  224.972
  288.500   24.236    0.435    0.324   51.854  225.390
  288.750   24.779    0.424    0.311   50.419  226.990
  289.000   25.059    0.407    0.289   51.319  228.589
  289.250   25.154    0.408    0.289   54.075  230.388
  289.500   25.064    0.425    0.311   57.967  232.386
  289.750   24.511    0.438    0.324   62.887  234.634
  290.000   23.596    0.483    0.342   67.129  235.884
  290.250   23.596    0.486    0.349   65.934  234.690
  290.500   23.082    0.484    0.346   60.249  239.781
  290.750   22.247    0.481    0.340   55.343  248.364
  291.000   21.413    0.480    0.333   53.369  255.650
  291.250   20.950    0.480    0.325   53.870  255.105
  291.500   20.953    0.478    0.316   56.366  256.355
  291.750   21.422    0.479    0.329   56.847  267.131
  292.000   21.903    0.476    0.349   55.891  261.449
  292.250   22.233    0.460    0.354   54.097  255.466
  292.500   22.400    0.443    0.345   51.944  257.663
  292.750   22.500    0.457    0.347   49.742  270.170
  293.000   22.161    0.456    0.363   49.494  276.825
  293.250   22.001    0.471    0.350   53.087  276.030
  293.500   21.964    0.482    0.332   53.628  278.228
  293.750   21.968    0.501    0.333   52.552  280.625
  294.000   22.012    0.523    0.348   51.357  280.529
  294.250   22.073    0.523    0.345   51.898  273.682
  294.500   21.576    0.502    0.339   53.396  265.371
  294.750   20.641    0.493    0.337   53.877  263.379
  295.000   20.084    0.497    0.342   53.819  265.876
  295.250   19.868    0.504    0.349   53.222  268.673
  295.500   20.016    0.511    0.356   52.686  267.280
  295.750   20.745    0.522    0.390   53.555  255.245
  296.000   21.396    0.549    0.485   54.305  246.934
  296.250   21.875    0.434    0.465   55.504  233.770
  296.500   22.733    0.361    0.306   57.422  222.100
  296.750   24.100    0.344    0.221   58.741  214.321
  297.000   25.637    0.370    0.259   59.042  211.132
  297.250   25.887    0.412    0.310   58.555  212.366
  297.500   24.359    0.486    0.329   57.310  216.526
  297.750   22.959    0.486    0.325   58.748  220.120
  298.000   21.154    0.480    0.324   60.546  225.211
  298.250   19.897    0.483    0.326   62.343  229.604
  298.500   19.109    0.493    0.325   64.201  231.902
  298.750   17.343    0.480    0.297   67.993  230.758
  299.000   14.165    0.459    0.227   74.979  227.020
  299.250   11.649    0.453    0.228   82.642  221.836
  299.500   10.304    0.440    0.231   86.356  219.045
  299.750    9.073    0.442    0.233   86.717  217.452
  300.000    7.876    0.460    0.232   84.983  216.557
  300.250    6.749    0.474    0.233   82.970  216.644
  300.500    6.024    0.476    0.239   82.473  217.063
  300.750    5.428    0.472    0.247   84.151  217.066
  301.000    4.922    0.492    0.255   83.853  216.770
  301.250    4.684    0.506    0.265   81.461  215.974
  301.500    4.742    0.500    0.276   78.111  215.180
  301.750    5.335    0.475    0.280   76.097  215.666
  302.000    6.858    0.445    0.277   75.601  216.084
  302.250    7.593    0.454    0.278   74.166  216.088
  302.500    7.890    0.476    0.273   72.013  216.091
  302.750    7.950    0.490    0.262   71.177  216.293
  303.000    8.037    0.491    0.248   72.495  216.496
  303.250    8.516    0.491    0.242   75.859  216.018
  303.500    9.130    0.487    0.248   77.109  215.605
  303.750    9.199    0.478    0.252   77.829  215.209
  304.000    9.216    0.485    0.251   79.626  215.112
  304.250    9.047    0.487    0.245   82.621  215.115
  304.500    8.673    0.471    0.238   85.257  215.118
  304.750    8.105    0.442    0.240   84.650  215.122
  305.000    7.743    0.456    0.237   86.398  215.125
  305.250    7.575    0.472    0.236   88.076  215.128
  305.500    7.535    0.472    0.239   87.419  215.131
  305.750    7.591    0.470    0.244   86.344  215.135
  306.000    7.732    0.471    0.246   84.909  215.238
  306.250    8.072    0.474    0.242   80.422  215.723
  306.500    8.654    0.475    0.237   75.934  216.142
  306.750    9.446    0.469    0.231   75.936  216.544
  307.000   10.044    0.461    0.236   77.913  216.647
  307.250   10.198    0.463    0.241   80.190  216.850
  307.500    9.823    0.476    0.241   81.030  217.152
  307.750    8.954    0.486    0.235   78.837  217.321
  308.000    8.426    0.482    0.239   79.837  218.156
  308.250    7.649    0.476    0.239   80.796  218.558
  308.500    7.272    0.477    0.236   81.576  218.960
  308.750    7.063    0.479    0.231   84.571  218.963
  309.000    6.949    0.480    0.226   88.284  218.568
  309.250    6.961    0.478    0.221   85.682  218.089
