~VERSION INFORMATION
 VERS.                 2.0:   CWLS LOG ASCII STANDARD -VERSION 2.0
 WRAP.                  NO:   ONE LINE PER DEPTH STEP
~WELL INFORMATION BLOCK
#MNEM.UNIT           DATA                    DESCRIPTION OF MNEMONIC
#---------    -------------------            -------------------------------
# Generated from Intellog Unique Number	CC_84_87/WELL/2338
NULL.         -999.25                        : NULL_VALUE
WELL.         NOVALTA NEWBY                  : Well_name    - WELL              
LOC .         12-05-084-05W4                 : Location     - LOCATION          
UWI .         00/12-05-084-05W400            : Uwi          - UNIQUE WELL ID    
ENTR.         JHS                            : Entered      - ENTERED BY        
SRVC.         SCHLUMBERGER                   : Scn          - SERVICE COMPANY   
DATE.         12 FEB 85                      : Date         - LOG DATE
STRT.M        64                             : top_depth    - START DEPTH       
STOP.M        324.999                        : bot_depth    - STOP DEPTH        
STEP.M        0.3                            : increment    - STEP LENGTH       
~CURVE INFORMATION BLOCK
#MNEM UNIT       ERCB CURVE CODE    CURVE DESCRIPTION
#-----------   ------------------   ----------------------------------
DEPT.M        00 001 00 00         : DEPTH        - DEPTH                       
DPHI.V/V      00 890 00 00         : PHID         - DENSITY POROSITY (LIMESTONE)
NPHI.V/V      00 330 00 00         : PHIN         - NEUTRON POROSITY (LIMESTONE)
GR  .API      00 310 00 00         : GR           - GAMMA RAY                   
ILD .OHMM     00 120 00 00         : RESD         - DEEP RESISTIVITY (DIL)      
~PARAMETER INFORMATION       
#MNEM.UNIT           DATA             DESCRIPTION OF MNEMONIC
#---------         -----------     ------------------------------
GL  .M        490                  : gl           - GROUND LEVEL ELEVATION      
EREF.M        493                  : kb           - ELEVATION OF DEPTH REFERENCE
DATM.M        493                  : datum        - DATUM ELEVATION             
TDD .M        335                  : tdd          - TOTAL DEPTH DRILLER         
RUN .         ONE                  : Run          - RUN NUMBER                  
ENG .         BILL                 : Engineer     - RECORDING ENGINEER          
WIT .         JIM                  : Witness      - WITNESSED BY                
MUD .         GEL                  : Mud_type     - MUD TYPE                    
MATR.         LIMESTONE            : Logunit      - NEUTRON MATRIX              
TMAX.C        25                   : BHT          - MAXIMUM RECORDED TEMPERATURE
BHTD.M        335                  : BHTDEP       - MAXIMUM RECORDED TEMPERATURE
MATR.         1                    : LOGUNIT      - NEUTRON MATRIX              
RMT .C        25                   : MDTP         - TEMPERATURE OF MUD          
NEUT.         1                    : NEUTRON      - NEUTRON TYPE                
RESI.         0                    : RESIST       - RESISTIVITY TYPE            
RMC .OHMM     0.25                 : RMC          - RESISTIVITY OF MUD CAKE     
RMF .OHMM     0.25                 : RMF          - RESISTIVITY OF MUD FILTRATE 
SUFT.C        15                   : SUFT         - SURFACE TEMPERATURE         
~A  DEPTH     PHID     PHIN       GR     RESD
# ...
  220.602    0.258    0.504   85.960    3.406
  220.902    0.258    0.515   87.202    3.603
  221.202    0.255    0.513   87.823    3.741
  221.502    0.250    0.464   85.346    3.959
  221.802    0.261    0.425   86.587    4.269
  222.102    0.275    0.420   82.250    4.602
  222.402    0.271    0.451   82.873    4.689
  222.702    0.261    0.453   84.734    4.777
  223.002    0.263    0.441   84.116    5.054
  223.302    0.238    0.421   77.920    5.248
  223.602    0.170    0.397   72.343    5.553
  223.902    0.233    0.374   65.527    6.101
  224.202    0.297    0.332   61.190    6.100
  224.502    0.292    0.341   61.812    5.983
  224.802    0.285    0.379   67.392    5.869
  225.102    0.277    0.410   74.832    5.867
  225.402    0.291    0.380   78.554    6.091
  225.702    0.321    0.360   77.316    6.822
  226.002    0.339    0.352   65.541    9.957
  226.302    0.352    0.347   49.427   11.580
  226.602    0.349    0.362   42.611   11.577
  226.902    0.337    0.404   43.233    9.222
  227.202    0.331    0.391   45.094    7.346
  227.502    0.324    0.385   50.675    5.742
  227.802    0.303    0.397   68.652    5.028
  228.102    0.243    0.392   78.572    4.572
  228.402    0.246    0.380   79.193    4.238
  228.702    0.263    0.378   66.798    4.002
  229.002    0.251    0.371   69.900    3.780
  229.302    0.249    0.378   73.621    3.638
  229.602    0.265    0.394   71.144    3.569
  229.902    0.266    0.379   71.765    3.636
  230.202    0.253    0.368   73.007    3.635
  230.502    0.230    0.376   78.588    3.634
  230.802    0.234    0.383   81.688    3.702
  231.102    0.234    0.363   82.930    3.771
  231.402    0.224    0.359   82.312    3.770
  231.702    0.224    0.369   78.595    3.769
  232.002    0.230    0.383   79.217    3.560
  232.302    0.222    0.384   79.839    3.426
  232.602    0.225    0.374   79.841    3.298
  232.902    0.244    0.358   78.603    3.235
  233.202    0.271    0.345   68.688    3.234
  233.502    0.297    0.344   62.491    3.172
  233.802    0.292    0.353   61.874    3.171
  234.102    0.285    0.374   63.115    3.230
  234.402    0.292    0.406   61.878    3.354
  234.702    0.319    0.412   56.301    3.617
  235.002    0.335    0.399   48.865    3.615
  235.302    0.329    0.401   50.107    3.480
  235.602    0.302    0.397   56.307    3.225
  235.902    0.249    0.366   71.185    2.933
  236.202    0.240    0.374   74.286    2.877
  236.502    0.255    0.385   71.189    2.822
  236.802    0.276    0.381   63.134    2.821
  237.102    0.288    0.371   61.276    2.820
  237.402    0.281    0.377   61.278    2.819
  237.702    0.262    0.381   68.718    2.818
  238.002    0.255    0.376   74.918    2.926
  238.302    0.251    0.369   75.540    2.925
  238.602    0.245    0.371   75.542    3.037
  238.902    0.250    0.397   71.825    3.094
  239.202    0.255    0.417   74.307    3.212
  239.502    0.255    0.420   78.027    3.211
  239.802    0.271    0.416   75.550    3.210
  240.102    0.287    0.406   65.635    3.149
  240.402    0.282    0.400   73.695    3.148
  240.702    0.259    0.417   79.895    3.030
  241.002    0.249    0.389   87.335    2.972
  241.302    0.259    0.360   78.039    2.915
  241.602    0.254    0.374   82.380    2.970
  241.902    0.271    0.394   74.324    3.264
  242.202    0.317    0.411   48.293    3.796
  242.502    0.293    0.394   51.395    4.016
  242.802    0.259    0.375   60.074    3.866
  243.102    0.286    0.381   68.134    3.721
  243.402    0.269    0.396   64.417    3.514
  243.702    0.244    0.406   84.254    3.383
  244.002    0.229    0.415   94.173    3.446
  244.302    0.280    0.452   71.861    3.859
  244.602    0.328    0.438   51.408    4.007
  244.902    0.313    0.407   55.129    3.644
  245.202    0.261    0.403   73.726    3.314
  245.502    0.240    0.392   83.646    3.130
  245.802    0.235    0.392   73.730    3.013
  246.102    0.240    0.406   71.253    2.900
  246.402    0.246    0.397   67.536    2.791
  246.702    0.256    0.370   61.340    2.738
  247.002    0.250    0.370   65.680    2.737
  247.302    0.241    0.417   84.278    2.685
  247.602    0.257    0.419   81.800    2.735
  247.902    0.286    0.413   55.769    2.949
  248.202    0.346    0.401   41.515    3.180
  248.502    0.346    0.390   40.277    3.990
  248.802    0.343    0.382   33.461    5.399
  249.102    0.345    0.386   36.562    6.902
  249.402    0.348    0.391   43.382    7.442
  249.702    0.345    0.400   48.963    7.030
  250.002    0.362    0.402   32.716    4.324
  250.302    0.341    0.367   32.719    4.248
  250.602    0.279    0.346   45.067    3.763
  250.902    0.300    0.363   48.156    3.278
  251.202    0.305    0.385   41.368    2.574
  251.502    0.286    0.375   48.778    2.166
  251.802    0.296    0.353   59.275    1.854
  252.102    0.290    0.362   60.512    1.821
  252.402    0.244    0.383   71.008    1.950
  252.702    0.217    0.405   87.677    2.162
  253.002    0.216    0.430   94.470    2.523
  253.302    0.225    0.428   92.620    2.521
  253.602    0.257    0.430   80.277    2.435
  253.902    0.315    0.436   60.526    2.311
  254.202    0.327    0.393   51.270    2.156
  254.502    0.304    0.338   54.975    1.846
  254.802    0.296    0.344   53.126    1.580
  255.102    0.323    0.365   40.166    1.376
  255.402    0.359    0.386   33.995    1.219
  255.702    0.354    0.380   34.615    1.157
  256.002    0.354    0.374   32.766    1.079
  256.302    0.365    0.376   32.769    1.025
  256.602    0.369    0.371   34.005    0.972
  256.902    0.364    0.369   34.007    0.939
  257.202    0.349    0.386   32.158    0.939
  257.502    0.353    0.407   33.395    0.955
  257.802    0.363    0.411   34.633    0.954
  258.102    0.362    0.399   33.400    0.970
  258.402    0.370    0.373   32.168    0.970
  258.702    0.379    0.370   32.170    0.953
  259.002    0.383    0.388   31.556    0.936
  259.302    0.355    0.401   30.941    0.936
  259.602    0.313    0.415   32.178    0.968
  259.902    0.311    0.433   40.205    1.036
  260.202    0.326    0.422   50.701    1.072
  260.502    0.299    0.406   55.025    1.209
  260.802    0.280    0.397   59.349    1.363
  261.102    0.287    0.407   56.264    1.435
  261.402    0.315    0.425   48.242    1.434
  261.702    0.322    0.408   48.244    1.385
  262.002    0.343    0.385   43.309    1.315
  262.302    0.342    0.370   38.990    1.248
  262.602    0.286    0.371   45.783    1.247
  262.902    0.270    0.375   56.279    1.268
  263.202    0.297    0.378   58.751    1.335
  263.502    0.297    0.379   57.518    1.381
  263.802    0.290    0.387   55.669    1.504
  264.102    0.313    0.400   57.523    1.556
  264.402    0.308    0.401   59.378    1.610
  264.702    0.291    0.395   60.615    1.609
  265.002    0.286    0.394   63.703    1.581
  265.302    0.287    0.386   64.941    1.527
  265.602    0.300    0.384   59.387    1.425
  265.902    0.322    0.382   50.131    1.352
  266.202    0.336    0.387   49.516    1.240
  266.502    0.329    0.401   51.988    1.239
  266.802    0.306    0.411   56.928    1.239
  267.102    0.302    0.400   53.227    1.217
  267.401    0.338    0.405   42.736    1.116
  267.701    0.386    0.400   31.627    1.059
  268.001    0.384    0.384   27.925    0.988
  268.301    0.376    0.374   28.545    0.938
  268.601    0.368    0.375   30.399    0.875
  268.901    0.365    0.387   29.785    0.845
  269.201    0.369    0.382   26.701    0.859
  269.501    0.365    0.390   29.790    0.874
  269.801    0.360    0.403   34.730    0.920
  270.101    0.344    0.405   40.288    0.985
  270.401    0.319    0.396   50.167    1.037
  270.701    0.334    0.406   48.318    1.073
  271.001    0.343    0.406   40.296    1.054
  271.301    0.348    0.396   39.681    1.035
  271.601    0.360    0.390   37.831    1.017
  271.901    0.369    0.387   32.278    0.966
  272.201    0.371    0.382   26.108    0.916
  272.501    0.374    0.385   27.346    0.885
