~VERSION INFORMATION
 VERS.                 2.0:   CWLS LOG ASCII STANDARD -VERSION 2.0
 WRAP.                  NO:   ONE LINE PER DEPTH STEP
~WELL INFORMATION BLOCK
#MNEM.UNIT           DATA                    DESCRIPTION OF MNEMONIC
#---------    -------------------            -------------------------------
# Generated from Intellog Unique Number	CW_70_72/WELL/3036
NULL.         -999.25                        : NULL_VALUE
WELL.         MANNVILLE ET AL DECRENE 15-36  : Well_name    - WELL              
LOC .         15-36-070-02W5                 : Location     - LOCATION          
UWI .         00/15-36-070-02W5/0            : Uwi          - UNIQUE WELL ID    
ENTR.         JAYE                           : Entered      - ENTERED BY        
SRVC.         SCHLUMBERGER                   : Scn          - SERVICE COMPANY   
DATE.         2 MAR 84                       : Date         - LOG DATE          
STRT.M        400                            : top_depth    - START DEPTH       
STOP.M        630                            : bot_depth    - STOP DEPTH        
STEP.M        0.25                           : increment    - STEP LENGTH       
~CURVE INFORMATION BLOCK
#MNEM UNIT       ERCB CURVE CODE    CURVE DESCRIPTION
#-----------   ------------------   ----------------------------------
DEPT.M        00 001 00 00         : DEPTH        - DEPTH                       
ILD .OHMM     00 120 00 00         : RESD         - DEEP RESISTIVITY (DIL)      
CALI.MM       00 280 01 00         : CAL          - CALIPER                     
GR  .API      00 310 00 00         : GR           - GAMMA RAY                   
NPHI.V/V      00 330 00 00         : PHIN         - NEUTRON POROSITY (SANDSTONE)
DPHI.V/V      00 890 00 00         : PHID         - DENSITY POROSITY (SANDSTONE)
~PARAMETER INFORMATION       
#MNEM.UNIT           DATA             DESCRIPTION OF MNEMONIC
#---------         -----------     ------------------------------
GL  .M        591.5                : gl           - GROUND LEVEL ELEVATION      
EREF.M        595                  : kb           - ELEVATION OF DEPTH REFERENCE
DATM.M        591.5                : datum        - DATUM ELEVATION             
TDD .M        640                  : tdd          - TOTAL DEPTH DRILLER         
RUN .         ONE                  : Run          - RUN NUMBER                  
ENG .         PIERAOCL             : Engineer     - RECORDING ENGINEER          
WIT .         LYSZKIEWICZ          : Witness      - WITNESSED BY                
BASE.         EDM                  : Branch       - HOME BASE OF LOGGING UNIT   
MUD .         GEL CHEM             : Mud_type     - MUD TYPE                    
MATR.         SANDSTONE            : Logunit      - NEUTRON MATRIX              
TMAX.C        28                   : BHT          - MAXIMUM RECORDED TEMPERATURE
BHTD.M        641                  : BHTDEP       - MAXIMUM RECORDED TEMPERATURE
RMT .C        20                   : MDTP         - TEMPERATURE OF MUD          
MUDD.KG/M     1100                 : MWT          - MUD DENSITY                 
NEUT.         1                    : NEUTRON      - NEUTRON TYPE                
RESI.         0                    : RESIST       - RESISTIVITY TYPE            
RM  .OHMM     2.86                 : RM           - RESISTIVITY OF MUD          
RMC .OHMM     0.25                 : RMC          - RESISTIVITY OF MUD CAKE     
RMF .OHMM     4.03                 : RMF          - RESISTIVITY OF MUD FILTRATE 
SUFT.C        0                    : SUFT         - SURFACE TEMPERATURE         
~A  DEPTH     RESD      CAL       GR     PHIN     PHID
# ...
  509.500    2.843  161.980   65.296    0.411    0.302
  509.750    2.824  162.315   61.957    0.410    0.292
  510.000    2.799  162.342   58.119    0.405    0.270
  510.250    2.785  163.095   60.808    0.450    0.249
  510.500    2.781  163.216   63.431    0.471    0.240
  510.750    2.757  163.137   62.700    0.463    0.270
  511.000    2.758  162.750   60.482    0.426    0.286
  511.250    2.813  159.979   59.314    0.417    0.270
  511.500    2.889  158.245   58.026    0.422    0.245
  511.750    3.008  159.107   57.111    0.411    0.221
  512.000    3.154  161.920   56.936    0.350    0.205
  512.250    3.296  165.152   55.586    0.344    0.222
  512.500    3.418  165.903   58.520    0.384    0.238
  512.750    3.518  165.630   58.597    0.391    0.233
  513.000    3.594  165.747   53.519    0.384    0.228
  513.250    3.692  165.564   51.484    0.370    0.229
  513.500    3.829  166.003   52.369    0.361    0.234
  513.750    3.933  166.032   54.000    0.349    0.225
  514.000    4.087  166.057   55.816    0.351    0.214
  514.250    4.286  165.979   58.191    0.358    0.218
  514.500    4.445  165.794   61.314    0.343    0.233
  514.750    4.541  164.892   63.191    0.334    0.245
  515.000    4.561  165.119   64.014    0.350    0.254
  515.250    4.370  165.145   63.658    0.360    0.266
  515.500    4.079  165.275   60.754    0.367    0.250
  515.750    3.879  165.304   56.296    0.372    0.241
  516.000    3.600  165.331   56.933    0.375    0.256
  516.250    3.398  164.945   58.750    0.382    0.265
  516.500    3.177  164.960   60.440    0.390    0.265
  516.750    3.027  164.780   61.701    0.395    0.264
  517.000    2.868  164.495   62.089    0.394    0.265
  517.250    2.769  164.112   61.233    0.382    0.265
  517.500    2.725  163.924   57.023    0.366    0.263
  517.750    2.747  163.846   53.125    0.363    0.258
  518.000    2.754  163.561   57.117    0.379    0.250
  518.250    2.760  163.792   60.609    0.391    0.248
  518.500    2.767  163.403   62.425    0.384    0.251
  518.750    2.785  163.325   60.639    0.379    0.252
  519.000    2.786  163.661   55.561    0.387    0.255
  519.250    2.798  163.792   57.130    0.393    0.263
  519.500    2.805  164.129   59.132    0.399    0.259
  519.750    2.791  164.883   59.582    0.412    0.248
  520.000    2.798  165.421   59.165    0.413    0.240
  520.250    2.811  165.754   59.239    0.403    0.237
  520.500    2.817  165.785   59.875    0.398    0.236
  520.750    2.841  165.495   57.656    0.395    0.235
  521.000    2.864  165.316   57.236    0.382    0.237
  521.250    2.964  165.654   60.357    0.370    0.244
  521.500    3.198  165.781   55.962    0.353    0.232
  521.750    3.482  166.115   50.447    0.327    0.214
  522.000    3.793  167.071   46.053    0.289    0.157
  522.250    4.015  168.339   58.928    0.269    0.138
  522.500    4.094  169.302   65.215    0.319    0.149
  522.750    4.036  169.840   72.003    0.338    0.162
  523.000    3.816  170.177   74.874    0.353    0.178
  523.250    3.636  170.511   75.758    0.360    0.193
  523.500    3.564  170.538   75.650    0.341    0.203
  523.750    3.559  170.355   77.032    0.368    0.198
  524.000    3.548  168.825   73.257    0.390    0.216
  524.250    3.497  166.992   78.803    0.417    0.234
  524.500    3.320  167.019   80.992    0.402    0.242
  524.750    3.253  167.144   82.559    0.385    0.219
  525.000    3.225  167.691   84.314    0.386    0.195
  525.250    3.215  168.023   85.447    0.395    0.167
  525.500    3.241  168.357   83.662    0.396    0.188
  525.750    3.374  168.593   78.707    0.388    0.208
  526.000    3.585  168.304   77.231    0.374    0.200
  526.250    3.803  168.127   80.789    0.364    0.180
  526.500    3.908  167.843   85.400    0.369    0.181
  526.750    3.859  167.655   90.942    0.361    0.195
  527.000    3.796  166.958   94.685    0.373    0.193
  527.250    3.686  167.602   94.575    0.396    0.200
  527.500    3.612  168.459   94.778    0.409    0.200
  527.750    3.534  168.588   94.233    0.424    0.193
  528.000    3.412  168.508   93.938    0.431    0.194
  528.250    3.465  168.325   94.948    0.400    0.188
  528.500    3.500  168.258   95.272    0.386    0.182
  528.750    3.502  168.282   93.610    0.383    0.185
  529.000    3.538  168.403   93.750    0.391    0.171
  529.250    3.614  168.434   93.268    0.396    0.162
  529.500    3.692  168.356   89.929    0.398    0.169
  529.750    3.764  168.377   88.890    0.397    0.168
  530.000    3.853  168.514   91.702    0.389    0.167
  530.250    3.950  168.433   94.634    0.379    0.166
  530.500    4.035  168.761   97.195    0.383    0.175
  530.750    4.030  168.578   90.937    0.398    0.179
  531.000    3.987  167.987   85.175    0.413    0.170
  531.250    3.915  168.113   78.547    0.402    0.153
  531.500    4.061  167.931   72.907    0.396    0.117
  531.750    4.389  168.168   64.535    0.378    0.075
  532.000    4.708  168.187   60.327    0.289    0.058
  532.250    4.920  168.422   74.442    0.279    0.098
  532.500    4.932  168.657   85.888    0.313    0.138
  532.750    4.770  168.680   91.058    0.341    0.167
  533.000    4.494  168.497   93.683    0.367    0.168
  533.250    3.927  168.315   94.380    0.380    0.184
  533.500    3.700  168.756   87.998    0.402    0.188
  533.750    3.654  170.352   89.752    0.396    0.171
  534.000    3.629  170.773   93.433    0.384    0.174
  534.250    3.631  172.248   97.052    0.395    0.177
  534.500    3.667  173.639   96.943    0.411    0.180
  534.750    3.782  173.747   95.714    0.406    0.184
  535.000    3.885  173.673   96.041    0.386    0.175
  535.250    3.976  173.181   97.980    0.382    0.163
  535.500    4.061  172.476   94.022    0.388    0.170
  535.750    3.899  170.241   85.465    0.388    0.202
  536.000    3.779  169.631   81.877    0.394    0.215
  536.250    4.038  168.827   80.213    0.405    0.223
  536.500    4.567  169.060   79.048    0.393    0.199
  536.750    5.145  169.705   78.939    0.369    0.154
  537.000    5.688  170.143   77.527    0.343    0.128
  537.250    6.067  170.896   73.130    0.359    0.113
  537.500    5.925  171.438   69.419    0.364    0.124
  537.750    5.416  171.783   71.796    0.338    0.149
  538.000    5.229  172.211   75.847    0.351    0.163
  538.250    5.135  172.964   82.261    0.361    0.168
  538.500    5.061  173.092   86.254    0.372    0.171
  538.750    5.055  173.115   86.702    0.383    0.175
  539.000    5.058  172.831   85.413    0.390    0.167
  539.250    5.013  172.546   83.441    0.393    0.157
  539.500    4.979  172.778   84.014    0.386    0.157
  539.750    4.889  173.531   86.513    0.374    0.166
  540.000    4.720  174.073   86.963    0.358    0.162
  540.250    4.635  174.302   86.111    0.357    0.161
  540.500    4.655  174.127   87.058    0.362    0.164
  540.750    4.755  173.944   89.060    0.370    0.163
  541.000    4.803  173.036   88.516    0.382    0.161
  541.250    4.807  172.959   89.463    0.394    0.164
  541.500    4.809  172.675   90.721    0.404    0.162
  541.750    4.776  172.496   91.543    0.393    0.148
  542.000    4.734  172.512   92.303    0.394    0.145
  542.250    4.605  172.551   92.132    0.402    0.143
  542.500    4.513  172.369   88.234    0.403    0.136
  542.750    4.499  172.391   82.472    0.389    0.128
  543.000    4.597  172.829   84.352    0.375    0.133
  543.250    4.651  173.161   89.211    0.376    0.141
  543.500    4.671  174.017   90.282    0.386    0.142
  543.750    4.613  174.661   95.019    0.375    0.139
  544.000    4.487  175.614  100.127    0.366    0.138
  544.250    4.440  176.261   89.770    0.386    0.137
  544.500    4.630  172.568   73.323    0.397    0.160
  544.750    4.856  170.312   63.585    0.360    0.225
  545.000    5.249  168.470   58.260    0.344    0.275
  545.250    5.620  166.427   56.970    0.335    0.300
  545.500    6.191  165.623   56.985    0.324    0.313
  545.750    6.704  165.651   58.059    0.317    0.302
