~VERSION INFORMATION
 VERS.                 2.0:   CWLS LOG ASCII STANDARD -VERSION 2.0
 WRAP.                  NO:   ONE LINE PER DEPTH STEP
~WELL INFORMATION BLOCK
#MNEM.UNIT           DATA                    DESCRIPTION OF MNEMONIC
#---------    -------------------            -------------------------------
# Generated from Intellog Unique Number	CW_73_75/WELL/1052
WELL.         MANNVILLE ER AL FRANCIS 15-08  : Well_name    - WELL
LOC .         00/15-08-074-22W4/0            : Location     - LOCATION
UWI .         00/15-08-074-22W4/0            : Uwi          - UNIQUE WELL ID
ENTR.         JAYE                           : Entered      - ENTERED BY
SRVC.         SCHLUMBERGER                   : Scn          - SERVICE COMPANY
DATE.         4 DEC 81                       : Date         - LOG DATE
STRT.M        365                            : top_depth    - START DEPTH
STOP.M        587                            : bot_depth    - STOP DEPTH
STEP.M        0.25                           : increment    - STEP LENGTH
 NULL. -999.2500:NULL Value
~CURVE INFORMATION BLOCK
#MNEM UNIT       ERCB CURVE CODE    CURVE DESCRIPTION
#-----------   ------------------   ----------------------------------
DEPT.M        00 001 00 00         : DEPTH        - DEPTH
CALI.MM       00 280 01 00         : CAL          - CALIPER
GR  .API      00 310 00 00         : GR           - GAMMA RAY
NPHI.V/V      00 330 00 00         : PHIN         - NEUTRON POROSITY (SANDSTONE)
DPHI.V/V      00 890 00 00         : PHID         - DENSITY POROSITY (SANDSTONE)
ILD .OHMM     00 120 00 00         : RESD         - DEEP RESISTIVITY (DIL)
~PARAMETER INFORMATION
#MNEM.UNIT           DATA             DESCRIPTION OF MNEMONIC
#---------         -----------     ------------------------------
GL  .M        655.1                : gl           - GROUND LEVEL ELEVATION
EREF.M        658                  : kb           - ELEVATION OF DEPTH REFERENCE
DATM.M        655.1                : datum        - DATUM ELEVATION
TDD .M        588                  : tdd          - TOTAL DEPTH DRILLER
RUN .         ONE                  : Run          - RUN NUMBER
ENG .         WRIGHT               : Engineer     - RECORDING ENGINEER
WIT .         SAMOTA               : Witness      - WITNESSED BY
BASE.         WAUN                 : Branch       - HOME BASE OF LOGGING UNIT
MUD .         GEL CHEM             : Mud_type     - MUD TYPE
MATR.         SANDSTONE            : Logunit      - NEUTRON MATRIX
TMAX.C        25.5                 : BHT          - MAXIMUM RECORDED TEMPERATURE
BHTD.M        588.5                : BHTDEP       - MAXIMUM RECORDED TEMPERATURE
RMT .C        15.5                 : MDTP         - TEMPERATURE OF MUD
MUDD.KG/M     1100                 : MWT          - MUD DENSITY
NEUT.         1                    : NEUTRON      - NEUTRON TYPE
RESI.         0                    : RESIST       - RESISTIVITY TYPE
RM  .OHMM     4.098                : RM           - RESISTIVITY OF MUD
RMC .OHMM     0                    : RMC          - RESISTIVITY OF MUD CAKE
RMF .OHMM     3.54                 : RMF          - RESISTIVITY OF MUD FILTRATE
SUFT.C        0                    : SUFT         - SURFACE TEMPERATURE
~A  DEPTH      CAL       GR     PHIN     PHID     RESD
  365.000  163.041  111.650    0.513    0.210    3.116
  365.250  165.066  110.143    0.519    0.203    3.093
  365.500  166.057  111.357    0.499    0.205    3.082
  365.750  165.505  107.871    0.485    0.211    3.070
  366.000  162.993  107.601    0.502    0.215    3.041
  366.250  161.506  112.774    0.518    0.223    3.002
  366.500  161.475  115.782    0.498    0.222    2.957
  366.750  161.850  116.565    0.497    0.211    2.908
  367.000  162.329  119.636    0.487    0.202    2.876
  367.250  161.981  112.809    0.480    0.199    2.930
  367.500  161.222   97.507    0.485    0.201    3.099
  367.750  159.330   76.392    0.506    0.197    3.507
  368.000  157.228   62.700    0.480    0.176    4.213
  368.250  154.407   59.647    0.441    0.161    4.931
  368.500  151.173   59.562    0.449    0.229    6.037
  368.750  150.003   62.012    0.457    0.282    7.715
  369.000  149.863   65.761    0.442    0.298    9.286
  369.250  150.440   69.578    0.428    0.293    9.498
  369.500  151.332   78.523    0.405    0.277    9.287
  369.750  152.330   84.007    0.417    0.276    8.912
  370.000  153.114   88.314    0.424    0.276    8.489
  370.250  153.081   89.715    0.422    0.262    7.672
  370.500  154.587   88.208    0.429    0.253    6.857
  370.750  155.067   90.907    0.445    0.255    6.410
  371.000  154.099   93.606    0.448    0.254    6.209
  371.250  152.927   92.408    0.424    0.245    6.004
  371.500  151.657   89.045    0.399    0.235    5.676
  371.750  151.720   84.754    0.380    0.228    5.188
  372.000  152.816   84.238    0.385    0.221    4.680
  372.250  153.813  103.329    0.444    0.229    4.238
  372.500  155.010  110.854    0.480    0.231    4.044
  372.750  154.459  106.005    0.493    0.227    4.075
  373.000  151.531   91.757    0.460    0.261    4.351
  373.250  150.776   76.951    0.419    0.297    4.742
  373.500  150.222   68.701    0.407    0.320    5.228
  373.750  149.979   70.904    0.408    0.331    5.806
  374.000  150.353   76.077    0.404    0.313    6.176
  374.250  153.509   84.654    0.412    0.277    6.400
  374.500  155.740   83.395    0.419    0.246    6.570
  374.750  155.696   82.688    0.397    0.218    6.594
  375.000  155.461   85.328    0.387    0.212    6.632
  375.250  154.292   91.245    0.402    0.233    6.694
  375.500  152.189   96.294    0.405    0.245    6.732
  375.750  151.124  103.632    0.403    0.230    6.682
  376.000  150.880  106.766    0.401    0.217    6.521
  376.250  151.358  104.950    0.403    0.201    6.246
  376.500  154.618  105.916    0.411    0.188    5.894
  376.750  158.191  113.193    0.423    0.164    5.572
  377.000  164.957  117.439    0.433    0.193    5.357
  377.250  168.527  114.447    0.438    0.214    5.239
  377.500  168.179  104.837    0.435    0.235    5.229
  377.750  162.577   79.331    0.424    0.253    5.428
  378.000  156.663   73.370    0.401    0.266    5.721
  378.250  152.089   76.379    0.374    0.267    6.063
  378.500  154.114   73.016    0.378    0.266    6.330
  378.750  156.964   68.354    0.393    0.262    6.294
  379.000  155.172   69.198    0.391    0.243    6.377
  379.250  156.062   78.515    0.391    0.215    6.486
  379.500  157.262   91.111    0.384    0.226    6.498
  379.750  158.051   99.067    0.374    0.235    6.330
  380.000  160.485  101.025    0.374    0.219    5.840
  380.250  162.720   99.333    0.400    0.216    5.480
  380.500  163.301   99.064    0.433    0.229    5.460
  380.750  161.714   99.412    0.449    0.240    5.501
  381.000  160.648   89.616    0.432    0.236    5.574
  381.250  158.857   80.995    0.417    0.238    5.700
  381.500  156.553   77.695    0.409    0.246    5.830
  381.750  155.586   82.064    0.401    0.252    5.963
  382.000  155.856   90.331    0.393    0.241    6.121
  382.250  156.440   98.659    0.385    0.226    6.249
  382.500  157.123  103.956    0.379    0.212    6.415
  382.750  158.425  107.892    0.379    0.198    6.610
  383.000  160.245  108.612    0.380    0.219    6.785
  383.250  161.961  103.331    0.367    0.238    6.798
  383.500  163.565   95.144    0.373    0.236    6.862
  383.750  163.016   92.338    0.381    0.237    6.888
  384.000  161.742   94.295    0.360    0.237    6.863
  384.250  160.675   97.488    0.351    0.212    6.786
  384.500  160.017  101.179    0.363    0.167    6.660
  384.750  159.672  105.672    0.379    0.172    6.392
  385.000  157.987  102.926    0.366    0.185    6.088
  385.250  156.711   96.719    0.378    0.184    5.766
  385.500  154.818   84.573    0.409    0.219    5.390
  385.750  153.443   65.313    0.425    0.256    5.020
  386.000  152.272   43.456    0.409    0.291    4.782
  386.250  151.716   38.361    0.381    0.305    4.693
  386.500  151.678   42.976    0.362    0.305    4.632
  386.750  152.358   47.347    0.361    0.297    4.529
  387.000  152.736   46.519    0.378    0.302    4.470
  387.250  153.007   40.745    0.388    0.313    4.445
  387.500  153.179   31.939    0.385    0.309    4.454
  387.750  153.347   32.722    0.373    0.309    4.496
  388.000  153.720   49.153    0.356    0.305    4.650
  388.250  153.993   60.944    0.339    0.291    4.836
  388.500  153.956   72.612    0.375    0.278    5.135
  388.750  153.819   81.498    0.380    0.264    5.213
  389.000  153.779   91.001    0.363    0.240    5.371
  389.250  153.845  101.495    0.358    0.223    5.703
  389.500  154.119  105.431    0.367    0.209    5.800
  389.750  155.728  108.873    0.364    0.193    5.504
  390.000  157.858  111.820    0.369    0.173    4.556
  390.250  162.149  115.135    0.410    0.171    3.907
  390.500  165.927  119.569    0.450    0.190    3.307
  390.750  169.086  122.143    0.510    0.212    3.046
  391.000  166.162  121.131    0.520    0.199    2.858
  391.250  162.827  124.262    0.521    0.187    2.816
  391.500  159.178  126.466    0.524    0.193    2.821
  391.750  157.901  126.137    0.515    0.175    2.853
  392.000  158.177  125.742    0.505    0.154    2.800
  392.250  159.172  126.092    0.507    0.146    2.769
  392.500  160.371  128.975    0.523    0.179    2.784
  392.750  161.362  131.304    0.542    0.216    2.885
  393.000  162.048  129.673    0.539    0.244    3.024
  393.250  162.115  129.528    0.518    0.229    3.296
  393.500  159.598  128.701    0.490    0.220    4.034
  393.750  158.637  122.740    0.443    0.221    4.793
  394.000  158.800  118.449    0.422    0.207    5.098
  394.250  159.278  118.488    0.424    0.197    5.118
  394.500  159.555  121.744    0.435    0.187    5.013
  394.750  159.931  125.987    0.460    0.164    4.811
  395.000  160.306  127.948    0.473    0.186    4.696
  395.250  160.682  122.544    0.479    0.200    4.749
  395.500  160.231  112.130    0.483    0.211    4.921
  395.750  156.172   98.498    0.464    0.223    5.033
  396.000  153.766   90.744    0.424    0.228    5.109
  396.250  151.766   90.784    0.429    0.241    5.215
  396.500  149.669   94.595    0.446    0.263    5.334
  396.750  148.910   97.975    0.458    0.272    5.424
  397.000  149.800   86.635    0.468    0.264    5.465
  397.250  151.414   74.055    0.440    0.255    5.548
  397.500  152.407   62.094    0.443    0.258    5.465
  397.750  153.092   53.412    0.435    0.288    5.255
  398.000  153.053   49.862    0.413    0.326    5.100
  398.250  151.981   60.295    0.392    0.325    5.015
  398.500  151.433   81.675    0.388    0.316    4.977
  398.750  150.880   96.436    0.406    0.283    4.987
  399.000  150.324   99.692    0.435    0.263    5.015
  399.250  150.183   87.174    0.455    0.295    5.071
  399.500  150.146   78.678    0.461    0.311    5.100
  399.750  150.108   78.159    0.451    0.309    5.148
  400.000  149.559   79.127    0.444    0.303    5.168
  400.250  149.004   81.701    0.441    0.298    5.187
  400.500  149.277   85.020    0.463    0.298    5.158
  400.750  149.757   90.070    0.479    0.301    5.120
  401.000  150.228   99.326    0.455    0.286    5.129
  401.250  150.816  105.861    0.435    0.264    5.149
