~VERSION INFORMATION
 VERS.                 2.0:   CWLS LOG ASCII STANDARD -VERSION 2.0
 WRAP.                  NO:   ONE LINE PER DEPTH STEP
~WELL INFORMATION BLOCK
#MNEM.UNIT           DATA                    DESCRIPTION OF MNEMONIC
#---------    -------------------            -------------------------------
# Generated from Intellog Unique Number	CW_70_72/WELL/2909
NULL.         -999.25                        : NULL_VALUE
WELL.         NOVALTA RICHMOND               : Well_name    - WELL              
LOC .         16-04-070-19W4                 : Location     - LOCATION          
UWI .         00/16-04-070-19W4/0            : Uwi          - UNIQUE WELL ID    
ENTR.         MAX                            : Entered      - ENTERED BY        
SRVC.         COMPUTALOG                     : Scn          - SERVICE COMPANY   
DATE.         21 DEC 84                      : Date         - LOG DATE
STRT.M        300                            : top_depth    - START DEPTH       
STOP.M        470                            : bot_depth    - STOP DEPTH        
STEP.M        0.25                           : increment    - STEP LENGTH       
~CURVE INFORMATION BLOCK
#MNEM UNIT       ERCB CURVE CODE    CURVE DESCRIPTION
#-----------   ------------------   ----------------------------------
DEPT.M        00 001 00 00         : DEPTH        - DEPTH                       
ILD .OHMM     00 120 00 00         : RESD         - DEEP RESISTIVITY (DIL)      
NPHI.V/V      00 330 00 00         : PHIN         - NEUTRON POROSITY (SANDSTONE)
DPHI.V/V      00 890 00 00         : PHID         - DENSITY POROSITY (SANDSTONE)
CALI.MM       00 280 01 00         : CAL          - CALIPER                     
GR  .API      00 310 00 00         : GR           - GAMMA RAY                   
~PARAMETER INFORMATION       
#MNEM.UNIT           DATA             DESCRIPTION OF MNEMONIC
#---------         -----------     ------------------------------
GL  .M        555.94               : gl           - GROUND LEVEL ELEVATION      
EREF.M        558.89               : kb           - ELEVATION OF DEPTH REFERENCE
DATM.M        555.94               : datum        - DATUM ELEVATION             
TDD .M        546.1                : tdd          - TOTAL DEPTH DRILLER         
RUN .         ONE                  : Run          - RUN NUMBER                  
ENG .         BILL                 : Engineer     - RECORDING ENGINEER          
WIT .         JIM                  : Witness      - WITNESSED BY                
MUD .         GEL                  : Mud_type     - MUD TYPE                    
MATR.         SANDSTONE            : Logunit      - NEUTRON MATRIX              
TMAX.C        24                   : BHT          - MAXIMUM RECORDED TEMPERATURE
BHTD.M        546.1                : BHTDEP       - MAXIMUM RECORDED TEMPERATURE
RMT .C        13.8                 : MDTP         - TEMPERATURE OF MUD          
MUDD.KG/M     1080                 : MWT          - MUD DENSITY                 
NEUT.         1                    : NEUTRON      - NEUTRON TYPE                
RESI.         0                    : RESIST       - RESISTIVITY TYPE            
RM  .OHMM     6                    : RM           - RESISTIVITY OF MUD          
RMC .OHMM     4.5                  : RMC          - RESISTIVITY OF MUD CAKE     
RMF .OHMM     7                    : RMF          - RESISTIVITY OF MUD FILTRATE 
SUFT.C        -10                  : SUFT         - SURFACE TEMPERATURE         
~A  DEPTH     RESD     PHIN     PHID      CAL       GR
  300.000    2.887    0.468    0.234  168.291   91.513
  300.250    3.052    0.473    0.231  171.318   95.142
  300.500    3.257    0.474    0.212  172.834   94.541
  300.750    3.319    0.468    0.192  175.862   93.337
  301.000    3.321    0.454    0.189  179.392   91.228
  301.250    3.232    0.475    0.201  182.418   90.930
  301.500    3.145    0.495    0.203  182.929   94.558
  301.750    3.061    0.492    0.207  184.948   96.677
  302.000    3.006    0.480    0.221  189.486   96.378
  302.250    2.980    0.483    0.226  192.514   93.060
  302.500    3.009    0.491    0.226  194.029   90.647
  302.750    3.009    0.486    0.226  194.540   92.463
  303.000    3.039    0.479    0.224  192.535   92.166
  303.250    3.155    0.484    0.218  190.527   90.055
  303.500    3.245    0.497    0.210  188.521   91.569
  303.750    3.307    0.490    0.206  188.526   96.708
  304.000    3.338    0.403    0.206  187.527   98.524
  304.250    3.371    0.377    0.203  186.023   98.830
  304.500    3.373    0.480    0.204  184.520   99.741
  304.750    3.343    0.533    0.209  183.015  101.254
  305.000    3.314    0.504    0.211  181.513  103.071
  305.250    3.225    0.502    0.217  180.512  100.960
  305.500    3.197    0.507    0.224  181.023   93.716
  305.750    3.169    0.493    0.224  181.029   87.981
  306.000    3.200    0.470    0.220  181.036   88.590
  306.250    3.352    0.465    0.217  180.035   88.291
  306.500    3.746    0.420    0.209  176.015   76.820
  306.750    4.109    0.356    0.143  166.961   68.970
  307.000    4.721    0.356    0.065  161.432   64.746
  307.250    5.423    0.379    0.180  158.922   73.206
  307.500    6.288    0.431    0.342  157.921   81.969
  307.750    6.349    0.472    0.430  155.915   55.093
  308.000    4.600    0.428    0.466  153.907   36.976
  308.250    4.045    0.375    0.373  150.391   33.960
  308.500    3.460    0.374    0.319  149.391   32.756
  308.750    3.186    0.386    0.322  150.403   28.531
  309.000    3.247    0.399    0.344  150.411   28.233
  309.250    3.433    0.437    0.366  150.417   30.956
  309.500    3.630    0.447    0.401  150.424   38.208
  309.750    3.874    0.423    0.455  150.432   49.991
  310.000    3.911    0.398    0.322  150.437   58.150
  310.250    3.806    0.394    0.302  150.947   68.120
  310.500    3.570    0.394    0.300  150.955   66.614
  310.750    3.411    0.390    0.302  151.967   73.263
  311.000    3.444    0.383    0.299  153.484   80.818
  311.250    3.478    0.375    0.288  154.497   85.049
  311.500    3.576    0.374    0.282  155.007   88.980
  311.750    3.852    0.371    0.273  154.512   91.098
  312.000    4.073    0.363    0.253  154.017   94.424
  312.250    4.306    0.369    0.247  154.017   95.032
  312.500    4.470    0.383    0.261  154.027   91.110
  312.750    4.557    0.383    0.262  154.034   87.490
  313.000    4.642    0.391    0.248  154.041   89.004
  313.250    4.687    0.390    0.235  155.054   94.143
  313.500    4.690    0.365    0.226  157.579   98.073
  313.750    4.735    0.380    0.227  161.108   88.110
  314.000    4.781    0.404    0.258  161.115   87.511
  314.250    4.827    0.424    0.282  160.115   91.139
  314.500    4.875    0.424    0.339  158.612   89.632
  314.750    4.875    0.418    0.314  154.089   82.387
  315.000    4.878    0.406    0.284  151.580   77.862
  315.250    4.791    0.401    0.282  151.586   77.261
  315.500    4.791    0.388    0.281  152.095   77.567
  315.750    4.752    0.387    0.279  151.598   78.478
  316.000    4.498    0.394    0.276  150.598   79.690
  316.250    4.298    0.408    0.277  149.094   82.110
  316.500    4.182    0.391    0.279  148.597   86.946
  316.750    4.070    0.390    0.266  148.101   92.990
  317.000    4.035    0.421    0.244  149.114   99.941
  317.250    4.035    0.432    0.231  154.154   97.529
  317.500    4.002    0.455    0.205  163.222   96.024
  317.750    3.966    0.464    0.193  166.753   99.349
  318.000    3.896    0.470    0.265  170.786  103.279
  318.250    3.791    0.471    0.276  178.848  105.095
  318.500    3.791    0.467    0.264  179.357  109.328
  318.750    3.760    0.452    0.228  177.854  109.937
  319.000    3.659    0.429    0.160  175.847  109.034
  319.250    3.561    0.367    0.156  171.827  106.924
  319.500    3.497    0.479    0.126  169.819  109.042
  319.750    3.372    0.516    0.150  172.344  111.160
  320.000    3.221    0.519    0.211  179.397  114.184
  320.250    3.078    0.516    0.271  185.947  117.813
  320.500    2.968    0.473    0.289  188.471  105.736
  320.750    3.109    0.430    0.288  179.417   83.390
  321.000    3.443    0.403    0.253  166.840   79.771
  321.250    3.991    0.381    0.227  161.310   77.359
  321.500    4.419    0.389    0.214  159.303   76.757
  321.750    4.803    0.397    0.205  157.801   78.876
  322.000    4.986    0.396    0.213  157.806   83.410
  322.250    5.081    0.396    0.222  158.317   85.830
  322.500    5.084    0.399    0.228  158.324   76.169
  322.750    4.947    0.405    0.248  157.827   70.435
  323.000    4.814    0.412    0.256  157.329   71.345
  323.250    4.729    0.415    0.224  157.335   82.827
  323.500    4.731    0.412    0.208  161.369   94.005
  323.750    4.821    0.419    0.115  164.900   93.405
  324.000    5.004    0.447    0.109  164.908   90.389
  324.250    5.194    0.476    0.183  165.920  101.568
  324.500    5.149    0.464    0.204  169.451  106.706
  324.750    4.965    0.428    0.229  168.954  111.542
  325.000    4.876    0.418    0.232  167.954  105.506
  325.250    4.790    0.407    0.234  165.947   93.429
  325.500    4.836    0.398    0.242  162.933   87.392
  325.750    4.974    0.401    0.241  161.934   91.927
  326.000    5.259    0.404    0.236  162.443   93.743
  326.250    5.459    0.401    0.231  163.961   91.331
  326.500    5.615    0.406    0.231  164.974   94.960
  326.750    5.670    0.406    0.228  165.484   95.266
  327.000    5.670    0.401    0.219  165.491   94.364
  327.250    5.675    0.396    0.213  164.994   94.065
  327.500    5.677    0.392    0.215  165.001   93.767
  327.750    5.677    0.389    0.224  165.008   90.449
  328.000    5.683    0.386    0.228  165.014   86.527
  328.250    5.580    0.385    0.229  164.014   82.906
  328.500    5.532    0.387    0.231  162.008   79.588
  328.750    5.433    0.397    0.234  159.497   76.874
  329.000    5.336    0.415    0.233  157.491   73.858
  329.250    5.193    0.418    0.217  156.491   71.144
  329.500    5.008    0.416    0.206  157.000   70.242
  329.750    4.918    0.414    0.214  159.525   79.004
  330.000    4.786    0.418    0.213  162.552   95.317
  330.250    4.745    0.426    0.215  165.074  101.664
  330.500    4.747    0.422    0.214  165.583   99.253
  330.750    4.747    0.424    0.216  165.591   96.538
  331.000    4.752    0.430    0.225  165.093   94.126
  331.250    4.753    0.437    0.229  164.598   91.412
  331.500    4.753    0.443    0.225  164.603   99.268
  331.750    4.757    0.440    0.217  164.611  106.520
  332.000    4.759    0.436    0.220  164.617  113.773
  332.250    4.805    0.435    0.240  165.127  109.851
  332.500    4.853    0.435    0.270  166.141   96.566
  332.750    4.853    0.432    0.255  163.128   83.885
  333.000    4.901    0.422    0.136  161.625   82.379
  333.250    5.183    0.413    0.171  162.135   94.162
  333.500    5.233    0.415    0.219  164.659   95.072
  333.750    5.140    0.421    0.233  166.174   91.149
  334.000    4.865    0.437    0.232  164.672  104.443
  334.250    4.358    0.448    0.234  163.671  108.977
  334.500    4.013    0.453    0.245  163.175  113.210
  334.750    3.695    0.462    0.261  166.201  113.515
  335.000    3.563    0.489    0.268  173.256  110.499
  335.250    3.435    0.486    0.243  172.760  102.348
  335.500    3.437    0.468    0.258  171.759   95.406
  335.750    3.535    0.462    0.272  170.758   86.651
  336.000    3.635    0.459    0.260  163.214   76.990
  336.250    3.952    0.451    0.254  158.691   74.578
