~VERSION INFORMATION
 VERS.                 2.0:   CWLS LOG ASCII STANDARD -VERSION 2.0
 WRAP.                  NO:   ONE LINE PER DEPTH STEP
~WELL INFORMATION BLOCK
#MNEM.UNIT           DATA                    DESCRIPTION OF MNEMONIC
#---------    -------------------            -------------------------------
# Generated from Intellog Unique Number	CW_79_81/WELL/2472
WELL.         10-23-081-20W4                 : Well_name    - WELL
LOC .         00/10-23-081-20W4/0            : Location     - LOCATION
UWI .         00/10-23-081-20W4/0            : Uwi          - UNIQUE WELL ID
ENTR.         MAX                            : Entered      - ENTERED BY
SRVC.         SCHLUMBERGER                   : Scn          - SERVICE COMPANY
STRT.M        182.88                         : top_depth    - START DEPTH
STOP.M        405.13                         : bot_depth    - STOP DEPTH
STEP.M        0.25                           : increment    - STEP LENGTH
 NULL. -999.2500:NULL Value
~CURVE INFORMATION BLOCK
#MNEM UNIT       ERCB CURVE CODE    CURVE DESCRIPTION
#-----------   ------------------   ----------------------------------
DEPT.M        00 001 00 00         : DEPTH        - DEPTH
ILD .OHMM     00 120 00 00         : RESD         - DEEP RESISTIVITY (DIL)
NPHI.V/V      00 330 00 00         : PHIN         - NEUTRON POROSITY (SANDSTONE)
DPHI.V/V      00 890 00 00         : PHID         - DENSITY POROSITY (SANDSTONE)
GR  .API      00 310 00 00         : GR           - GAMMA RAY
CALI.MM       00 280 01 00         : CAL          - CALIPER
~PARAMETER INFORMATION
#MNEM.UNIT           DATA             DESCRIPTION OF MNEMONIC
#---------         -----------     ------------------------------
GL  .M        582.778              : gl           - GROUND LEVEL ELEVATION
EREF.M        586.13               : kb           - ELEVATION OF DEPTH REFERENCE
DATM.M        582.778              : datum        - DATUM ELEVATION
TDD .M        414.223              : tdd          - TOTAL DEPTH DRILLER
RUN .         ONE                  : Run          - RUN NUMBER
ENG .         BILL                 : Engineer     - RECORDING ENGINEER
WIT .         JIM                  : Witness      - WITNESSED BY
MUD .         GEL                  : Mud_type     - MUD TYPE
MATR.         SANDSTONE            : Logunit      - NEUTRON MATRIX
TMAX.C        25.5556              : BHT          - MAXIMUM RECORDED TEMPERATURE
BHTD.M        414.223              : BHTDEP       - MAXIMUM RECORDED TEMPERATURE
MATR.         1                    : LOGUNIT      - NEUTRON MATRIX
RMT .C        11.6667              : MDTP         - TEMPERATURE OF MUD
NEUT.         1                    : NEUTRON      - NEUTRON TYPE
RESI.         0                    : RESIST       - RESISTIVITY TYPE
RMC .OHMM     3.8                  : RMC          - RESISTIVITY OF MUD CAKE
RMF .OHMM     2.57                 : RMF          - RESISTIVITY OF MUD FILTRATE
SUFT.C        -20                  : SUFT         - SURFACE TEMPERATURE
~A  DEPTH     RESD     PHIN     PHID       GR      CAL
# ...
  255.880    7.462    0.506    0.367   39.790  161.839
  256.130    7.453    0.492    0.369   40.751  162.269
  256.380    7.419    0.486    0.365   41.977  162.308
  256.630    7.354    0.486    0.358   42.690  162.338
  256.880    7.290    0.486    0.354   43.404  162.373
  257.130    7.194    0.489    0.355   44.698  162.407
  257.380    7.084    0.496    0.356   46.281  162.341
  257.630    7.026    0.494    0.349   46.709  161.992
  257.880    7.057    0.482    0.354   45.285  162.024
  258.130    7.148    0.484    0.359   43.223  162.449
  258.380    7.193    0.483    0.362   41.853  162.581
  258.630    7.207    0.485    0.363   40.946  162.812
  258.880    7.197    0.488    0.363   40.444  163.240
  259.130    7.158    0.483    0.362   40.466  163.755
  259.380    7.123    0.498    0.362   40.487  164.198
  259.630    7.059    0.490    0.354   40.509  164.232
  259.880    7.018    0.496    0.357   40.875  163.969
  260.130    7.016    0.499    0.360   41.474  163.805
  260.380    7.076    0.493    0.360   42.076  163.740
  260.630    7.268    0.481    0.359   42.426  163.389
  260.880    7.462    0.472    0.359   42.928  163.424
  261.130    7.646    0.502    0.348   43.409  163.461
  261.380    7.853    0.509    0.337   44.065  163.495
  261.630    8.009    0.499    0.322   45.244  163.531
  261.880    8.086    0.484    0.306   46.596  163.664
  262.130    8.082    0.484    0.299   47.273  164.093
  262.380    7.918    0.488    0.301   48.259  164.128
  262.630    7.728    0.489    0.294   51.753  164.162
  262.880    7.562    0.516    0.290   55.591  164.193
  263.130    7.389    0.531    0.298   60.820  164.029
  263.380    7.233    0.527    0.313   65.819  163.671
  263.630    7.142    0.522    0.318   66.499  163.238
  263.880    7.011    0.515    0.312   67.486  162.864
  264.130    6.852    0.520    0.309   68.895  162.509
  264.380    6.717    0.544    0.310   68.916  162.443
  264.630    6.623    0.561    0.312   68.356  162.279
  264.880    6.567    0.559    0.314   68.027  161.923
  265.130    6.527    0.537    0.323   68.749  161.576
  265.380    6.492    0.517    0.331   68.765  161.604
  265.630    6.428    0.490    0.328   68.091  161.249
  265.880    6.364    0.486    0.324   67.763  160.889
  266.130    6.331    0.495    0.324   67.900  160.727
  266.380    6.321    0.510    0.326   68.731  160.861
  266.630    6.234    0.528    0.325   71.041  161.294
  266.880    5.974    0.524    0.314   73.230  161.329
  267.130    5.398    0.511    0.271   76.259  161.366
  267.380    4.877    0.518    0.260   80.505  161.400
  267.630    4.690    0.530    0.293   81.914  161.240
  267.880    4.759    0.534    0.340   79.502  160.980
  268.130    4.702    0.518    0.330   73.961  161.096
  268.380    4.444    0.514    0.307   66.988  161.543
  268.630    4.157    0.472    0.258   56.362  161.573
  268.880    4.113    0.451    0.245   54.412  162.199
  269.130    4.246    0.462    0.258   56.399  162.823
  269.380    4.535    0.493    0.271   58.676  163.343
  269.630    5.548    0.494    0.242   57.737  164.327
  269.880   12.924    0.426    0.201   52.933  165.179
  270.130   16.137    0.234    0.079   46.703  166.003
  270.380   18.152    0.164    0.022   46.026  166.526
  270.630   17.757    0.150    0.007   48.131  166.756
  270.880   15.476    0.159    0.014   51.104  166.792
  271.130   12.470    0.195    0.044   54.676  166.668
  271.380   11.199    0.245    0.099   58.555  165.879
  271.630    9.716    0.336    0.146   57.186  163.953
  271.880    8.375    0.411    0.260   54.602  162.614
  272.130    7.419    0.451    0.329   53.697  161.866
  272.380    6.833    0.470    0.328   54.934  161.608
  272.630    6.553    0.524    0.324   56.295  161.731
  272.880    6.551    0.544    0.324   56.075  162.178
  273.130    6.487    0.522    0.323   55.171  162.208
  273.380    6.303    0.486    0.323   55.132  162.535
  273.630    6.100    0.466    0.323   55.729  162.960
  273.880    5.936    0.470    0.323   56.792  163.288
  274.130    5.834    0.485    0.324   58.307  163.328
  274.380    5.800    0.496    0.323   58.806  163.359
  274.630    5.829    0.482    0.316   59.055  163.005
  274.880    5.858    0.473    0.317   58.614  162.941
  275.130    5.856    0.471    0.322   58.288  162.777
  275.380    5.831    0.475    0.325   58.074  162.417
  275.630    5.848    0.485    0.322   57.460  162.068
  275.880    5.944    0.479    0.322   58.927  162.100
  276.130    5.973    0.479    0.321   59.179  162.133
  276.380    5.979    0.472    0.320   59.258  162.167
  276.630    5.977    0.466    0.322   59.278  162.397
  276.880    5.998    0.466    0.326   59.354  162.824
  277.130    6.126    0.478    0.326   59.707  163.262
  277.380    6.322    0.480    0.323   60.214  163.294
  277.630    6.413    0.483    0.321   60.463  162.932
  277.880    6.573    0.486    0.314   61.063  162.867
  278.130    6.817    0.485    0.306   61.893  162.901
  278.380    7.100    0.480    0.298   63.068  162.935
  278.630    7.266    0.465    0.285   64.797  162.978
  278.880    7.167    0.449    0.281   64.095  163.010
  279.130    6.787    0.427    0.267   63.422  162.655
  279.380    5.996    0.409    0.246   64.135  162.297
  279.630    5.207    0.399    0.228   65.314  161.939
  279.880    4.566    0.396    0.217   66.493  161.580
  280.130    4.039    0.394    0.210   68.201  161.308
  280.380    3.844    0.393    0.194   70.877  161.758
  280.630    3.749    0.413    0.197   74.140  162.961
  280.880    3.700    0.464    0.228   77.748  164.468
  281.130    3.683    0.506    0.251   79.503  165.484
  281.380    3.704    0.521    0.256   79.522  165.907
  281.630    3.833    0.505    0.263   80.773  166.421
  281.880    4.028    0.517    0.268   83.446  166.864
  282.130    4.241    0.531    0.273   83.001  167.287
  282.380    4.434    0.535    0.276   80.648  167.417
  282.630    4.528    0.535    0.279   78.005  167.255
  282.880    4.503    0.535    0.282   76.000  166.701
  283.130    4.374    0.533    0.281   74.722  165.484
  283.380    4.211    0.528    0.276   74.021  165.115
  283.630    4.051    0.516    0.267   75.428  165.148
  283.880    3.965    0.508    0.256   80.656  164.885
  284.130    3.901    0.500    0.251   86.000  165.113
  284.380    3.837    0.491    0.251   89.725  166.127
  284.630    3.760    0.482    0.247   91.826  167.818
  284.880    3.693    0.502    0.258   90.639  168.265
  285.130    3.753    0.504    0.264   89.041  168.690
  285.380    3.814    0.495    0.261   87.092  168.819
  285.630    3.874    0.495    0.254   85.026  168.851
  285.880    3.927    0.506    0.250   82.846  168.984
  286.130    3.962    0.516    0.248   79.796  169.419
  286.380    3.993    0.509    0.230   77.166  169.451
  286.630    4.022    0.522    0.282   75.332  168.700
  286.880    4.074    0.498    0.285   75.407  167.661
  287.130    4.104    0.473    0.280   76.238  166.911
  287.380    4.102    0.459    0.281   77.013  166.645
  287.630    4.087    0.450    0.261   77.413  166.849
  287.880    4.020    0.451    0.231   78.153  167.701
  288.130    3.987    0.467    0.250   76.323  168.126
  288.380    3.978    0.468    0.268   75.533  167.967
  288.630    3.976    0.462    0.276   75.554  167.218
  288.880    3.974    0.455    0.271   76.095  166.075
  289.130    3.972    0.456    0.255   77.101  165.018
  289.380    3.970    0.471    0.238   78.566  165.465
  289.630    3.968    0.491    0.221   80.905  166.279
  289.880    3.966    0.518    0.222   83.413  166.511
  290.130    3.980    0.524    0.230   84.473  166.548
  290.380    4.067    0.507    0.241   82.813  166.584
  290.630    4.477    0.483    0.258   76.307  166.705
  290.880    5.244    0.459    0.228   70.299  167.145
  291.130    7.244    0.432    0.176   63.143  167.179
  291.380    8.934    0.328    0.084   58.416  167.218
  291.630    9.520    0.237    0.025   56.817  167.449
  291.880    8.809    0.199    0.024   57.764  167.676
  292.130    6.964    0.222    0.069   60.035  167.161
