~VERSION INFORMATION
 VERS.                 2.0:   CWLS LOG ASCII STANDARD -VERSION 2.0
 WRAP.                  NO:   ONE LINE PER DEPTH STEP
~WELL INFORMATION BLOCK
#MNEM.UNIT           DATA                    DESCRIPTION OF MNEMONIC
#---------    -------------------            -------------------------------
# Generated from Intellog Unique Number	CW_79_81/WELL/2466
WELL.         10-15-080-23W4                 : Well_name    - WELL
LOC .         00/10-15-080-23W4/0            : Location     - LOCATION
UWI .         00/10-15-080-23W4/0            : Uwi          - UNIQUE WELL ID
ENTR.         MAX                            : Entered      - ENTERED BY
SRVC.         SCHLUMBERGER                   : Scn          - SERVICE COMPANY
STRT.M        220                            : top_depth    - START DEPTH
STOP.M        464.75                         : bot_depth    - STOP DEPTH
STEP.M        0.25                           : increment    - STEP LENGTH
 NULL. -999.2500:NULL Value
~CURVE INFORMATION BLOCK
#MNEM UNIT       ERCB CURVE CODE    CURVE DESCRIPTION
#-----------   ------------------   ----------------------------------
DEPT.M        00 001 00 00         : DEPTH        - DEPTH
ILD .OHMM     00 120 00 00         : RESD         - DEEP RESISTIVITY (DIL)
NPHI.V/V      00 330 00 00         : PHIN         - NEUTRON POROSITY (SANDSTONE)
DPHI.V/V      00 890 00 00         : PHID         - DENSITY POROSITY (SANDSTONE)
GR  .API      00 310 00 00         : GR           - GAMMA RAY
CALI.MM       00 280 01 00         : CAL          - CALIPER
~PARAMETER INFORMATION
#MNEM.UNIT           DATA             DESCRIPTION OF MNEMONIC
#---------         -----------     ------------------------------
GL  .M        586.4                : gl           - GROUND LEVEL ELEVATION
EREF.M        590                  : kb           - ELEVATION OF DEPTH REFERENCE
DATM.M        586.4                : datum        - DATUM ELEVATION
TDD .M        469                  : tdd          - TOTAL DEPTH DRILLER
RUN .         ONE                  : Run          - RUN NUMBER
ENG .         BILL                 : Engineer     - RECORDING ENGINEER
WIT .         JIM                  : Witness      - WITNESSED BY
MUD .         GEL                  : Mud_type     - MUD TYPE
MATR.         SANDSTONE            : Logunit      - NEUTRON MATRIX
TMAX.C        23                   : BHT          - MAXIMUM RECORDED TEMPERATURE
BHTD.M        469                  : BHTDEP       - MAXIMUM RECORDED TEMPERATURE
MATR.         1                    : LOGUNIT      - NEUTRON MATRIX
RMT .C        17                   : MDTP         - TEMPERATURE OF MUD
NEUT.         1                    : NEUTRON      - NEUTRON TYPE
RESI.         0                    : RESIST       - RESISTIVITY TYPE
RMC .OHMM     6.73                 : RMC          - RESISTIVITY OF MUD CAKE
RMF .OHMM     6.46                 : RMF          - RESISTIVITY OF MUD FILTRATE
SUFT.C        -25                  : SUFT         - SURFACE TEMPERATURE
~A  DEPTH     RESD     PHIN     PHID       GR      CAL
# ...
  256.500   29.656    0.459    0.374   40.618  285.702
  256.750   29.239    0.462    0.363   41.586  282.903
  257.000   28.929    0.467    0.349   41.951  281.608
  257.250   28.137    0.488    0.347   41.656  284.291
  257.500   27.300    0.504    0.360   40.158  287.640
  257.750   26.515    0.502    0.366   38.720  292.859
  258.000   26.044    0.512    0.363   39.266  296.575
  258.250   25.866    0.532    0.363   41.676  291.171
  258.500   25.880    0.550    0.368   44.086  277.951
  258.750   25.817    0.545    0.373   43.390  266.803
  259.000   25.438    0.522    0.374   45.901  265.142
  259.250   25.449    0.498    0.358   48.072  265.551
  259.500   25.746    0.477    0.344   48.437  265.659
  259.750   25.951    0.467    0.341   47.720  265.868
  260.000   25.962    0.469    0.362   46.403  266.678
  260.250   25.938    0.484    0.425   44.323  269.527
  260.500   25.753    0.525    0.446   42.324  273.711
  260.750   25.767    0.556    0.456   44.494  282.539
  261.000   25.779    0.541    0.445   47.927  290.765
  261.250   25.793    0.507    0.420   49.135  290.372
  261.500   25.806    0.485    0.421   47.637  283.966
  261.750   25.783    0.519    0.517   45.607  287.617
  262.000   25.599    0.539    0.504   43.859  301.824
  262.250   25.612    0.527    0.491   45.307  299.827
  262.500   25.626    0.521    0.476   47.657  288.211
  262.750   25.640    0.515    0.453   50.308  277.796
  263.000   25.605    0.504    0.422   52.538  272.995
  263.250   25.392    0.483    0.375   53.355  270.966
  263.500   25.211    0.465    0.333   52.608  266.798
  263.750   24.668    0.450    0.296   50.448  247.965
  264.000   22.932    0.440    0.336   49.551  240.558
  264.250   20.413    0.443    0.367   51.480  244.775
  264.500   15.376    0.465    0.358   57.858  254.104
  264.750    7.848    0.502    0.326   71.325  254.566
  265.000    4.490    0.488    0.273   76.092  250.816
  265.250    4.201    0.485    0.253   76.577  244.810
  265.500    4.159    0.492    0.247   77.965  237.904
  265.750    4.299    0.495    0.243   79.413  231.899
  266.000    4.548    0.492    0.236   80.561  227.598
  266.250    4.759    0.491    0.225   81.729  224.300
  266.500    4.759    0.488    0.226   82.735  221.804
  266.750    4.799    0.485    0.229   83.944  221.410
  267.000    4.864    0.481    0.229   84.249  220.717
  267.250    4.957    0.474    0.225   84.134  220.324
  267.500    5.071    0.470    0.218   83.838  220.333
  267.750    5.204    0.487    0.211   83.263  220.260
  268.000    5.288    0.481    0.214   82.768  219.851
  268.250    5.449    0.457    0.231   81.329  218.256
  268.500    5.676    0.448    0.246   77.545  216.961
  268.750    6.147    0.440    0.259   72.258  216.568
  269.000    6.940    0.427    0.259   67.334  216.777
  269.250    8.075    0.411    0.223   65.505  216.220
  269.500    9.153    0.393    0.194   64.758  215.392
  269.750   10.142    0.393    0.228   65.244  214.198
  270.000   10.428    0.394    0.249   68.436  213.004
  270.250    9.769    0.395    0.257   72.531  212.411
  270.500    8.888    0.394    0.256   75.422  212.519
  270.750    8.708    0.390    0.249   74.405  212.763
  271.000    8.450    0.382    0.236   72.906  211.936
  271.250    7.846    0.396    0.236   75.557  211.944
  271.500    6.752    0.427    0.240   79.290  212.553
  271.750    5.650    0.456    0.244   83.745  213.765
  272.000    4.800    0.478    0.241   87.177  214.576
  272.250    4.234    0.492    0.219   86.312  212.814
  272.500    4.047    0.496    0.206   85.566  211.986
  272.750    3.989    0.482    0.202   86.772  213.198
  273.000    3.976    0.465    0.204   88.702  215.311
  273.250    4.008    0.472    0.208   89.669  217.324
  273.500    4.054    0.499    0.217   89.794  218.435
  273.750    4.094    0.512    0.240   91.254  217.793
  274.000    4.291    0.500    0.265   92.510  216.549
  274.250    5.362    0.465    0.302   85.781  216.960
  274.500    6.891    0.439    0.319   74.181  216.767
  274.750    8.757    0.420    0.322   65.647  216.373
  275.000   10.805    0.409    0.318   64.569  215.979
  275.250   13.705    0.411    0.312   72.292  215.421
  275.500   13.297    0.422    0.306   74.803  214.595
  275.750   12.070    0.435    0.296   73.846  213.401
  276.000   10.836    0.431    0.290   73.791  212.507
  276.250   10.203    0.435    0.283   74.036  211.713
  276.500   10.260    0.453    0.279   73.019  211.021
  276.750   11.454    0.466    0.289   66.711  210.462
  277.000   14.630    0.451    0.314   59.199  209.635
  277.250   17.780    0.446    0.320   51.507  210.045
  277.500   20.488    0.429    0.325   46.523  211.055
  277.750   22.761    0.424    0.330   44.964  213.268
  278.000   24.642    0.434    0.335   45.630  216.082
  278.250   25.863    0.435    0.338   45.345  217.445
  278.500   26.278    0.401    0.338   45.100  216.201
  278.750   26.295    0.417    0.343   46.068  213.804
  279.000   26.453    0.423    0.344   47.395  213.813
  279.250   26.858    0.424    0.345   48.362  215.425
  279.500   27.476    0.421    0.347   48.728  217.237
  279.750   28.323    0.422    0.350   48.784  217.079
  280.000   29.456    0.420    0.350   49.041  216.253
  280.250   30.577    0.422    0.348   49.767  216.661
  280.500   30.883    0.415    0.349   50.132  216.168
  280.750   30.555    0.417    0.350   49.655  214.774
  281.000   29.787    0.427    0.349   48.879  213.279
  281.250   28.458    0.426    0.349   49.416  213.623
  281.500   27.194    0.397    0.352   49.671  215.302
  281.750   26.805    0.391    0.348   48.474  216.513
  282.000   26.426    0.392    0.345   48.179  217.425
  282.250   25.759    0.392    0.347   48.545  218.636
  282.500   24.886    0.399    0.351   49.571  220.245
  282.750   24.064    0.435    0.354   51.551  221.777
  283.000   23.528    0.468    0.358   51.807  221.366
  283.250   23.369    0.446    0.352   49.647  220.574
  283.500   23.337    0.425    0.344   50.914  220.381
  283.750   23.349    0.417    0.345   52.363  220.189
  284.000   23.275    0.423    0.351   52.247  219.596
  284.250   22.914    0.433    0.347   50.429  218.236
  284.500   22.747    0.429    0.337   50.935  217.409
  284.750   22.425    0.427    0.338   51.902  217.016
  285.000   22.231    0.428    0.344   52.328  216.624
  285.250   22.078    0.439    0.349   52.334  216.432
  285.500   21.968    0.455    0.351   52.158  216.541
  285.750   21.948    0.455    0.350   52.364  216.784
  286.000   21.792    0.442    0.342   53.372  215.957
  286.250   21.963    0.434    0.335   53.136  215.966
  286.500   22.505    0.433    0.336   52.179  215.674
  286.750   22.857    0.436    0.340   50.861  215.282
  287.000   22.828    0.440    0.341   50.385  214.890
  287.250   22.637    0.442    0.338   53.047  214.581
  287.500   22.475    0.437    0.329   54.305  215.009
  287.750   22.157    0.431    0.326   54.069  215.817
  288.000   21.966    0.430    0.328   54.555  215.124
  288.250   21.815    0.437    0.330   55.522  213.729
  288.500   21.624    0.445    0.332   56.549  213.036
  288.750   21.288    0.444    0.337   56.987  216.135
  289.000   21.135    0.442    0.342   56.741  221.572
  289.250   20.834    0.446    0.343   57.468  222.784
  289.500   20.654    0.468    0.343   57.653  222.491
  289.750   20.512    0.474    0.345   57.657  221.697
  290.000   20.448    0.460    0.350   57.482  220.804
  290.250   20.643    0.450    0.360   56.666  219.444
  290.500   20.814    0.464    0.364   56.171  218.617
  290.750   20.980    0.471    0.358   54.011  217.824
  291.000   21.264    0.451    0.351   53.294  216.129
  291.250   21.670    0.447    0.349   53.659  214.734
  291.500   22.208    0.458    0.353   54.085  213.940
  291.750   23.031    0.444    0.355   52.538  212.815
  292.000   23.768    0.435    0.353   50.789  211.151
  292.250   24.670    0.436    0.355   50.313  208.754
  292.500   26.030    0.437    0.351   51.460  207.260
  292.750   27.827    0.444    0.347   52.548  206.668
