~VERSION INFORMATION
 VERS.                 2.0:   CWLS LOG ASCII STANDARD -VERSION 2.0
 WRAP.                  NO:   ONE LINE PER DEPTH STEP
~WELL INFORMATION BLOCK
#MNEM.UNIT           DATA                    DESCRIPTION OF MNEMONIC
#---------    -------------------            -------------------------------
# Generated from Intellog Unique Number	CC_80_83/WELL/2432
NULL.         -999.25                        : NULL_VALUE
WELL.         PARA ET AL NEWBY               : Well_name
LOC .         12-29-080-05W4                 : Location     - LOCATION          
UWI .         00/12-29-080-05W400            : Uwi          - UNIQUE WELL ID    
ENTR.         DW                             : Entered      - ENTERED BY        
SRVC.         SCHLUMBERGER                   : Scn          - SERVICE COMPANY   
DATE.         17 JAN 82                      : Date         - LOG DATE
STRT.M        105                            : top_depth    - START DEPTH       
STOP.M        270.001                        : bot_depth    - STOP DEPTH        
STEP.M        0.3                            : increment    - STEP LENGTH       
~CURVE INFORMATION BLOCK
#MNEM UNIT       ERCB CURVE CODE    CURVE DESCRIPTION
#-----------   ------------------   ----------------------------------
DEPT.M        00 001 00 00         : DEPTH        - DEPTH                       
DPHI.V/V      00 890 00 00         : PHID         - DENSITY POROSITY (LIMESTONE)
NPHI.V/V      00 330 00 00         : PHIN         - NEUTRON POROSITY (LIMESTONE)
GR  .API      00 310 00 00         : GR           - GAMMA RAY                   
ILD .OHMM     00 120 00 00         : RESD         - DEEP RESISTIVITY (DIL)      
~PARAMETER INFORMATION       
#MNEM.UNIT           DATA             DESCRIPTION OF MNEMONIC
#---------         -----------     ------------------------------
GL  .M        452.33               : gl           - GROUND LEVEL ELEVATION      
EREF.M        455.33               : kb           - ELEVATION OF DEPTH REFERENCE
DATM.M        455.33               : datum        - DATUM ELEVATION             
TDD .M        277                  : tdd          - TOTAL DEPTH DRILLER         
RUN .         ONE                  : Run          - RUN NUMBER                  
ENG .         BILL                 : Engineer     - RECORDING ENGINEER          
WIT .         JIM                  : Witness      - WITNESSED BY                
MUD .         GEL                  : Mud_type     - MUD TYPE                    
MATR.         LIMESTONE            : Logunit      - NEUTRON MATRIX              
TMAX.C        24                   : BHT          - MAXIMUM RECORDED TEMPERATURE
BHTD.M        277                  : BHTDEP       - MAXIMUM RECORDED TEMPERATURE
MATR.         1                    : LOGUNIT      - NEUTRON MATRIX              
RMT .C        25                   : MDTP         - TEMPERATURE OF MUD          
NEUT.         1                    : NEUTRON      - NEUTRON TYPE                
RESI.         0                    : RESIST       - RESISTIVITY TYPE            
RMC .OHMM     0.25                 : RMC          - RESISTIVITY OF MUD CAKE     
RMF .OHMM     0.25                 : RMF          - RESISTIVITY OF MUD FILTRATE 
SUFT.C        15                   : SUFT         - SURFACE TEMPERATURE         
~A  DEPTH     PHID     PHIN       GR     RESD
# ...
  209.401    0.233    0.353   74.949    3.583
  209.701    0.251    0.344   73.682    3.259
  210.001    0.277    0.405   60.487    2.907
  210.301    0.309    0.443   52.315    2.644
  210.601    0.330    0.464   46.024    2.749
  210.901    0.333    0.442   50.404    3.025
  211.201    0.304    0.324   71.103    3.459
  211.501    0.240    0.289   81.131    4.109
  211.801    0.224    0.326   81.114    4.698
  212.101    0.207    0.316   81.101    4.612
  212.401    0.236    0.316   80.460    4.441
  212.701    0.250    0.314   74.172    3.963
  213.001    0.231    0.325   65.371    3.536
  213.301    0.245    0.373   58.455    3.277
  213.601    0.275    0.373   57.812    2.815
  213.901    0.300    0.364   59.682    2.512
  214.201    0.312    0.402   54.017    2.373
  214.501    0.318    0.369   47.729    2.285
  214.801    0.319    0.348   40.812    2.201
  215.101    0.319    0.407   36.403    2.202
  215.401    0.319    0.401   34.507    2.161
  215.701    0.318    0.395   35.744    2.163
  216.001    0.316    0.410   36.989    2.163
  216.301    0.311    0.392   39.485    2.207
  216.601    0.301    0.353   39.475    2.166
  216.901    0.304    0.359   36.950    2.167
  217.201    0.321    0.392   37.564    2.168
  217.501    0.322    0.372   40.688    2.128
  217.801    0.306    0.331   50.718    2.170
  218.101    0.278    0.390   75.181    2.171
  218.401    0.288    0.365   61.358    2.214
  218.701    0.287    0.317   56.954    2.346
  219.001    0.289    0.331   51.290    2.438
  219.301    0.311    0.352   41.235    2.217
  219.601    0.335    0.365   34.941    2.218
  219.901    0.325    0.371   36.815    2.350
  220.201    0.295    0.343   42.449    2.443
  220.501    0.257    0.273   54.361    2.740
  220.801    0.229    0.302   90.121    3.317
  221.101    0.227    0.347   86.964    3.866
  221.401    0.209    0.370   86.326    4.097
  221.701    0.216    0.354   87.569    3.871
  222.001    0.223    0.345   90.690    3.799
  222.301    0.248    0.366   90.050    3.730
  222.601    0.242    0.354   86.271    3.731
  222.901    0.229    0.345   82.493    3.733
  223.201    0.218    0.352   86.873    3.880
  223.501    0.214    0.339   93.763    4.032
  223.801    0.215    0.384   98.769    4.355
  224.101    0.194    0.380   95.618    4.526
  224.401    0.200    0.341   90.584    4.795
  224.701    0.216    0.314   90.570    4.985
  225.001    0.169    0.312   99.344    4.986
  225.301    0.159    0.307  109.999    4.989
  225.601    0.149    0.329  116.262    4.992
  225.901    0.180    0.380  116.249    4.716
  226.201    0.231    0.403  106.821    3.974
  226.501    0.262    0.418   92.368    3.546
  226.801    0.277    0.387   74.783    3.414
  227.101    0.278    0.336   72.259    3.165
  227.401    0.252    0.306   75.382    3.107
  227.701    0.256    0.296   76.000    3.168
  228.001    0.252    0.332   77.240    3.231
  228.301    0.251    0.375   74.714    3.295
  228.601    0.275    0.473   70.935    3.297
  228.901    0.271    0.478   70.296    3.236
  229.201    0.249    0.369   79.067    3.176
  229.501    0.243    0.386   86.585    3.118
  229.801    0.248    0.415   81.550    2.946
  230.101    0.240    0.403   78.399    2.947
  230.401    0.238    0.432   77.758    3.064
  230.701    0.244    0.358   85.275    3.124
  231.001    0.236    0.320   89.657    3.185
  231.301    0.234    0.331   82.736    3.248
  231.601    0.242    0.403   82.097    3.189
  231.901    0.233    0.378   85.220    3.130
  232.201    0.223    0.400   81.440    3.131
  232.501    0.253    0.470   80.801    3.133
  232.801    0.255    0.427   84.550    3.134
  233.101    0.237    0.375   88.931    3.019
  233.401    0.244    0.331   87.037    2.798
  233.701    0.277    0.343   78.235    2.694
  234.001    0.287    0.352   71.946    2.498
  234.301    0.278    0.396   75.694    2.547
  234.601    0.276    0.451   76.312    2.699
  234.901    0.258    0.439   83.202    3.027
  235.201    0.218    0.386   90.089    3.596
  235.501    0.209    0.326   91.960    4.112
  235.801    0.207    0.347   83.789    4.274
  236.101    0.218    0.366   75.616    4.195
  236.401    0.228    0.366   79.369    4.041
  236.701    0.236    0.371   90.024    3.967
  237.001    0.213    0.364   96.287    3.968
  237.301    0.212    0.297   93.763    4.046
  237.601    0.239    0.346   81.822    4.048
  237.901    0.227    0.410   78.668    4.050
  238.201    0.242    0.438   76.775    3.976
  238.501    0.247    0.457   78.645    3.978
  238.801    0.222    0.378   88.673    4.134
  239.101    0.212    0.363   91.797    4.550
  239.401    0.215    0.351   83.625    4.729
  239.701    0.213    0.361   82.983    4.824
  240.001    0.203    0.331   93.638    4.826
  240.301    0.195    0.338   92.993    4.737
  240.601    0.225    0.376   83.569    4.561
  240.901    0.211    0.370   86.693    4.310
  241.201    0.225    0.374   82.913    4.150
  241.501    0.261    0.407   75.371    3.775
  241.801    0.271    0.404   67.198    3.635
  242.101    0.264    0.373   68.438    3.708
  242.401    0.247    0.324   71.561    3.853
  242.701    0.244    0.348   75.316    4.082
  243.001    0.217    0.362   79.694    4.163
  243.301    0.210    0.368   77.798    4.245
  243.601    0.263    0.392   72.135    3.860
  243.901    0.289    0.412   68.983    3.444
  244.201    0.299    0.413   66.461    3.015
  244.501    0.293    0.408   63.309    2.690
  244.801    0.299    0.402   56.392    2.591
  245.101    0.325    0.396   43.197    2.402
  245.401    0.349    0.407   38.792    2.185
  245.701    0.351    0.432   35.011    2.025
  246.001    0.337    0.427   29.977    1.950
  246.301    0.342    0.441   28.080    1.842
  246.601    0.343    0.441   36.850    1.843
  246.901    0.338    0.398   47.509    1.844
  247.201    0.336    0.390   53.143    1.845
  247.501    0.341    0.396   51.874    1.846
  247.801    0.397    0.422   48.721    1.883
  248.101    0.410    0.530   46.194    1.883
  248.401    0.382    0.513   44.302    1.921
  248.701    0.356    0.417   40.521    1.885
  249.001    0.348    0.446   36.115    1.923
  249.301    0.350    0.469   38.610    1.924
  249.601    0.347    0.382   40.479    1.925
  249.901    0.341    0.387   39.842    1.925
  250.201    0.338    0.399   36.061    1.890
  250.501    0.360    0.381   35.419    1.891
  250.801    0.352    0.401   37.918    1.892
  251.101    0.341    0.444   37.277    1.893
  251.401    0.341    0.458   31.612    1.894
  251.701    0.345    0.445   33.479    1.895
  252.001    0.336    0.435   35.975    1.896
  252.301    0.330    0.448   37.217    1.896
  252.602    0.329    0.453   37.833    1.861
  252.902    0.334    0.400   38.447    1.862
  253.202    0.342    0.399   39.056    1.863
  253.502    0.344    0.418   39.677    1.864
  253.802    0.344    0.501   39.662    1.901
  254.102    0.339    0.448   32.747    1.902
  254.402    0.335    0.462   34.614    1.867
  254.702    0.337    0.499   32.090    1.868
  255.002    0.343    0.462   27.684    1.833
  255.302    0.346    0.432   31.436    1.870
  255.602    0.325    0.397   33.306    1.870
  255.902    0.326    0.373   33.918    1.871
  256.202    0.353    0.348   29.511    1.908
  256.502    0.345    0.392   28.244    1.909
  256.802    0.331    0.412   35.132    1.947
  257.102    0.325    0.407   40.140    1.985
  257.401    0.326    0.422   34.478    2.025
  257.701    0.326    0.390   30.070    2.065
  258.001    0.325    0.393   31.310    2.065
  258.301    0.325    0.377   32.551    2.147
  258.601    0.323    0.344   34.424    2.190
  258.901    0.318    0.369   44.452    2.320
  259.201    0.314    0.406   51.343    2.366
  259.501    0.312    0.399   42.542    2.367
  259.801    0.312    0.438   27.467    2.279
  260.101    0.314    0.507   19.293    2.113
  260.401    0.322    0.465   21.788    2.196
  260.701    0.330    0.382   29.935    2.511
  261.001    0.318    0.320   50.005    3.040
  261.301    0.182    0.287   89.530    4.370
