~VERSION INFORMATION
 VERS.                 2.0:   CWLS LOG ASCII STANDARD -VERSION 2.0
 WRAP.                  NO:   ONE LINE PER DEPTH STEP
~WELL INFORMATION BLOCK
#MNEM.UNIT           DATA                    DESCRIPTION OF MNEMONIC
#---------    -------------------            -------------------------------
# Generated from Intellog Unique Number	CW_73_75/WELL/1038
WELL.         CDN SUP ET AL FRANCIS 11-13    : Well_name    - WELL
LOC .         00/11-13-075-20W4/0            : Location     - LOCATION
UWI .         00/11-13-075-20W4/0            : Uwi          - UNIQUE WELL ID
ENTR.         JAYE                           : Entered      - ENTERED BY
SRVC.         SCHLUMBERGER                   : Scn          - SERVICE COMPANY
DATE.         2 FEB 77                       : Date         - LOG DATE
STRT.M        292.608                        : top_depth    - START DEPTH
STOP.M        496.858                        : bot_depth    - STOP DEPTH
STEP.M        0.25                           : increment    - STEP LENGTH
 NULL. -999.2500:NULL Value
~CURVE INFORMATION BLOCK
#MNEM UNIT       ERCB CURVE CODE    CURVE DESCRIPTION
#-----------   ------------------   ----------------------------------
DEPT.M        00 001 00 00         : DEPTH        - DEPTH
ILD .OHMM     00 120 00 00         : RESD         - DEEP RESISTIVITY (DIL)
NPHI.V/V      00 330 00 00         : PHIN         - NEUTRON POROSITY (SANDSTONE)
DPHI.V/V      00 890 00 00         : PHID         - DENSITY POROSITY (SANDSTONE)
GR  .API      00 310 00 00         : GR           - GAMMA RAY
CALI.MM       00 280 01 00         : CAL          - CALIPER
~PARAMETER INFORMATION
#MNEM.UNIT           DATA             DESCRIPTION OF MNEMONIC
#---------         -----------     ------------------------------
GL  .M        611.734              : gl           - GROUND LEVEL ELEVATION
EREF.M        616.001              : kb           - ELEVATION OF DEPTH REFERENCE
DATM.M        611.734              : datum        - DATUM ELEVATION
TDD .M        548.64               : tdd          - TOTAL DEPTH DRILLER
RUN .         ONE                  : Run          - RUN NUMBER
ENG .         LEDUC                : Engineer     - RECORDING ENGINEER
WIT .         KELLY                : Witness      - WITNESSED BY
BASE.         EDM                  : Branch       - HOME BASE OF LOGGING UNIT
MUD .         GEL CHEM             : Mud_type     - MUD TYPE
MATR.         SANDSTONE            : Logunit      - NEUTRON MATRIX
TMAX.C        100082               : BHT          - MAXIMUM RECORDED TEMPERATURE
BHTD.M        548.945              : BHTDEP       - MAXIMUM RECORDED TEMPERATURE
RMT .C        16.1111              : MDTP         - TEMPERATURE OF MUD
MUDD.KG/M     0                    : MWT          - MUD DENSITY
NEUT.         1                    : NEUTRON      - NEUTRON TYPE
RESI.         0                    : RESIST       - RESISTIVITY TYPE
RM  .OHMM     4                    : RM           - RESISTIVITY OF MUD
RMC .OHMM     0                    : RMC          - RESISTIVITY OF MUD CAKE
RMF .OHMM     4.32                 : RMF          - RESISTIVITY OF MUD FILTRATE
SUFT.C        -17.7778             : SUFT         - SURFACE TEMPERATURE
~A  DEPTH     RESD     PHIN     PHID       GR      CAL
# ...
  329.108   10.331    0.507    0.319   72.111  161.221
  329.358    9.884    0.481    0.321   74.360  159.279
  329.608    8.995    0.457    0.312   79.458  159.093
  329.858    8.263    0.449    0.281   86.668  158.609
  330.108    7.451    0.441    0.248   94.843  158.113
  330.358    6.596    0.409    0.214  102.114  158.032
  330.608    6.081    0.407    0.188   98.489  157.835
  330.858    6.548    0.425    0.212   96.392  157.969
  331.108    7.345    0.447    0.228   96.825  158.093
  331.358    8.423    0.460    0.242   93.993  158.110
  331.608    9.967    0.457    0.269   89.709  158.431
  331.858   12.104    0.403    0.229   86.152  159.266
  332.108   15.857    0.378    0.167   82.652  160.408
  332.358   18.593    0.326    0.142   80.183  161.152
  332.608   18.802    0.285    0.088   78.078  161.793
  332.858   18.021    0.224    0.059   75.363  162.631
  333.108   16.101    0.196    0.048   72.718  163.265
  333.358   14.044    0.190    0.043   68.372  163.672
  333.608   12.781    0.192    0.022   67.115  163.606
  333.858   11.440    0.215    0.050   74.808  163.003
  334.108    9.832    0.295    0.075   72.762  162.314
  334.358    8.703    0.428    0.271   72.955  161.097
  334.608    7.648    0.451    0.302   74.962  159.998
  334.858    6.947    0.441    0.302   75.819  159.493
  335.108    6.358    0.420    0.289   79.946  159.200
  335.358    5.971    0.431    0.276   85.577  159.336
  335.608    5.745    0.451    0.262   86.620  159.550
  335.858    5.661    0.459    0.263   86.691  159.682
  336.108    5.714    0.466    0.276   85.134  158.778
  336.358    5.736    0.474    0.294   76.913  158.489
  336.608    5.801    0.459    0.306   72.210  158.504
  336.858    5.877    0.441    0.303   72.523  158.831
  337.108    5.921    0.433    0.298   73.019  158.845
  337.358    5.977    0.427    0.306   74.721  159.059
  337.608    5.989    0.434    0.308   79.151  158.988
  337.858    6.000    0.449    0.303   78.072  159.098
  338.108    6.023    0.460    0.300   78.323  159.034
  338.358    6.035    0.463    0.298   80.028  159.248
  338.608    5.991    0.461    0.284   83.068  159.579
  338.858    5.948    0.456    0.266   87.374  160.010
  339.108    5.872    0.450    0.255   92.103  160.343
  339.358    5.797    0.448    0.247   95.201  160.756
  339.608    5.691    0.440    0.244   96.664  161.701
  339.858    5.496    0.431    0.235  100.910  163.058
  340.108    5.161    0.434    0.184  105.878  165.226
  340.358    4.874    0.447    0.185  106.679  166.374
  340.608    4.371    0.445    0.220  111.469  165.372
  340.858    4.015    0.451    0.210  114.928  165.185
  341.108    3.935    0.474    0.209  115.182  166.224
  341.358    4.144    0.495    0.193  115.737  167.968
  341.608    4.357    0.509    0.218  119.016  169.133
  341.858    4.806    0.487    0.236  116.907  170.775
  342.108    5.371    0.475    0.249  111.173  171.724
  342.358    5.752    0.463    0.248  113.664  172.755
  342.608    5.699    0.454    0.205  116.212  173.399
  342.858    5.372    0.446    0.171  115.315  173.732
  343.108    4.809    0.437    0.154  114.606  173.957
  343.358    4.491    0.472    0.183  113.952  174.079
  343.608    3.839    0.511    0.220  111.060  173.793
  343.858    3.336    0.535    0.231  109.134  172.686
  344.108    3.070    0.551    0.239  104.907  171.168
  344.358    3.336    0.570    0.254   98.448  170.368
  344.608    3.963    0.589    0.275   90.107  171.203
  344.858    5.387    0.583    0.301   84.556  176.138
  345.108    6.941    0.522    0.323   76.524  169.598
  345.358   11.457    0.458    0.316   69.396  163.992
  345.608   15.149    0.435    0.312   68.432  160.927
  345.858   15.235    0.444    0.297   69.477  159.726
  346.108   13.612    0.443    0.297   67.370  158.724
  346.358   12.206    0.440    0.305   64.722  158.430
  346.608   10.627    0.439    0.299   65.277  158.247
  346.858    9.495    0.435    0.319   67.710  158.052
  347.108    8.374    0.435    0.331   67.115  158.282
  347.358    7.551    0.438    0.333   66.216  158.193
  347.608    7.105    0.435    0.321   65.504  158.317
  347.858    6.899    0.428    0.305   65.333  158.734
  348.108    6.861    0.432    0.310   65.887  158.754
  348.358    6.849    0.428    0.324   67.110  158.772
  348.608    6.875    0.423    0.327   69.599  158.793
  348.858    6.915    0.433    0.328   71.365  159.118
  349.108    6.915    0.425    0.320   70.224  159.154
  349.358    6.955    0.414    0.311   68.968  159.063
  349.608    6.955    0.408    0.323   68.434  159.185
  349.858    6.918    0.408    0.329   66.573  159.205
  350.108    6.918    0.411    0.331   65.435  159.019
  350.358    6.971    0.420    0.326   65.627  159.035
  350.608    7.010    0.421    0.312   69.204  158.846
  350.858    7.050    0.417    0.307   72.365  159.163
  351.108    7.103    0.405    0.306   71.771  159.295
  351.358    7.183    0.401    0.309   69.362  159.324
  351.608    7.291    0.416    0.311   73.609  159.127
  351.858    7.359    0.422    0.308   74.406  159.247
  352.108    7.484    0.426    0.308   70.726  158.959
  352.358    7.554    0.429    0.308   67.893  158.584
  352.608    7.696    0.434    0.308   67.300  158.294
  352.858    7.928    0.436    0.307   68.158  157.876
  353.108    8.077    0.415    0.304   70.289  157.498
  353.358    8.228    0.408    0.301   72.417  157.206
  353.608    8.352    0.420    0.294   75.573  157.031
  353.858    8.462    0.433    0.305   78.486  156.854
  354.108    8.510    0.451    0.308   79.406  156.743
  354.358    8.558    0.451    0.307   78.754  156.462
  354.608    8.607    0.432    0.286   80.577  156.393
  354.858    8.672    0.427    0.272   77.506  156.210
  355.108    8.657    0.455    0.285   70.498  156.023
  355.358    8.610    0.439    0.285   72.686  155.723
  355.608    8.313    0.428    0.283   74.511  155.831
  355.858    8.027    0.425    0.283   71.923  155.760
  356.108    7.794    0.427    0.289   70.363  155.689
  356.358    7.568    0.436    0.300   71.574  155.609
  356.608    7.597    0.441    0.305   73.047  155.407
  356.858    7.972    0.437    0.320   72.208  155.539
  357.108    8.632    0.427    0.318   69.256  155.438
  357.358    9.042    0.416    0.322   65.942  155.370
  357.608    9.127    0.403    0.324   63.774  155.281
  357.858    9.094    0.395    0.324   64.511  155.202
  358.108    8.863    0.410    0.319   66.398  155.128
  358.358    8.526    0.423    0.315   67.071  155.021
  358.608    8.279    0.432    0.296   69.264  155.042
  358.858    8.023    0.434    0.286   67.881  154.978
  359.108    7.776    0.440    0.291   65.958  154.865
  359.358    7.481    0.442    0.288   66.874  154.902
  359.608    7.237    0.436    0.284   66.222  155.223
  359.858    6.962    0.437    0.291   66.354  155.233
  360.108    6.538    0.437    0.296   68.848  155.656
  360.358    6.255    0.447    0.307   71.096  155.983
  360.608    6.107    0.462    0.338   71.891  156.324
  360.858    6.052    0.477    0.336   71.723  156.562
  361.108    6.246    0.478    0.344   72.159  156.983
  361.358    6.578    0.464    0.346   73.439  157.611
  361.608    7.150    0.470    0.348   74.172  158.452
  361.858    7.887    0.481    0.339   74.613  159.186
  362.108    9.213    0.473    0.321   71.960  159.728
  362.358   12.409    0.448    0.302   66.891  160.461
  362.608   17.184    0.392    0.265   61.278  160.984
  362.858   22.595    0.302    0.235   54.450  161.939
  363.108   36.750    0.179    0.101   50.711  162.670
  363.358   41.525    0.148   -0.003   48.121  163.210
  363.608   39.800    0.150   -0.006   48.556  163.532
  363.858   21.347    0.158   -0.011   54.495  163.339
  364.108   23.373    0.169   -0.004   62.736  162.941
  364.358   12.125    0.186    0.039   71.761  162.242
  364.608    9.275    0.225    0.142   79.453  161.661
  364.858    7.458    0.319    0.234   80.491  161.257
  365.108    6.481    0.438    0.288   78.443  161.178
  365.358    6.064    0.461    0.315   76.216  160.586
