~VERSION INFORMATION
 VERS.                 2.0:   CWLS LOG ASCII STANDARD -VERSION 2.0
 WRAP.                  NO:   ONE LINE PER DEPTH STEP
~WELL INFORMATION BLOCK
#MNEM.UNIT           DATA                    DESCRIPTION OF MNEMONIC
#---------    -------------------            -------------------------------
# Generated from Intellog Unique Number	CW_76_78/WELL/2813
WELL.         11-01-077-24W4                 : Well_name    - WELL
LOC .         00/11-01-077-24W4/0            : Location     - LOCATION
UWI .         00/11-01-077-24W4/0            : Uwi          - UNIQUE WELL ID
ENTR.         JJ                             : Entered      - ENTERED BY
SRVC.         WESTERN ATLAS                  : Scn          - SERVICE COMPANY
DATE.         10 MAR 70                      : Date         - LOG DATE
STRT.M        607.162                        : top_depth    - START DEPTH
STOP.M        735.162                        : bot_depth    - STOP DEPTH
STEP.M        0.25                           : increment    - STEP LENGTH
 NULL. -999.2500:NULL Value
~CURVE INFORMATION BLOCK
#MNEM UNIT       ERCB CURVE CODE    CURVE DESCRIPTION
#-----------   ------------------   ----------------------------------
DEPT.M        00 001 00 00         : DEPTH        - DEPTH
DELT.US/F     00 520 00 00         : DELT         - SONIC TRAVEL TIME
CALI.MM       00 280 01 00         : CAL          - CALIPER
GR  .API      00 310 00 00         : GR           - GAMMA RAY
ILD .OHMM     00 120 00 00         : RESD         - DEEP RESISTIVITY (DIL)
~PARAMETER INFORMATION
#MNEM.UNIT           DATA             DESCRIPTION OF MNEMONIC
#---------         -----------     ------------------------------
GL  .M        797.662              : gl           - GROUND LEVEL ELEVATION
EREF.M        800.71               : kb           - ELEVATION OF DEPTH REFERENCE
DATM.M        797.662              : datum        - DATUM ELEVATION
TDD .M        734.568              : tdd          - TOTAL DEPTH DRILLER
RUN .         ONE                  : Run          - RUN NUMBER
ENG .         KOWALCHUK            : Engineer     - RECORDING ENGINEER
WIT .         TOFT                 : Witness      - WITNESSED BY
BASE.         V.V.                 : Branch       - HOME BASE OF LOGGING UNIT
MUD .         MUD                  : Mud_type     - MUD TYPE
MATR.         SANDSTONE            : Logunit      - NEUTRON MATRIX
TMAX.C        33.3333              : BHT          - MAXIMUM RECORDED TEMPERATURE
BHTD.M        736.092              : BHTDEP       - MAXIMUM RECORDED TEMPERATURE
RMT .C        18.3333              : MDTP         - TEMPERATURE OF MUD
MUDD.KG/M     1140                 : MWT          - MUD DENSITY
NEUT.         1                    : NEUTRON      - NEUTRON TYPE
RESI.         0                    : RESIST       - RESISTIVITY TYPE
RM  .OHMM     4                    : RM           - RESISTIVITY OF MUD
RMC .OHMM     4.5                  : RMC          - RESISTIVITY OF MUD CAKE
RMF .OHMM     2.2                  : RMF          - RESISTIVITY OF MUD FILTRATE
SUFT.C        5                    : SUFT         - SURFACE TEMPERATURE
~A  DEPTH     DELT      CAL       GR     RESD
# ...
  694.162  341.409  231.312   67.501   50.060
  694.412  342.721  232.520   71.920   58.758
  694.662  320.907  235.309   73.718   70.201
  694.912  261.359  238.036   69.777   79.685
  695.162  209.738  237.811   61.596   68.729
  695.412  209.543  235.284   56.204   49.907
  695.662  216.096  234.275   60.251   41.702
  695.912  249.967  234.353   65.694   33.496
  696.162  274.012  234.851   71.507   29.220
  696.412  314.566  235.331   74.825   26.123
  696.662  341.297  235.818   76.570   24.604
  696.912  345.688  236.515   76.495   23.472
  697.162  344.117  237.403   75.768   22.340
  697.412  340.844  237.500   77.328   16.973
  697.662  343.008  237.777   75.994   16.311
  697.912  341.372  238.277   75.202   15.453
  698.162  338.229  238.376   79.556   14.714
  698.412  337.969  238.468   81.655   14.366
  698.662  336.595  238.535   83.168   13.902
  698.912  338.562  237.614   84.368   13.711
  699.162  331.424  235.809   86.426   13.756
  699.412  325.136  234.809   87.320   15.649
  699.662  326.973  234.764   87.609   17.581
  699.912  327.761  235.652   84.225   19.003
  700.162  327.304  236.739   81.062   25.141
  700.412  323.965  237.556   76.696   31.897
  700.662  244.435  237.737   70.462   38.653
  700.912  243.062  237.810   58.888   39.485
  701.162  294.294  237.920   47.018   39.533
  701.412  324.038  238.188   38.482   38.397
  701.662  298.949  238.495   40.408   39.229
  701.912  295.544  238.676   48.035   42.039
  702.162  315.134  238.560   52.800   42.082
  702.412  350.382  238.138   58.120   27.530
  702.662  363.420  237.521   47.646   17.699
  702.912  349.534  236.628   47.286   14.719
  703.162  349.404  235.587   48.121   10.206
  703.412  364.277  235.574   49.194    7.501
  703.662  445.383  236.260   51.676    6.014
  703.912  450.822  237.483   55.425    5.235
  704.162  435.101  238.251   62.124    5.124
  704.412  424.163  239.762   85.111    5.249
  704.662  428.554  240.560  106.048    5.412
  704.912  431.832  240.747  110.998    5.654
  705.162  418.535  240.719  111.661    5.818
  705.412  424.760  240.315  104.931    6.061
  705.662  408.974  238.587  107.842    6.185
  705.912  381.657  238.864  110.908    6.387
  706.162  356.503  241.188  103.460    6.591
  706.412  355.785  242.379   96.855    6.794
  706.662  361.616  242.362   94.673    6.761
  706.912  368.497  240.339   97.749    6.335
  707.162  376.492  239.006  105.611    6.225
  707.412  378.262  238.183  113.226    6.466
  707.662  451.048  237.172  114.312    6.944
  707.912  486.295  236.557  108.917    8.050
  708.162  537.789  236.135  115.087    9.237
  708.412  594.655  236.020  103.697    9.989
  708.662  608.545  236.121   87.717   11.175
  708.912  357.310  236.396   78.084   11.692
  709.162  358.950  236.510   69.424   11.661
  709.412  361.048  236.697   68.269   11.667
  709.662  360.002  236.682   70.864   11.751
  709.912  355.876  236.759   77.207   12.034
  710.162  351.882  236.042   84.230   12.354
  710.412  352.146  235.311   85.118   12.714
  710.662  353.655  232.499   86.867   13.231
  710.912  362.435  231.777   88.796   13.906
  711.162  364.271  231.765   84.069   14.463
  711.412  357.002  232.567   90.725   14.548
  711.662  336.891  233.356   93.075   14.830
  711.912  331.521  234.347   91.490   15.464
  712.162  320.517  234.626   84.828   17.161
  712.412  294.053  234.515   82.164   18.935
  712.662  279.707  233.688   80.101   19.767
  712.912  230.706  232.361   76.407   18.202
  713.162  208.172  230.154   71.616   13.690
  713.412  246.105  229.316   60.040   12.006
  713.662  312.864  229.400   62.092   11.110
  713.912  333.174  233.113   68.382   10.408
  714.162  323.088  234.614   74.056    9.472
  714.412  313.852  232.904   80.235    8.810
  714.662  304.093  231.871   82.336    8.384
  714.912  303.964  231.057   80.634    8.038
  715.162  326.502  231.055   69.672    7.690
  715.412  324.276  230.918   74.202    7.225
  715.662  319.300  230.814   86.846    6.877
  715.912  325.197  231.809   89.745    6.571
  716.162  337.974  233.505   92.828    6.458
  716.412  330.115  236.526  101.052    6.230
  716.662  328.282  236.303  100.066    6.039
  716.912  331.297  235.901   97.277    5.888
  717.162  347.940  235.976  101.385    5.816
  717.412  360.061  236.482  103.013    5.824
  717.662  376.507  236.952  100.220    5.829
  717.912  392.231  234.132  101.966    5.835
  718.162  413.132  230.985  107.170    5.921
  718.412  423.222  230.171  113.754    6.006
  718.662  430.234  231.157  109.397    6.052
  718.912  345.463  232.669   95.107    6.059
  719.162  351.624  231.536   91.101    5.987
  719.412  359.225  228.400  103.135    5.953
  719.662  354.248  227.888  112.021    5.920
  719.912  349.598  227.987  108.753    5.929
  720.162  345.211  228.967  103.476    5.974
  720.412  356.415  230.972  104.263    5.980
  720.662  379.084  230.155  103.102    6.026
  720.912  394.285  228.520  101.646    6.033
  721.162  398.087  231.132  106.834    6.077
  721.412  344.565  234.650  102.594    6.124
  721.662  337.623  234.742   87.697    6.210
  721.912  345.224  229.579   86.073    6.255
  722.162  333.565  228.377   89.322    6.340
  722.412  342.411  228.851   88.897    6.346
  722.662  342.741  229.243   83.679    6.353
  722.912  341.891  229.848   81.249    6.320
  723.162  340.190  230.040   82.216    6.209
  723.412  338.620  230.018   86.320    6.058
  723.662  337.376  230.512   90.122    5.829
  723.912  335.675  232.808   86.133    5.638
  724.162  320.609  235.413   83.820    5.292
  724.412  301.285  228.543   86.053    5.141
  724.662  317.665  229.945   86.595    5.148
  724.912  340.662  231.545   87.548    5.232
  725.162  343.742  232.238   93.350    5.396
  725.412  356.716  234.952  102.173    5.520
  725.662  367.069  236.346  110.760    5.567
  725.912  379.256  237.645  115.719    5.573
  726.162  365.500  238.540  116.013    5.619
  726.412  437.631  237.927  112.862    5.705
  726.662  483.032  236.395  106.923    5.711
  726.912  468.752  233.660  106.489    5.757
  727.162  400.425  231.930  111.632    5.960
  727.412  431.808  231.821  116.161    6.359
  727.662  451.332  233.219  113.847    6.837
  727.912  494.703  233.509  102.888    8.102
  728.162  490.053  233.598  101.500    8.854
  728.412  339.575  233.881  107.120    9.568
  728.662  342.263  232.269  111.459   10.361
  728.912  353.795  230.051   82.161   10.603
  729.162  357.989  229.014   65.755   10.373
  729.412  352.554  228.191   71.194    9.240
  729.662  346.660  227.769   79.476    8.029
  729.912  334.214  227.356   82.925    7.250
  730.162  351.380  227.950   78.321    6.824
  730.412  359.768  229.449   72.920    6.556
  730.662  370.513  230.849   71.460    6.444
  730.912  379.884  234.063   73.278    6.372
  731.162  289.348  239.898   74.602    6.300
  731.412  304.549  243.710   75.084    6.266
  731.662  313.657  239.067   74.641    6.235
  731.912  323.617  237.132   73.121    6.161
  732.162  312.547  235.934   72.565    6.011
  732.412  318.314  235.592   71.536    5.821
  732.662  313.861  234.782   70.797    5.711
  732.912  321.855  234.068   68.193    5.678
  733.162  316.027  234.062   67.216    5.605
  733.412  316.356  234.541   68.543    5.416
  733.662  317.996  234.423   70.539    5.225
  733.912  319.112  234.516   73.306    5.154
  734.162  317.083  234.004   76.380    5.041
  734.412  313.809  233.374   76.134    4.851
  734.662  315.121  232.063   75.338    4.741
  734.912  314.927  231.032   75.524    4.667
  735.162  314.143  229.808   75.809    4.596
