~VERSION INFORMATION
 VERS.                 2.0:   CWLS LOG ASCII STANDARD -VERSION 2.0
 WRAP.                  NO:   ONE LINE PER DEPTH STEP
~WELL INFORMATION BLOCK
#MNEM.UNIT           DATA                    DESCRIPTION OF MNEMONIC
#---------    -------------------            -------------------------------
# Generated from Intellog Unique Number	CW_70_72/WELL/1044
NULL.         -999.25                        : NULL_VALUE
WELL.         UNIGAS ET AL SMITH 10-31       : Well_name    - WELL              
LOC .         10-31-071-24W4                 : Location     - LOCATION          
UWI .         00/10-31-071-24W4/0            : Uwi          - UNIQUE WELL ID    
ENTR.         JAYE                           : Entered      - ENTERED BY        
SRVC.         SCHLUMBERGER                   : Scn          - SERVICE COMPANY   
DATE.         14 NOV 71                      : Date         - LOG DATE          
STRT.M        435.254                        : top_depth    - START DEPTH       
STOP.M        635.254                        : bot_depth    - STOP DEPTH        
STEP.M        0.25                           : increment    - STEP LENGTH       
~CURVE INFORMATION BLOCK
#MNEM UNIT       ERCB CURVE CODE    CURVE DESCRIPTION
#-----------   ------------------   ----------------------------------
DEPT.M        00 001 00 00         : DEPTH        - DEPTH                       
DPHI.V/V      00 890 00 00         : PHID         - DENSITY POROSITY (SANDSTONE)
NPHI.V/V      00 330 00 00         : PHIN         - NEUTRON POROSITY (SANDSTONE)
CALI.MM       00 280 01 00         : CAL          - CALIPER                     
ILD .OHMM     00 120 00 00         : RESD         - DEEP RESISTIVITY (DIL)      
GR  .API      00 310 00 00         : GR           - GAMMA RAY                   
~PARAMETER INFORMATION       
#MNEM.UNIT           DATA             DESCRIPTION OF MNEMONIC
#---------         -----------     ------------------------------
GL  .M        656.783              : gl           - GROUND LEVEL ELEVATION      
EREF.M        659.221              : kb           - ELEVATION OF DEPTH REFERENCE
DATM.M        656.783              : datum        - DATUM ELEVATION             
TDD .M        645.566              : tdd          - TOTAL DEPTH DRILLER         
RUN .         ONE                  : Run          - RUN NUMBER                  
BASE.         EDM                  : Branch       - HOME BASE OF LOGGING UNIT   
MATR.         SANDSTONE            : Logunit      - NEUTRON MATRIX              
TMAX.C        22.2222              : BHT          - MAXIMUM RECORDED TEMPERATURE
BHTD.M        645.262              : BHTDEP       - MAXIMUM RECORDED TEMPERATURE
RMT .C        18.3333              : MDTP         - TEMPERATURE OF MUD          
MUDD.KG/M     0                    : MWT          - MUD DENSITY                 
NEUT.         1                    : NEUTRON      - NEUTRON TYPE                
RESI.         0                    : RESIST       - RESISTIVITY TYPE            
RM  .OHMM     2.03                 : RM           - RESISTIVITY OF MUD          
RMC .OHMM     0                    : RMC          - RESISTIVITY OF MUD CAKE     
RMF .OHMM     2.43                 : RMF          - RESISTIVITY OF MUD FILTRATE 
SUFT.C        -17.7778             : SUFT         - SURFACE TEMPERATURE         
~A  DEPTH     PHID     PHIN      CAL     RESD       GR
# ...
  581.254    0.396    0.544  171.310    5.179   92.405
  581.504    0.402    0.540  171.123    5.170   91.674
  581.754    0.403    0.549  170.939    5.179   97.219
  582.004    0.406    0.549  170.757    5.189   97.173
  582.254    0.412    0.555  170.573    5.208   91.658
  582.504    0.420    0.567  170.279    5.227   91.672
  582.754    0.420    0.571  170.095    5.247   93.740
  583.004    0.418    0.567  170.339    5.247   95.434
  583.254    0.415    0.562  170.568    5.209   95.758
  583.504    0.416    0.562  170.908    5.171   95.585
  583.754    0.428    0.576  171.043    5.106   97.839
  584.004    0.431    0.586  170.859    5.078   95.493
  584.254    0.421    0.589  170.883    5.042   99.484
  584.504    0.412    0.563  170.591    5.060   99.502
  584.754    0.398    0.549  170.511    5.088   99.143
  585.004    0.395    0.530  170.855    5.107   98.163
  585.254    0.410    0.548  171.930    5.135   95.133
  585.504    0.440    0.584  173.642    5.107   95.335
  585.754    0.428    0.598  175.350    5.089  102.806
  586.004    0.409    0.585  177.269    5.080  111.583
  586.254    0.391    0.566  176.979    5.053  102.713
  586.504    0.373    0.517  175.008    5.007   95.272
  586.754    0.363    0.501  171.980    4.980   90.068
  587.004    0.354    0.489  171.167    4.953   81.569
  587.254    0.361    0.500  170.875    4.953   82.890
  587.504    0.374    0.512  170.589    4.917   84.272
  587.754    0.387    0.525  170.615    4.917   83.853
  588.004    0.389    0.534  170.533    4.917   89.522
  588.254    0.379    0.533  170.561    4.972   97.118
  588.504    0.368    0.523  170.583    4.972   98.935
  588.754    0.366    0.505  170.507    4.954   93.482
  589.004    0.370    0.497  170.424    4.918   87.594
  589.254    0.381    0.523  170.661    4.919   86.491
  589.504    0.382    0.527  170.479    4.919   88.370
  589.754    0.383    0.526  170.927    4.919   88.138
  590.004    0.387    0.526  171.263    4.955   87.282
  590.254    0.395    0.537  171.504    4.974   89.784
  590.504    0.405    0.551  171.420    4.983   88.680
  590.754    0.415    0.564  171.555    4.983   89.939
  591.004    0.422    0.574  171.264    4.983   94.303
  591.254    0.430    0.585  171.711    4.984   97.363
  591.504    0.424    0.582  171.630    4.957  101.852
  591.754    0.414    0.567  171.446    4.921  103.234
  592.004    0.403    0.551  171.055    4.921  101.200
  592.254    0.413    0.557  171.076    5.003  103.514
  592.504    0.408    0.569  170.892    5.095  100.484
  592.754    0.372    0.530  170.918    5.180  102.487
  593.004    0.355    0.501  170.838    5.462  101.446
  593.254    0.338    0.478  170.441    5.951   95.868
  593.504    0.321    0.452  170.256    6.556   86.501
  593.754    0.221    0.367  169.546    8.162   75.456
  594.004    0.206    0.303  169.992   10.424   67.083
  594.254    0.232    0.300  170.230   12.836   62.500
  594.504    0.339    0.474  170.781   14.454   67.673
  594.754    0.360    0.490  170.920   13.535   74.772
  595.004    0.365    0.498  170.940   11.761   76.464
  595.254    0.365    0.498  170.862   10.696   75.486
  595.504    0.357    0.491  170.779    9.889   76.496
  595.754    0.341    0.479  170.811    9.328   79.370
  596.004    0.355    0.464  171.255    8.800   82.553
  596.254    0.375    0.501  171.592    8.195   86.980
  596.504    0.342    0.513  171.727    7.577   89.294
  596.754    0.253    0.432  171.754    7.239   81.542
  597.004    0.214    0.330  171.463    7.522   58.939
  597.254    0.229    0.353  171.494    8.440   50.753
  597.504    0.273    0.391  171.513   10.526   50.519
  597.754    0.325    0.445  171.644   11.119   70.046
  598.004    0.371    0.518  171.674    9.732   76.834
  598.254    0.387    0.529  171.695    8.079   80.329
  598.504    0.387    0.529  171.825    6.893   83.326
  598.754    0.397    0.530  171.538    6.201   87.567
  599.004    0.401    0.542  171.144    5.548   90.875
  599.254    0.397    0.545  170.961    5.262   93.438
  599.504    0.378    0.511  170.777    5.508   92.770
  599.754    0.334    0.468  170.590    5.914   86.385
  600.004    0.301    0.417  170.614    6.351   80.187
  600.254    0.316    0.433  170.638    6.540   77.655
  600.504    0.347    0.462  170.662    6.481   82.144
  600.754    0.362    0.487  170.374    6.340   89.491
  601.004    0.357    0.503  169.877    6.192   95.472
  601.254    0.356    0.490  170.007    6.136   89.521
  601.504    0.366    0.498  170.347    6.114   91.960
  601.754    0.376    0.511  171.007    6.092   92.908
  602.004    0.383    0.520  171.557    6.070   93.854
  602.254    0.381    0.528  171.790    6.126   90.701
  602.504    0.361    0.521  171.713    6.354   88.169
  602.754    0.328    0.450  171.634    6.519   85.947
  603.004    0.345    0.463  171.342    6.737   81.923
  603.254    0.371    0.496  171.375    6.749   79.079
  603.504    0.365    0.513  171.189    6.627   81.022
  603.754    0.385    0.390  171.107    6.367   89.673
  604.004    0.390    0.456  171.339    6.006   94.473
  604.254    0.391    0.520  171.998    5.728   94.116
  604.504    0.390    0.531  172.341    5.844   91.957
  604.754    0.377    0.525  172.470    6.173   90.729
  605.004    0.350    0.501  172.917    6.751   88.444
  605.254    0.286    0.478  173.363    7.303   81.811
  605.504    0.258    0.368  173.395    7.929   75.240
  605.754    0.294    0.406  173.310    8.209   70.470
  606.004    0.350    0.437  172.810    7.562   81.359
  606.254    0.373    0.469  172.421    6.966   90.819
  606.504    0.365    0.501  172.128    6.130   93.631
  606.754    0.363    0.498  171.941    5.689   96.070
  607.004    0.370    0.502  171.650    5.555   98.321
  607.254    0.357    0.507  171.362    5.617  101.630
  607.504    0.345    0.497  171.070    5.836   97.669
  607.754    0.326    0.469  170.994    6.632   85.195
  608.004    0.327    0.451  171.020    6.993   82.227
  608.254    0.341    0.456  170.944    7.135   83.112
  608.504    0.357    0.475  170.857    7.045   86.360
  608.754    0.354    0.485  171.097    6.880   86.250
  609.004    0.337    0.474  171.118    6.280   87.011
  609.254    0.350    0.457  171.566    5.368   90.196
  609.504    0.501    0.478  171.596    4.273   94.436
  609.754    0.544    0.597  171.619    3.316   98.801
  610.004    0.545    0.607  171.537    2.582  104.098
  610.254    0.535    0.612  171.247    2.215  110.638
  610.504    0.544    0.611  171.062    2.136  115.125
  610.754    0.541    0.607  170.565    2.136  116.695
  611.004    0.545    0.603  170.589    2.152  115.342
  611.254    0.527    0.601  171.459    2.211  111.381
  611.504    0.443    0.592  172.849    2.298  106.737
  611.754    0.412    0.594  174.350    2.445  102.651
  612.004    0.398    0.559  175.216    2.789   97.384
  612.254    0.386    0.529  175.874    3.293   94.603
  612.504    0.367    0.507  176.320    3.517   93.066
  612.754    0.397    0.527  176.661    3.504   87.549
  613.004    0.441    0.592  176.898    3.336   94.337
  613.254    0.447    0.598  176.715    3.107  104.916
  613.504    0.426    0.593  176.321    3.147  108.908
  613.754    0.410    0.571  175.925    3.397  104.574
  614.004    0.404    0.554  175.635    3.982   98.501
  614.254    0.389    0.544  174.295    4.101   94.290
  614.504    0.322    0.515  172.424    2.469   91.633
  614.754    0.286    0.474  170.660    0.228   91.027
  615.004    0.248    0.341  171.319    0.128   82.591
  615.254    0.291    0.327  172.503    0.124   70.303
  615.504    0.308    0.364  173.789    0.154   72.308
  615.754    0.320    0.399  174.867    0.344   75.864
  616.004    0.340    0.435  175.317    0.694   76.813
  616.254    0.361    0.475  175.338    4.687   78.693
  616.504    0.373    0.492  174.944    4.933   84.858
  616.754    0.371    0.506  174.549    4.224   86.550
  617.004    0.358    0.502  173.839    3.584   80.663
  617.254    0.340    0.476  172.497    3.387   78.691
  617.504    0.341    0.460  171.366    3.375   78.953
