~VERSION INFORMATION
 VERS.                 2.0:   CWLS LOG ASCII STANDARD -VERSION 2.0
 WRAP.                  NO:   ONE LINE PER DEPTH STEP
~WELL INFORMATION BLOCK
#MNEM.UNIT           DATA                    DESCRIPTION OF MNEMONIC
#---------    -------------------            -------------------------------
# Generated from Intellog Unique Number	CC_80_83/WELL/2397
NULL.         -999.25                        : NULL_VALUE
WELL.         PCI PCEJ HANGINGSTONE          : Well_name    - WELL
LOC .         11-11-083-08W4                 : Location     - LOCATION          
UWI .         00/11-11-083-08W4/0            : Uwi          - UNIQUE WELL ID    
ENTR.         DW                             : Entered      - ENTERED BY        
SRVC.         SCHLUMBERGER                   : Scn          - SERVICE COMPANY   
DATE.         17 FEB 86                      : Date         - LOG DATE
STRT.M        260                            : top_depth    - START DEPTH       
STOP.M        514.99                         : bot_depth    - STOP DEPTH        
STEP.M        0.3                            : increment    - STEP LENGTH       
~CURVE INFORMATION BLOCK
#MNEM UNIT       ERCB CURVE CODE    CURVE DESCRIPTION
#-----------   ------------------   ----------------------------------
DEPT.M        00 001 00 00         : DEPTH        - DEPTH                       
ILD .OHMM     00 120 00 00         : RESD         - DEEP RESISTIVITY (DIL)      
GR  .API      00 310 00 00         : GR           - GAMMA RAY                   
NPHI.V/V      00 330 00 00         : PHIN         - NEUTRON POROSITY (LIMESTONE)
DPHI.V/V      00 890 00 00         : PHID         - DENSITY POROSITY (LIMESTONE)
~PARAMETER INFORMATION       
#MNEM.UNIT           DATA             DESCRIPTION OF MNEMONIC
#---------         -----------     ------------------------------
GL  .M        731.6                : gl           - GROUND LEVEL ELEVATION      
EREF.M        734.7                : kb           - ELEVATION OF DEPTH REFERENCE
DATM.M        734.7                : datum        - DATUM ELEVATION             
TDD .M        516                  : tdd          - TOTAL DEPTH DRILLER         
RUN .         ONE                  : Run          - RUN NUMBER                  
ENG .         BILL                 : Engineer     - RECORDING ENGINEER          
WIT .         JIM                  : Witness      - WITNESSED BY                
MUD .         GEL                  : Mud_type     - MUD TYPE                    
MATR.         LIMESTONE            : Logunit      - NEUTRON MATRIX              
TMAX.C        18                   : BHT          - MAXIMUM RECORDED TEMPERATURE
BHTD.M        516                  : BHTDEP       - MAXIMUM RECORDED TEMPERATURE
MATR.         1                    : LOGUNIT      - NEUTRON MATRIX              
RMT .C        25                   : MDTP         - TEMPERATURE OF MUD          
NEUT.         1                    : NEUTRON      - NEUTRON TYPE                
RESI.         0                    : RESIST       - RESISTIVITY TYPE            
RMC .OHMM     0.25                 : RMC          - RESISTIVITY OF MUD CAKE     
RMF .OHMM     0.25                 : RMF          - RESISTIVITY OF MUD FILTRATE 
SUFT.C        15                   : SUFT         - SURFACE TEMPERATURE         
~A  DEPTH     RESD       GR     PHIN     PHID
# ...
  312.198   20.987  112.729    0.419    0.343
  312.498   24.408  118.243    0.415    0.340
  312.798   24.409  140.292    0.433    0.353
  313.098   24.410  140.296    0.441    0.354
  313.398   24.410   96.209    0.437    0.350
  313.698   24.876  105.400    0.428    0.342
  313.998   22.213  108.464    0.426    0.328
  314.298   19.835  106.631    0.430    0.311
  314.598   15.816  110.921    0.423    0.268
  314.898   13.859  111.538    0.407    0.266
  315.198   13.600  110.318    0.407    0.281
  315.498   13.860  109.709    0.409    0.287
  315.798   14.393  115.224    0.408    0.291
  316.098   15.232  118.289    0.402    0.280
  316.398   16.120  117.680    0.399    0.268
  316.698   16.427  107.274    0.392    0.297
  316.998   14.669  117.076    0.385    0.294
  317.298   14.395  121.366    0.380    0.251
  317.598   14.670  121.982    0.408    0.247
  317.898   16.742  103.615    0.422    0.307
  318.198   19.843   78.512    0.410    0.298
  318.498   21.807   77.290    0.386    0.266
  318.798   22.224   76.682    0.396    0.270
  319.098   20.223   84.034    0.402    0.287
  319.398   18.402   95.061    0.403    0.301
  319.698   17.065  111.599    0.381    0.272
  319.998   14.953  119.563    0.386    0.262
  320.298   12.382  119.568    0.405    0.247
  320.598   11.481  119.571    0.427    0.261
  320.898   10.448  126.311    0.450    0.252
  321.198    9.688  127.540    0.474    0.224
  321.497    8.984  128.768    0.454    0.210
  321.797    8.022  134.283    0.433    0.229
  322.097    7.439  137.961    0.445    0.224
  322.397    7.300  133.066    0.475    0.225
  322.697    8.023  120.210    0.473    0.242
  322.997    8.652  119.602    0.457    0.251
  323.297   10.450  122.056    0.427    0.258
  323.597   11.704  122.671    0.413    0.266
  323.897   12.622  119.613    0.400    0.250
  324.197   12.863  107.981    0.400    0.240
  324.497   12.155  116.558    0.397    0.236
  324.797   11.705  131.259    0.398    0.237
  325.097   10.651  133.101    0.408    0.247
  325.397   10.257  131.880    0.427    0.253
  325.697    9.877  129.434    0.463    0.271
  325.997    9.878  123.314    0.491    0.287
  326.297   10.258  108.009    0.486    0.304
  326.597   11.488  108.013    0.459    0.324
  326.897   12.389  109.853    0.434    0.311
  327.197   13.362  109.857    0.445    0.294
  327.497   13.616  107.412    0.443    0.283
  327.797   13.876  103.741    0.421    0.275
  328.097   14.411   97.621    0.404    0.289
  328.397   15.541   82.928    0.440    0.330
  328.697   19.492   73.134    0.416    0.356
  328.997   21.830   67.626    0.409    0.355
  329.297   23.543   64.568    0.427    0.346
  329.597   23.543   70.085    0.407    0.349
  329.897   23.544   68.250    0.389    0.357
  330.197   24.916   61.518    0.387    0.365
  330.497   25.875   59.073    0.418    0.373
  330.797   26.872   57.240    0.397    0.366
  331.097   26.370   57.242    0.394    0.361
  331.397   25.878   57.247    0.409    0.370
  331.697   24.920   60.312    0.429    0.367
  331.997   24.454   68.277    0.410    0.352
  332.297   23.109   73.179    0.397    0.348
  332.597   22.678   78.695    0.425    0.351
  332.897   22.254   76.249    0.427    0.353
  333.197   23.551   70.741    0.424    0.363
  333.497   25.883   62.785    0.414    0.369
  333.797   26.377   64.015    0.422    0.374
  334.097   26.881   65.854    0.392    0.376
  334.397   25.886   69.532    0.386    0.365
  334.697   25.886   65.861    0.408    0.361
  334.997   25.403   64.028    0.434    0.364
  335.297   25.404   65.258    0.435    0.383
  335.597   25.404   65.874    0.424    0.374
  335.897   25.889   61.590    0.415    0.363
  336.197   26.886   58.532    0.408    0.374
  336.497   27.399   59.150    0.421    0.381
  336.797   27.400   61.603    0.419    0.374
  337.097   25.892   62.218    0.415    0.369
  337.397   25.893   61.610    0.430    0.372
  337.697   25.894   60.389    0.431    0.376
  337.997   25.895   55.494    0.425    0.373
  338.297   25.895   53.660    0.441    0.366
  338.597   25.896   56.726    0.435    0.368
  338.897   25.413   61.017    0.431    0.382
  339.197   24.015   61.632    0.439    0.389
  339.497   24.015   59.800    0.456    0.377
  339.797   24.016   58.578    0.452    0.371
  340.097   24.474   57.970    0.419    0.368
  340.397   24.941   60.424    0.426    0.371
  340.697   25.417   61.651    0.434    0.374
  340.997   25.902   61.656    0.437    0.374
  341.297   26.899   59.822    0.428    0.375
  341.597   26.397   57.988    0.420    0.378
  341.897   26.901   56.768    0.424    0.385
  342.197   26.902   60.446    0.421    0.384
  342.497   26.902   63.512    0.410    0.379
  342.797   24.947   64.740    0.405    0.375
  343.097   24.481   62.295    0.426    0.383
  343.397   23.575   61.687    0.424    0.389
  343.697   23.576   61.691    0.421    0.394
  343.997   24.950   61.696    0.421    0.389
  344.297   25.426   61.698    0.418    0.375
  344.597   26.405   61.701    0.413    0.364
  344.897   26.406   60.480    0.417    0.372
  345.197   25.913   56.809    0.420    0.378
  345.497   25.429   56.815    0.419    0.382
  345.797   24.488   59.880    0.429    0.386
  346.096   24.489   63.557    0.432    0.388
  346.396   24.031   66.623    0.426    0.384
  346.696   24.032   64.177    0.409    0.377
  346.996   24.033   61.119    0.396    0.380
  347.296   24.491   62.348    0.410    0.383
  347.596   24.492   66.638    0.426    0.378
  347.896   24.959   64.192    0.436    0.379
  348.196   24.960   59.910    0.451    0.383
  348.496   25.436   61.751    0.460    0.383
  348.796   26.416   64.817    0.456    0.381
  349.096   26.920   62.984    0.432    0.380
  349.396   26.417   60.538    0.417    0.378
  349.696   26.418   59.930    0.411    0.376
  349.996   25.925   60.545    0.425    0.376
  350.296   25.925   62.998    0.463    0.376
  350.596   24.966   63.614    0.433    0.373
  350.896   24.500   61.781    0.425    0.370
  351.196   24.043   61.784    0.430    0.365
  351.496   24.043   65.463    0.441    0.368
  351.796   24.044   66.079    0.446    0.373
  352.096   24.045   63.634    0.447    0.376
  352.396   24.504   61.800    0.446    0.378
  352.696   24.504   59.967    0.430    0.376
  352.996   24.972   60.583    0.416    0.375
  353.296   25.449   59.363    0.415    0.375
  353.596   25.934   61.816    0.443    0.375
  353.896   26.429   63.044    0.417    0.375
  354.196   26.430   61.211    0.399    0.376
  354.496   26.431   60.603    0.391    0.379
  354.796   25.452   60.607    0.418    0.379
  355.096   23.161   66.733    0.426    0.377
  355.396   22.303   77.760    0.423    0.366
  355.696   22.304   82.662    0.461    0.358
  355.996   21.888   93.076    0.478    0.355
  356.296   18.469  103.491    0.453    0.345
  356.596   13.149   99.820    0.438    0.303
  356.896    7.188   99.212    0.467    0.244
  357.196    5.022  102.278    0.479    0.247
  357.496    5.118   99.832    0.487    0.240
  357.796    5.216   99.223    0.510    0.243
  358.096    5.520  105.963    0.500    0.252
  358.396    6.419  104.743    0.484    0.258
  358.696    6.666   98.010    0.469    0.263
  358.996    7.326  106.588    0.468    0.276
  359.296    7.055  109.041    0.468    0.274
  359.596    5.316  112.720    0.467    0.262
  359.896    5.023  114.560    0.530    0.235
  360.196    4.486  112.726    0.532    0.252
  360.496    4.082  105.994    0.479    0.264
  360.796    3.444  114.571    0.483    0.253
  361.096    2.547  122.535    0.555    0.233
  361.396    1.713  125.601    0.578    0.233
  361.696    1.650  123.770    0.535    0.238
  361.996    2.109  121.935    0.525    0.238
  362.296    3.194   90.707    0.541    0.232
  362.596    3.931   83.975    0.542    0.230
  362.896    5.735   87.041    0.460    0.312
  363.196    9.546   97.455    0.444    0.319
  363.496    9.547  116.442    0.438    0.267
  363.796    6.069  125.631    0.470    0.238
  364.096    3.318  126.249    0.517    0.235
