~VERSION INFORMATION
 VERS.                 2.0:   CWLS LOG ASCII STANDARD -VERSION 2.0
 WRAP.                  NO:   ONE LINE PER DEPTH STEP
~WELL INFORMATION BLOCK
#MNEM.UNIT           DATA                    DESCRIPTION OF MNEMONIC
#---------    -------------------            -------------------------------
# Generated from Intellog Unique Number	CW_73_75/WELL/2979
WELL.         ANR ET AL FRANCIS 15-09        : Well_name    - WELL
LOC .         00/15-09-073-21W4/0            : Location     - LOCATION
UWI .         00/15-09-073-21W4/0            : Uwi          - UNIQUE WELL ID
ENTR.         JAYE                           : Entered      - ENTERED BY
SRVC.         WESTERN ATLAS                  : Scn          - SERVICE COMPANY
DATE.         30 JAN 81                      : Date         - LOG DATE
STRT.M        360                            : top_depth    - START DEPTH
STOP.M        560                            : bot_depth    - STOP DEPTH
STEP.M        0.25                           : increment    - STEP LENGTH
 NULL. -999.2500:NULL Value
~CURVE INFORMATION BLOCK
#MNEM UNIT       ERCB CURVE CODE    CURVE DESCRIPTION
#-----------   ------------------   ----------------------------------
DEPT.M        00 001 00 00         : DEPTH        - DEPTH
NPHI.V/V      00 330 00 00         : PHIN         - NEUTRON POROSITY (SANDSTONE)
ILD .OHMM     00 120 00 00         : RESD         - DEEP RESISTIVITY (DIL)
CALI.MM       00 280 01 00         : CAL          - CALIPER
GR  .API      00 310 00 00         : GR           - GAMMA RAY
DPHI.V/V      00 890 00 00         : PHID         - DENSITY POROSITY (SANDSTONE)
~PARAMETER INFORMATION
#MNEM.UNIT           DATA             DESCRIPTION OF MNEMONIC
#---------         -----------     ------------------------------
GL  .M        657.4                : gl           - GROUND LEVEL ELEVATION
EREF.M        660.4                : kb           - ELEVATION OF DEPTH REFERENCE
DATM.M        657.4                : datum        - DATUM ELEVATION
TDD .M        560                  : tdd          - TOTAL DEPTH DRILLER
RUN .         ONE                  : Run          - RUN NUMBER
ENG .         VINCENT              : Engineer     - RECORDING ENGINEER
WIT .         FARMER               : Witness      - WITNESSED BY
BASE.         EDM                  : Branch       - HOME BASE OF LOGGING UNIT
MUD .         GEL CHEM             : Mud_type     - MUD TYPE
MATR.         SANDSTONE            : Logunit      - NEUTRON MATRIX
TMAX.C        19                   : BHT          - MAXIMUM RECORDED TEMPERATURE
BHTD.M        559.1                : BHTDEP       - MAXIMUM RECORDED TEMPERATURE
RMT .C        18                   : MDTP         - TEMPERATURE OF MUD
MUDD.KG/M     1000                 : MWT          - MUD DENSITY
NEUT.         1                    : NEUTRON      - NEUTRON TYPE
RESI.         0                    : RESIST       - RESISTIVITY TYPE
RM  .OHMM     4.25                 : RM           - RESISTIVITY OF MUD
RMC .OHMM     4.9                  : RMC          - RESISTIVITY OF MUD CAKE
RMF .OHMM     4                    : RMF          - RESISTIVITY OF MUD FILTRATE
SUFT.C        0                    : SUFT         - SURFACE TEMPERATURE
~A  DEPTH     PHIN     RESD      CAL       GR     PHID
# ...
  433.000    0.347    4.063  151.643   39.513    0.346
  433.250    0.347    3.998  152.410   40.902    0.350
  433.500    0.345    3.959  152.851   40.363    0.353
  433.750    0.338    3.915  153.097   42.562    0.351
  434.000    0.336    3.845  153.233   42.210    0.349
  434.250    0.331    3.802  153.065   45.592    0.346
  434.500    0.323    3.766  153.097   44.243    0.344
  434.750    0.318    3.744  153.031   43.331    0.346
  435.000    0.332    3.746  153.479   42.480    0.346
  435.250    0.335    3.737  153.825   44.430    0.349
  435.500    0.336    3.746  153.861   45.199    0.354
  435.750    0.341    3.788  153.890   42.666    0.355
  436.000    0.359    3.823  153.925   43.372    0.355
  436.250    0.354    3.820  154.271   46.630    0.354
  436.500    0.349    3.810  154.928   43.476    0.354
  436.750    0.345    3.806  156.002   48.851    0.350
  437.000    0.341    3.823  156.868   48.497    0.344
  437.250    0.346    3.878  156.692   52.689    0.346
  437.500    0.355    3.921  156.729   52.086    0.352
  437.750    0.357    3.966  156.455   51.612    0.356
  438.000    0.355    3.989  156.384   51.507    0.354
  438.250    0.342    4.020  156.110   55.199    0.354
  438.500    0.332    4.023  155.829   57.959    0.354
  438.750    0.331    4.006  155.559   54.432    0.350
  439.000    0.338    3.988  155.486   52.275    0.343
  439.250    0.344    3.916  155.522   53.229    0.337
  439.500    0.347    3.967  155.558   54.494    0.337
  439.750    0.349    4.004  155.593   55.760    0.334
  440.000    0.352    4.041  155.625   58.768    0.333
  440.250    0.353    4.080  155.665   60.906    0.338
  440.500    0.350    4.097  155.692   62.794    0.340
  440.750    0.340    4.121  155.732   62.005    0.341
  441.000    0.332    4.160  155.244   60.781    0.341
  441.250    0.327    4.185  154.247   61.425    0.342
  441.500    0.326    4.253  153.450   63.312    0.340
  441.750    0.334    4.279  152.858   63.146    0.339
  442.000    0.338    4.312  152.167   63.106    0.342
  442.250    0.339    4.352  152.408   63.937    0.341
  442.500    0.343    4.341  152.242   64.081    0.342
  442.750    0.344    4.322  152.276   62.919    0.341
  443.000    0.342    4.289  152.620   63.748    0.336
  443.250    0.350    4.292  152.966   61.965    0.334
  443.500    0.348    4.303  153.099   62.484    0.337
  443.750    0.338    4.313  153.757   64.309    0.335
  444.000    0.333    4.310  153.999   63.023    0.335
  444.250    0.334    4.305  154.241   60.370    0.330
  444.500    0.340    4.294  154.492   58.832    0.327
  444.750    0.339    4.275  154.729   58.169    0.321
  445.000    0.333    4.235  154.553   60.866    0.325
  445.250    0.328    4.231  154.277   62.941    0.328
  445.500    0.325    4.278  154.003   61.654    0.325
  445.750    0.323    4.378  153.827   61.426    0.320
  446.000    0.320    4.573  153.452   62.505    0.321
  446.250    0.301    4.769  153.493   63.772    0.322
  446.500    0.272    5.138  153.522   66.220    0.327
  446.750    0.233    5.564  153.554   70.100    0.317
  447.000    0.205    6.214  153.489   70.430    0.273
  447.250    0.210    7.825  153.106   67.216    0.107
  447.500    0.271    9.720  152.930   60.578    0.110
  447.750    0.330   11.889  151.309   58.046    0.141
  448.000    0.362   14.818  151.028   62.236    0.218
  448.250    0.385   17.573  154.178   65.306    0.334
  448.500    0.390   13.953  155.766   71.179    0.347
  448.750    0.371   10.614  156.320   75.619    0.339
  449.000    0.356    8.781  156.250   77.074    0.342
  449.250    0.352    7.875  155.977   77.840    0.341
  449.500    0.347    6.978  155.698   75.433    0.328
  449.750    0.344    6.258  155.113   73.274    0.328
  450.000    0.345    5.808  154.425   76.906    0.309
  450.250    0.345    5.427  153.733   73.069    0.264
  450.500    0.345    5.177  153.246   73.525    0.319
  450.750    0.343    4.913  152.967   77.964    0.328
  451.000    0.334    4.702  152.690   79.416    0.334
  451.250    0.337    4.532  152.416   77.819    0.328
  451.500    0.338    4.405  152.454   75.288    0.325
  451.750    0.329    4.304  152.172   72.695    0.323
  452.000    0.332    4.227  152.422   68.608    0.324
  452.250    0.346    4.195  152.552   69.188    0.321
  452.500    0.346    4.183  153.319   73.753    0.321
  452.750    0.348    4.208  154.077   70.662    0.322
  453.000    0.349    4.212  155.149   68.878    0.319
  453.250    0.345    4.237  155.911   72.322    0.321
  453.500    0.342    4.247  156.360   75.393    0.328
  453.750    0.339    4.222  157.019   75.787    0.324
  454.000    0.347    4.175  157.364   75.247    0.325
  454.250    0.355    4.149  157.395   72.778    0.331
  454.500    0.355    4.131  157.328   71.927    0.336
  454.750    0.347    4.106  157.674   71.701    0.338
  455.000    0.343    4.089  157.507   73.713    0.338
  455.250    0.346    4.092  157.432   70.807    0.336
  455.500    0.344    4.081  157.260   71.389    0.333
  455.750    0.339    4.091  157.089   73.526    0.327
  456.000    0.345    4.108  156.704   69.439    0.324
  456.250    0.361    4.154  150.116   72.012    0.333
  456.500    0.370    4.208  155.322   73.840    0.337
  456.750    0.376    4.239  155.358   77.593    0.339
  457.000    0.378    4.258  155.393   76.183    0.330
  457.250    0.370    4.268  155.742   75.768    0.330
  457.500    0.357    4.250  155.462   74.607    0.332
  457.750    0.354    4.224  155.082   72.449    0.333
  458.000    0.349    4.170  155.741   68.422    0.332
  458.250    0.342    4.046  156.915   68.195    0.328
  458.500    0.342    3.913  157.780   72.572    0.317
  458.750    0.347    3.863  157.502   73.776    0.316
  459.000    0.353    3.839  156.708   77.845    0.324
  459.250    0.354    3.849  156.016   77.118    0.327
  459.500    0.347    3.925  154.910   74.647    0.323
  459.750    0.344    3.989  154.528   72.614    0.316
  460.000    0.345    4.069  154.670   74.815    0.293
  460.250    0.348    4.079  156.672   81.930    0.226
  460.500    0.352    3.992  160.032   92.968    0.213
  460.750    0.361    3.699  161.928   98.654    0.211
  461.000    0.370    3.323  162.276  102.471    0.205
  461.250    0.380    3.000  162.206  108.280    0.219
  461.500    0.388    2.723  162.142  111.848    0.235
  461.750    0.395    2.493  161.759  112.367    0.227
  462.000    0.368    2.365  161.586  113.198    0.227
  462.250    0.352    2.408  161.309  113.841    0.214
  462.500    0.358    2.595  162.279  110.562    0.211
  462.750    0.346    2.888  162.519  112.699    0.218
  463.000    0.334    3.133  161.830  110.418    0.219
  463.250    0.332    3.261  161.032  106.581    0.215
  463.500    0.344    3.378  160.135  104.174    0.209
  463.750    0.352    3.487  159.857  105.065    0.216
  464.000    0.355    3.599  159.271  107.140    0.239
  464.250    0.351    3.701  158.994  108.717    0.259
  464.500    0.339    3.788  158.613  102.763    0.274
  464.750    0.338    3.850  157.922   93.697    0.265
  465.000    0.339    3.946  157.857   95.337    0.231
  465.250    0.346    4.081  157.266   95.481    0.194
  465.500    0.348    4.248  156.781   98.054    0.237
  465.750    0.343    4.384  156.815   99.071    0.249
  466.000    0.338    4.502  156.649   98.032    0.252
  466.250    0.340    4.521  156.576   93.945    0.253
  466.500    0.345    4.463  157.235   96.706    0.235
  466.750    0.346    4.398  157.576   99.713    0.231
  467.000    0.354    4.268  158.235  100.419    0.237
  467.250    0.347    4.163  159.417  102.120    0.232
  467.500    0.339    4.026  159.654  104.258    0.236
  467.750    0.339    3.940  159.274  100.731    0.256
  468.000    0.342    3.903  158.788   97.016    0.284
  468.250    0.347    3.873  157.269   92.805    0.320
  468.500    0.349    3.896  156.578   87.535    0.327
  468.750    0.346    3.892  156.299   81.954    0.319
  469.000    0.345    3.803  156.650   79.362    0.313
  469.250    0.345    3.735  156.578   80.627    0.307
