~VERSION INFORMATION
 VERS.                 2.0:   CWLS LOG ASCII STANDARD -VERSION 2.0
 WRAP.                  NO:   ONE LINE PER DEPTH STEP
~WELL INFORMATION BLOCK
#MNEM.UNIT           DATA                    DESCRIPTION OF MNEMONIC
#---------    -------------------            -------------------------------
# Generated from Intellog Unique Number	CW_70_72/WELL/3030
NULL.         -999.25                        : NULL_VALUE
WELL.         MESA SULPETRO MEYER 11-22      : Well_name    - WELL              
LOC .         11-22-070-24W4                 : Location     - LOCATION          
UWI .         00/11-22-070-24W4/0            : Uwi          - UNIQUE WELL ID    
ENTR.         jj                             : Entered      - ENTERED BY        
SRVC.         SCHLUMBERGER                   : Scn          - SERVICE COMPANY   
DATE.         20 JAN 77                      : Date         - LOG DATE          
STRT.M        411.48                         : top_depth    - START DEPTH       
STOP.M        633.98                         : bot_depth    - STOP DEPTH        
STEP.M        0.25                           : increment    - STEP LENGTH       
~CURVE INFORMATION BLOCK
#MNEM UNIT       ERCB CURVE CODE    CURVE DESCRIPTION
#-----------   ------------------   ----------------------------------
DEPT.M        00 001 00 00         : DEPTH        - DEPTH                       
ILD .OHMM     00 120 00 00         : RESD         - DEEP RESISTIVITY (DIL)      
CALI.MM       00 280 01 00         : CAL          - CALIPER                     
GR  .API      00 310 00 00         : GR           - GAMMA RAY                   
NPHI.V/V      00 330 00 00         : PHIN         - NEUTRON POROSITY (SANDSTONE)
DPHI.V/V      00 890 00 00         : PHID         - DENSITY POROSITY (SANDSTONE)
~PARAMETER INFORMATION       
#MNEM.UNIT           DATA             DESCRIPTION OF MNEMONIC
#---------         -----------     ------------------------------
GL  .M        619.049              : gl           - GROUND LEVEL ELEVATION      
EREF.M        624.23               : kb           - ELEVATION OF DEPTH REFERENCE
DATM.M        619.049              : datum        - DATUM ELEVATION             
TDD .M        649.224              : tdd          - TOTAL DEPTH DRILLER         
RUN .         ONE                  : Run          - RUN NUMBER                  
ENG .         LAGASSE              : Engineer     - RECORDING ENGINEER          
BASE.         EDM                  : Branch       - HOME BASE OF LOGGING UNIT   
MUD .         GEL CHEM             : Mud_type     - MUD TYPE                    
MATR.         SANDSTONE            : Logunit      - NEUTRON MATRIX              
TMAX.C        28.8889              : BHT          - MAXIMUM RECORDED TEMPERATURE
BHTD.M        647.395              : BHTDEP       - MAXIMUM RECORDED TEMPERATURE
RMT .C        13.3333              : MDTP         - TEMPERATURE OF MUD          
MUDD.KG/M     1080                 : MWT          - MUD DENSITY                 
NEUT.         1                    : NEUTRON      - NEUTRON TYPE                
RESI.         0                    : RESIST       - RESISTIVITY TYPE            
RM  .OHMM     1.45                 : RM           - RESISTIVITY OF MUD          
RMC .OHMM     0.25                 : RMC          - RESISTIVITY OF MUD CAKE     
RMF .OHMM     2.11                 : RMF          - RESISTIVITY OF MUD FILTRATE 
SUFT.C        -17.7778             : SUFT         - SURFACE TEMPERATURE         
~A  DEPTH     RESD      CAL       GR     PHIN     PHID
# ...
  557.480    3.989  174.120  109.342    0.427    0.154
  557.730    3.996  173.815  106.375    0.430    0.148
  557.980    4.004  173.306  104.316    0.415    0.133
  558.230    4.034  173.104  104.257    0.402    0.138
  558.480    4.019  173.313  105.168    0.418    0.137
  558.730    3.997  173.111  106.140    0.415    0.136
  558.980    4.012  172.909  106.324    0.410    0.133
  559.230    4.034  173.117  107.962    0.429    0.121
  559.480    4.057  175.173  109.722    0.442    0.128
  559.730    4.094  179.898  107.178    0.426    0.131
  559.980    4.117  177.335  103.968    0.393    0.167
  560.230    4.133  173.131   99.667    0.369    0.169
  560.480    4.125  171.595   97.063    0.374    0.170
  560.730    4.125  171.187   99.126    0.390    0.150
  560.980    4.126  171.191   98.279    0.402    0.162
  561.230    4.141  171.194   94.342    0.414    0.125
  561.480    4.141  171.197   92.768    0.421    0.142
  561.730    4.164  171.201   95.861    0.402    0.124
  561.980    4.195  171.204   98.348    0.390    0.130
  562.230    4.226  171.208  100.410    0.386    0.153
  562.480    4.234  171.519  101.867    0.393    0.176
  562.730    4.219  171.625  102.717    0.406    0.149
  562.980    4.235  172.245  102.720    0.412    0.145
  563.230    4.243  172.658  102.903    0.404    0.135
  563.480    4.290  173.072  104.178    0.410    0.131
  563.730    4.338  173.383  106.726    0.394    0.137
  563.980    4.435  173.078  107.334    0.404    0.136
  564.230    4.542  172.569  107.275    0.392    0.146
  564.480    4.704  172.265  105.944    0.376    0.119
  564.730    4.800  172.473  106.915    0.394    0.138
  564.980    4.836  172.681  108.129    0.403    0.143
  565.230    4.792  172.993  107.828    0.407    0.137
  565.480    4.836  173.509  106.072    0.372    0.158
  565.730    5.187  173.923  100.377    0.363    0.141
  565.980    5.532  173.927   92.137    0.378    0.152
  566.230    6.246  173.827   85.836    0.373    0.180
  566.480    7.131  173.420   78.565    0.302    0.115
  566.730    8.525  173.321   73.113    0.276    0.034
  566.980   10.768  173.222   71.660    0.249    0.011
  567.230   12.339  172.917   74.389    0.296    0.016
  567.480   12.662  173.126   80.392    0.329    0.033
  567.730   10.535  173.129   84.333    0.356    0.062
  567.980    7.980  173.235   90.880    0.381    0.095
  568.230    6.627  173.136   96.822    0.405    0.175
  568.480    5.773  173.447  100.218    0.419    0.181
  568.730    5.374  174.887   86.038    0.418    0.175
  568.980    5.464  176.430   77.433    0.393    0.148
  569.230    5.806  176.741   75.193    0.376    0.141
  569.480    6.215  176.231   75.922    0.365    0.139
  569.730    6.193  175.003   76.227    0.354    0.137
  569.980    5.871  173.877   76.593    0.348    0.132
  570.230    5.297  172.547   78.231    0.373    0.144
  570.480    4.778  172.756   80.960    0.382    0.128
  570.730    4.391  173.478   86.660    0.387    0.124
  570.980    4.117  173.891   89.086    0.389    0.138
  571.230    4.133  174.305   89.815    0.391    0.151
  571.480    4.408  174.924   89.575    0.396    0.154
  571.730    4.824  175.646   86.607    0.379    0.152
  571.980    5.527  175.752   82.730    0.365    0.145
  572.230    6.380  175.653   78.490    0.355    0.140
  572.480    7.151  175.348   71.643    0.297    0.095
  572.730    8.016  174.736   66.615    0.267    0.072
  572.980    8.362  172.584   63.283    0.230    0.043
  573.230    7.503  168.893   62.437    0.264    0.013
  573.480    6.781  166.228   78.196    0.345    0.050
  573.730    5.864  166.334   94.865    0.383    0.098
  573.980    5.222  166.645   98.564    0.392    0.122
  574.230    4.817  168.496   98.809    0.398    0.132
  574.480    4.694  170.757   96.932    0.403    0.141
  574.730    4.677  172.607   95.055    0.401    0.139
  574.980    4.721  174.355   93.300    0.389    0.118
  575.230    4.534  175.385   93.726    0.396    0.132
  575.480    4.220  175.799   95.728    0.406    0.149
  575.730    4.166  176.213   99.002    0.389    0.136
  575.980    4.236  175.806  100.520    0.380    0.133
  576.230    4.371  174.475  101.612    0.366    0.122
  576.480    4.477  173.350  103.251    0.370    0.131
  576.730    4.628  173.148  104.223    0.391    0.152
  576.980    4.801  173.254  104.709    0.391    0.149
  577.230    4.927  173.051  103.499    0.379    0.133
  577.480    5.037  173.157  102.895    0.362    0.144
  577.730    5.140  173.366  101.685    0.367    0.143
  577.980    5.197  173.575   99.929    0.376    0.113
  578.230    5.217  173.886   96.901    0.381    0.143
  578.480    5.304  173.992   95.812    0.390    0.147
  578.730    5.493  174.406   96.541    0.389    0.141
  578.980    5.605  173.588   98.543    0.381    0.104
  579.230    5.564  170.417  101.801    0.380    0.102
  579.480    5.882  171.174  103.838    0.399    0.100
  579.730    5.737  172.365  101.610    0.402    0.127
  579.980    5.597  173.239   94.031    0.385    0.136
  580.230    5.632  173.592   92.293    0.373    0.125
  580.480    5.815  173.431   97.311    0.347    0.104
  580.730    6.093  172.853   95.514    0.336    0.085
  580.980    6.548  171.061   91.522    0.324    0.070
  581.230    7.287  170.799  101.601    0.305    0.057
  581.480    6.829  171.969  105.523    0.321    0.059
  581.730    6.193  175.626  109.384    0.336    0.088
  581.980    5.677  175.772  115.746    0.352    0.121
  582.230    5.299  172.319  117.964    0.345    0.138
  582.480    5.151  171.441  114.584    0.345    0.142
  582.730    5.417  171.382  117.902    0.350    0.152
  582.980    5.718  171.322  123.771    0.360    0.148
  583.230    5.837  171.371  115.460    0.363    0.114
  583.480    5.929  172.661  103.555    0.350    0.096
  583.730    5.989  174.249  101.756    0.350    0.079
  583.980    5.994  176.055  103.367    0.355    0.049
  584.230    6.065  177.337  106.871    0.358    0.128
  584.480    6.149  177.999  108.478    0.362    0.123
  584.730    6.154  177.228  106.739    0.375    0.115
  584.980    5.982  175.723  104.819    0.364    0.112
  585.230    5.473  174.541  102.837    0.355    0.122
  585.480    4.980  174.591  101.281    0.348    0.135
  585.730    4.025  175.554  108.009    0.345    0.144
  585.980    2.941  177.567  114.669    0.353    0.135
  586.230    2.398  181.326  122.372    0.413    0.168
  586.480    2.143  187.565  119.661    0.475    0.197
  586.730    2.049  192.034  115.549    0.503    0.214
  586.980    2.092  194.040  112.532    0.499    0.191
  587.230    2.514  188.111  110.914    0.461    0.177
  587.480    3.060  182.074  106.497    0.424    0.174
  587.730    3.843  176.658  100.195    0.398    0.149
  587.980    4.843  172.485   94.864    0.360    0.084
  588.230    5.652  170.778   91.239    0.327    0.079
  588.480    6.211  171.333   98.877    0.308    0.021
  588.730    5.724  172.524  107.370    0.331    0.058
  588.980    4.702  173.288  113.788    0.351    0.086
  589.230    4.423  174.777  118.931    0.369    0.105
  589.480    4.378  176.580  123.282    0.383    0.107
  589.730    4.334  177.550  118.809    0.392    0.068
  589.980    4.337  177.202  112.504    0.407    0.086
  590.230    4.309  177.027  113.381    0.398    0.095
  590.480    4.314  176.768  117.369    0.385    0.101
  590.730    4.397  175.683  114.837    0.381    0.126
  590.980    4.607  174.802  112.991    0.389    0.129
  591.230    4.934  173.614  112.155    0.408    0.125
  591.480    5.351  173.142  101.892    0.402    0.110
  591.730    6.087  173.195   93.581    0.349    0.062
  591.980    7.248  173.143   84.296    0.327    0.024
  592.230    8.171  173.284   79.571    0.301    0.012
  592.480    7.898  173.227   75.823    0.282    0.045
  592.730    6.394  172.969   77.192    0.288    0.038
  592.980    5.651  172.704   94.512    0.384    0.048
  593.230    5.325  172.547  104.950    0.392    0.097
  593.480    5.185  172.490  103.394    0.379    0.115
  593.730    5.315  172.540   96.787    0.360    0.125
