~VERSION INFORMATION
 VERS.                 2.0:   CWLS LOG ASCII STANDARD -VERSION 2.0
 WRAP.                  NO:   ONE LINE PER DEPTH STEP
~WELL INFORMATION BLOCK
#MNEM.UNIT           DATA                    DESCRIPTION OF MNEMONIC
#---------    -------------------            -------------------------------
# Generated from Intellog Unique Number	CX_WELLS/WELL/2321
WELL.         11-35-088-17W4                 : Well_name    - WELL
LOC .         00/11-35-088-17W4/0            : Location     - LOCATION
UWI .         00/11-35-088-17W400            : Uwi          - UNIQUE WELL ID
ENTR.         DW                             : Entered      - ENTERED BY
SRVC.         SCHLUMBERGER                   : Scn          - SERVICE COMPANY
STRT.M        96                             : top_depth    - START DEPTH
STOP.M        230                            : bot_depth    - STOP DEPTH
STEP.M        0.25                           : increment    - STEP LENGTH
 NULL. -999.2500:NULL Value
~CURVE INFORMATION BLOCK
#MNEM UNIT       ERCB CURVE CODE    CURVE DESCRIPTION
#-----------   ------------------   ----------------------------------
DEPT.M        00 001 00 00         : DEPTH        - DEPTH
GR  .API      00 310 00 00         : GR           - GAMMA RAY
NPHI.V/V      00 330 00 00         : PHIN         - NEUTRON POROSITY (SANDSTONE)
DPHI.V/V      00 890 00 00         : PHID         - DENSITY POROSITY (SANDSTONE)
ILD .OHMM     00 120 00 00         : RESD         - DEEP RESISTIVITY (DIL)
~PARAMETER INFORMATION
#MNEM.UNIT           DATA             DESCRIPTION OF MNEMONIC
#---------         -----------     ------------------------------
GL  .M        499.57               : gl           - GROUND LEVEL ELEVATION
EREF.M        502.47               : kb           - ELEVATION OF DEPTH REFERENCE
DATM.M        502.47               : datum        - DATUM ELEVATION
TDD .M        235                  : tdd          - TOTAL DEPTH DRILLER
RUN .         ONE                  : Run          - RUN NUMBER
ENG .         BILL                 : Engineer     - RECORDING ENGINEER
WIT .         JIM                  : Witness      - WITNESSED BY
MUD .         GEL                  : Mud_type     - MUD TYPE
MATR.         SANDSTONE            : Logunit      - NEUTRON MATRIX
TMAX.C        25                   : BHT          - MAXIMUM RECORDED TEMPERATURE
BHTD.M        235                  : BHTDEP       - MAXIMUM RECORDED TEMPERATURE
MATR.         1                    : LOGUNIT      - NEUTRON MATRIX
RMT .C        25                   : MDTP         - TEMPERATURE OF MUD
NEUT.         1                    : NEUTRON      - NEUTRON TYPE
RESI.         0                    : RESIST       - RESISTIVITY TYPE
RMC .OHMM     0.25                 : RMC          - RESISTIVITY OF MUD CAKE
RMF .OHMM     0.25                 : RMF          - RESISTIVITY OF MUD FILTRATE
SUFT.C        15                   : SUFT         - SURFACE TEMPERATURE
~A  DEPTH       GR     PHIN     PHID     RESD
   96.000   97.158    0.507    0.232    7.135
   96.250  111.958    0.504    0.204    7.154
   96.500  118.781    0.510    0.197    7.174
   96.750  120.686    0.509    0.193    7.194
   97.000  119.506    0.511    0.191    7.082
   97.250  120.170    0.513    0.186    6.722
   97.500  122.666    0.517    0.177    6.260
   97.750  122.715    0.536    0.180    6.041
   98.000  122.764    0.557    0.180    5.625
   98.250  118.511    0.569    0.185    5.052
   98.500  117.332    0.584    0.195    4.701
   98.750  114.922    0.587    0.236    4.378
   99.000  113.140    0.565    0.255    4.076
   99.250  112.575    0.562    0.278    3.726
   99.500  112.612    0.567    0.278    3.537
   99.750  110.830    0.575    0.271    3.418
  100.000  108.421    0.575    0.260    3.363
  100.250  106.626    0.568    0.233    3.249
  100.500  103.615    0.552    0.207    3.319
  100.750  101.820    0.525    0.188    3.521
  101.000   99.399    0.529    0.180    3.666
  101.250   98.231    0.542    0.208    3.676
  101.500  100.124    0.548    0.232    3.614
  101.750  102.620    0.567    0.263    3.560
  102.000  105.754    0.582    0.281    3.440
  102.250  107.033    0.588    0.268    3.384
  102.500  107.095    0.574    0.266    3.272
  102.750  105.890    0.576    0.272    3.279
  103.000  103.481    0.580    0.275    3.478
  103.250  101.686    0.588    0.262    3.687
  103.500  101.121    0.600    0.257    3.836
  103.750  103.039    0.612    0.259    3.919
  104.000  103.088    0.616    0.265    3.932
  104.250  103.138    0.615    0.264    3.943
  104.500  102.572    0.608    0.248    3.951
  104.750  101.392    0.590    0.226    3.965
  105.000   98.983    0.561    0.237    3.973
  105.250   99.647    0.562    0.248    3.914
  105.500  101.540    0.566    0.255    3.922
  105.750  102.204    0.556    0.261    3.933
  106.000  102.856    0.546    0.257    4.020
  106.250  104.159    0.523    0.242    4.183
  106.500  104.196    0.498    0.234    4.517
  106.750  104.860    0.489    0.224    5.156
  107.000  103.680    0.478    0.208    6.111
  107.250   98.812    0.470    0.182    6.848
  107.500   91.487    0.466    0.163    7.254
  107.750   87.221    0.478    0.143    7.420
  108.000   81.124    0.494    0.145    7.580
  108.250   76.281    0.485    0.161    7.742
  108.500   79.379    0.468    0.182    7.909
  108.750   88.058    0.468    0.229    8.235
  109.000   89.951    0.469    0.261    8.247
  109.250   88.783    0.469    0.252    8.587
  109.500   88.808    0.468    0.243    8.766
  109.750   88.243    0.480    0.228    8.954
  110.000   88.304    0.480    0.226    8.494
  110.250   87.727    0.480    0.243    8.057
  110.500   85.932    0.482    0.253    7.376
  110.750   82.306    0.483    0.249    6.992
  111.000   82.970    0.492    0.239    6.757
  111.250   88.551    0.488    0.239    6.646
  111.500   93.517    0.482    0.235    6.552
  111.750   94.796    0.482    0.229    6.565
  112.000   94.230    0.486    0.223    7.222
  112.250   91.207    0.490    0.220    7.650
  112.500   85.110    0.474    0.237    8.744
  112.750   79.628    0.453    0.234    9.611
  113.000   75.375    0.437    0.226   10.769
  113.250   71.736    0.421    0.214   12.067
  113.500   66.869    0.407    0.202   13.057
  113.750   62.001    0.412    0.195   13.319
  114.000   60.846    0.424    0.227   13.356
  114.250   62.100    0.459    0.258   13.393
  114.500   64.608    0.478    0.272   13.440
  114.750   67.730    0.472    0.280   13.467
  115.000   69.623    0.464    0.276   13.505
  115.250   74.012    0.470    0.266   13.542
  115.500   74.651    0.473    0.260   13.589
  115.750   75.942    0.473    0.255   13.376
  116.000   73.545    0.468    0.258   13.413
  116.250   72.955    0.470    0.278   13.195
  116.500   73.619    0.475    0.273   12.989
  116.750   75.525    0.476    0.262   12.551
  117.000   76.803    0.474    0.254   11.688
  117.250   78.094    0.468    0.245   10.884
  117.500   78.758    0.471    0.236    9.419
  117.750   80.651    0.483    0.227    8.292
  118.000   83.147    0.491    0.211    7.165
  118.250   87.510    0.505    0.196    5.649
  118.500   90.633    0.515    0.181    5.260
  118.750   93.141    0.527    0.169    4.990
  119.000   95.034    0.545    0.157    4.912
  119.250   95.095    0.528    0.155    4.932
  119.500   94.530    0.517    0.188    4.939
  119.750   92.121    0.508    0.227    4.953
  120.000   91.556    0.499    0.244    4.967
  120.250   92.834    0.492    0.239    5.077
  120.500   92.871    0.496    0.247    5.283
  120.750   93.535    0.502    0.254    5.811
  121.000   91.126    0.499    0.253    6.511
  121.250   85.029    0.490    0.253    7.712
  121.500   80.776    0.475    0.256    8.968
  121.750   76.536    0.458    0.261   12.099
  122.000   72.283    0.450    0.254   13.318
  122.250   69.246    0.448    0.249   13.355
  122.500   64.379    0.458    0.252   13.392
  122.750   60.138    0.466    0.257   13.420
  123.000   63.261    0.460    0.266   12.730
  123.250   66.383    0.450    0.275   11.009
  123.500   68.276    0.446    0.274    9.174
  123.750   70.182    0.451    0.260    8.233
  124.000   70.833    0.458    0.254    7.252
  124.250   72.124    0.464    0.256    6.880
  124.500   72.776    0.472    0.265    6.904
  124.750   73.440    0.487    0.271    7.042
  125.000   73.501    0.484    0.282    7.475
  125.250   71.719    0.477    0.300    7.773
  125.500   70.515    0.477    0.296    8.399
  125.750   68.106    0.479    0.294    9.076
  126.000   65.696    0.485    0.285    9.614
  126.250   64.529    0.491    0.276   10.183
  126.500   64.566    0.496    0.269   11.004
  126.750   65.242    0.491    0.262   11.664
  127.000   65.291    0.484    0.250   12.137
  127.250   65.955    0.475    0.232   12.874
  127.500   66.619    0.465    0.232   13.637
  127.750   67.283    0.463    0.230   14.466
  128.000   67.345    0.459    0.225   15.063
  128.250   67.394    0.448    0.221   15.376
  128.500   67.444    0.423    0.217   15.717
  128.750   67.493    0.414    0.212   16.055
  129.000   67.542    0.407    0.207   16.400
  129.250   67.604    0.404    0.200   16.445
  129.500   67.641    0.395    0.196   16.491
  129.750   66.473    0.393    0.193   16.222
  130.000   66.522    0.394    0.190   15.117
  130.250   67.801    0.396    0.194   14.077
  130.500   69.067    0.399    0.210   13.100
  130.750   70.346    0.408    0.212   11.755
  131.000   71.010    0.444    0.210   10.939
  131.250   69.830    0.456    0.209    9.817
  131.500   69.879    0.471    0.215    8.654
  131.750   73.616    0.489    0.225    8.053
  132.000   76.149    0.498    0.234    7.782
  132.250   76.198    0.497    0.225    8.255
  132.500   73.776    0.495    0.214    8.584
  132.750   70.753    0.486    0.210    9.269
  133.000   67.127    0.475    0.225   10.587
  133.250   69.622    0.454    0.237   11.645
  133.500   73.974    0.453    0.226   10.450
  133.750   76.481    0.458    0.206    8.865
  134.000   78.375    0.465    0.158    6.989
  134.250   80.895    0.482    0.144    6.272
  134.500   81.571    0.488    0.131    5.525
  134.750   85.308    0.491    0.152    5.149
  135.000   89.033    0.508    0.178    4.968
  135.250   95.843    0.505    0.212    4.801
  135.500  106.353    0.507    0.224    4.726
  135.750  107.644    0.519    0.241    4.652
  136.000  108.308    0.528    0.234    4.759
  136.250  109.586    0.529    0.216    4.775
  136.500  110.250    0.536    0.212    4.875
  136.750  110.300    0.547    0.211    4.976
  137.000  109.734    0.541    0.204    5.185
  137.250  109.784    0.530    0.194    5.392
  137.500  108.604    0.523    0.185    5.504
  137.750  107.424    0.517    0.184    6.062
  138.000  104.425    0.512    0.190    6.304
  138.250  102.605    0.504    0.196    6.807
  138.500   97.123    0.492    0.210    7.632
  138.750   89.170    0.461    0.225    8.390
  139.000   76.313    0.459    0.231    9.401
  139.250   70.831    0.455    0.217   11.150
