~VERSION INFORMATION
 VERS.                 2.0:   CWLS LOG ASCII STANDARD -VERSION 2.0
 WRAP.                  NO:   ONE LINE PER DEPTH STEP
~WELL INFORMATION BLOCK
#MNEM.UNIT           DATA                    DESCRIPTION OF MNEMONIC
#---------    -------------------            -------------------------------
# Generated from Intellog Unique Number	CS_71_72/WELL/3327
WELL.         ALLIED ROXANA MINERALS LTD.    : Well_name    - WELL
LOC .         00/10-32-072-13W4/0            : Location     - LOCATION
UWI .         00/10-32-072-13W4/0            : Uwi          - UNIQUE WELL ID
ENTR.         JOETTE                         : Entered      - ENTERED BY
SRVC.         SCHLUMBERGER                   : Scn          - SERVICE COMPANY
DATE.         05/13/92                       : Date         - LOG DATE
STRT.M        320.04                         : top_depth    - START DEPTH
STOP.M        533.29                         : bot_depth    - STOP DEPTH
STEP.M        0.25                           : increment    - STEP LENGTH
 NULL. -999.2500:NULL Value
~CURVE INFORMATION BLOCK
#MNEM UNIT       ERCB CURVE CODE    CURVE DESCRIPTION
#-----------   ------------------   ----------------------------------
DEPT.M        00 001 00 00         : DEPTH        - DEPTH
NPHI.V/V      00 330 00 00         : PHIN         - NEUTRON POROSITY (SANDSTONE)
GR  .API      00 310 00 00         : GR           - GAMMA RAY
CALI.MM       00 280 01 00         : CAL          - CALIPER
DPHI.V/V      00 890 00 00         : PHID         - DENSITY POROSITY (SANDSTONE)
ILD .OHMM     00 120 00 00         : RESD         - DEEP RESISTIVITY (DIL)
~PARAMETER INFORMATION
#MNEM.UNIT           DATA             DESCRIPTION OF MNEMONIC
#---------         -----------     ------------------------------
GL  .M        656.692              : gl           - GROUND LEVEL ELEVATION
EREF.M        659.74               : kb           - ELEVATION OF DEPTH REFERENCE
DATM.M        659.74               : datum        - DATUM ELEVATION
TDD .M        554.126              : tdd          - TOTAL DEPTH DRILLER
RUN .         ONE                  : Run          - RUN NUMBER
ENG .         BILL                 : Engineer     - RECORDING ENGINEER
WIT .         JIM                  : Witness      - WITNESSED BY
MUD .         GEL                  : Mud_type     - MUD TYPE
MATR.         SANDSTONE            : Logunit      - NEUTRON MATRIX
TMAX.C        25.5556              : BHT          - MAXIMUM RECORDED TEMPERATURE
BHTD.M        554.126              : BHTDEP       - MAXIMUM RECORDED TEMPERATURE
MATR.         1                    : LOGUNIT      - NEUTRON MATRIX
RMT .C        21.1111              : MDTP         - TEMPERATURE OF MUD
NEUT.         1                    : NEUTRON      - NEUTRON TYPE
RESI.         0                    : RESIST       - RESISTIVITY TYPE
RMC .OHMM     3.41                 : RMC          - RESISTIVITY OF MUD CAKE
RMF .OHMM     3.47                 : RMF          - RESISTIVITY OF MUD FILTRATE
SUFT.C        4                    : SUFT         - SURFACE TEMPERATURE
~A  DEPTH     PHIN       GR      CAL     PHID     RESD
# ...
  502.540    0.376   79.287  161.783    0.209   28.508
  502.790    0.379   86.672  162.854    0.216   26.892
  503.040    0.387   82.439  164.995    0.219   25.276
  503.290    0.396   73.911  166.118    0.219   24.273
  503.540    0.403   67.209  166.169    0.240   23.468
  503.790    0.408   61.741  164.200    0.275   22.466
  504.040    0.401   58.130  163.215    0.271   22.074
  504.290    0.407   58.171  161.228    0.271   22.080
  504.540    0.442   61.261  159.241    0.266   22.505
  504.790    0.457   66.198  159.293    0.248   22.721
  505.040    0.441   69.921  159.345    0.249   22.122
  505.290    0.503   74.246  159.414    0.257   21.114
  505.540    0.542   80.407  160.536    0.248   19.701
  505.790    0.578   85.344  161.676    0.228   17.881
  506.040    0.601   92.740  161.727    0.174   15.858
  506.290    0.610   98.901  163.869    0.158   14.042
  506.540    0.598  108.133  166.010    0.142   13.033
  506.790    0.587  111.845  168.135    0.125   11.417
  507.040    0.572  112.498  169.257    0.111   10.618
  507.290    0.552  114.375  169.343    0.089   11.648
  507.540    0.531  115.640  169.412    0.140   13.494
  507.790    0.474  109.560  165.335    0.163   14.521
  508.040    0.404   90.627  162.295    0.195   15.551
  508.290    0.423   79.651  162.347    0.224   17.194
  508.540    0.415   77.855  160.360    0.245   18.634
  508.790    0.416   80.344  160.429    0.269   18.646
  509.040    0.429   79.793  160.498    0.255   17.643
  509.290    0.444   76.763  160.567    0.243   17.242
  509.540    0.452   73.754  160.635    0.252   16.847
  509.790    0.427   73.193  160.721    0.263   16.659
  510.040    0.429   74.447  160.807    0.264   16.874
  510.290    0.416   76.946  159.823    0.257   17.293
  510.540    0.410   78.191  159.892    0.241   17.713
  510.790    0.408   81.302  159.978    0.226   17.728
  511.040    0.405   83.801  161.066    0.236   17.536
  511.290    0.397   86.902  161.134    0.241   17.348
  511.540    0.385   90.615  163.293    0.232   17.363
  511.790    0.386   96.786  165.452    0.205   17.369
  512.040    0.395   95.603  167.594    0.189   17.384
  512.290    0.392   93.205  168.682    0.167   17.800
  512.540    0.387   92.613  169.821    0.192   18.839
  512.790    0.381   93.878  169.856    0.205   19.048
  513.040    0.384  100.049  169.976    0.209   19.470
  513.290    0.418  103.773  170.011    0.199   19.482
  513.540    0.456  106.261  170.114    0.175   19.291
  513.790    0.458  108.750  170.166    0.173   19.300
  514.040    0.450  110.015  170.252    0.163   19.321
  514.290    0.445  104.547  170.286    0.189   19.737
  514.540    0.417   97.243  170.389    0.207   20.153
  514.790    0.399   86.257  170.475    0.219   21.387
  515.040    0.396   76.505  170.527    0.246   23.233
  515.290    0.374   82.064  170.579    0.227   25.891
  515.540    0.390   91.285  169.645    0.174   21.019
  515.790    0.391   96.835  169.680    0.184   19.606
  516.040    0.387  104.842  169.783    0.168   18.193
  516.290    0.417  112.227  169.869    0.131   16.984
  516.540    0.424  114.104  169.904    0.123   16.182
  516.790    0.446  108.636  169.990    0.139   15.584
  517.040    0.452  104.392  170.041    0.144   15.395
  517.290    0.451   99.537  170.127    0.145   15.611
  517.540    0.420   96.527  170.213    0.145   16.030
  517.790    0.409   95.344  170.265    0.144   16.449
  518.040    0.406   92.947  170.351    0.141   17.278
  518.290    0.412   90.549  169.383    0.151   17.491
  518.540    0.409   89.345  169.435    0.164   18.730
  518.790    0.402   86.938  169.521    0.168   19.146
  519.040    0.397   85.142  169.607    0.169   19.565
  519.290    0.408   83.969  169.659    0.167   19.984
  519.540    0.422   82.796  169.779    0.167   20.404
  519.790    0.429   81.612  169.831    0.170   20.826
  520.040    0.423   81.031  169.883    0.168   21.251
  520.290    0.408   79.847  169.934    0.157   21.873
  520.540    0.398   78.052  170.037    0.156   22.086
  520.790    0.396   77.491  169.087    0.172   22.299
  521.040    0.409   79.367  168.102    0.196   22.110
  521.290    0.415   81.866  168.154    0.203   21.715
  521.540    0.417   84.345  166.167    0.198   20.305
  521.790    0.426   88.068  166.236    0.196   19.907
  522.040    0.445   91.771  165.268    0.177   20.327
  522.290    0.453   88.150  165.337    0.192   21.566
  522.540    0.414   81.458  166.460    0.210   22.185
  522.790    0.399   80.284  168.619    0.218   23.015
  523.040    0.434   84.007  169.707    0.211   23.431
  523.290    0.436   85.864  169.775    0.204   24.257
  523.540    0.414   89.587  169.844    0.213   24.269
  523.790    0.406   93.912  169.948    0.207   23.060
  524.040    0.400   98.849  169.982    0.202   22.464
  524.290    0.395   98.278  170.051    0.199   22.886
  524.540    0.406   98.328  170.137    0.196   23.099
  524.790    0.429  100.205  170.188    0.194   23.111
  525.040    0.440  100.246  169.255    0.190   22.512
  525.290    0.451   88.658  166.215    0.186   21.914
  525.540    0.451   76.447  164.228    0.181   22.543
  525.790    0.452   68.531  163.261    0.215   22.758
  526.040    0.460   63.063  162.276    0.231   21.750
  526.290    0.458   55.148  161.326    0.239   19.930
  526.540    0.429   55.198  161.394    0.250   17.296
  526.790    0.404   58.299  161.463    0.255   13.848
  527.040    0.417   58.350  161.515    0.243   12.029
  527.290    0.440   55.942  161.601    0.248   10.820
  527.540    0.440   55.381  162.723    0.273    9.814
  527.790    0.486   57.860  162.758    0.275    8.408
  528.040    0.484   56.666  162.844    0.270    7.806
  528.290    0.452   49.362  162.913    0.274    7.612
  528.540    0.421   39.610  162.981    0.305    7.016
  528.790    0.397   35.979  163.050    0.305    5.197
  529.040    0.388   39.702  163.119    0.299    6.026
  529.290    0.427   42.813  163.188    0.298    6.035
  529.540    0.461   39.171  163.274    0.321    5.843
  529.790    0.478   33.703  163.343    0.332    5.658
  530.040    0.459   31.296  163.446    0.342    5.667
  530.290    0.450   31.336  164.534    0.346    5.472
  530.540    0.427   30.765  164.620    0.343    5.488
  530.790    0.414   32.040  165.691    0.336    5.500
  531.040    0.409   30.856  165.794    0.324    5.928
  531.290    0.437   30.907  166.882    0.311    6.137
  531.540    0.442   30.948  168.005    0.289    6.553
  531.790    0.448   33.437  168.074    0.283    7.383
  532.040    0.436   37.762  170.215    0.273    8.616
  532.290    0.355   43.311  171.320    0.242   10.663
  532.540    0.324   48.248  172.443    0.183   21.872
  532.790    0.297   54.429  173.531    0.072   30.435
  533.040    0.238   56.918  174.653    0.010   37.163
  533.290    0.249   58.785  174.722    0.010   38.199
