~VERSION INFORMATION
 VERS.                 2.0:   CWLS LOG ASCII STANDARD -VERSION 2.0
 WRAP.                  NO:   ONE LINE PER DEPTH STEP
~WELL INFORMATION BLOCK
#MNEM.UNIT           DATA                    DESCRIPTION OF MNEMONIC
#---------    -------------------            -------------------------------
# Generated from Intellog Unique Number	CC_80_83/WELL/2357
NULL.         -999.25                        : NULL_VALUE
WELL.         PEX HOUSE                      : Well_name    - WELL
LOC .         10-18-080-16W4                 : Location     - LOCATION          
UWI .         00/10-18-080-16W4/0            : Uwi          - UNIQUE WELL ID    
ENTR.         DW                             : Entered      - ENTERED BY        
SRVC.         SCHLUMBERGER                   : Scn          - SERVICE COMPANY   
DATE.         30 JAN 82                      : Date         - LOG DATE
STRT.M        145                            : top_depth    - START DEPTH       
STOP.M        369.996                        : bot_depth    - STOP DEPTH        
STEP.M        0.3                            : increment    - STEP LENGTH       
~CURVE INFORMATION BLOCK
#MNEM UNIT       ERCB CURVE CODE    CURVE DESCRIPTION
#-----------   ------------------   ----------------------------------
DEPT.M        00 001 00 00         : DEPTH        - DEPTH                       
DPHI.V/V      00 890 00 00         : PHID         - DENSITY POROSITY (LIMESTONE)
NPHI.V/V      00 330 00 00         : PHIN         - NEUTRON POROSITY (LIMESTONE)
GR  .API      00 310 00 00         : GR           - GAMMA RAY                   
ILD .OHMM     00 120 00 00         : RESD         - DEEP RESISTIVITY (DIL)      
~PARAMETER INFORMATION       
#MNEM.UNIT           DATA             DESCRIPTION OF MNEMONIC
#---------         -----------     ------------------------------
GL  .M        556                  : gl           - GROUND LEVEL ELEVATION      
EREF.M        559.8                : kb           - ELEVATION OF DEPTH REFERENCE
DATM.M        559.8                : datum        - DATUM ELEVATION             
TDD .M        370                  : tdd          - TOTAL DEPTH DRILLER         
RUN .         ONE                  : Run          - RUN NUMBER                  
ENG .         BILL                 : Engineer     - RECORDING ENGINEER          
WIT .         JIM                  : Witness      - WITNESSED BY                
MUD .         GEL                  : Mud_type     - MUD TYPE                    
MATR.         LIMESTONE            : Logunit      - NEUTRON MATRIX              
TMAX.C        18.3                 : BHT          - MAXIMUM RECORDED TEMPERATURE
BHTD.M        370                  : BHTDEP       - MAXIMUM RECORDED TEMPERATURE
MATR.         1                    : LOGUNIT      - NEUTRON MATRIX              
RMT .C        25                   : MDTP         - TEMPERATURE OF MUD          
NEUT.         1                    : NEUTRON      - NEUTRON TYPE                
RESI.         0                    : RESIST       - RESISTIVITY TYPE            
RMC .OHMM     0.25                 : RMC          - RESISTIVITY OF MUD CAKE     
RMF .OHMM     0.25                 : RMF          - RESISTIVITY OF MUD FILTRATE 
SUFT.C        15                   : SUFT         - SURFACE TEMPERATURE         
~A  DEPTH     PHID     PHIN       GR     RESD
# ...
  249.401    0.270    0.502   80.861    7.347
  249.701    0.270    0.480   83.348    7.347
  250.001    0.251    0.472   83.964    7.209
  250.301    0.255    0.464   87.074    7.072
  250.601    0.242    0.475   92.685    6.679
  250.901    0.248    0.517   88.925    6.553
  251.201    0.250    0.508   85.790    6.429
  251.501    0.246    0.489   89.526    6.308
  251.801    0.260    0.505   92.639    7.210
  252.101    0.258    0.522   88.879    7.782
  252.401    0.224    0.518   81.371    7.074
  252.701    0.135    0.493   60.119    5.416
  253.001    0.169    0.346   65.730    3.841
  253.301    0.276    0.383   81.960    2.831
  253.601    0.264    0.488   95.691    2.831
  253.901    0.229    0.547   89.432    3.236
  254.201    0.226    0.549   88.796    4.562
  254.501    0.251    0.523   87.532    5.627
  254.801    0.241    0.518   84.396    5.959
  255.101    0.225    0.494   86.885    5.736
  255.401    0.245    0.462   87.497    5.736
  255.701    0.255    0.466   86.237    6.074
  256.001    0.255    0.473   85.602    6.432
  256.301    0.244    0.476   86.215    6.556
  256.601    0.225    0.467   94.323    6.433
  256.901    0.225    0.478   86.189    6.075
  257.201    0.214    0.506   88.678    5.848
  257.501    0.230    0.472   93.664    5.737
  257.801    0.244    0.457   91.778    5.848
  258.101    0.238    0.483   84.267    5.629
  258.401    0.245    0.490   83.008    5.629
  258.701    0.251    0.460   84.247    5.961
  259.001    0.251    0.446   84.235    6.312
  259.301    0.248    0.481   84.221    6.434
  259.601    0.245    0.483   87.334    6.194
  259.901    0.249    0.476   87.320    5.962
  260.201    0.259    0.483   86.686    5.962
  260.501    0.265    0.471   86.051    5.962
  260.801    0.265    0.465   84.790    6.194
  261.101    0.245    0.476   93.523    6.686
  261.401    0.222    0.486   89.138    7.789
  261.701    0.258    0.484   78.507    9.073
  262.001    0.304    0.464   66.625   10.370
  262.301    0.323    0.442   62.865   10.774
  262.601    0.336    0.406   63.475   10.571
  262.901    0.330    0.438   63.467   10.371
  263.201    0.340    0.443   60.955    9.794
  263.501    0.345    0.434   61.569    9.250
  263.801    0.343    0.416   64.680    8.904
  264.101    0.340    0.434   61.545    9.075
  264.401    0.355    0.440   56.537    9.251
  264.701    0.355    0.430   57.148    9.251
  265.001    0.333    0.421   60.262    9.429
  265.301    0.317    0.419   62.124    9.611
  265.601    0.337    0.431   61.487    9.797
  265.901    0.333    0.441   63.348    9.797
  266.201    0.323    0.426   62.713    9.797
  266.501    0.334    0.388   65.201    9.797
  266.801    0.323    0.410   61.437    9.431
  267.101    0.319    0.420   60.804    9.253
  267.401    0.328    0.424   60.167    9.078
  267.701    0.331    0.434   62.653    8.907
  268.001    0.333    0.432   67.014    8.739
  268.301    0.332    0.444   71.376    8.574
  268.601    0.321    0.448   71.988    8.574
  268.901    0.317    0.452   68.228    8.412
  269.201    0.342    0.454   63.843    8.412
  269.501    0.347    0.448   65.705    8.413
  269.801    0.351    0.428   66.320    8.254
  270.101    0.346    0.418   63.183    8.413
  270.401    0.328    0.439   62.548    8.575
  270.701    0.327    0.472   62.535    8.909
  271.001    0.329    0.472   62.520    9.081
  271.301    0.334    0.454   61.261    9.082
  271.600    0.338    0.429   62.501    9.082
  271.900    0.330    0.432   64.362    9.082
  272.200    0.327    0.438   64.974    9.082
  272.500    0.342    0.448   63.713    8.911
  272.800    0.347    0.458   63.702    8.743
  273.100    0.327    0.464   64.317    8.416
  273.400    0.312    0.489   66.177    8.416
  273.700    0.333    0.467   66.167    8.416
  274.000    0.337    0.448   65.529    8.744
  274.300    0.326    0.446   64.270    9.805
  274.600    0.221    0.444   62.381   10.994
  274.900    0.133    0.423   62.371   11.206
  275.200    0.180    0.327   62.360   10.383
  275.500    0.277    0.353   64.221    9.260
  275.800    0.321    0.400   66.083    9.085
  276.100    0.329    0.396   67.322    9.439
  276.400    0.331    0.446   64.183    9.621
  276.700    0.175    0.481   62.927    9.440
  277.000    0.110    0.251   61.662    9.261
  277.300    0.224    0.285   62.276    9.087
  277.600    0.321    0.425   64.762    8.915
  277.900    0.349    0.436   66.624    9.087
  278.200    0.352    0.420   65.365    9.087
  278.500    0.339    0.428   62.228    9.088
  278.800    0.330    0.446   62.217    8.916
  279.100    0.339    0.415   64.079    8.916
  279.400    0.344    0.414   65.940    8.917
  279.700    0.336    0.435   67.179    8.917
  280.000    0.334    0.462   68.419    8.749
  280.300    0.336    0.467   65.908    8.421
  280.600    0.341    0.450   65.271    8.421
  280.900    0.344    0.476   67.759    8.584
  281.200    0.341    0.490   66.495    8.750
  281.500    0.345    0.460   67.733    8.422
  281.800    0.346    0.474   70.844    8.263
  282.100    0.350    0.467   68.960    8.263
  282.400    0.346    0.439   67.697    8.108
  282.700    0.334    0.456   68.937    7.954
  283.000    0.348    0.480   67.675    7.955
  283.300    0.354    0.469   66.414    8.108
  283.600    0.335    0.439   69.527    8.108
  283.900    0.309    0.451   71.388    8.109
  284.200    0.314    0.458   68.254    8.109
  284.500    0.325    0.454   71.365    7.956
  284.800    0.322    0.441   75.727    7.658
  285.100    0.325    0.443   76.340    6.961
  285.400    0.304    0.445   77.577    6.091
  285.700    0.278    0.448   81.314    5.432
  286.000    0.249    0.455   88.798    5.229
  286.300    0.243    0.469   92.534    5.229
  286.600    0.238    0.485   93.773    5.330
  286.900    0.226    0.489   89.386    5.977
  287.200    0.237    0.461   86.878    6.329
  287.500    0.268    0.451   87.490    6.576
  287.800    0.249    0.451   89.353    6.576
  288.100    0.228    0.458   91.839    6.452
  288.400    0.233    0.470   93.075    6.210
  288.700    0.232    0.475   90.567    6.093
  289.000    0.217    0.479   87.431    6.093
  289.300    0.223    0.478   88.044    6.211
  289.600    0.228    0.464   94.280    6.211
  289.900    0.230    0.444   98.016    6.094
  290.200    0.222    0.440  105.500    5.755
  290.500    0.226    0.443  104.236    5.435
  290.800    0.240    0.460  102.352    5.540
  291.100    0.238    0.503   97.344    6.212
  291.400    0.227    0.465   94.206    7.236
  291.700    0.227    0.453   92.948    8.927
  292.000    0.228    0.441   91.686   10.399
  292.300    0.226    0.394   89.799    9.453
  292.600    0.224    0.378   91.037    8.431
  292.900    0.220    0.389   94.775    7.664
  293.200    0.217    0.411   94.136    6.967
  293.500    0.222    0.449   93.501    6.706
  293.800    0.226    0.457   92.241    6.333
  294.100    0.224    0.463   95.976    6.214
  294.400    0.215    0.446  100.963    6.333
  294.700    0.201    0.458  102.824    6.580
  295.000    0.196    0.447   92.818    8.117
  295.300    0.229    0.454   75.316   10.206
  295.600    0.241    0.453   71.555   10.403
  295.900    0.227    0.420   77.790   10.207
  296.199    0.269    0.402   81.526    9.457
  296.499    0.255    0.448   77.767    9.457
  296.799    0.276    0.456   76.506    9.457
  297.099    0.284    0.451   73.995    9.279
  297.399    0.294    0.443   73.984    8.932
  297.699    0.291    0.467   73.970    8.275
  297.999    0.228    0.482   73.958    7.668
  298.299    0.240    0.465   75.822    7.523
  298.599    0.256    0.432   79.558    7.523
  298.899    0.271    0.436   82.046    7.523
  299.199    0.269    0.460   87.656    7.381
  299.499    0.249    0.460   95.140    7.382
  299.799    0.254    0.460   95.128    7.382
  300.099    0.275    0.468   93.868    7.669
  300.399    0.310    0.482   91.356    7.817
  300.699    0.309    0.482   80.101    7.817
  300.999    0.237    0.476   74.466    7.670
  301.299    0.238    0.460   78.201    7.383
