~VERSION INFORMATION
 VERS.                 2.0:   CWLS LOG ASCII STANDARD -VERSION 2.0
 WRAP.                  NO:   ONE LINE PER DEPTH STEP
~WELL INFORMATION BLOCK
#MNEM.UNIT           DATA                    DESCRIPTION OF MNEMONIC
#---------    -------------------            -------------------------------
# Generated from Intellog Unique Number	CS_73_76/WELL/2193
WELL.         AMOCO CONKLIN                  : Well_name    - WELL
LOC .         00/10-25-074-07W4/0            : Location     - LOCATION
UWI .         00/10-25-074-07W4/0            : Uwi          - UNIQUE WELL ID
ENTR.         SP                             : Entered      - ENTERED BY
SRVC.         SCHLUMBERGER                   : Scn          - SERVICE COMPANY
STRT.M        252.984                        : top_depth    - START DEPTH
STOP.M        471.484                        : bot_depth    - STOP DEPTH
STEP.M        0.25                           : increment    - STEP LENGTH
 NULL. -999.2500:NULL Value
~CURVE INFORMATION BLOCK
#MNEM UNIT       ERCB CURVE CODE    CURVE DESCRIPTION
#-----------   ------------------   ----------------------------------
DEPT.M        00 001 00 00         : DEPTH        - DEPTH
GR  .API      00 310 00 00         : GR           - GAMMA RAY
DPHI.V/V      00 890 00 00         : PHID         - DENSITY POROSITY (SANDSTONE)
NPHI.V/V      00 330 00 00         : PHIN         - NEUTRON POROSITY (SANDSTONE)
ILD .OHMM     00 120 00 00         : RESD         - DEEP RESISTIVITY (DIL)
~PARAMETER INFORMATION
#MNEM.UNIT           DATA             DESCRIPTION OF MNEMONIC
#---------         -----------     ------------------------------
GL  .M        646.877              : gl           - GROUND LEVEL ELEVATION
EREF.M        650.138              : kb           - ELEVATION OF DEPTH REFERENCE
DATM.M        646.877              : datum        - DATUM ELEVATION
TDD .M        618.744              : tdd          - TOTAL DEPTH DRILLER
RUN .         ONE                  : Run          - RUN NUMBER
ENG .         BILL                 : Engineer     - RECORDING ENGINEER
WIT .         JIM                  : Witness      - WITNESSED BY
MUD .         GEL                  : Mud_type     - MUD TYPE
MATR.         SANDSTONE            : Logunit      - NEUTRON MATRIX
TMAX.C        26.1111              : BHT          - MAXIMUM RECORDED TEMPERATURE
BHTD.M        618.744              : BHTDEP       - MAXIMUM RECORDED TEMPERATURE
MATR.         1                    : LOGUNIT      - NEUTRON MATRIX
RMT .C        25                   : MDTP         - TEMPERATURE OF MUD
NEUT.         1                    : NEUTRON      - NEUTRON TYPE
RESI.         0                    : RESIST       - RESISTIVITY TYPE
RMC .OHMM     0.25                 : RMC          - RESISTIVITY OF MUD CAKE
RMF .OHMM     0.25                 : RMF          - RESISTIVITY OF MUD FILTRATE
SUFT.C        15                   : SUFT         - SURFACE TEMPERATURE
~A  DEPTH       GR     PHID     PHIN     RESD
  252.984   77.444    0.238    0.460    4.371
  253.234   74.540    0.225    0.469    4.519
  253.484   76.966    0.224    0.483    4.547
  253.734   76.976    0.240    0.498    4.471
  253.984   76.463    0.249    0.469    4.341
  254.234   78.216    0.246    0.454    4.224
  254.484   77.538    0.238    0.459    4.160
  254.734   76.937    0.235    0.463    4.126
  254.984   76.341    0.235    0.469    3.996
  255.234   77.879    0.242    0.455    3.878
  255.484   76.087    0.240    0.458    3.763
  255.734   72.611    0.223    0.466    3.652
  255.984   69.013    0.211    0.462    3.588
  256.234   67.470    0.197    0.450    3.609
  256.484   65.977    0.196    0.432    3.731
  256.734   65.559    0.237    0.419    3.892
  256.984   70.855    0.251    0.407    4.171
  257.234   72.616    0.242    0.419    5.073
  257.484   73.014    0.232    0.414    6.011
  257.734   74.304    0.225    0.395    9.135
  257.984   79.049    0.210    0.389   13.065
  258.234   81.915    0.200    0.385   16.075
  258.484   82.393    0.202    0.380   18.056
  258.734   79.815    0.205    0.381   19.011
  258.984   77.258    0.214    0.395   18.965
  259.234   77.042    0.223    0.413   18.390
  259.484   77.101    0.233    0.415   17.531
  259.734   76.274    0.239    0.401   16.722
  259.984   75.256    0.244    0.389   16.796
  260.234   72.654    0.246    0.379   17.006
  260.484   68.067    0.235    0.390   17.218
  260.734   64.065    0.234    0.395   18.354
  260.984   59.016    0.226    0.399   20.132
  261.234   60.257    0.216    0.402   21.549
  261.484   63.081    0.210    0.384   22.209
  261.734   67.185    0.206    0.380   22.808
  261.984   70.504    0.208    0.391   21.831
  262.234   72.148    0.211    0.382   18.590
  262.484   72.196    0.227    0.390   16.021
  262.734   69.879    0.239    0.393   14.587
  262.984   66.770    0.252    0.394   14.026
  263.234   63.193    0.262    0.389   14.173
  263.484   59.689    0.274    0.392   14.821
  263.734   57.142    0.271    0.392   16.726
  263.984   57.758    0.267    0.381   18.918
  264.234   57.213    0.262    0.395   20.743
  264.484   56.270    0.267    0.400   21.894
  264.734   56.197    0.252    0.411   22.544
  264.984   63.110    0.236    0.423   22.531
  265.234   68.984    0.236    0.439   22.521
  265.484   73.637    0.213    0.458   20.129
  265.734   75.201    0.202    0.462   14.827
  265.984   73.099    0.206    0.444   11.343
  266.234   70.081    0.200    0.423    9.968
  266.484   66.371    0.186    0.407    9.352
  266.734   69.074    0.177    0.407    9.220
  266.984   69.980    0.176    0.400    9.076
  267.234   68.132    0.171    0.387    9.160
  267.484   66.216    0.165    0.350    9.477
  267.734   67.879    0.177    0.353   10.115
  267.984   69.987    0.187    0.365   10.514
  268.234   68.626    0.198    0.372   11.459
  268.484   65.707    0.202    0.372   12.453
  268.734   62.517    0.196    0.377   13.534
  268.984   59.099    0.192    0.385   14.822
  269.234   58.803    0.184    0.399   16.382
  269.484   61.844    0.178    0.402   17.776
  269.734   64.431    0.163    0.378   18.913
  269.984   66.903    0.148    0.400   18.976
  270.234   72.403    0.136    0.416   18.526
  270.484   75.152    0.151    0.447   17.178
  270.734   79.648    0.156    0.464   15.241
  270.984   81.758    0.154    0.441   13.202
  271.234   81.584    0.162    0.431   11.537
  271.484   84.719    0.166    0.444    9.844
  271.734   88.454    0.161    0.475    8.683
  271.984   88.323    0.167    0.493    7.973
  272.234   88.802    0.160    0.492    6.987
  272.484   87.283    0.154    0.479    6.379
  272.734   85.799    0.169    0.480    5.776
  272.984   87.396    0.188    0.490    5.209
  273.234   89.521    0.205    0.495    4.930
  273.484   89.288    0.223    0.488    4.539
  273.734   84.965    0.235    0.474    4.278
  273.984   80.020    0.244    0.449    4.093
  274.234   75.253    0.238    0.432    3.886
  274.484   70.596    0.227    0.411    3.778
  274.734   66.853    0.212    0.402    3.807
  274.984   65.015    0.217    0.402    4.218
  275.234   65.377    0.211    0.416    4.922
  275.484   66.799    0.194    0.427    6.712
  275.734   68.135    0.186    0.405    8.899
  275.984   69.630    0.187    0.397   11.149
  276.234   70.575    0.186    0.403   12.126
  276.484   72.338    0.188    0.413   12.844
  276.734   72.290    0.193    0.416   12.840
  276.984   70.068    0.202    0.416   12.588
  277.234   67.793    0.209    0.407   12.342
  277.484   66.872    0.222    0.396   11.985
  277.734   66.534    0.243    0.387   11.635
  277.984   70.428    0.262    0.396   11.290
  278.234   73.857    0.281    0.385   11.313
  278.484   77.110    0.292    0.385   11.405
  278.734   80.786    0.283    0.404   12.181
  278.984   76.131    0.276    0.426   13.357
  279.234   73.417    0.275    0.432   15.670
  279.484   71.037    0.275    0.404   18.614
  279.734   69.760    0.268    0.404   20.480
  279.984   68.489    0.258    0.412   21.961
  280.234   67.948    0.241    0.424   23.068
  280.484   69.358    0.230    0.417   23.109
  280.734   71.732    0.229    0.393   23.117
  280.984   74.650    0.234    0.389   22.455
  281.234   77.780    0.237    0.400   21.287
  281.484   77.176    0.247    0.405   21.121
  281.734   73.765    0.258    0.416   20.501
  281.984   69.347    0.266    0.388   19.990
  282.234   63.451    0.278    0.336   19.672
  282.484   57.319    0.274    0.301   19.674
  282.734   54.245    0.247    0.294   19.714
  282.984   52.252    0.233    0.304   20.665
  283.234   52.190    0.223    0.318   22.604
  283.484   52.935    0.215    0.338   25.351
  283.734   53.936    0.216    0.358   27.343
  283.984   54.986    0.222    0.372   28.553
  284.234   55.312    0.229    0.378   28.154
  284.484   55.273    0.225    0.379   25.856
  284.734   56.113    0.233    0.394   23.044
  284.984   57.744    0.243    0.392   21.775
  285.234   58.410    0.248    0.391   20.374
  285.484   58.304    0.250    0.392   18.403
  285.734   57.257    0.245    0.383   17.452
  285.984   56.216    0.237    0.392   16.419
  286.234   55.988    0.227    0.394   16.299
  286.484   56.474    0.221    0.391   17.661
  286.734   57.499    0.219    0.394   18.648
  286.984   58.510    0.228    0.386   19.201
  287.234   59.546    0.232    0.404   18.947
  287.484   60.902    0.230    0.394   18.374
  287.734   63.367    0.229    0.387   17.832
  287.984   62.631    0.232    0.390   16.973
  288.234   60.582    0.235    0.394   16.553
  288.484   58.589    0.232    0.402   16.591
  288.734   56.865    0.236    0.410   16.534
  288.984   56.792    0.230    0.409   17.291
  289.234   57.809    0.225    0.403   17.546
  289.484   58.102    0.216    0.408   17.611
  289.734   56.023    0.226    0.414   17.235
  289.984   54.782    0.234    0.407   16.968
  290.234   59.403    0.226    0.412   16.999
  290.484   63.667    0.226    0.398   17.015
  290.734   72.487    0.226    0.387   17.148
  290.984   79.624    0.227    0.405   16.601
  291.234   84.765    0.222    0.416   16.128
  291.484   87.417    0.212    0.423   14.246
  291.734   87.998    0.208    0.442   12.924
  291.984   85.965    0.208    0.463   11.218
  292.234   88.265    0.208    0.468    9.988
  292.484   90.423    0.214    0.459    9.344
  292.734   87.233    0.224    0.448    8.926
  292.984   82.277    0.222    0.464    8.651
  293.234   77.984    0.219    0.471    8.576
  293.484   74.625    0.220    0.466    8.551
  293.734   75.360    0.228    0.451    8.631
  293.984   77.001    0.222    0.442    9.110
  294.234   78.003    0.219    0.431    9.717
  294.484   77.822    0.227    0.441   10.152
  294.734   74.118    0.233    0.427   10.980
  294.984   71.129    0.229    0.414   11.305
  295.234   69.622    0.224    0.409   11.931
  295.484   69.195    0.225    0.419   12.308
  295.734   69.698    0.219    0.431   12.447
  295.984   75.807    0.210    0.447   12.571
  296.234   78.895    0.206    0.471   12.563
