~VERSION INFORMATION
 VERS.                 2.0:   CWLS LOG ASCII STANDARD -VERSION 2.0
 WRAP.                  NO:   ONE LINE PER DEPTH STEP
~WELL INFORMATION BLOCK
#MNEM.UNIT           DATA                    DESCRIPTION OF MNEMONIC
#---------    -------------------            -------------------------------
# Generated from Intellog Unique Number	CC_80_83/WELL/2391
NULL.         -999.25                        : NULL_VALUE
WELL.         ICGEX GRAHAM                   : Well_name    - WELL
LOC .         11-04-081-04W4                 : Location     - LOCATION          
UWI .         00/11-04-081-04W400            : Uwi          - UNIQUE WELL ID    
ENTR.         DW                             : Entered      - ENTERED BY        
SRVC.         SCHLUMBERGER                   : Scn          - SERVICE COMPANY   
DATE.         13 MAR 81                      : Date         - LOG DATE
STRT.M        100                            : top_depth    - START DEPTH       
STOP.M        274.901                        : bot_depth    - STOP DEPTH        
STEP.M        0.3                            : increment    - STEP LENGTH       
~CURVE INFORMATION BLOCK
#MNEM UNIT       ERCB CURVE CODE    CURVE DESCRIPTION
#-----------   ------------------   ----------------------------------
DEPT.M        00 001 00 00         : DEPTH        - DEPTH                       
DPHI.V/V      00 890 00 00         : PHID         - DENSITY POROSITY (LIMESTONE)
NPHI.V/V      00 330 00 00         : PHIN         - NEUTRON POROSITY (LIMESTONE)
GR  .API      00 310 00 00         : GR           - GAMMA RAY                   
ILD .OHMM     00 120 00 00         : RESD         - DEEP RESISTIVITY (DIL)      
~PARAMETER INFORMATION       
#MNEM.UNIT           DATA             DESCRIPTION OF MNEMONIC
#---------         -----------     ------------------------------
GL  .M        443.7                : gl           - GROUND LEVEL ELEVATION      
EREF.M        447.2                : kb           - ELEVATION OF DEPTH REFERENCE
DATM.M        447.2                : datum        - DATUM ELEVATION             
TDD .M        295                  : tdd          - TOTAL DEPTH DRILLER         
RUN .         ONE                  : Run          - RUN NUMBER                  
ENG .         BILL                 : Engineer     - RECORDING ENGINEER          
WIT .         JIM                  : Witness      - WITNESSED BY                
MUD .         GEL                  : Mud_type     - MUD TYPE                    
MATR.         LIMESTONE            : Logunit      - NEUTRON MATRIX              
TMAX.C        15                   : BHT          - MAXIMUM RECORDED TEMPERATURE
BHTD.M        295                  : BHTDEP       - MAXIMUM RECORDED TEMPERATURE
MATR.         1                    : LOGUNIT      - NEUTRON MATRIX              
RMT .C        25                   : MDTP         - TEMPERATURE OF MUD          
NEUT.         1                    : NEUTRON      - NEUTRON TYPE                
RESI.         0                    : RESIST       - RESISTIVITY TYPE            
RMC .OHMM     0.25                 : RMC          - RESISTIVITY OF MUD CAKE     
RMF .OHMM     0.25                 : RMF          - RESISTIVITY OF MUD FILTRATE 
SUFT.C        15                   : SUFT         - SURFACE TEMPERATURE         
~A  DEPTH     PHID     PHIN       GR     RESD
# ...
  204.401    0.249    0.369   67.522    2.888
  204.701    0.260    0.378   65.674    2.677
  205.001    0.285    0.393   53.333    2.481
  205.301    0.305    0.365   45.930    2.257
  205.601    0.280    0.364   58.897    2.092
  205.901    0.287    0.394   59.518    1.903
  206.201    0.296    0.404   48.412    1.867
  206.501    0.300    0.384   48.417    1.798
  206.801    0.295    0.403   52.742    1.731
  207.101    0.285    0.403   52.128    1.667
  207.401    0.293    0.382   38.553    1.575
  207.701    0.323    0.355   30.532    1.546
  208.001    0.316    0.350   28.684    1.517
  208.301    0.314    0.347   37.948    1.489
  208.601    0.306    0.349   48.446    1.547
  208.901    0.301    0.393   37.957    1.547
  209.201    0.311    0.389   28.701    1.462
  209.501    0.319    0.328   33.027    1.434
  209.801    0.319    0.369   46.611    1.408
  210.101    0.313    0.401   45.380    1.382
  210.401    0.318    0.377   35.508    1.356
  210.701    0.333    0.368   38.599    1.331
  211.001    0.328    0.389   33.665    1.357
  211.301    0.327    0.389   29.349    1.331
  211.601    0.343    0.364   32.440    1.332
  211.901    0.368    0.405   37.999    1.358
  212.201    0.353    0.379   53.435    1.358
  212.501    0.318    0.374   53.439    1.358
  212.801    0.317    0.384   44.184    1.359
  213.101    0.318    0.369   36.781    1.359
  213.401    0.317    0.369   29.996    1.359
  213.701    0.316    0.367   33.703    1.360
  214.001    0.312    0.352   32.473    1.334
  214.301    0.313    0.359   28.156    1.335
  214.601    0.329    0.347   27.543    1.335
  214.901    0.332    0.339   36.806    1.335
  215.201    0.316    0.342   41.749    1.362
  215.501    0.281    0.390   38.667    1.362
  215.801    0.308    0.409   28.177    1.362
  216.101    0.313    0.379   31.268    1.337
  216.401    0.318    0.361   35.593    1.337
  216.701    0.332    0.365   34.363    1.312
  217.001    0.347    0.381   30.664    1.288
  217.301    0.342    0.393   27.582    1.288
  217.601    0.324    0.370   25.733    1.289
  217.901    0.320    0.344   25.738    1.289
  218.201    0.324    0.369   30.064    1.314
  218.501    0.358    0.401   30.068    1.315
  218.801    0.354    0.396   31.306    1.315
  219.101    0.330    0.370   27.607    1.290
  219.401    0.317    0.344   24.525    1.291
  219.701    0.318    0.333   33.170    1.291
  220.001    0.319    0.342   33.175    1.291
  220.301    0.309    0.361   25.772    1.292
  220.601    0.296    0.361   21.456    1.268
  220.901    0.287    0.365   22.077    1.244
  221.201    0.301    0.370   25.168    1.244
  221.501    0.334    0.370   31.962    1.221
  221.801    0.312    0.353   36.904    1.222
  222.101    0.310    0.366   31.352    1.199
  222.401    0.315    0.370   22.099    1.199
  222.701    0.318    0.354   21.485    1.199
  223.001    0.314    0.341   28.279    1.200
  223.301    0.310    0.355   25.815    1.200
  223.601    0.310    0.353   24.584    1.200
  223.901    0.313    0.356   26.440    1.201
  224.201    0.320    0.360   24.592    1.201
  224.501    0.320    0.345   22.745    1.224
  224.801    0.327    0.349   23.984    1.202
  225.101    0.343    0.351   27.075    1.202
  225.401    0.335    0.353   31.400    1.202
  225.701    0.330    0.356   33.874    1.202
  226.001    0.351    0.422   33.878    1.226
  226.301    0.370    0.464   33.264    1.226
  226.601    0.345    0.412   28.949    1.227
  226.901    0.328    0.369   30.803    1.227
  227.201    0.338    0.386   35.746    1.227
  227.501    0.365    0.417   35.751    1.251
  227.801    0.394    0.438   33.903    1.252
  228.101    0.386    0.408   33.289    1.252
  228.401    0.366    0.382   34.528    1.252
  228.701    0.349    0.379   33.298    1.276
  229.001    0.334    0.362   27.747    1.277
  229.301    0.336    0.351   24.664    1.277
  229.601    0.334    0.354   28.373    1.277
  229.901    0.341    0.375   32.697    1.254
  230.201    0.355    0.396   36.406    1.254
  230.501    0.324    0.393   37.027    1.231
  230.801    0.312    0.362   30.241    1.231
  231.101    0.331    0.350   25.307    1.231
  231.401    0.338    0.349   24.077    1.255
  231.701    0.311    0.339   38.278    1.304
  232.001    0.244    0.324   57.418    1.330
  232.301    0.264    0.372   46.928    1.435
  232.601    0.292    0.360   33.353    1.609
  232.901    0.299    0.323   24.715    1.704
  233.201    0.289    0.313   27.189    1.641
  233.501    0.293    0.331   29.048    1.550
  233.801    0.298    0.339   29.050    1.493
  234.101    0.308    0.333   28.436    1.465
  234.401    0.325    0.351   29.057    1.411
  234.701    0.340    0.387   31.531    1.411
  235.001    0.350    0.385   35.239    1.333
  235.301    0.346    0.369   34.008    1.284
  235.601    0.335    0.369   26.606    1.213
  235.901    0.324    0.372   25.992    1.190
  236.201    0.319    0.377   27.849    1.190
  236.501    0.321    0.381   27.852    1.168
  236.801    0.323    0.371   26.005    1.169
  237.101    0.310    0.359   30.949    1.169
  237.401    0.320    0.359   30.953    1.169
  237.701    0.324    0.342   29.721    1.170
  238.001    0.318    0.336   27.873    1.192
  238.301    0.311    0.354   26.026    1.216
  238.601    0.304    0.347   25.414    1.239
  238.901    0.290    0.320   27.270    1.240
  239.201    0.277    0.315   29.744    1.264
  239.501    0.295    0.351   30.365    1.313
  239.801    0.306    0.335   29.134    1.339
  240.101    0.308    0.325   30.989    1.339
  240.401    0.316    0.326   31.612    1.365
  240.701    0.293    0.320   32.234    1.366
  241.001    0.294    0.330   30.386    1.366
  241.301    0.291    0.326   27.304    1.341
  241.601    0.281    0.316   27.308    1.367
  241.901    0.275    0.304   27.311    1.367
  242.201    0.274    0.301   28.551    1.367
  242.501    0.284    0.305   28.554    1.368
  242.801    0.304    0.317   29.794    1.317
  243.101    0.316    0.327   31.033    1.292
  243.401    0.327    0.357   30.420    1.268
  243.701    0.336    0.378   29.806    1.176
  244.001    0.339    0.385   29.810    1.132
  244.301    0.334    0.380   27.964    1.111
  244.601    0.314    0.376   27.350    1.133
  244.901    0.304    0.362   27.354    1.155
  245.201    0.299    0.331   27.359    1.200
  245.501    0.304    0.329   27.362    1.223
  245.801    0.315    0.330   27.366    1.271
  246.101    0.321    0.341   34.160    1.296
  246.401    0.330    0.368   47.744    1.296
  246.701    0.337    0.403   48.366    1.321
  247.001    0.331    0.401   41.580    1.322
  247.301    0.329    0.393   36.030    1.347
  247.602    0.331    0.383   39.737    1.400
  247.902    0.335    0.366   43.446    1.400
  248.202    0.300    0.358   41.598    1.374
  248.502    0.319    0.393   40.368    1.349
  248.802    0.391    0.445   39.754    1.324
  249.102    0.362    0.412   40.376    1.275
  249.402    0.342    0.397   45.318    1.251
  249.702    0.333    0.399   48.409    1.228
  250.002    0.333    0.401   43.474    1.228
  250.302    0.335    0.384   41.010    1.228
  250.602    0.337    0.407   45.953    1.205
  250.902    0.340    0.402   46.575    1.206
  251.202    0.331    0.397   44.727    1.206
  251.502    0.326    0.387   43.496    1.206
  251.802    0.331    0.381   42.882    1.207
  252.102    0.350    0.397   42.888    1.207
  252.402    0.364    0.402   41.658    1.185
  252.702    0.355    0.403   40.428    1.141
  253.002    0.351    0.399   38.579    1.119
  253.302    0.348    0.392   36.731    1.120
  253.602    0.353    0.388   36.118    1.099
  253.902    0.351    0.428   37.357    1.099
  254.202    0.342    0.434   41.065    1.079
  254.502    0.342    0.425   41.070    1.079
  254.802    0.353    0.410   45.395    1.100
  255.102    0.351    0.388   48.485    1.121
  255.402    0.342    0.374   48.489    1.122
  255.702    0.340    0.367   47.258    1.122
  256.002    0.343    0.372   49.115    1.101
  256.302    0.348    0.417   63.933    1.060
