~VERSION INFORMATION
 VERS.                 2.0:   CWLS LOG ASCII STANDARD -VERSION 2.0
 WRAP.                  NO:   ONE LINE PER DEPTH STEP
~WELL INFORMATION BLOCK
#MNEM.UNIT           DATA                    DESCRIPTION OF MNEMONIC
#---------    -------------------            -------------------------------
# Generated from Intellog Unique Number	CS_67_68/WELL/2194
WELL.         DOME CDA ATMORE                : Well_name    - WELL
LOC .         00/10-08-067-17W4/0            : Location     - LOCATION
UWI .         00/10-08-067-17W4/0            : Uwi          - UNIQUE WELL ID
ENTR.         SP                             : Entered      - ENTERED BY
SRVC.         SCHLUMBERGER                   : Scn          - SERVICE COMPANY
STRT.M        380                            : top_depth    - START DEPTH
STOP.M        535                            : bot_depth    - STOP DEPTH
STEP.M        0.25                           : increment    - STEP LENGTH
 NULL. -999.2500:NULL Value
~CURVE INFORMATION BLOCK
#MNEM UNIT       ERCB CURVE CODE    CURVE DESCRIPTION
#-----------   ------------------   ----------------------------------
DEPT.M        00 001 00 00         : DEPTH        - DEPTH
ILD .OHMM     00 120 00 00         : RESD         - DEEP RESISTIVITY (DIL)
DPHI.V/V      00 890 00 00         : PHID         - DENSITY POROSITY (LIMESTONE)
NPHI.V/V      00 330 00 00         : PHIN         - NEUTRON POROSITY (LIMESTONE)
GR  .API      00 310 00 00         : GR           - GAMMA RAY
CALI.MM       00 280 01 00         : CAL          - CALIPER
~PARAMETER INFORMATION
#MNEM.UNIT           DATA             DESCRIPTION OF MNEMONIC
#---------         -----------     ------------------------------
GL  .M        606.1                : gl           - GROUND LEVEL ELEVATION
EREF.M        610                  : kb           - ELEVATION OF DEPTH REFERENCE
DATM.M        610                  : datum        - DATUM ELEVATION
TDD .M        582                  : tdd          - TOTAL DEPTH DRILLER
RUN .         ONE                  : Run          - RUN NUMBER
ENG .         BILL                 : Engineer     - RECORDING ENGINEER
WIT .         JIM                  : Witness      - WITNESSED BY
MUD .         GEL                  : Mud_type     - MUD TYPE
MATR.         LIMESTONE            : Logunit      - NEUTRON MATRIX
TMAX.C        22                   : BHT          - MAXIMUM RECORDED TEMPERATURE
BHTD.M        578.1                : BHTDEP       - MAXIMUM RECORDED TEMPERATURE
MATR.         1                    : LOGUNIT      - NEUTRON MATRIX
RMT .C        25                   : MDTP         - TEMPERATURE OF MUD
NEUT.         1                    : NEUTRON      - NEUTRON TYPE
RESI.         0                    : RESIST       - RESISTIVITY TYPE
RMC .OHMM     0.25                 : RMC          - RESISTIVITY OF MUD CAKE
RMF .OHMM     0.25                 : RMF          - RESISTIVITY OF MUD FILTRATE
SUFT.C        15                   : SUFT         - SURFACE TEMPERATURE
~A  DEPTH     RESD     PHID     PHIN       GR      CAL
# ...
  489.500    3.417    0.215    0.370   92.664  163.598
  489.750    3.268    0.196    0.376   94.495  164.118
  490.000    3.381    0.178    0.378   95.717  164.843
  490.250    3.577    0.168    0.380   94.390  165.868
  490.500    3.960    0.166    0.374   92.032  166.389
  490.750    4.350    0.174    0.363   94.833  167.415
  491.000    4.603    0.180    0.352   97.756  167.429
  491.250    4.843    0.178    0.362   99.160  167.344
  491.500    4.918    0.178    0.373   98.927  166.550
  491.750    4.846    0.184    0.381   98.207  166.058
  492.000    4.679    0.189    0.383   96.880  165.669
  492.250    4.475    0.193    0.389  102.716  165.379
  492.500    4.247    0.192    0.393   99.569  165.293
  492.750    3.913    0.186    0.406   95.997  164.903
  493.000    3.792    0.181    0.406   96.065  165.018
  493.250    3.758    0.178    0.398  100.931  164.932
  493.500    3.787    0.175    0.390  102.760  165.048
  493.750    3.838    0.179    0.384  102.952  165.061
  494.000    3.934    0.182    0.391  102.899  165.583
  494.250    4.025    0.188    0.409  102.119  165.900
  494.500    4.080    0.195    0.403  100.610  166.320
  494.750    4.066    0.178    0.388   98.494  167.448
  495.000    3.933    0.163    0.375   94.679  168.778
  495.250    3.890    0.152    0.367   94.688  170.411
  495.500    3.935    0.162    0.361  100.767  172.046
  495.750    4.072    0.174    0.376  103.932  173.476
  496.000    4.236    0.182    0.393  102.423  174.199
  496.250    4.342    0.173    0.407   99.701  174.415
  496.500    4.295    0.169    0.420  103.352  174.430
  496.750    4.100    0.165    0.409  104.392  174.243
  497.000    3.929    0.169    0.402  102.520  174.459
  497.250    3.807    0.175    0.425  102.043  174.575
  497.500    3.773    0.180    0.446  102.476  175.298
  497.750    3.767    0.188    0.438  104.731  175.313
  498.000    3.733    0.198    0.435  108.261  173.709
  498.250    3.658    0.195    0.422  109.484  172.711
  498.500    3.532    0.173    0.403  107.065  172.726
  498.750    3.321    0.178    0.427  109.866  174.058
  499.000    3.088    0.206    0.451  113.881  175.285
  499.250    2.829    0.236    0.477  116.014  176.917
  499.500    2.701    0.227    0.468  116.145  178.552
  499.750    2.597    0.207    0.489  115.061  179.375
  500.000    2.489    0.210    0.503  112.520  179.291
  500.250    2.380    0.218    0.507  114.046  177.788
  500.500    2.359    0.226    0.504  117.090  176.182
  500.750    2.325    0.217    0.499  119.284  174.780
  501.000    2.330    0.212    0.491  119.110  173.277
  501.250    2.361    0.211    0.488  122.823  171.572
  501.500    2.430    0.216    0.500  124.531  170.676
  501.750    2.571    0.213    0.470  118.288  169.883
  502.000    2.725    0.173    0.422  111.073  169.596
  502.250    2.906    0.118    0.401  103.250  169.811
  502.500    3.046    0.136    0.381  105.930  170.633
  502.750    3.163    0.161    0.422  111.099  171.357
  503.000    3.224    0.164    0.438  113.050  171.270
  503.250    3.298    0.170    0.433  114.819  170.374
  503.500    3.300    0.160    0.413  116.770  169.985
  503.750    3.180    0.166    0.398  117.387  169.189
  504.000    3.087    0.174    0.399  113.510  166.574
  504.250    3.218    0.182    0.405  104.414  163.555
  504.500    3.482    0.205    0.400   90.582  162.052
  504.750    3.847    0.155    0.389   81.000  161.356
  505.000    4.234    0.103    0.382   73.663  161.068
  505.250    4.607    0.106    0.349   79.986  160.577
  505.500    5.119    0.120    0.329   86.732  160.794
  505.750    5.457    0.138    0.304   90.990  161.010
  506.000    5.614    0.146    0.331   92.577  162.646
  506.250    5.522    0.098    0.352   88.458  164.685
  506.500    5.213    0.084    0.336   83.611  165.911
  506.750    4.902    0.116    0.315   78.035  167.040
  507.000    4.688    0.134    0.357   86.542  168.270
  507.250    4.442    0.156    0.379   96.507  168.891
  507.500    4.321    0.158    0.394   99.975  169.308
  507.750    4.195    0.161    0.395   99.621  169.424
  508.000    4.080    0.170    0.381   98.416  169.539
  508.250    4.074    0.159    0.385   97.636  169.554
  508.500    4.207    0.123    0.395   97.218  169.569
  508.750    4.410    0.104    0.347   97.955  169.180
  509.000    4.658    0.130    0.324  100.817  168.791
  509.250    4.837    0.152    0.360  102.890  168.299
  509.500    4.740    0.168    0.382  103.992  168.214
  509.750    4.517    0.163    0.383  102.786  168.227
  510.000    4.368    0.147    0.368   99.639  168.139
  510.250    4.241    0.131    0.352   96.613  168.258
  510.500    4.211    0.119    0.344   94.982  167.866
  510.750    4.268    0.141    0.348   98.937  167.477
  511.000    4.277    0.159    0.365  102.648  167.289
  511.250    4.271    0.170    0.375  104.418  167.103
  511.500    4.232    0.169    0.368  105.460  166.915
  511.750    4.132    0.163    0.366  106.134  167.130
  512.000    4.034    0.154    0.374  107.114  167.147
  512.250    3.909    0.162    0.372  105.060  167.260
  512.500    3.932    0.154    0.369  101.608  167.477
  512.750    4.061    0.124    0.369   98.036  167.392
  513.000    4.162    0.133    0.376   97.862  168.014
  513.250    4.250    0.142    0.381  100.906  168.330
  513.500    4.308    0.160    0.387  104.314  168.851
  513.750    4.326    0.122    0.384  105.051  168.866
  514.000    4.303    0.125    0.380  101.661  168.981
  514.250    4.264    0.142    0.376   99.121  168.490
  514.500    4.282    0.153    0.379  100.404  167.595
  514.750    4.356    0.162    0.387  103.812  167.206
  515.000    4.499    0.168    0.371  106.552  167.422
  515.250    4.628    0.152    0.354  107.897  166.829
  515.500    4.735    0.141    0.340  108.756  166.540
  515.750    4.755    0.132    0.328  109.857  166.455
  516.000    4.739    0.142    0.333  113.145  167.178
  516.250    4.714    0.146    0.338  116.976  167.494
  516.500    4.663    0.143    0.341  116.076  168.016
  516.750    4.595    0.132    0.352  111.592  168.234
  517.000    4.486    0.115    0.353  106.138  168.247
  517.250    4.211    0.086    0.341  103.353  166.340
  517.500    3.807    0.138    0.333  108.704  165.646
  517.750    2.865    0.158    0.424  108.046  165.762
  518.000    2.289    0.182    0.438  108.297  166.182
  518.250    2.028    0.192    0.454  112.556  166.904
  518.500    1.954    0.191    0.460  115.781  167.222
  518.750    1.995    0.195    0.471  116.579  167.034
  519.000    2.072    0.201    0.484  117.316  166.644
  519.250    2.140    0.212    0.494  118.478  166.658
  519.500    2.140    0.197    0.491  116.909  166.673
  519.750    2.178    0.181    0.500  114.308  166.587
  520.000    2.365    0.153    0.514  111.159  166.703
  520.250    2.648    0.078    0.527  101.153  166.214
  520.500    3.088    0.058    0.459   93.331  166.328
  520.750    3.602    0.093    0.374   86.237  166.848
  521.000    4.062    0.118    0.337   93.348  167.067
  521.250    4.379    0.130    0.342  101.430  167.485
  521.500    4.340    0.136    0.337  104.413  167.803
  521.750    4.213    0.142    0.353  106.548  168.222
  522.000    4.083    0.131    0.368  106.070  168.135
  522.250    3.964    0.083    0.381   99.888  167.949
  522.500    3.899    0.065    0.371   94.555  168.167
  522.750    3.849    0.120    0.376   99.663  168.483
  523.000    3.815    0.142    0.396  108.594  169.004
  523.250    3.696    0.150    0.405  112.792  169.830
  523.500    3.418    0.145    0.410  116.141  170.349
  523.750    3.257    0.147    0.409  117.970  170.667
  524.000    3.109    0.158    0.427  119.678  170.985
  524.250    3.013    0.165    0.447  121.386  170.898
  524.500    2.980    0.150    0.431  117.813  170.507
  524.750    2.981    0.137    0.397  112.116  170.522
  525.000    2.994    0.144    0.400  108.179  170.234
  525.250    3.034    0.155    0.409  114.258  169.945
  525.500    3.098    0.109    0.414  117.848  170.265
  525.750    3.260    0.087    0.405  114.094  170.379
