~VERSION INFORMATION
 VERS.                 2.0:   CWLS LOG ASCII STANDARD -VERSION 2.0
 WRAP.                  NO:   ONE LINE PER DEPTH STEP
~WELL INFORMATION BLOCK
#MNEM.UNIT           DATA                    DESCRIPTION OF MNEMONIC
#---------    -------------------            -------------------------------
# Generated from Intellog Unique Number	CW_79_81/WELL/2473
WELL.         HB GODIN                       : Well_name    - WELL
LOC .         00/10-23-081-02W5/0            : Location     - LOCATION
UWI .         00/10-23-081-02W5/0            : Uwi          - UNIQUE WELL ID
ENTR.         MAX                            : Entered      - ENTERED BY
SRVC.         SCHLUMBERGER                   : Scn          - SERVICE COMPANY
STRT.M        243.84                         : top_depth    - START DEPTH
STOP.M        460.09                         : bot_depth    - STOP DEPTH
STEP.M        0.25                           : increment    - STEP LENGTH
 NULL. -999.2500:NULL Value
~CURVE INFORMATION BLOCK
#MNEM UNIT       ERCB CURVE CODE    CURVE DESCRIPTION
#-----------   ------------------   ----------------------------------
DEPT.M        00 001 00 00         : DEPTH        - DEPTH
ILD .OHMM     00 120 00 00         : RESD         - DEEP RESISTIVITY (DIL)
NPHI.V/V      00 330 00 00         : PHIN         - NEUTRON POROSITY (SANDSTONE)
DPHI.V/V      00 890 00 00         : PHID         - DENSITY POROSITY (SANDSTONE)
GR  .API      00 310 00 00         : GR           - GAMMA RAY
CALI.MM       00 280 01 00         : CAL          - CALIPER
~PARAMETER INFORMATION
#MNEM.UNIT           DATA             DESCRIPTION OF MNEMONIC
#---------         -----------     ------------------------------
GL  .M        586.435              : gl           - GROUND LEVEL ELEVATION
EREF.M        590.093              : kb           - ELEVATION OF DEPTH REFERENCE
DATM.M        586.435              : datum        - DATUM ELEVATION
TDD .M        445.008              : tdd          - TOTAL DEPTH DRILLER
RUN .         ONE                  : Run          - RUN NUMBER
ENG .         BILL                 : Engineer     - RECORDING ENGINEER
WIT .         JIM                  : Witness      - WITNESSED BY
MUD .         GEL                  : Mud_type     - MUD TYPE
MATR.         SANDSTONE            : Logunit      - NEUTRON MATRIX
TMAX.C        23.8889              : BHT          - MAXIMUM RECORDED TEMPERATURE
BHTD.M        445.008              : BHTDEP       - MAXIMUM RECORDED TEMPERATURE
MATR.         1                    : LOGUNIT      - NEUTRON MATRIX
RMT .C        18.8889              : MDTP         - TEMPERATURE OF MUD
NEUT.         1                    : NEUTRON      - NEUTRON TYPE
RESI.         0                    : RESIST       - RESISTIVITY TYPE
RMC .OHMM     3.22                 : RMC          - RESISTIVITY OF MUD CAKE
RMF .OHMM     3.22                 : RMF          - RESISTIVITY OF MUD FILTRATE
SUFT.C        -20.5556             : SUFT         - SURFACE TEMPERATURE
~A  DEPTH     RESD     PHIN     PHID       GR      CAL
# ...
  353.340   10.183    0.420    0.279   57.047  200.324
  353.590    9.749    0.433    0.287   56.594  201.141
  353.840    9.438    0.449    0.290   56.841  201.661
  354.090    9.169    0.460    0.289   57.674  202.281
  354.340    8.841    0.462    0.286   58.858  202.902
  354.590    8.245    0.454    0.278   60.484  202.765
  354.840    7.766    0.458    0.273   62.694  201.968
  355.090    7.993    0.456    0.265   64.579  198.029
  355.340    8.716    0.452    0.258   64.887  197.065
  355.590   10.034    0.451    0.254   64.084  197.883
  355.840   11.842    0.457    0.254   62.404  199.195
  356.090   13.404    0.470    0.260   59.508  199.619
  356.340   15.027    0.465    0.265   57.817  199.650
  356.590   15.356    0.455    0.265   57.598  200.071
  356.840   14.530    0.454    0.258   58.081  200.491
  357.090   13.828    0.456    0.249   59.383  201.705
  357.340   13.680    0.458    0.245   61.327  203.515
  357.590   13.939    0.456    0.255   63.594  204.978
  357.840   13.731    0.449    0.243   64.340  206.240
  358.090   13.050    0.450    0.240   64.355  206.663
  358.340   11.387    0.453    0.237   65.773  207.085
  358.590    9.751    0.462    0.233   67.660  207.307
  358.840    8.493    0.475    0.229   69.606  207.230
  359.090    7.585    0.472    0.228   71.828  206.699
  359.340    7.361    0.460    0.224   72.329  205.900
  359.590    7.361    0.462    0.221   70.709  205.135
  359.840    7.441    0.462    0.227   69.963  204.073
  360.090    7.631    0.455    0.232   69.860  203.307
  360.340    7.954    0.445    0.236   69.524  202.934
  360.590    8.625    0.440    0.247   66.948  202.481
  360.840    9.744    0.436    0.236   64.525  202.097
  361.090   12.194    0.422    0.221   61.501  198.956
  361.340   14.737    0.369    0.193   57.773  199.969
  361.590   16.283    0.318    0.148   56.500  201.777
  361.840   16.280    0.300    0.110   58.210  202.001
  362.090   15.522    0.341    0.125   60.949  199.751
  362.340   15.177    0.384    0.144   61.695  202.256
  362.590   15.287    0.389    0.162   60.774  203.862
  362.840   15.900    0.367    0.165   59.676  202.799
  363.090   17.074    0.336    0.148   58.637  201.043
  363.340   19.295    0.308    0.121   57.366  199.483
  363.590   24.643    0.290    0.112   54.850  198.919
  363.840   26.587    0.339    0.128   53.889  203.896
  364.090   20.177    0.379    0.148   56.711  203.127
  364.340   15.274    0.404    0.183   60.764  202.360
  364.590   11.952    0.422    0.216   64.522  202.388
  364.840    9.791    0.434    0.232   67.227  202.711
  365.090    8.332    0.436    0.218   69.077  201.220
  365.340    7.848    0.439    0.211   70.070  199.592
  365.590    7.680    0.447    0.216   70.083  198.035
  365.840    7.764    0.455    0.217   69.745  197.070
  366.090    8.102    0.463    0.225   68.824  196.699
  366.340    8.693    0.465    0.234   67.610  197.121
  366.590    9.760    0.446    0.225   66.341  199.480
  366.840   11.372    0.413    0.203   63.432  203.217
  367.090   12.567    0.387    0.173   62.747  204.034
  367.340   12.559    0.344    0.147   63.814  203.962
  367.590   11.385    0.337    0.127   66.870  203.593
  367.840   10.034    0.373    0.130   70.453  203.124
  368.090    9.393    0.417    0.189   71.115  202.111
  368.340    9.323    0.441    0.215   69.670  200.897
  368.590    9.459    0.449    0.239   67.344  201.322
  368.840    9.597    0.451    0.250   66.071  202.040
  369.090    9.350    0.456    0.256   65.617  201.866
  369.340    8.573    0.463    0.258   66.216  200.800
  369.590    7.299    0.459    0.250   69.548  199.954
  369.840    6.674    0.447    0.236   74.437  199.570
  370.090    6.343    0.454    0.233   78.663  198.805
  370.340    6.265    0.455    0.232   80.434  199.525
  370.590    6.445    0.456    0.230   81.385  199.154
  370.840    6.877    0.458    0.227   82.160  198.088
  371.090    7.670    0.462    0.220   82.313  200.365
  371.340    8.598    0.465    0.218   81.841  203.692
  371.590   10.329    0.467    0.219   76.943  201.338
  371.840   12.015    0.460    0.216   72.572  199.582
  372.090   13.919    0.452    0.216   69.196  198.617
  372.340   16.347    0.450    0.227   67.048  198.542
  372.590   18.866    0.458    0.254   66.955  199.360
  372.840   17.250    0.468    0.239   71.113  199.391
  373.090   15.002    0.480    0.228   72.999  199.414
  373.340   12.985    0.462    0.215   72.606  198.842
  373.590   11.550    0.445    0.196   71.920  198.471
  373.840   10.541    0.446    0.180   72.344  198.499
  374.090    9.600    0.471    0.195   75.040  198.369
  374.340    9.247    0.476    0.212   76.763  197.569
  374.590    9.048    0.457    0.201   75.608  195.611
  374.840    8.903    0.446    0.207   74.978  195.734
  375.090    8.743    0.439    0.212   74.875  196.550
  375.340    8.556    0.436    0.211   75.299  197.564
  375.590    8.398    0.449    0.211   76.547  199.181
  375.840    8.526    0.470    0.203   78.024  199.207
  376.090    8.713    0.447    0.200   76.168  199.234
  376.340    9.048    0.436    0.197   73.261  199.854
  376.590    9.350    0.430    0.194   71.638  200.866
  376.840    9.487    0.425    0.191   72.178  202.274
  377.090    9.303    0.419    0.186   74.985  204.368
  377.340    8.763    0.409    0.182   78.410  204.809
  377.590    8.328    0.419    0.194   79.594  204.438
  377.840    8.004    0.439    0.205   80.076  204.068
  378.090    7.806    0.460    0.208   80.558  203.698
  378.340    7.708    0.472    0.203   81.218  203.425
  378.590    7.676    0.463    0.200   81.557  203.124
  378.840    7.793    0.452    0.198   80.841  201.502
  379.090    8.195    0.445    0.198   76.878  202.316
  379.340    8.986    0.440    0.202   73.268  201.352
  379.590   10.883    0.428    0.201   70.125  199.794
  379.840   14.593    0.407    0.204   67.332  198.035
  380.090   18.698    0.372    0.226   64.201  195.604
  380.340   21.452    0.348    0.212   62.511  195.220
  380.590   21.765    0.334    0.186   62.293  195.638
  380.840   20.210    0.323    0.163   62.950  197.247
  381.090   18.481    0.331    0.147   62.579  199.412
  381.340   16.183    0.367    0.150   62.420  200.862
  381.590   11.920    0.438    0.209   66.865  199.440
  381.840    9.479    0.455    0.238   66.870  198.214
  382.090    8.609    0.465    0.236   66.176  198.619
  382.340    8.275    0.460    0.224   66.007  197.544
  382.590    8.181    0.451    0.214   66.246  196.565
  382.840    8.264    0.443    0.204   66.720  196.475
  383.090    8.678    0.431    0.169   67.194  197.608
  383.340    8.940    0.435    0.157   67.200  199.268
  383.590    9.130    0.438    0.174   66.974  198.488
  383.840    9.075    0.416    0.187   67.622  197.112
  384.090    8.906    0.395    0.191   68.912  195.935
  384.340    8.741    0.394    0.187   70.553  195.550
  384.590    8.711    0.438    0.183   72.148  196.436
  384.840    8.905    0.452    0.194   71.911  196.859
  385.090    9.161    0.458    0.196   71.215  194.496
  385.340    9.273    0.457    0.200   70.695  193.617
  385.590    9.266    0.451    0.198   70.934  193.825
  385.840    9.160    0.445    0.190   72.283  194.429
  386.090    8.902    0.452    0.187   75.299  194.359
  386.340    8.632    0.449    0.199   77.494  193.958
  386.590    8.502    0.461    0.194   78.667  193.573
  386.840    8.466    0.461    0.193   77.564  193.484
  387.090    8.492    0.456    0.194   75.001  193.296
  387.340    8.533    0.453    0.196   72.965  193.008
  387.590    8.526    0.459    0.193   74.460  193.021
  387.840    8.521    0.464    0.196   73.736  193.034
  388.090    8.454    0.457    0.195   74.442  193.043
  388.340    8.341    0.455    0.192   76.201  193.053
  388.590    8.246    0.458    0.194   77.258  193.260
  388.840    8.211    0.459    0.201   76.505  194.160
  389.090    8.314    0.448    0.206   73.185  196.133
  389.340    8.563    0.441    0.210   71.731  194.083
  389.590    8.810    0.430    0.205   72.904  194.096
