~VERSION INFORMATION
 VERS.                 2.0:   CWLS LOG ASCII STANDARD -VERSION 2.0
 WRAP.                  NO:   ONE LINE PER DEPTH STEP
~WELL INFORMATION BLOCK
#MNEM.UNIT           DATA                    DESCRIPTION OF MNEMONIC
#---------    -------------------            -------------------------------
# Generated from Intellog Unique Number	CW_79_81/WELL/2477
WELL.         10-35-080-20W4                 : Well_name    - WELL
LOC .         00/10-35-080-20W4/0            : Location     - LOCATION
UWI .         00/10-35-080-20W4/0            : Uwi          - UNIQUE WELL ID
ENTR.         MAX                            : Entered      - ENTERED BY
SRVC.         SCHLUMBERGER                   : Scn          - SERVICE COMPANY
STRT.M        149.352                        : top_depth    - START DEPTH
STOP.M        380.852                        : bot_depth    - STOP DEPTH
STEP.M        0.25                           : increment    - STEP LENGTH
 NULL. -999.2500:NULL Value
~CURVE INFORMATION BLOCK
#MNEM UNIT       ERCB CURVE CODE    CURVE DESCRIPTION
#-----------   ------------------   ----------------------------------
DEPT.M        00 001 00 00         : DEPTH        - DEPTH
ILD .OHMM     00 120 00 00         : RESD         - DEEP RESISTIVITY (DIL)
NPHI.V/V      00 330 00 00         : PHIN         - NEUTRON POROSITY (SANDSTONE)
DPHI.V/V      00 890 00 00         : PHID         - DENSITY POROSITY (SANDSTONE)
GR  .API      00 310 00 00         : GR           - GAMMA RAY
CALI.MM       00 280 01 00         : CAL          - CALIPER
~PARAMETER INFORMATION
#MNEM.UNIT           DATA             DESCRIPTION OF MNEMONIC
#---------         -----------     ------------------------------
GL  .M        581.254              : gl           - GROUND LEVEL ELEVATION
EREF.M        578.053              : kb           - ELEVATION OF DEPTH REFERENCE
DATM.M        581.254              : datum        - DATUM ELEVATION
TDD .M        404.165              : tdd          - TOTAL DEPTH DRILLER
RUN .         ONE                  : Run          - RUN NUMBER
ENG .         BILL                 : Engineer     - RECORDING ENGINEER
WIT .         JIM                  : Witness      - WITNESSED BY
MUD .         GEL                  : Mud_type     - MUD TYPE
MATR.         SANDSTONE            : Logunit      - NEUTRON MATRIX
TMAX.C        26.6667              : BHT          - MAXIMUM RECORDED TEMPERATURE
BHTD.M        404.165              : BHTDEP       - MAXIMUM RECORDED TEMPERATURE
MATR.         1                    : LOGUNIT      - NEUTRON MATRIX
RMT .C        20                   : MDTP         - TEMPERATURE OF MUD
NEUT.         1                    : NEUTRON      - NEUTRON TYPE
RESI.         0                    : RESIST       - RESISTIVITY TYPE
RMC .OHMM     2.42                 : RMC          - RESISTIVITY OF MUD CAKE
RMF .OHMM     2.1                  : RMF          - RESISTIVITY OF MUD FILTRATE
SUFT.C        -23.3333             : SUFT         - SURFACE TEMPERATURE
~A  DEPTH     RESD     PHIN     PHID       GR      CAL
  149.352    6.431    0.412    0.274   97.520  196.185
  149.602    7.200    0.415    0.282   94.782  198.279
  149.852    8.199    0.417    0.295   84.209  198.690
  150.102    9.616    0.405    0.315   71.917  194.641
  150.352   11.673    0.381    0.335   60.519  184.734
  150.602   15.447    0.367    0.355   47.737  170.126
  150.852   16.807    0.397    0.380   43.505  173.904
  151.102   15.720    0.417    0.402   44.931  188.034
  151.352   12.998    0.449    0.421   49.756  199.741
  151.602   10.825    0.452    0.430   50.467  205.387
  151.852    9.772    0.415    0.424   45.511  206.084
  152.102   10.532    0.354    0.407   38.058  204.827
  152.352   13.097    0.329    0.390   31.838  190.508
  152.602   14.489    0.335    0.366   23.244  190.498
  152.852   16.798    0.358    0.363   18.227  200.791
  153.102   19.753    0.381    0.377   17.506  211.891
  153.352   23.317    0.393    0.395   19.468  219.457
  153.602   29.233    0.379    0.400   19.730  222.527
  153.852   31.808    0.356    0.403   17.487  213.679
  154.102   32.743    0.368    0.405   19.151  196.701
  154.352   32.073    0.383    0.397   21.353  198.811
  154.602   30.323    0.384    0.383   22.660  199.003
  154.852   28.456    0.370    0.370   23.190  193.641
  155.102   27.752    0.360    0.366   25.062  197.215
  155.352   29.502    0.348    0.345   27.293  200.992
  155.602   27.389    0.357    0.351   26.572  192.901
  155.852   24.287    0.375    0.374   24.955  191.478
  156.102   22.382    0.390    0.389   25.069  199.143
  156.352   21.529    0.399    0.386   27.748  207.112
  156.602   20.002    0.410    0.369   32.184  193.703
  156.852   17.461    0.396    0.370   32.924  185.276
  157.102   17.972    0.386    0.380   26.953  182.842
  157.352   18.601    0.376    0.383   24.025  181.621
  157.602   19.291    0.370    0.388   25.093  183.227
  157.852   19.863    0.376    0.396   28.845  187.964
  158.102   19.911    0.410    0.403   32.099  196.587
  158.352   19.454    0.424    0.411   34.081  205.415
  158.602   18.606    0.438    0.417   36.223  229.644
  158.852   17.201    0.445    0.421   40.690  226.909
  159.102   15.747    0.447    0.420   44.740  213.164
  159.352   14.621    0.438    0.412   45.748  198.711
  159.602   14.238    0.404    0.395   40.811  186.343
  159.852   15.019    0.361    0.381   38.816  177.075
  160.102   16.736    0.366    0.361   40.958  175.448
  160.352   17.319    0.389    0.350   45.962  174.429
  160.602   13.965    0.415    0.339   54.665  174.621
  160.852   10.073    0.437    0.328   65.336  176.429
  161.102    7.666    0.453    0.319   74.326  180.643
  161.352    6.449    0.459    0.316   77.549  183.576
  161.602    5.988    0.463    0.313   79.453  183.569
  161.852    5.340    0.471    0.306   82.609  184.163
  162.102    4.788    0.483    0.299   87.972  185.163
  162.352    4.371    0.496    0.294   94.527  186.265
  162.602    4.003    0.501    0.298   99.441  187.231
  162.852    3.852    0.498    0.306  100.180  188.062
  163.102    3.603    0.491    0.307  105.423  188.053
  163.352    3.371    0.499    0.307  110.666  188.044
  163.602    3.203    0.517    0.305  112.928  187.832
  163.852    3.075    0.540    0.302  111.372  187.619
  164.102    2.903    0.550    0.306  107.109  187.928
  164.352    2.815    0.530    0.312  106.109  187.497
  164.602    2.773    0.530    0.315  105.148  186.679
  164.852    2.762    0.534    0.320  103.831  185.862
  165.102    2.761    0.543    0.325  102.513  184.639
  165.352    2.756    0.550    0.329  102.149  183.214
  165.602    2.730    0.540    0.330  103.942  182.395
  165.852    2.709    0.529    0.326  102.196  182.387
  166.102    2.708    0.521    0.324  100.283  181.973
  166.352    2.707    0.531    0.321  100.515  181.861
  166.602    2.736    0.544    0.320   99.436  182.053
  166.852    2.796    0.547    0.324   96.805  182.347
  167.102    2.887    0.520    0.328   94.810  182.505
  167.352    3.046    0.485    0.322   90.828  183.336
  167.602    3.274    0.474    0.313   85.335  184.941
  167.852    3.577    0.462    0.303   78.410  186.548
  168.102    3.987    0.447    0.298   68.742  188.760
  168.352    4.541    0.429    0.295   59.491  190.769
  168.602    5.429    0.413    0.290   59.135  189.009
  168.852    6.387    0.407    0.300   63.355  182.265
  169.102    6.527    0.438    0.325   66.688  191.547
  169.352    6.743    0.462    0.346   63.403  195.679
  169.602    7.141    0.451    0.359   58.506  192.034
  169.852    7.781    0.414    0.362   55.816  183.236
  170.102    8.656    0.400    0.349   58.602  177.248
  170.352    8.787    0.401    0.332   61.828  177.660
  170.602    8.219    0.400    0.328   65.639  181.690
  170.852    7.516    0.404    0.323   68.555  186.326
  171.102    6.990    0.407    0.321   69.624  189.750
  171.352    6.715    0.403    0.324   68.604  191.153
  171.602    6.664    0.389    0.328   65.923  190.065
  171.852    6.661    0.401    0.324   65.669  186.689
  172.102    6.514    0.415    0.331   70.195  189.911
  172.352    6.089    0.434    0.335   74.365  198.284
  172.602    5.593    0.455    0.331   77.581  204.941
  172.852    5.143    0.474    0.322   79.663  207.961
  173.102    4.737    0.476    0.320   81.544  210.373
  173.352    4.524    0.458    0.324   85.017  210.363
  173.602    4.359    0.461    0.323   84.773  203.889
  173.852    4.177    0.459    0.319   84.350  200.749
  174.102    4.026    0.458    0.316   85.060  199.931
  174.352    3.930    0.459    0.314   86.366  200.224
  174.602    3.894    0.461    0.309   86.230  199.875
  174.852    3.863    0.467    0.311   87.965  198.180
  175.102    3.806    0.469    0.299   85.095  196.959
  175.352    3.791    0.471    0.296   85.625  196.950
  175.602    3.776    0.472    0.297   86.932  197.142
  175.852    3.740    0.472    0.302   88.239  196.829
  176.102    3.667    0.477    0.306   91.314  195.354
  176.352    3.583    0.490    0.309   94.787  194.082
  176.602    3.478    0.514    0.309   96.929  192.860
  176.852    3.320    0.528    0.308   96.924  191.637
  177.102    3.177    0.537    0.308   96.799  190.819
  177.352    3.067    0.542    0.310   96.793  190.406
  177.602    2.969    0.546    0.318   94.708  189.990
  177.852    2.923    0.548    0.326   91.471  189.981
  178.102    2.816    0.539    0.329   93.136  190.374
  178.352    2.744    0.532    0.324   95.516  191.374
  178.602    2.644    0.532    0.315   96.584  192.778
  178.852    2.521    0.542    0.305   96.756  193.879
  179.102    2.414    0.567    0.288   98.847  193.127
  179.352    2.341    0.587    0.269   98.593  191.435
  179.602    2.358    0.559    0.248   95.247  190.616
  179.852    2.387    0.507    0.247   90.291  189.496
  180.102    2.439    0.475    0.262   85.633  188.476
  180.352    2.502    0.475    0.289   83.599  188.162
  180.602    2.546    0.495    0.317   87.877  190.036
  180.852    2.585    0.505    0.316   92.593  193.391
  181.102    2.584    0.502    0.311   93.540  193.787
  181.352    2.612    0.507    0.306   93.952  194.182
  181.602    2.640    0.514    0.303   93.708  194.979
  181.852    2.653    0.519    0.299   94.120  195.980
  182.102    2.661    0.516    0.294   98.179  196.456
  182.352    2.701    0.499    0.301   99.415  196.869
  182.602    2.720    0.502    0.302  100.125  196.857
  182.852    2.769    0.518    0.303   99.762  196.848
  183.102    2.820    0.538    0.304   99.637  196.839
  183.352    2.855    0.548    0.305  100.109  196.830
  183.602    2.875    0.530    0.305  100.380  196.901
  183.852    2.874    0.518    0.305   99.380  197.311
  184.102    2.873    0.520    0.304   96.749  198.109
  184.352    2.872    0.529    0.303   92.509  198.908
  184.602    2.871    0.533    0.306   91.310  199.909
  184.852    2.865    0.533    0.311   94.108  201.010
  185.102    2.843    0.541    0.317   98.852  201.889
  185.352    2.842    0.566    0.315  102.325  202.301
  185.602    2.821    0.531    0.308  104.467  202.291
