~VERSION INFORMATION
 VERS.                 2.0:   CWLS LOG ASCII STANDARD -VERSION 2.0
 WRAP.                  NO:   ONE LINE PER DEPTH STEP
~WELL INFORMATION BLOCK
#MNEM.UNIT           DATA                    DESCRIPTION OF MNEMONIC
#---------    -------------------            -------------------------------
# Generated from Intellog Unique Number	CS_73_76/WELL/3254
WELL.         10-34-075-09W4                 : Well_name    - WELL
LOC .         00/10-34-075-09W4/0            : Location     - LOCATION
UWI .         00/10-34-075-09W4/0            : Uwi          - UNIQUE WELL ID
ENTR.         SP                             : Entered      - ENTERED BY
SRVC.         SCHLUMBERGER                   : Scn          - SERVICE COMPANY
STRT.M        270                            : top_depth    - START DEPTH
STOP.M        500                            : bot_depth    - STOP DEPTH
STEP.M        0.25                           : increment    - STEP LENGTH
 NULL. -999.2500:NULL Value
~CURVE INFORMATION BLOCK
#MNEM UNIT       ERCB CURVE CODE    CURVE DESCRIPTION
#-----------   ------------------   ----------------------------------
DEPT.M        00 001 00 00         : DEPTH        - DEPTH
ILD .OHMM     00 120 00 00         : RESD         - DEEP RESISTIVITY (DIL)
DPHI.V/V      00 890 00 00         : PHID         - DENSITY POROSITY (LIMESTONE)
NPHI.V/V      00 330 00 00         : PHIN         - NEUTRON POROSITY (LIMESTONE)
GR  .API      00 310 00 00         : GR           - GAMMA RAY
~PARAMETER INFORMATION
#MNEM.UNIT           DATA             DESCRIPTION OF MNEMONIC
#---------         -----------     ------------------------------
GL  .M        673.46               : gl           - GROUND LEVEL ELEVATION
EREF.M        676.81               : kb           - ELEVATION OF DEPTH REFERENCE
DATM.M        673.46               : datum        - DATUM ELEVATION
TDD .M        515                  : tdd          - TOTAL DEPTH DRILLER
RUN .         ONE                  : Run          - RUN NUMBER
ENG .         BILL                 : Engineer     - RECORDING ENGINEER
WIT .         JIM                  : Witness      - WITNESSED BY
MUD .         GEL                  : Mud_type     - MUD TYPE
MATR.         LIMESTONE            : Logunit      - NEUTRON MATRIX
TMAX.C        17.4                 : BHT          - MAXIMUM RECORDED TEMPERATURE
BHTD.M        515                  : BHTDEP       - MAXIMUM RECORDED TEMPERATURE
MATR.         1                    : LOGUNIT      - NEUTRON MATRIX
RMT .C        25                   : MDTP         - TEMPERATURE OF MUD
NEUT.         1                    : NEUTRON      - NEUTRON TYPE
RESI.         0                    : RESIST       - RESISTIVITY TYPE
RMC .OHMM     0.25                 : RMC          - RESISTIVITY OF MUD CAKE
RMF .OHMM     0.25                 : RMF          - RESISTIVITY OF MUD FILTRATE
SUFT.C        15                   : SUFT         - SURFACE TEMPERATURE
~A  DEPTH     RESD     PHID     PHIN       GR
# ...
  400.500    6.210    0.323    0.412   67.265
  400.750    5.981    0.326    0.411   68.473
  401.000    5.870    0.327    0.413   70.290
  401.250    5.981    0.327    0.419   70.892
  401.500    6.094    0.316    0.434   72.101
  401.750    6.093    0.300    0.451   74.529
  402.000    6.093    0.295    0.461   75.738
  402.250    6.093    0.293    0.452   76.947
  402.500    5.980    0.288    0.453   77.549
  402.750    5.979    0.298    0.458   78.148
  403.000    5.868    0.296    0.456   79.355
  403.250    5.868    0.293    0.455   79.957
  403.500    5.867    0.284    0.454   79.333
  403.750    5.867    0.275    0.462   78.716
  404.000    5.867    0.290    0.476   76.264
  404.250    5.866    0.300    0.476   75.038
  404.500    5.757    0.293    0.478   72.586
  404.750    5.757    0.308    0.480   71.360
  405.000    5.757    0.315    0.471   71.349
  405.250    5.650    0.325    0.463   70.730
  405.500    5.442    0.338    0.463   67.671
  405.750    5.341    0.350    0.465   65.219
  406.000    5.441    0.359    0.456   63.991
  406.250    5.441    0.361    0.446   63.370
  406.500    5.755    0.361    0.449   63.362
  406.750    5.863    0.361    0.444   62.739
  407.000    6.087    0.359    0.436   62.728
  407.250    6.201    0.348    0.434   63.330
  407.500    6.559    0.335    0.428   64.541
  407.750    6.683    0.341    0.416   63.311
  408.000    6.809    0.341    0.427   63.300
  408.250    7.068    0.320    0.440   64.508
  408.500    7.068    0.332    0.443   65.108
  408.750    7.201    0.340    0.432   65.097
  409.000    7.201    0.351    0.437   63.870
  409.250    7.200    0.348    0.441   62.637
  409.500    7.200    0.345    0.438   61.409
  409.750    7.200    0.347    0.426   60.792
  410.000    7.199    0.353    0.420   60.781
  410.250    7.199    0.353    0.432   61.381
  410.500    7.199    0.352    0.436   60.757
  410.750    7.198    0.353    0.443   60.139
  411.000    7.198    0.354    0.448   58.910
  411.250    7.197    0.352    0.437   58.292
  411.500    7.197    0.348    0.440   58.891
  411.750    7.197    0.352    0.446   60.708
  412.000    7.196    0.358    0.438   60.699
  412.250    7.196    0.350    0.440   60.079
  412.500    7.195    0.341    0.440   61.287
  412.750    7.195    0.348    0.440   62.495
  413.000    7.061    0.352    0.448   63.099
  413.250    7.061    0.359    0.460   63.695
  413.500    6.930    0.362    0.467   63.687
  413.750    6.929    0.351    0.462   62.453
  414.000    6.800    0.361    0.451   61.837
  414.250    6.800    0.340    0.437   61.217
  414.500    6.800    0.335    0.421   61.208
  414.750    6.799    0.335    0.404   60.585
  415.000    6.673    0.336    0.406   60.578
  415.250    6.673    0.349    0.422   61.173
  415.500    6.672    0.330    0.433   61.168
  415.750    6.672    0.333    0.436   62.374
  416.000    6.672    0.336    0.433   62.974
  416.250    6.547    0.349    0.434   62.964
  416.500    6.547    0.355    0.423   62.341
  416.750    6.425    0.354    0.418   61.724
  417.000    6.425    0.351    0.420   61.717
  417.250    6.306    0.343    0.428   61.704
  417.500    6.305    0.338    0.434   62.303
  417.750    6.188    0.337    0.440   62.903
  418.000    6.188    0.337    0.449   62.896
  418.250    6.187    0.337    0.451   63.491
  418.500    6.072    0.338    0.457   62.875
  418.750    6.072    0.339    0.457   61.644
  419.000    6.072    0.333    0.447   61.636
  419.250    6.071    0.331    0.440   62.234
  419.500    6.071    0.346    0.445   62.223
  419.750    6.071    0.345    0.443   62.214
  420.000    6.070    0.343    0.432   61.592
  420.250    6.070    0.342    0.426   60.362
  420.500    6.070    0.333    0.416   59.745
  420.750    6.069    0.323    0.412   59.122
  421.000    6.069    0.315    0.407   58.501
  421.250    6.069    0.323    0.418   58.495
  421.500    5.956    0.331    0.429   59.703
  421.750    5.956    0.338    0.434   60.913
  422.000    5.845    0.341    0.426   60.904
  422.250    5.845    0.337    0.420   59.672
  422.500    5.844    0.330    0.418   59.665
  422.750    5.844    0.321    0.418   60.262
  423.000    5.844    0.331    0.417   60.860
  423.250    5.843    0.335    0.416   60.853
  423.500    5.843    0.344    0.409   61.445
  423.750    5.734    0.353    0.401   61.437
  424.000    5.734    0.353    0.414   61.429
  424.250    5.627    0.343    0.432   61.420
  424.500    5.523    0.335    0.425   61.413
  424.750    5.420    0.333    0.426   60.790
  425.000    5.420    0.333    0.427   60.782
  425.250    5.319    0.340    0.424   60.772
  425.500    5.220    0.343    0.413   61.980
  425.750    5.220    0.341    0.409   61.360
  426.000    5.123    0.332    0.416   59.521
  426.250    5.027    0.324    0.422   60.731
  426.500    4.934    0.329    0.410   64.377
  426.750    4.842    0.332    0.410   67.418
  427.000    4.842    0.336    0.413   72.287
  427.250    4.933    0.325    0.401   77.154
  427.500    4.933    0.304    0.427   82.020
  427.750    5.121    0.284    0.449   85.061
  428.000    5.217    0.292    0.457   83.831
  428.250    5.316    0.314    0.440   86.868
  428.500    5.518    0.262    0.419   89.297
  428.750    5.518    0.240    0.407   90.507
  429.000    5.622    0.247    0.415   90.498
  429.250    5.622    0.259    0.429   90.487
  429.500    5.621    0.259    0.432   92.305
  429.750    5.727    0.247    0.435   94.125
  430.000    5.727    0.267    0.446   91.676
  430.250    5.835    0.269    0.453   91.662
  430.500    5.835    0.253    0.462   91.656
  430.750    5.834    0.247    0.452   92.254
  431.000    5.834    0.260    0.435   94.681
  431.250    5.834    0.240    0.424   97.114
  431.500    5.725    0.260    0.420   94.665
  431.750    5.725    0.284    0.422   88.557
  432.000    5.618    0.294    0.420   83.664
  432.250    5.311    0.284    0.420   83.045
  432.500    4.836    0.260    0.441   82.427
  432.750    4.487    0.260    0.478   81.809
  433.000    3.791    0.289    0.485   80.578
  433.250    3.086    0.266    0.473   81.787
  433.500    2.656    0.257    0.468   83.604
  433.750    2.330    0.266    0.493   81.158
  434.000    2.162    0.284    0.513   76.878
  434.250    2.082    0.322    0.528   74.431
  434.500    2.082    0.339    0.540   78.072
  434.750    2.082    0.345    0.561   78.676
  435.000    2.121    0.351    0.563   79.276
  435.250    2.202    0.320    0.535   80.485
  435.500    2.244    0.306    0.498   81.087
  435.750    2.329    0.294    0.493   81.076
  436.000    2.329    0.295    0.498   79.848
  436.250    2.373    0.298    0.500   81.054
  436.500    2.463    0.312    0.510   84.091
  436.750    2.510    0.309    0.538   85.915
  437.000    2.654    0.294    0.526   88.951
  437.250    2.915    0.288    0.521   90.771
  437.500    3.200    0.271    0.521   90.762
  437.750    3.514    0.271    0.518   89.531
  438.000    3.787    0.259    0.517   88.908
  438.250    4.159    0.255    0.514   90.122
  438.500    4.567    0.259    0.504   91.941
  438.750    5.014    0.253    0.438   92.541
  439.000    5.304    0.260    0.447   87.651
  439.250    5.610    0.244    0.453   85.202
  439.500    5.824    0.258    0.461   82.144
  439.750    5.933    0.259    0.467   82.134
  440.000    5.715    0.238    0.425   83.343
  440.250    5.302    0.226    0.409   85.770
  440.500    5.013    0.209    0.400   88.196
  440.750    4.739    0.216    0.419   88.798
  441.000    4.564    0.226    0.439   88.788
  441.250    4.315    0.231    0.463   88.169
  441.500    4.235    0.243    0.472   86.942
  441.750    4.079    0.232    0.461   85.103
  442.000    3.929    0.245    0.455   83.872
  442.250    3.714    0.229    0.459   85.080
  442.500    3.446    0.221    0.468   89.335
  442.750    3.257    0.234    0.474   91.158
  443.000    3.022    0.221    0.484   94.192
  443.250    2.701    0.241    0.492   96.013
  443.500    2.369    0.258    0.504   97.224
  443.750    2.040    0.229    0.501   97.826
