~VERSION INFORMATION
 VERS.                 2.0:   CWLS LOG ASCII STANDARD -VERSION 2.0
 WRAP.                  NO:   ONE LINE PER DEPTH STEP
~WELL INFORMATION BLOCK
#MNEM.UNIT           DATA                    DESCRIPTION OF MNEMONIC
#---------    -------------------            -------------------------------
# Generated from Intellog Unique Number	CW_82_90/WELL/3453
WELL.         SIEBENS WOODEN                 : Well_name    - WELL
LOC .         00/11-24-088-22W4/0            : Location     - LOCATION
UWI .         00/11-24-088-22W4/0            : Uwi          - UNIQUE WELL ID
ENTR.         MAX                            : Entered      - ENTERED BY
SRVC.         SCHLUMBERGER                   : Scn          - SERVICE COMPANY
STRT.M        76.2                           : top_depth    - START DEPTH
STOP.M        271.2                          : bot_depth    - STOP DEPTH
STEP.M        0.25                           : increment    - STEP LENGTH
 NULL. -999.2500:NULL Value
~CURVE INFORMATION BLOCK
#MNEM UNIT       ERCB CURVE CODE    CURVE DESCRIPTION
#-----------   ------------------   ----------------------------------
DEPT.M        00 001 00 00         : DEPTH        - DEPTH
ILD .OHMM     00 120 00 00         : RESD         - DEEP RESISTIVITY (DIL)
NPHI.V/V      00 330 00 00         : PHIN         - NEUTRON POROSITY (SANDSTONE)
DPHI.V/V      00 890 00 00         : PHID         - DENSITY POROSITY (SANDSTONE)
CALI.MM       00 280 01 00         : CAL          - CALIPER
GR  .API      00 310 00 00         : GR           - GAMMA RAY
~PARAMETER INFORMATION
#MNEM.UNIT           DATA             DESCRIPTION OF MNEMONIC
#---------         -----------     ------------------------------
GL  .M        523.646              : gl           - GROUND LEVEL ELEVATION
EREF.M        525.78               : kb           - ELEVATION OF DEPTH REFERENCE
DATM.M        523.646              : datum        - DATUM ELEVATION
TDD .M        272.491              : tdd          - TOTAL DEPTH DRILLER
RUN .         ONE                  : Run          - RUN NUMBER
ENG .         BILL                 : Engineer     - RECORDING ENGINEER
WIT .         JIM                  : Witness      - WITNESSED BY
MUD .         GEL                  : Mud_type     - MUD TYPE
MATR.         SANDSTONE            : Logunit      - NEUTRON MATRIX
TMAX.C        16.1111              : BHT          - MAXIMUM RECORDED TEMPERATURE
BHTD.M        272.491              : BHTDEP       - MAXIMUM RECORDED TEMPERATURE
MATR.         1                    : LOGUNIT      - NEUTRON MATRIX
RMT .C        12.2222              : MDTP         - TEMPERATURE OF MUD
NEUT.         1                    : NEUTRON      - NEUTRON TYPE
RESI.         0                    : RESIST       - RESISTIVITY TYPE
RMC .OHMM     6.47                 : RMC          - RESISTIVITY OF MUD CAKE
RMF .OHMM     6.61                 : RMF          - RESISTIVITY OF MUD FILTRATE
SUFT.C        -12.2222             : SUFT         - SURFACE TEMPERATURE
~A  DEPTH     RESD     PHIN     PHID      CAL       GR
# ...
  112.700   11.553    0.348    0.201  222.055   64.057
  112.950   10.847    0.343    0.206  220.588   64.938
  113.200   10.276    0.351    0.218  220.102   64.650
  113.450    9.390    0.368    0.230  219.619   64.362
  113.700    8.658    0.382    0.243  218.644   64.657
  113.950    7.841    0.413    0.259  218.159   65.247
  114.200    7.295    0.459    0.280  215.704   69.931
  114.450    6.727    0.480    0.308  213.740   77.834
  114.700    6.489    0.507    0.303  213.258   80.179
  114.950    6.431    0.546    0.294  213.761   80.476
  115.200    6.373    0.540    0.292  213.769   78.431
  115.450    6.607    0.552    0.305  213.286   73.754
  115.700    6.850    0.549    0.314  212.804   68.785
  115.950    7.363    0.523    0.311  212.318   64.109
  116.200    8.506    0.527    0.305  212.327   60.309
  116.450   10.187    0.512    0.296  213.322   56.218
  116.700   12.310    0.493    0.291  213.826   53.003
  116.950   14.611    0.476    0.293  212.850   48.327
  117.200   18.639    0.466    0.315  213.352   45.112
  117.450   26.733    0.448    0.335  216.813   40.435
  117.700   30.882    0.431    0.336  214.358   39.855
  117.950   31.730    0.436    0.324  211.902   41.029
  118.200   31.446    0.426    0.302  211.911   39.863
  118.450   31.447    0.422    0.290  215.370   39.866
  118.700   32.020    0.458    0.323  220.312   40.455
  118.950   32.898    0.474    0.347  223.279   41.044
  119.200   33.197    0.463    0.353  225.753   42.511
  119.450   32.900    0.448    0.346  227.733   44.855
  119.700   29.794    0.457    0.346  230.210   47.492
  119.950   19.328    0.467    0.337  230.712   52.762
  120.200   15.428    0.483    0.319  230.227   60.664
  120.450   12.095    0.495    0.300  226.786   71.200
  120.700   11.458    0.501    0.259  217.921   72.667
  120.950   11.562    0.485    0.246  214.479   70.623
  121.200   12.096    0.506    0.238  213.502   67.116
  121.450   12.540    0.499    0.297  213.511   67.998
  121.700   12.884    0.486    0.305  213.523   72.682
  121.950   13.119    0.490    0.290  214.025   76.197
  122.200   13.358    0.493    0.282  214.526   77.956
  122.450   13.239    0.490    0.282  215.029   80.300
  122.700   12.886    0.486    0.288  215.039   83.523
  122.950   12.655    0.481    0.291  214.555   84.989
  123.200   12.318    0.478    0.282  213.578   84.701
  123.450   11.882    0.488    0.274  213.098   84.997
  123.700   11.670    0.495    0.280  213.106   84.708
  123.950   11.156    0.491    0.266  213.608   83.250
  124.200   10.761    0.477    0.270  214.109   82.376
  124.450   10.569    0.472    0.270  214.119   82.380
  124.700   10.195    0.473    0.284  214.128   82.091
  124.950   10.104    0.484    0.270  213.644   82.973
  125.200   10.104    0.490    0.271  213.654   83.269
  125.450   10.288    0.487    0.282  214.158   80.348
  125.700   10.666    0.474    0.265  214.166   77.133
  125.950   10.860    0.491    0.253  214.175   75.382
  126.200   11.158    0.499    0.252  214.187   75.093
  126.450   11.568    0.477    0.253  214.196   75.683
  126.700   11.993    0.477    0.268  214.207   75.394
  126.950   12.661    0.479    0.282  214.213   74.228
  127.200   13.008    0.474    0.289  214.715   74.524
  127.450   13.245    0.474    0.273  214.234   75.114
  127.700   13.486    0.473    0.268  214.242   74.532
  127.950   13.609    0.476    0.252  213.266   74.536
  128.200   13.857    0.470    0.259  213.768   74.540
  128.450   14.109    0.465    0.264  213.778   75.129
  128.700   14.110    0.465    0.272  214.282   75.133
  128.950   13.488    0.490    0.279  214.289   76.600
  129.200   11.061    0.520    0.270  214.792   80.699
  129.450    9.071    0.554    0.274  214.802   91.527
  129.700    7.643    0.546    0.278  214.810   89.483
  129.950    7.176    0.516    0.278  215.805   83.051
  130.200    7.575    0.503    0.278  216.309   79.545
  130.450    8.142    0.497    0.264  216.812   78.086
  130.700    8.991    0.488    0.263  217.313   78.090
  130.950    9.840    0.477    0.255  217.322   76.923
  131.200   10.201    0.472    0.250  217.826   75.172
  131.450   10.387    0.489    0.260  217.343   74.883
  131.700   10.110    0.524    0.275  216.858   76.350
  131.950    9.322    0.547    0.263  216.868   78.988
  132.200    8.442    0.554    0.248  215.892   78.992
  132.450    7.715    0.540    0.213  214.916   75.777
  132.700    8.071    0.531    0.198  218.376   72.563
  132.950    9.157    0.511    0.228  223.808   68.179
  133.200   10.770    0.480    0.259  219.381   58.821
  133.450   12.220    0.442    0.251  216.431   45.660
  133.700   14.116    0.376    0.270  216.440   37.180
  133.950   16.307    0.439    0.304  217.437   36.307
  134.200   19.009    0.445    0.345  217.447   36.603
  134.450   23.602    0.459    0.365  217.457   36.607
  134.700   27.265    0.478    0.369  217.958   37.781
  134.950   28.782    0.479    0.373  217.968   37.785
  135.200   29.043    0.477    0.373  217.979   36.913
  135.450   29.044    0.478    0.372  218.480   36.623
  135.700   29.307    0.471    0.372  218.982   36.627
  135.950   29.573    0.468    0.378  219.978   37.217
  136.200   29.842    0.454    0.368  220.973   39.560
  136.450   30.386    0.475    0.342  221.969   41.904
  136.700   30.662    0.472    0.318  221.484   43.079
  136.950   30.940    0.464    0.349  219.521   42.206
  137.200   30.941    0.471    0.347  215.095   38.992
  137.450   31.222    0.456    0.346  214.610   36.655
  137.700   31.506    0.449    0.345  214.620   35.781
  137.950   31.792    0.446    0.328  214.629   36.077
  138.200   32.371    0.465    0.306  214.146   34.619
  138.450   33.259    0.449    0.265  214.155   34.037
  138.700   34.172    0.428    0.241  215.643   33.164
  138.950   34.482    0.416    0.267  217.625   33.168
  139.200   34.483    0.429    0.333  220.593   32.879
  139.450   33.868    0.425    0.347  221.588   33.175
  139.700   32.965    0.428    0.357  220.120   34.643
  139.950   32.086    0.428    0.343  218.650   32.891
  140.200   32.087    0.441    0.330  218.167   31.140
  140.450   32.087    0.437    0.326  218.176   31.729
  140.700   32.088    0.451    0.331  218.186   32.318
  140.950   32.380    0.461    0.335  218.194   32.029
  141.200   32.674    0.463    0.335  218.204   31.741
  141.450   32.674    0.462    0.327  217.721   31.451
  141.700   32.675    0.455    0.311  217.730   32.333
  141.950   32.676    0.459    0.323  216.755   34.970
  142.200   32.677    0.458    0.331  216.762   34.389
  142.450   32.678    0.435    0.341  216.773   34.101
  142.700   32.678    0.416    0.333  216.782   35.275
  142.950   32.386    0.422    0.347  216.299   36.742
  143.200   32.096    0.435    0.356  215.814   37.915
  143.450   31.809    0.451    0.355  215.826   37.627
  143.700   31.524    0.438    0.346  215.341   36.753
  143.950   31.242    0.435    0.344  214.857   35.295
  144.200   31.242    0.435    0.348  213.882   35.298
  144.450   30.963    0.452    0.360  213.889   35.887
  144.700   30.963    0.465    0.357  213.406   36.184
  144.950   30.964    0.476    0.347  217.361   36.188
  145.200   30.965    0.464    0.353  219.342   36.191
  145.450   30.688    0.450    0.364  218.857   36.195
  145.700   30.413    0.461    0.357  216.403   36.200
  145.950   30.141    0.466    0.317  216.906   36.496
  146.200   30.142    0.468    0.286  218.887   36.499
  146.450   30.142    0.462    0.260  219.390   35.919
  146.700   30.416    0.443    0.227  219.399   35.922
  146.950   30.692    0.426    0.186  218.422   35.927
  147.200   31.252    0.406    0.188  216.459   36.223
  147.450   31.535    0.421    0.248  215.481   35.934
  147.700   31.536    0.438    0.301  217.463   34.768
  147.950   30.973    0.430    0.323  220.432   32.431
  148.200   30.421    0.433    0.336  220.440   32.436
  148.450   30.148    0.436    0.329  220.449   35.073
  148.700   30.149    0.430    0.326  218.981   37.124
  148.950   29.611    0.420    0.320  217.019   36.836
