~VERSION INFORMATION
 VERS.                 2.0:   CWLS LOG ASCII STANDARD -VERSION 2.0
 WRAP.                  NO:   ONE LINE PER DEPTH STEP
~WELL INFORMATION BLOCK
#MNEM.UNIT           DATA                    DESCRIPTION OF MNEMONIC
#---------    -------------------            -------------------------------
# Generated from Intellog Unique Number	CW_70_72/WELL/1032
NULL.         -999.25                        : NULL_VALUE
WELL.         TPOC ET AL CALLW 10-03         : Well_name    - WELL              
LOC .         10-03-072-21W4                 : Location     - LOCATION          
UWI .         00/10-03-072-21W4/0            : Uwi          - UNIQUE WELL ID    
ENTR.         JAYE                           : Entered      - ENTERED BY        
SRVC.         SCHLUMBERGER                   : Scn          - SERVICE COMPANY   
DATE.         12 MAR 78                      : Date         - LOG DATE          
STRT.M        323.088                        : top_depth    - START DEPTH       
STOP.M        499.838                        : bot_depth    - STOP DEPTH        
STEP.M        0.25                           : increment    - STEP LENGTH       
~CURVE INFORMATION BLOCK
#MNEM UNIT       ERCB CURVE CODE    CURVE DESCRIPTION
#-----------   ------------------   ----------------------------------
DEPT.M        00 001 00 00         : DEPTH        - DEPTH                       
DPHI.V/V      00 890 00 00         : PHID         - DENSITY POROSITY (SANDSTONE)
NPHI.V/V      00 330 00 00         : PHIN         - NEUTRON POROSITY (SANDSTONE)
GR  .API      00 310 00 00         : GR           - GAMMA RAY                   
CALI.MM       00 280 01 00         : CAL          - CALIPER                     
ILD .OHMM     00 120 00 00         : RESD         - DEEP RESISTIVITY (DIL)      
~PARAMETER INFORMATION       
#MNEM.UNIT           DATA             DESCRIPTION OF MNEMONIC
#---------         -----------     ------------------------------
GL  .M        597.713              : gl           - GROUND LEVEL ELEVATION      
EREF.M        600.761              : kb           - ELEVATION OF DEPTH REFERENCE
DATM.M        597.713              : datum        - DATUM ELEVATION             
TDD .M        502.615              : tdd          - TOTAL DEPTH DRILLER         
RUN .         ONE                  : Run          - RUN NUMBER                  
ENG .         DEROCHIE             : Engineer     - RECORDING ENGINEER          
WIT .         MACHUK EVANS         : Witness      - WITNESSED BY                
BASE.         EDM                  : Branch       - HOME BASE OF LOGGING UNIT   
MATR.         SANDSTONE            : Logunit      - NEUTRON MATRIX              
TMAX.C        20                   : BHT          - MAXIMUM RECORDED TEMPERATURE
BHTD.M        504.444              : BHTDEP       - MAXIMUM RECORDED TEMPERATURE
RMT .C        20.5556              : MDTP         - TEMPERATURE OF MUD          
MUDD.KG/M     0                    : MWT          - MUD DENSITY                 
NEUT.         1                    : NEUTRON      - NEUTRON TYPE                
RESI.         0                    : RESIST       - RESISTIVITY TYPE            
RM  .OHMM     5.12                 : RM           - RESISTIVITY OF MUD          
RMC .OHMM     0                    : RMC          - RESISTIVITY OF MUD CAKE     
RMF .OHMM     6.13                 : RMF          - RESISTIVITY OF MUD FILTRATE 
SUFT.C        -17.7778             : SUFT         - SURFACE TEMPERATURE         
~A  DEPTH     PHID     PHIN       GR      CAL     RESD
# ...
  469.088    0.147    0.392  121.219  156.633    6.354
  469.338    0.138    0.394  122.361  156.448    6.375
  469.588    0.143    0.386  113.858  155.841    6.409
  469.838    0.142    0.373  109.990  155.434    6.465
  470.088    0.138    0.364  114.137  154.719    6.426
  470.338    0.137    0.370  118.787  154.425    6.410
  470.588    0.158    0.383  122.936  154.023    6.408
  470.838    0.145    0.394  123.577  153.944    6.380
  471.088    0.139    0.398  118.329  154.078    6.329
  471.338    0.137    0.408  116.467  153.992    6.256
  471.588    0.151    0.414  117.859  153.909    6.242
  471.838    0.161    0.418  119.312  153.619    6.262
  472.088    0.149    0.418  118.639  153.429    6.282
  472.338    0.134    0.411  115.145  153.029    6.326
  472.588    0.108    0.380  110.463  151.145    6.490
  472.838    0.018    0.364  103.274  150.108    6.721
  473.088    0.004    0.346   94.833  149.074    7.013
  473.338    0.042    0.353   98.418  148.568    7.467
  473.588    0.055    0.355   94.237  148.599    8.087
  473.838    0.017    0.302   88.176  148.729    8.694
  474.088    0.054    0.309   85.935  149.067    9.291
  474.338    0.080    0.323   82.818  149.831   10.138
  474.588    0.043    0.274   77.258  149.961   11.459
  474.838    0.014    0.245   68.754  150.628   13.371
  475.088   -0.008    0.225   74.719  150.859   15.199
  475.338    0.006    0.271   86.447  151.310   14.582
  475.588    0.042    0.322  101.429  151.764   13.229
  475.838    0.098    0.349  110.463  151.893   11.096
  476.088    0.124    0.383  116.428  152.233    8.153
  476.338    0.140    0.380  115.628  152.578    7.355
  476.588    0.127    0.374  107.751  152.812    7.790
  476.838    0.087    0.365  105.574  153.047    8.388
  477.088    0.077    0.360  111.225  152.863    9.084
  477.338    0.084    0.358  108.671  152.571    9.165
  477.588    0.090    0.361  105.367  152.382    8.345
  477.838    0.108    0.372  107.385  152.088    7.361
  478.088    0.130    0.381  111.471  152.110    7.023
  478.338    0.136    0.386  115.181  152.136    6.866
  478.588    0.133    0.387  118.264  152.158    6.822
  478.838    0.134    0.391  118.216  152.296    6.744
  479.088    0.106    0.365  111.028  152.530    6.716
  479.338    0.110    0.368  108.412  152.444    6.762
  479.588    0.122    0.363  108.552  152.257    7.002
  479.838    0.106    0.341  106.875  152.287    7.542
  480.088    0.046    0.325  103.069  152.308    8.274
  480.338    0.022    0.315  102.207  152.331    9.163
  480.588    0.029    0.345  109.298  152.143    9.418
  480.838    0.126    0.363  116.516  151.854    8.559
  481.088    0.123    0.351  124.422  151.875    7.650
  481.338    0.108    0.354  130.449  151.686    7.312
  481.588    0.094    0.361  128.210  151.500    7.321
  481.838    0.113    0.357  119.079  151.735    7.485
  482.088    0.093    0.340  112.705  151.761    7.664
  482.338    0.105    0.338  107.396  153.588    7.878
  482.588    0.115    0.346  113.050  155.628    8.296
  482.838    0.115    0.350  115.567  157.245    8.655
  483.088    0.105    0.349  119.340  158.223    8.830
  483.338    0.102    0.344  123.864  158.568    8.711
  483.588    0.107    0.340  128.765  158.697    8.234
  483.838    0.120    0.346  133.726  158.720    7.358
  484.088    0.129    0.351  140.442  158.958    6.383
  484.338    0.151    0.381  143.150  159.303    5.235
  484.588    0.162    0.405  146.484  159.642    3.942
  484.838    0.172    0.446  151.824  157.334    3.307
  485.088    0.177    0.478  152.714  151.420    2.955
  485.338    0.161    0.482  148.282  150.493    2.641
  485.588    0.141    0.495  140.092  150.623    2.680
  485.838    0.132    0.503  134.970  151.284    2.945
  486.088    0.107    0.491  127.907  151.942    3.443
  486.338    0.104    0.378  129.362  152.713    4.493
  486.588    0.081    0.362  128.625  153.373    5.462
  486.838    0.067    0.351  123.566  154.563    6.267
  487.088    0.105    0.349  126.212  156.388    6.217
  487.338    0.138    0.358  130.799  158.642    5.630
  487.588    0.125    0.368  133.631  160.153    5.116
  487.838    0.115    0.376  131.954  160.492    5.398
  488.088    0.120    0.398  122.761  160.729    6.079
  488.338    0.068    0.410  111.752  160.119    7.268
  488.588    0.037    0.351   99.929  159.506    8.575
  488.838    0.011    0.314   92.428  158.471    9.515
  489.088    0.004    0.253   95.011  157.327   10.094
  489.338    0.137    0.262  104.482  156.822   10.473
  489.588    0.151    0.293  121.157  156.322    9.751
  489.838    0.141    0.341  128.000  156.133    7.808
  490.088    0.132    0.381  126.072  155.942    6.440
  490.338    0.134    0.407  127.403  155.862    5.809
  490.588    0.143    0.416  128.481  155.992    5.491
  490.838    0.123    0.418  128.997  156.120    5.337
  491.088    0.127    0.430  131.329  156.357    5.256
  491.338    0.126    0.437  130.592  156.495    5.185
  491.588    0.099    0.421  124.343  156.516    5.154
  491.838    0.053    0.407  127.740  156.432    5.199
  492.088    0.096    0.401  133.141  155.713    5.275
  492.338    0.125    0.401  135.473  155.848    5.292
  492.588    0.120    0.398  137.491  155.869    5.251
  492.838    0.133    0.391  140.763  156.215    5.103
  493.088    0.133    0.390  142.093  156.555    4.832
  493.338    0.125    0.402  143.297  157.005    4.602
  493.588    0.132    0.408  142.685  157.136    4.422
  493.838    0.112    0.413  140.069  157.478    4.219
  494.088    0.103    0.426  139.646  158.140    4.085
  494.338    0.101    0.433  140.098  158.905    3.985
  494.588    0.123    0.439  141.179  160.206    4.014
  494.838    0.107    0.438  143.947  160.969    4.148
  495.088    0.077    0.431  148.597  161.735    4.361
  495.338    0.129    0.416  143.789  162.293    4.515
  495.588    0.122    0.406  131.903  162.740    4.659
  495.838    0.135    0.397  125.842  162.978    4.825
  496.088    0.127    0.383  120.345  163.001    4.996
  496.338    0.079    0.355  112.593  163.348    5.106
  496.588    0.080    0.375   98.516  163.053    5.047
  496.838    0.102    0.388   72.975  162.441    4.933
  497.088    0.117    0.399   64.221  161.726    4.876
  497.338    0.105    0.416   51.960  161.216    4.910
  497.588    0.117    0.398   46.965  160.603    4.954
  497.838    0.095    0.419   44.160  160.099    5.036
  498.088    0.077    0.441   42.672  160.123    5.253
  498.338    0.106    0.459   41.746  159.722    5.927
  498.588    0.100    0.431   40.886  159.641    6.890
  498.838    0.075    0.404   40.962  158.712    7.847
  499.088    0.105    0.361   41.102  152.477    9.258
  499.338    0.082    0.265   41.116  143.487   10.965
  499.588    0.049    0.243   41.381  142.557   12.031
  499.838    0.038    0.232   41.584  146.190   12.908
