~VERSION INFORMATION
 VERS.                 2.0:   CWLS LOG ASCII STANDARD -VERSION 2.0
 WRAP.                  NO:   ONE LINE PER DEPTH STEP
~WELL INFORMATION BLOCK
#MNEM.UNIT           DATA                    DESCRIPTION OF MNEMONIC
#---------    -------------------            -------------------------------
# Generated from Intellog Unique Number	CS_73_76/WELL/2186
WELL.         TOTAL PETROLEUM (N.A.) LT      : Well_name    - WELL
LOC .         00/10-09-074-07W4/0            : Location     - LOCATION
UWI .         00/10-09-074-07W4/0            : Uwi          - UNIQUE WELL ID
ENTR.         SP                             : Entered      - ENTERED BY
SRVC.         SCHLUMBERGER                   : Scn          - SERVICE COMPANY
STRT.M        304.8                          : top_depth    - START DEPTH
STOP.M        530.05                         : bot_depth    - STOP DEPTH
STEP.M        0.25                           : increment    - STEP LENGTH
 NULL. -999.2500:NULL Value
~CURVE INFORMATION BLOCK
#MNEM UNIT       ERCB CURVE CODE    CURVE DESCRIPTION
#-----------   ------------------   ----------------------------------
DEPT.M        00 001 00 00         : DEPTH        - DEPTH
GR  .API      00 310 00 00         : GR           - GAMMA RAY
DPHI.V/V      00 890 00 00         : PHID         - DENSITY POROSITY (SANDSTONE)
NPHI.V/V      00 330 00 00         : PHIN         - NEUTRON POROSITY (SANDSTONE)
ILD .OHMM     00 120 00 00         : RESD         - DEEP RESISTIVITY (DIL)
~PARAMETER INFORMATION
#MNEM.UNIT           DATA             DESCRIPTION OF MNEMONIC
#---------         -----------     ------------------------------
GL  .M        692.81               : gl           - GROUND LEVEL ELEVATION
EREF.M        696.163              : kb           - ELEVATION OF DEPTH REFERENCE
DATM.M        692.81               : datum        - DATUM ELEVATION
TDD .M        357.226              : tdd          - TOTAL DEPTH DRILLER
RUN .         ONE                  : Run          - RUN NUMBER
ENG .         BILL                 : Engineer     - RECORDING ENGINEER
WIT .         JIM                  : Witness      - WITNESSED BY
MUD .         GEL                  : Mud_type     - MUD TYPE
MATR.         SANDSTONE            : Logunit      - NEUTRON MATRIX
TMAX.C        21.1111              : BHT          - MAXIMUM RECORDED TEMPERATURE
BHTD.M        357.226              : BHTDEP       - MAXIMUM RECORDED TEMPERATURE
MATR.         1                    : LOGUNIT      - NEUTRON MATRIX
RMT .C        25                   : MDTP         - TEMPERATURE OF MUD
NEUT.         1                    : NEUTRON      - NEUTRON TYPE
RESI.         0                    : RESIST       - RESISTIVITY TYPE
RMC .OHMM     0.25                 : RMC          - RESISTIVITY OF MUD CAKE
RMF .OHMM     0.25                 : RMF          - RESISTIVITY OF MUD FILTRATE
SUFT.C        15                   : SUFT         - SURFACE TEMPERATURE
~A  DEPTH       GR     PHID     PHIN     RESD
# ...
  478.800   72.769    0.191    0.386    8.967
  479.050   69.726    0.202    0.396    8.986
  479.300   71.924    0.225    0.374    8.819
  479.550   76.700    0.203    0.366    8.826
  479.800   80.322    0.182    0.383    8.825
  480.050   82.954    0.164    0.401    8.971
  480.300   73.687    0.167    0.411    9.446
  480.550   66.636    0.178    0.409    9.718
  480.800   63.291    0.211    0.413   10.210
  481.050   63.080    0.220    0.398    9.920
  481.300   64.539    0.216    0.379    9.157
  481.550   71.983    0.206    0.381    8.623
  481.800   77.902    0.188    0.390    8.297
  482.050   85.050    0.175    0.399    7.960
  482.300   88.852    0.174    0.419    7.797
  482.550   85.804    0.163    0.435    7.971
  482.800   80.487    0.203    0.418    8.261
  483.050   76.544    0.186    0.405    8.526
  483.300   81.283    0.195    0.417    8.818
  483.550   77.806    0.211    0.447    9.369
  483.800   73.986    0.216    0.413   10.174
  484.050   71.093    0.204    0.400   10.813
  484.300   68.748    0.191    0.395   11.523
  484.550   66.167    0.148    0.375   11.338
  484.800   65.985    0.136    0.372   10.545
  485.050   69.766    0.142    0.382   10.039
  485.300   73.410    0.179    0.404   10.749
  485.550   75.994    0.199    0.425   11.174
  485.800   71.230    0.190    0.445   10.867
  486.050   62.898    0.212    0.417   10.298
  486.300   66.951    0.215    0.385    9.699
  486.550   74.868    0.182    0.376    9.326
  486.800   79.629    0.182    0.384    9.008
  487.050   72.747    0.160    0.386    9.597
  487.300   68.701    0.180    0.385   10.469
  487.550   63.855    0.216    0.381   10.637
  487.800   60.409    0.220    0.387   10.515
  488.050   67.793    0.207    0.400   10.272
  488.300   72.394    0.191    0.409   10.089
  488.550   73.356    0.168    0.419   10.101
  488.800   73.469    0.156    0.420   10.095
  489.050   74.088    0.194    0.406   10.295
  489.300   76.037    0.214    0.400   10.226
  489.550   78.219    0.197    0.402    9.725
  489.800   77.054    0.180    0.396    9.138
  490.050   77.817    0.177    0.383    8.849
  490.300   80.957    0.197    0.381    8.582
  490.550   85.384    0.176    0.396    8.469
  490.800   88.550    0.155    0.409    8.295
  491.050   89.424    0.153    0.410    8.319
  491.300   88.497    0.151    0.410    8.317
  491.550   85.388    0.153    0.421    8.595
  491.800   82.339    0.175    0.433    8.968
  492.050   79.942    0.165    0.411    9.259
  492.300   81.635    0.157    0.392    9.283
  492.550   83.534    0.178    0.397    8.992
  492.800   81.945    0.193    0.394    8.810
  493.050   81.276    0.213    0.385    8.665
  493.300   84.868    0.192    0.376    8.394
  493.550   88.806    0.173    0.378    8.139
  493.800   90.350    0.164    0.388    8.072
  494.050   86.144    0.136    0.385    7.932
  494.300   85.982    0.135    0.394    7.931
  494.550   89.446    0.160    0.404    8.100
  494.800   90.585    0.170    0.404    7.941
  495.050   87.960    0.160    0.400    7.928
  495.300   85.849    0.157    0.397    7.690
  495.550   83.369    0.139    0.400    7.472
  495.800   84.632    0.140    0.386    7.280
  496.050   89.612    0.156    0.392    7.172
  496.300   92.032    0.169    0.417    7.220
  496.550   88.126    0.180    0.439    7.435
  496.800   82.333    0.195    0.454    7.650
  497.050   77.104    0.178    0.425    8.143
  497.300   74.343    0.192    0.389    8.659
  497.550   72.081    0.195    0.397    9.364
  497.800   68.373    0.189    0.408    9.899
  498.050   66.138    0.193    0.399   10.187
  498.300   65.789    0.185    0.388   10.817
  498.550   67.448    0.188    0.389   11.856
  498.800   66.289    0.201    0.396   14.287
  499.050   62.220    0.206    0.402   17.635
  499.300   56.228    0.224    0.414   24.277
  499.550   49.942    0.261    0.440   29.642
  499.800   35.688    0.285    0.442   35.138
  500.050   32.758    0.292    0.413   40.716
  500.300   33.593    0.290    0.409   43.676
  500.550   35.415    0.291    0.418   48.051
  500.800   34.014    0.270    0.408   51.336
  501.050   34.437    0.237    0.396   54.953
  501.300   34.023    0.222    0.387   59.124
  501.550   30.498    0.278    0.391   64.066
  501.800   28.762    0.299    0.394   50.769
  502.050   29.536    0.314    0.401   34.750
  502.300   35.969    0.323    0.401   25.303
  502.550   44.289    0.305    0.395   18.211
  502.800   53.375    0.271    0.389   13.541
  503.050   62.119    0.228    0.394   11.701
  503.300   72.000    0.182    0.394   10.977
  503.550   79.753    0.184    0.407   10.131
  503.800   80.145    0.198    0.394    9.567
  504.050   84.978    0.147    0.373    9.423
  504.300   83.733    0.134    0.364    9.121
  504.550   82.091    0.121    0.371    9.131
  504.800   81.993    0.127    0.367    9.132
  505.050   81.413    0.141    0.363    9.145
  505.300   81.015    0.158    0.357    8.886
  505.550   82.044    0.153    0.370    8.630
  505.800   83.498    0.156    0.384    8.386
  506.050   86.478    0.155    0.394    8.253
  506.300   87.076    0.135    0.394    8.728
  506.550   84.105    0.125    0.384    9.282
  506.800   80.078    0.154    0.395    9.545
  507.050   75.153    0.176    0.417    9.544
  507.300   66.719    0.188    0.408    9.592
  507.550   61.411    0.208    0.390    9.449
  507.800   59.910    0.204    0.370    9.211
  508.050   63.898    0.193    0.352    9.089
  508.300   66.129    0.182    0.351    9.227
  508.550   64.900    0.166    0.363    9.545
  508.800   61.329    0.167    0.392    9.950
  509.050   56.719    0.203    0.397   10.347
  509.300   52.765    0.233    0.376   10.672
  509.550   53.366    0.226    0.355   10.934
  509.800   57.085    0.197    0.339   10.943
  510.050   59.329    0.190    0.346   10.980
  510.300   63.066    0.200    0.364   10.883
  510.550   63.986    0.193    0.374   10.546
  510.800   64.672    0.196    0.353   10.357
  511.050   69.989    0.184    0.358   10.373
  511.300   73.341    0.181    0.371   10.380
  511.550   75.132    0.189    0.377   10.315
  511.800   72.392    0.192    0.395    9.818
  512.050   71.036    0.206    0.396    9.840
  512.300   72.768    0.193    0.393   10.102
  512.550   79.738    0.160    0.412   10.888
  512.800   75.641    0.154    0.426   12.245
  513.050   62.416    0.190    0.441   14.777
  513.300   54.673    0.224    0.452   17.493
  513.550   48.035    0.254    0.454   18.953
  513.800   48.457    0.283    0.452   19.009
  514.050   47.303    0.260    0.414   18.439
  514.300   48.914    0.279    0.416   19.584
  514.550   48.563    0.255    0.423   22.718
  514.800   45.139    0.281    0.419   26.780
  515.050   39.643    0.278    0.416   33.574
  515.300   34.870    0.290    0.408   48.855
  515.550   29.452    0.307    0.400   76.394
  515.800   25.831    0.317    0.403   95.673
  516.050   24.643    0.312    0.401  109.775
  516.300   24.444    0.313    0.403  110.442
  516.550   26.022    0.317    0.418   97.256
  516.800   28.895    0.311    0.429   85.866
  517.050   33.314    0.322    0.421   68.577
  517.300   37.723    0.316    0.422   51.916
  517.550   45.770    0.311    0.447   42.502
  517.800   53.980    0.300    0.466   41.580
  518.050   55.571    0.282    0.460   44.029
  518.300   49.872    0.257    0.459   47.120
  518.550   44.376    0.287    0.461   53.674
  518.800   39.685    0.329    0.472   56.915
  519.050   37.025    0.343    0.454   51.965
  519.300   38.846    0.312    0.387   43.107
  519.550   40.816    0.296    0.377   39.688
  519.800   47.068    0.289    0.403   45.449
  520.050   46.533    0.303    0.431   54.875
  520.300   42.981    0.327    0.470   72.541
  520.550   39.464    0.359    0.451   91.716
  520.800   39.719    0.331    0.431  101.315
  521.050   43.389    0.319    0.419   94.443
  521.300   44.566    0.323    0.410   82.814
  521.550   42.787    0.338    0.412   78.064
  521.800   41.831    0.317    0.419   73.434
  522.050   42.209    0.325    0.422   71.582
