~VERSION INFORMATION
 VERS.                 2.0:   CWLS LOG ASCII STANDARD -VERSION 2.0
 WRAP.                  NO:   ONE LINE PER DEPTH STEP
~WELL INFORMATION BLOCK
#MNEM.UNIT           DATA                    DESCRIPTION OF MNEMONIC
#---------    -------------------            -------------------------------
# Generated from Intellog Unique Number	CS_73_76/WELL/3234
WELL.         10-11-076-08W4                 : Well_name    - WELL
LOC .         00/10-11-076-08W4/0            : Location     - LOCATION
UWI .         00/10-11-076-08W4/0            : Uwi          - UNIQUE WELL ID
ENTR.         SP                             : Entered      - ENTERED BY
SRVC.         SCHLUMBERGER                   : Scn          - SERVICE COMPANY
STRT.M        228.6                          : top_depth    - START DEPTH
STOP.M        460.1                          : bot_depth    - STOP DEPTH
STEP.M        0.25                           : increment    - STEP LENGTH
 NULL. -999.2500:NULL Value
~CURVE INFORMATION BLOCK
#MNEM UNIT       ERCB CURVE CODE    CURVE DESCRIPTION
#-----------   ------------------   ----------------------------------
DEPT.M        00 001 00 00         : DEPTH        - DEPTH
GR  .API      00 310 00 00         : GR           - GAMMA RAY
DPHI.V/V      00 890 00 00         : PHID         - DENSITY POROSITY (SANDSTONE)
NPHI.V/V      00 330 00 00         : PHIN         - NEUTRON POROSITY (SANDSTONE)
ILD .OHMM     00 120 00 00         : RESD         - DEEP RESISTIVITY (DIL)
~PARAMETER INFORMATION
#MNEM.UNIT           DATA             DESCRIPTION OF MNEMONIC
#---------         -----------     ------------------------------
GL  .M        637.794              : gl           - GROUND LEVEL ELEVATION
EREF.M        640.232              : kb           - ELEVATION OF DEPTH REFERENCE
DATM.M        637.794              : datum        - DATUM ELEVATION
TDD .M        466.344              : tdd          - TOTAL DEPTH DRILLER
RUN .         ONE                  : Run          - RUN NUMBER
ENG .         BILL                 : Engineer     - RECORDING ENGINEER
WIT .         JIM                  : Witness      - WITNESSED BY
MUD .         GEL                  : Mud_type     - MUD TYPE
MATR.         SANDSTONE            : Logunit      - NEUTRON MATRIX
TMAX.C        15.5556              : BHT          - MAXIMUM RECORDED TEMPERATURE
BHTD.M        466.344              : BHTDEP       - MAXIMUM RECORDED TEMPERATURE
MATR.         1                    : LOGUNIT      - NEUTRON MATRIX
RMT .C        25                   : MDTP         - TEMPERATURE OF MUD
NEUT.         1                    : NEUTRON      - NEUTRON TYPE
RESI.         0                    : RESIST       - RESISTIVITY TYPE
RMC .OHMM     0.25                 : RMC          - RESISTIVITY OF MUD CAKE
RMF .OHMM     0.25                 : RMF          - RESISTIVITY OF MUD FILTRATE
SUFT.C        15                   : SUFT         - SURFACE TEMPERATURE
~A  DEPTH       GR     PHID     PHIN     RESD
# ...
  359.100   71.358    0.275    0.514    6.591
  359.350   61.746    0.316    0.491    7.560
  359.600   51.075    0.307    0.475    8.302
  359.850   46.010    0.310    0.445    8.667
  360.100   45.092    0.320    0.450    8.921
  360.350   46.049    0.302    0.454    9.314
  360.600   47.025    0.301    0.437    9.484
  360.850   46.103    0.313    0.438    9.472
  361.100   44.389    0.324    0.437    9.477
  361.350   44.474    0.314    0.435    9.479
  361.600   44.493    0.303    0.433    9.307
  361.850   44.773    0.305    0.440    9.945
  362.100   46.273    0.312    0.448   10.016
  362.350   47.327    0.319    0.444   10.017
  362.600   47.515    0.324    0.429   10.016
  362.850   46.966    0.318    0.439   10.032
  363.100   45.943    0.313    0.453    9.832
  363.350   44.975    0.305    0.467    9.887
  363.600   44.577    0.311    0.476   10.210
  363.850   42.793    0.325    0.460   10.441
  364.100   41.830    0.333    0.441   10.207
  364.350   43.428    0.331    0.449   10.077
  364.600   47.831    0.329    0.440   10.045
  364.850   48.630    0.333    0.432    9.848
  365.100   49.035    0.330    0.428    9.655
  365.350   49.360    0.328    0.424    9.627
  365.600   49.856    0.321    0.429    9.496
  365.850   50.299    0.319    0.427    9.516
  366.100   48.986    0.311    0.429    9.312
  366.350   48.049    0.313    0.431    9.330
  366.600   46.947    0.300    0.443    9.335
  366.850   46.604    0.304    0.456    9.347
  367.100   47.055    0.295    0.461    9.514
  367.350   46.314    0.288    0.454    9.507
  367.600   46.033    0.271    0.444    9.507
  367.850   46.527    0.238    0.430    9.505
  368.100   45.916    0.181    0.404    9.471
  368.350   46.020    0.185    0.332    9.171
  368.600   45.650    0.288    0.311    9.065
  368.850   46.701    0.327    0.429    8.983
  369.100   48.353    0.328    0.450    8.692
  369.350   48.650    0.322    0.462    8.698
  369.600   49.617    0.338    0.464    8.493
  369.850   48.520    0.337    0.465    8.368
  370.100   47.694    0.347    0.465    8.373
  370.350   48.493    0.355    0.463    8.376
  370.600   49.657    0.356    0.465    8.361
  370.850   49.499    0.358    0.470    8.548
  371.100   50.823    0.346    0.472    8.533
  371.350   51.037    0.340    0.476    8.534
  371.600   48.039    0.332    0.481    8.535
  371.850   48.885    0.344    0.488    8.537
  372.100   49.925    0.348    0.489    8.554
  372.350   50.050    0.351    0.491    8.370
  372.600   48.934    0.353    0.496    8.386
  372.850   48.537    0.344    0.494    8.382
  373.100   48.952    0.332    0.489    8.371
  373.350   50.484    0.341    0.478    8.228
  373.600   50.512    0.349    0.477    8.239
  373.850   48.777    0.335    0.477    8.243
  374.100   48.207    0.327    0.498    8.401
  374.350   48.463    0.342    0.501    8.393
  374.600   51.225    0.339    0.490    8.393
  374.850   52.685    0.340    0.477    8.399
  375.100   51.034    0.329    0.460    8.430
  375.350   50.013    0.326    0.448    8.555
  375.600   50.943    0.340    0.453    8.554
  375.850   51.827    0.347    0.472    8.554
  376.100   50.129    0.352    0.473    8.555
  376.350   50.202    0.356    0.482    8.556
  376.600   51.199    0.329    0.487    8.557
  376.850   51.216    0.335    0.461    8.560
  377.100   50.428    0.350    0.447    8.573
  377.350   51.154    0.351    0.449    8.404
  377.600   52.163    0.342    0.457    8.314
  377.850   53.248    0.342    0.452    8.033
  378.100   55.954    0.333    0.452    7.542
  378.350   58.487    0.317    0.458    7.114
  378.600   63.116    0.285    0.475    6.455
  378.850   67.642    0.253    0.474    6.059
  379.100   75.448    0.242    0.485    6.159
  379.350   78.491    0.255    0.504    6.432
  379.600   81.742    0.249    0.505    6.742
  379.850   82.780    0.232    0.500    6.792
  380.100   83.805    0.215    0.502    7.011
  380.350   85.269    0.207    0.503    7.014
  380.600   88.780    0.216    0.507    6.795
  380.850   91.095    0.230    0.509    6.517
  381.100   90.480    0.235    0.508    6.190
  381.350   87.880    0.217    0.500    6.169
  381.600   87.408    0.220    0.489    6.171
  381.850   89.039    0.218    0.484    6.236
  382.100   89.588    0.213    0.479    6.297
  382.350   88.560    0.230    0.485    6.492
  382.600   87.562    0.242    0.489    6.848
  382.850   87.262    0.260    0.486    6.900
  383.100   84.196    0.270    0.479    7.022
  383.350   81.016    0.271    0.475    6.974
  383.600   78.617    0.270    0.476    6.894
  383.850   78.167    0.279    0.479    6.908
  384.100   78.976    0.278    0.476    6.509
  384.350   80.991    0.273    0.486    5.860
  384.600   84.459    0.243    0.485    5.459
  384.850   87.047    0.211    0.468    5.106
  385.100   90.829    0.217    0.472    4.738
  385.350   88.418    0.226    0.495    4.295
  385.600   85.175    0.220    0.522    3.713
  385.850   84.530    0.228    0.510    3.058
  386.100   86.898    0.244    0.498    2.684
  386.350   87.700    0.260    0.536    2.378
  386.600   85.359    0.274    0.559    2.310
  386.850   84.369    0.287    0.575    2.298
  387.100   84.025    0.290    0.593    2.342
  387.350   83.443    0.280    0.607    2.414
  387.600   81.724    0.274    0.614    2.487
  387.850   80.883    0.281    0.599    2.567
  388.100   82.727    0.266    0.575    2.594
  388.350   86.769    0.276    0.556    2.610
  388.600   88.224    0.275    0.553    2.527
  388.850   88.311    0.273    0.560    2.526
  389.100   87.596    0.274    0.567    2.530
  389.350   87.629    0.268    0.569    2.690
  389.600   87.596    0.258    0.573    2.955
  389.850   91.390    0.243    0.576    3.588
  390.100   89.660    0.239    0.552    4.004
  390.350   86.511    0.240    0.544    4.627
  390.600   85.106    0.226    0.530    5.144
  390.850   85.016    0.202    0.515    5.742
  391.100   85.667    0.217    0.490    6.260
  391.350   87.307    0.224    0.500    6.649
  391.600   87.533    0.213    0.505    6.877
  391.850   86.115    0.218    0.508    6.767
  392.100   84.844    0.206    0.470    6.185
  392.350   87.498    0.161    0.456    5.475
  392.600   89.428    0.142    0.469    4.958
  392.850   91.111    0.175    0.481    4.583
  393.100   90.137    0.203    0.505    4.485
  393.350   88.675    0.198    0.525    4.545
  393.600   92.152    0.207    0.493    4.553
  393.850   92.343    0.224    0.475    4.430
  394.100   92.336    0.218    0.487    4.024
  394.350   94.011    0.199    0.487    3.532
  394.600   96.487    0.184    0.491    3.118
  394.850   99.065    0.196    0.504    2.801
  395.100  100.168    0.206    0.514    2.609
  395.350   98.914    0.236    0.509    2.376
  395.600   96.370    0.240    0.501    2.136
  395.850   95.485    0.227    0.528    1.895
  396.100   97.247    0.224    0.557    1.752
  396.350   96.987    0.232    0.524    1.601
  396.600   95.759    0.240    0.516    1.476
  396.850   94.696    0.230    0.524    1.436
  397.100   94.716    0.231    0.530    1.543
  397.350   94.902    0.231    0.521    1.758
  397.600   96.440    0.228    0.524    1.922
  397.850   97.175    0.220    0.547    1.928
  398.100   97.168    0.211    0.558    1.887
  398.350   98.199    0.221    0.551    1.919
  398.600   99.036    0.228    0.564    1.978
  398.850   98.271    0.227    0.549    2.038
  399.100   97.883    0.209    0.546    2.156
  399.350   97.005    0.198    0.549    2.372
  399.600   97.032    0.215    0.555    2.734
  399.850   97.731    0.221    0.567    3.288
  400.100   96.803    0.218    0.567    3.626
  400.350   95.822    0.224    0.558    3.603
  400.600   94.114    0.222    0.545    3.431
  400.850   93.200    0.229    0.543    3.261
  401.100   93.741    0.214    0.543    3.218
  401.350   95.749    0.207    0.553    3.314
  401.600   96.958    0.222    0.562    3.417
  401.850   96.929    0.216    0.554    3.688
  402.100   95.437    0.191    0.548    3.906
  402.350   91.242    0.172    0.549    4.022
