~VERSION INFORMATION
 VERS.                 2.0:   CWLS LOG ASCII STANDARD -VERSION 2.0
 WRAP.                  NO:   ONE LINE PER DEPTH STEP
~WELL INFORMATION BLOCK
#MNEM.UNIT           DATA                    DESCRIPTION OF MNEMONIC
#---------    -------------------            -------------------------------
# Generated from Intellog Unique Number	CW_76_78/WELL/1034
WELL.         OAKPETROREP ET AL MARTEN 16-12 : Well_name    - WELL
LOC .         00/16-12-076-03W5/0            : Location     - LOCATION
UWI .         00/16-12-076-03W5/0            : Uwi          - UNIQUE WELL ID
ENTR.         JAYE                           : Entered      - ENTERED BY
SRVC.         SCHLUMBERGER                   : Scn          - SERVICE COMPANY
DATE.         16 FEB 79                      : Date         - LOG DATE
STRT.M        550                            : top_depth    - START DEPTH
STOP.M        760                            : bot_depth    - STOP DEPTH
STEP.M        0.25                           : increment    - STEP LENGTH
 NULL. -999.2500:NULL Value
~CURVE INFORMATION BLOCK
#MNEM UNIT       ERCB CURVE CODE    CURVE DESCRIPTION
#-----------   ------------------   ----------------------------------
DEPT.M        00 001 00 00         : DEPTH        - DEPTH
ILD .OHMM     00 120 00 00         : RESD         - DEEP RESISTIVITY (DIL)
NPHI.V/V      00 330 00 00         : PHIN         - NEUTRON POROSITY (SANDSTONE)
DPHI.V/V      00 890 00 00         : PHID         - DENSITY POROSITY (SANDSTONE)
GR  .API      00 310 00 00         : GR           - GAMMA RAY
CALI.MM       00 280 01 00         : CAL          - CALIPER
~PARAMETER INFORMATION
#MNEM.UNIT           DATA             DESCRIPTION OF MNEMONIC
#---------         -----------     ------------------------------
GL  .M        834.8                : gl           - GROUND LEVEL ELEVATION
EREF.M        838.8                : kb           - ELEVATION OF DEPTH REFERENCE
DATM.M        834.8                : datum        - DATUM ELEVATION
TDD .M        809                  : tdd          - TOTAL DEPTH DRILLER
RUN .         ONE                  : Run          - RUN NUMBER
ENG .         GILLUS               : Engineer     - RECORDING ENGINEER
WIT .         LILLICO              : Witness      - WITNESSED BY
BASE.         EDM                  : Branch       - HOME BASE OF LOGGING UNIT
MUD .         GEL MUD              : Mud_type     - MUD TYPE
MATR.         SANDSTONE            : Logunit      - NEUTRON MATRIX
TMAX.C        28                   : BHT          - MAXIMUM RECORDED TEMPERATURE
BHTD.M        809.3                : BHTDEP       - MAXIMUM RECORDED TEMPERATURE
RMT .C        20                   : MDTP         - TEMPERATURE OF MUD
MUDD.KG/M     1080                 : MWT          - MUD DENSITY
NEUT.         1                    : NEUTRON      - NEUTRON TYPE
RESI.         0                    : RESIST       - RESISTIVITY TYPE
RM  .OHMM     3.53                 : RM           - RESISTIVITY OF MUD
RMC .OHMM     0                    : RMC          - RESISTIVITY OF MUD CAKE
RMF .OHMM     3.35                 : RMF          - RESISTIVITY OF MUD FILTRATE
SUFT.C        0                    : SUFT         - SURFACE TEMPERATURE
~A  DEPTH     RESD     PHIN     PHID       GR      CAL
# ...
  696.000    6.001    0.442    0.189   92.302  203.793
  696.250    6.211    0.438    0.182   91.586  203.431
  696.500    6.390    0.419    0.172   92.998  203.493
  696.750    6.638    0.396    0.149   95.790  204.909
  697.000    6.692    0.408    0.140  100.144  205.383
  697.250    6.524    0.446    0.190  103.688  206.380
  697.500    6.220    0.462    0.176  106.792  207.801
  697.750    5.929    0.482    0.145  107.954  210.778
  698.000    5.673    0.498    0.179  107.614  213.343
  698.250    5.500    0.491    0.171  107.333  214.130
  698.500    5.362    0.468    0.162  107.933  212.625
  698.750    5.296    0.459    0.165  107.843  219.154
  699.000    5.279    0.470    0.192  106.499  228.083
  699.250    5.262    0.484    0.229  103.781  217.914
  699.500    5.256    0.455    0.249  102.061  206.806
  699.750    5.231    0.439    0.233  101.534  208.422
  700.000    5.244    0.458    0.209   99.313  215.892
  700.250    5.267    0.489    0.197   96.343  219.402
  700.500    5.370    0.461    0.198   96.254  208.501
  700.750    5.516    0.429    0.162   97.853  207.715
  701.000    5.719    0.432    0.173   99.204  207.991
  701.250    6.053    0.449    0.204   97.610  206.798
  701.500    6.501    0.448    0.222   92.197  203.516
  701.750    7.304    0.438    0.238   83.778  200.855
  702.000    8.069    0.419    0.265   76.547  199.447
  702.250    8.864    0.398    0.293   71.573  198.994
  702.500    9.737    0.398    0.296   69.353  198.520
  702.750   10.191    0.416    0.279   70.392  198.251
  703.000    9.972    0.431    0.271   71.115  198.128
  703.250    9.559    0.442    0.275   70.336  197.873
  703.500    9.146    0.434    0.284   69.744  197.600
  703.750    8.432    0.427    0.270   69.529  197.343
  704.000    8.037    0.446    0.253   69.754  196.887
  704.250    7.562    0.459    0.262   70.226  196.526
  704.500    7.222    0.468    0.250   72.704  196.165
  704.750    6.795    0.450    0.260   75.746  196.130
  705.000    6.418    0.444    0.275   77.784  196.085
  705.250    6.118    0.439    0.282   72.873  196.667
  705.500    6.087    0.440    0.269   71.089  197.969
  705.750    6.300    0.446    0.251   71.879  199.271
  706.000    6.755    0.454    0.242   73.476  200.280
  706.250    7.337    0.464    0.240   69.256  201.175
  706.500    8.431    0.451    0.235   66.035  201.342
  706.750    9.348    0.424    0.226   67.570  200.976
  707.000   10.425    0.397    0.241   71.052  200.835
  707.250   10.747    0.424    0.255   75.469  200.368
  707.500   10.876    0.460    0.271   77.069  200.118
  707.750   10.701    0.465    0.279   75.412  199.864
  708.000   10.221    0.456    0.277   75.638  199.600
  708.250    9.707    0.450    0.259   76.420  199.135
  708.500    9.270    0.466    0.242   76.333  198.678
  708.750    8.787    0.474    0.233   74.176  198.202
  709.000    8.552    0.464    0.214   74.650  197.963
  709.250    8.588    0.445    0.205   76.813  197.487
  709.500    9.038    0.439    0.235   78.791  197.135
  709.750    9.601    0.434    0.223   79.453  197.092
  710.000   10.334    0.433    0.218   75.543  197.671
  710.250   11.038    0.419    0.197   69.315  198.870
  710.500   12.126    0.412    0.183   71.291  199.568
  710.750   12.977    0.393    0.159   73.077  200.982
  711.000   13.812    0.356    0.131   71.864  202.811
  711.250   14.003    0.307    0.111   71.272  203.393
  711.500   13.779    0.362    0.144   72.994  203.448
  711.750   13.333    0.392    0.192   75.286  202.876
  712.000   12.662    0.412    0.206   76.446  202.416
  712.250   11.563    0.388    0.177   78.050  202.260
  712.500   10.520    0.391    0.174   82.843  202.735
  712.750    9.679    0.409    0.216   84.633  203.009
  713.000    9.175    0.434    0.231   79.095  203.479
  713.250    8.845    0.443    0.226   76.806  203.545
  713.500    8.703    0.436    0.210   77.282  203.293
  713.750    8.774    0.435    0.189   77.946  203.139
  714.000    9.200    0.410    0.161   79.162  202.879
  714.250    9.920    0.388    0.127   79.646  202.316
  714.500   10.557    0.353    0.138   80.056  201.544
  714.750   11.320    0.399    0.180   80.333  200.973
  715.000   11.649    0.431    0.217   80.497  200.296
  715.250   11.399    0.449    0.226   80.663  200.154
  715.500   11.132    0.450    0.219   81.074  199.690
  715.750   10.793    0.446    0.206   81.422  199.534
  716.000   10.600    0.439    0.211   82.081  199.383
  716.250   10.430    0.432    0.216   83.120  199.548
  716.500   10.149    0.427    0.212   88.414  199.402
  716.750    9.912    0.420    0.198   92.834  199.456
  717.000    9.735    0.412    0.196   92.993  199.307
  717.250   10.113    0.414    0.187   85.889  199.263
  717.500   10.623    0.441    0.204   81.480  199.628
  717.750   11.779    0.429    0.197   77.945  200.112
  718.000   13.583    0.414    0.167   72.905  201.110
  718.250   15.034    0.374    0.139   72.687  202.527
  718.500   16.210    0.347    0.105   75.482  204.777
  718.750   17.975    0.377    0.156   80.275  206.288
  719.000   15.292    0.410    0.170   85.760  206.972
  719.250   14.200    0.419    0.157   91.681  207.449
  719.500   11.880    0.422    0.152   96.035  207.403
  719.750   10.548    0.428    0.182   99.892  207.572
  720.000    8.807    0.436    0.186  103.809  207.515
  720.250    7.177    0.438    0.173  107.540  207.470
  720.500    6.221    0.430    0.158   99.933  207.118
  720.750    5.820    0.425    0.148  101.282  206.546
  721.000    5.642    0.417    0.136  103.134  206.506
  721.250    5.625    0.397    0.144  103.547  206.560
  721.500    5.735    0.414    0.149  103.644  206.728
  721.750    5.847    0.424    0.167  104.555  206.785
  722.000    5.939    0.424    0.164  105.843  206.743
  722.250    5.943    0.423    0.166  107.194  206.482
  722.500    5.936    0.433    0.182  107.980  206.335
  722.750    6.029    0.441    0.184  108.015  205.867
  723.000    6.124    0.452    0.176  107.800  206.036
  723.250    6.267    0.452    0.183  107.772  206.502
  723.500    6.474    0.431    0.175  107.996  207.189
  723.750    6.625    0.418    0.151  108.658  208.290
  724.000    6.856    0.410    0.131  110.570  207.516
  724.250    7.041    0.425    0.132  112.609  205.805
  724.500    7.233    0.444    0.162  112.080  203.042
  724.750    7.499    0.425    0.178  107.482  200.800
  725.000    8.040    0.408    0.186  102.945  199.819
  725.250    9.289    0.400    0.193  102.102  200.195
  725.500   10.554    0.402    0.205  101.823  201.079
  725.750   11.770    0.402    0.209  100.731  201.455
  726.000   12.643    0.408    0.219   98.452  201.924
  726.250   13.480    0.420    0.210   89.218  202.613
  726.500   14.373    0.421    0.201   86.434  203.293
  726.750   15.614    0.391    0.192   88.787  203.569
  727.000   16.740    0.401    0.177   85.564  204.043
  727.250   18.459    0.387    0.139   78.526  204.316
  727.500   20.015    0.343    0.097   76.489  204.264
  727.750   19.585    0.329    0.128   79.534  203.805
  728.000   18.427    0.359    0.182   85.393  203.754
  728.250   16.424    0.381    0.185   92.067  203.708
  728.500   14.915    0.395    0.180   97.925  203.973
  728.750   13.672    0.407    0.176   94.703  204.250
  729.000   13.530    0.415    0.170   93.862  204.302
  729.250   13.614    0.409    0.181   94.644  204.365
  729.500   13.726    0.402    0.199   95.874  204.201
  729.750   13.683    0.393    0.188   96.285  204.260
  730.000   13.540    0.387    0.174   96.255  204.332
  730.250   13.249    0.389    0.174   97.733  204.698
  730.500   12.726    0.387    0.179  100.649  205.070
  730.750   12.244    0.374    0.165  100.370  204.927
  731.000   11.869    0.371    0.145   99.404  205.084
  731.250   11.507    0.353    0.132  100.750  204.727
  731.500   11.217    0.342    0.118  102.981  205.400
  731.750   10.733    0.332    0.117  107.149  206.086
  732.000   10.061    0.349    0.128  110.941  206.667
  732.250    9.051    0.361    0.138  115.673  207.572
