~VERSION INFORMATION
 VERS.                 2.0:   CWLS LOG ASCII STANDARD -VERSION 2.0
 WRAP.                  NO:   ONE LINE PER DEPTH STEP
~WELL INFORMATION BLOCK
#MNEM.UNIT           DATA                    DESCRIPTION OF MNEMONIC
#---------    -------------------            -------------------------------
# Generated from Intellog Unique Number	CW_82_90/WELL/994
WELL.         11-14-084-24W4                 : Well_name    - WELL
LOC .         00/11-14-084-24W4/0            : Location     - LOCATION
UWI .         00/11-14-084-24W4/0            : Uwi          - UNIQUE WELL ID
ENTR.         JAYE                           : Entered      - ENTERED BY
SRVC.         SCHLUMBERGER                   : Scn          - SERVICE COMPANY
DATE.         3 FEB 76                       : Date         - LOG DATE
STRT.M        182.88                         : top_depth    - START DEPTH
STOP.M        390.13                         : bot_depth    - STOP DEPTH
STEP.M        0.25                           : increment    - STEP LENGTH
 NULL. -999.2500:NULL Value
~CURVE INFORMATION BLOCK
#MNEM UNIT       ERCB CURVE CODE    CURVE DESCRIPTION
#-----------   ------------------   ----------------------------------
DEPT.M        00 001 00 00         : DEPTH        - DEPTH
CALI.MM       00 280 01 00         : CAL          - CALIPER
GR  .API      00 310 00 00         : GR           - GAMMA RAY
NPHI.V/V      00 330 00 00         : PHIN         - NEUTRON POROSITY (SANDSTONE)
DPHI.V/V      00 890 00 00         : PHID         - DENSITY POROSITY (SANDSTONE)
ILD .OHMM     00 120 00 00         : RESD         - DEEP RESISTIVITY (DIL)
~PARAMETER INFORMATION
#MNEM.UNIT           DATA             DESCRIPTION OF MNEMONIC
#---------         -----------     ------------------------------
GL  .M        562.356              : gl           - GROUND LEVEL ELEVATION
EREF.M        565.099              : kb           - ELEVATION OF DEPTH REFERENCE
DATM.M        562.356              : datum        - DATUM ELEVATION
TDD .M        399.288              : tdd          - TOTAL DEPTH DRILLER
RUN .         ONE                  : Run          - RUN NUMBER
MATR.         SANDSTONE            : Logunit      - NEUTRON MATRIX
TMAX.C        17.2222              : BHT          - MAXIMUM RECORDED TEMPERATURE
BHTD.M        399.288              : BHTDEP       - MAXIMUM RECORDED TEMPERATURE
RMT .C        7.22222              : MDTP         - TEMPERATURE OF MUD
MUDD.KG/M     0                    : MWT          - MUD DENSITY
NEUT.         1                    : NEUTRON      - NEUTRON TYPE
RESI.         0                    : RESIST       - RESISTIVITY TYPE
RM  .OHMM     6.7                  : RM           - RESISTIVITY OF MUD
RMC .OHMM     0                    : RMC          - RESISTIVITY OF MUD CAKE
RMF .OHMM     0                    : RMF          - RESISTIVITY OF MUD FILTRATE
SUFT.C        -17.7778             : SUFT         - SURFACE TEMPERATURE
~A  DEPTH      CAL       GR     PHIN     PHID     RESD
# ...
  365.380  207.430   65.940    0.384    0.217   35.232
  365.630  207.860   63.192    0.376    0.227   32.913
  365.880  209.328   63.203    0.375    0.215   30.177
  366.130  210.389   62.664    0.381    0.220   29.653
  366.380  209.776   62.242    0.375    0.197   31.460
  366.630  209.486   58.085    0.379    0.195   32.573
  366.880  208.460   56.134    0.374    0.184   34.226
  367.130  205.365   54.244    0.367    0.165   36.985
  367.380  203.308   50.455    0.372    0.151   40.958
  367.630  202.288   48.565    0.393    0.178   45.011
  367.880  202.095   46.737    0.386    0.225   50.786
  368.130  202.111   45.153    0.379    0.241   56.446
  368.380  202.544   43.693    0.370    0.243   63.457
  368.630  203.183   41.314    0.366    0.242   68.323
  368.880  203.722   37.708    0.364    0.242   68.654
  369.130  203.942   31.590    0.355    0.272   66.715
  369.380  204.899   27.127    0.351    0.281   62.668
  369.630  205.121   24.686    0.351    0.283   57.771
  369.880  205.448   30.394    0.358    0.272   50.001
  370.130  205.254   35.552    0.370    0.266   44.487
  370.380  201.950   37.031    0.380    0.268   36.947
  370.630  198.439   37.287    0.386    0.257   32.875
  370.880  196.280   37.602    0.391    0.257   26.103
  371.130  196.396   39.023    0.397    0.273   21.556
  371.380  198.178   41.423    0.406    0.271   18.899
  371.630  200.477   44.863    0.380    0.267   16.689
  371.880  203.399   52.470    0.383    0.258   14.334
  372.130  204.972   60.201    0.395    0.225   10.621
  372.380  205.092   70.136    0.377    0.174    9.594
  372.630  204.693   73.517    0.363    0.165    9.496
  372.880  205.230   85.844    0.369    0.154    9.742
  373.130  208.983   87.874    0.406    0.128    9.431
  373.380  209.622   89.784    0.405    0.120    9.110
  373.630  209.118   93.348    0.396    0.164    9.921
  373.880  208.720   98.198    0.391    0.150   10.883
  374.130  208.637   92.080    0.414    0.144   11.607
  374.380  208.448   84.309    0.402    0.142   12.041
  374.630  208.147   77.210    0.392    0.134   11.744
  374.880  207.026   83.471    0.335    0.118   11.282
  375.130  206.623   87.894    0.334    0.116   10.858
  375.380  206.227   90.600    0.360    0.133    9.256
  375.630  206.346   94.406    0.392    0.150    7.788
  375.880  206.572   96.376    0.395    0.131    7.113
  376.130  206.691   95.774    0.400    0.122    6.202
  376.380  206.918   95.783    0.425    0.120    5.633
  376.630  206.932   96.529    0.463    0.126    5.422
  376.880  206.640   97.703    0.497    0.143    5.603
  377.130  206.971  102.066    0.479    0.136    6.125
  377.380  206.983  104.832    0.452    0.104    6.594
  377.630  207.319  106.862    0.429    0.090    7.400
  377.880  207.328  110.304    0.421    0.117    7.966
  378.130  207.556  111.233    0.432    0.114    8.690
  378.380  207.672  106.708    0.435    0.135    9.606
  378.630  207.689   99.243    0.434    0.152   10.656
  378.880  207.704   96.434    0.425    0.154   11.867
  379.130  207.721  100.366    0.382    0.166   13.342
  379.380  207.116   99.763    0.389    0.162   14.662
  379.630  206.927   97.321    0.402    0.173   16.295
  379.880  206.629   94.880    0.408    0.187   18.250
  380.130  206.231   93.419    0.402    0.195   20.438
  380.380  205.729   85.525    0.366    0.202   22.973
  380.630  205.123   72.544    0.326    0.224   26.261
  380.880  203.171   71.022    0.301    0.251   22.215
  381.130  201.837   70.051    0.305    0.256   18.905
  381.380  201.853   70.000    0.385    0.224   16.727
  381.630  201.562   69.642    0.392    0.186   13.917
  381.880  200.849   69.409    0.406    0.160   12.020
  382.130  198.894   69.423    0.416    0.145   11.062
  382.380  197.873   69.429    0.409    0.126   10.050
  382.630  196.438   67.783    0.387    0.131    9.388
  382.880  195.727   65.285    0.365    0.118    9.901
  383.130  195.434   64.189    0.353    0.101   11.993
  383.380  195.348   62.851    0.334    0.077   12.190
  383.630  195.258   62.001    0.319    0.070   10.867
  383.880  195.481   61.583    0.314    0.086   10.056
  384.130  197.058   64.105    0.322    0.112    9.170
  384.380  199.459   65.769    0.361    0.101    8.471
  384.630  201.239   68.535    0.394    0.147    7.912
  384.880  202.294   71.486    0.398    0.181    7.187
  385.130  202.413   72.601    0.412    0.177    7.725
  385.380  203.260   73.774    0.406    0.174    8.797
  385.630  203.485   74.334    0.394    0.172    9.742
  385.880  203.920   73.487    0.369    0.157   10.807
  386.130  203.522   69.760    0.352    0.141    9.457
  386.380  202.914   68.297    0.337    0.125    8.868
  386.630  201.478   66.102    0.320    0.103    8.269
  386.880  200.664   64.335    0.313    0.080    7.456
  387.130  200.164   63.181    0.319    0.093    7.310
  387.380  199.452   59.515    0.338    0.117    7.670
  387.630  199.467   60.871    0.344    0.089    8.165
  387.880  199.380   62.600    0.350    0.084    8.159
  388.130  199.398   62.851    0.342    0.097    7.838
  388.380  200.038   61.331    0.343    0.123    7.338
  388.630  200.780   60.788    0.349    0.179    6.984
  388.880  201.626   62.084    0.354    0.174    6.586
  389.130  201.334   63.075    0.359    0.169    6.339
  389.380  200.832   62.903    0.356    0.162    6.078
  389.630  200.537   62.175    0.356    0.183    5.893
  389.880  200.137   61.021    0.356    0.204    5.642
  390.130  199.737   60.112    0.353    0.215    5.431
