~VERSION INFORMATION
 VERS.                 2.0:   CWLS LOG ASCII STANDARD -VERSION 2.0
 WRAP.                  NO:   ONE LINE PER DEPTH STEP
~WELL INFORMATION BLOCK
#MNEM.UNIT           DATA                    DESCRIPTION OF MNEMONIC
#---------    -------------------            -------------------------------
# Generated from Intellog Unique Number	CS_73_76/WELL/3264
WELL.         BOW VALLEY INDUSTRIES LTD      : Well_name    - WELL
LOC .         00/11-18-075-12W4/0            : Location     - LOCATION
UWI .         00/11-18-075-12W4/0            : Uwi          - UNIQUE WELL ID
ENTR.         SP                             : Entered      - ENTERED BY
SRVC.         SCHLUMBERGER                   : Scn          - SERVICE COMPANY
STRT.M        315                            : top_depth    - START DEPTH
STOP.M        534                            : bot_depth    - STOP DEPTH
STEP.M        0.25                           : increment    - STEP LENGTH
 NULL. -999.2500:NULL Value
~CURVE INFORMATION BLOCK
#MNEM UNIT       ERCB CURVE CODE    CURVE DESCRIPTION
#-----------   ------------------   ----------------------------------
DEPT.M        00 001 00 00         : DEPTH        - DEPTH
ILD .OHMM     00 120 00 00         : RESD         - DEEP RESISTIVITY (DIL)
NPHI.V/V      00 330 00 00         : PHIN         - NEUTRON POROSITY (LIMESTONE)
DPHI.V/V      00 890 00 00         : PHID         - DENSITY POROSITY (LIMESTONE)
GR  .API      00 310 00 00         : GR           - GAMMA RAY
~PARAMETER INFORMATION
#MNEM.UNIT           DATA             DESCRIPTION OF MNEMONIC
#---------         -----------     ------------------------------
GL  .M        685.02               : gl           - GROUND LEVEL ELEVATION
EREF.M        688.37               : kb           - ELEVATION OF DEPTH REFERENCE
DATM.M        685.02               : datum        - DATUM ELEVATION
TDD .M        544                  : tdd          - TOTAL DEPTH DRILLER
RUN .         ONE                  : Run          - RUN NUMBER
ENG .         BILL                 : Engineer     - RECORDING ENGINEER
WIT .         JIM                  : Witness      - WITNESSED BY
MUD .         GEL                  : Mud_type     - MUD TYPE
MATR.         LIMESTONE            : Logunit      - NEUTRON MATRIX
TMAX.C        23.9                 : BHT          - MAXIMUM RECORDED TEMPERATURE
BHTD.M        537                  : BHTDEP       - MAXIMUM RECORDED TEMPERATURE
MATR.         1                    : LOGUNIT      - NEUTRON MATRIX
RMT .C        25                   : MDTP         - TEMPERATURE OF MUD
NEUT.         1                    : NEUTRON      - NEUTRON TYPE
RESI.         0                    : RESIST       - RESISTIVITY TYPE
RMC .OHMM     0.25                 : RMC          - RESISTIVITY OF MUD CAKE
RMF .OHMM     0.25                 : RMF          - RESISTIVITY OF MUD FILTRATE
SUFT.C        15                   : SUFT         - SURFACE TEMPERATURE
~A  DEPTH     RESD     PHIN     PHID       GR
# ...
  358.500    7.572    0.462    0.259   94.967
  358.750    8.151    0.426    0.279   90.119
  359.000    8.773    0.419    0.284   87.695
  359.250    9.979    0.424    0.298   82.243
  359.500   10.741    0.432    0.303   81.029
  359.750   11.349    0.419    0.297   81.019
  360.000   11.772    0.423    0.285   81.014
  360.250   11.988    0.449    0.280   77.376
  360.500   12.900    0.462    0.314   74.953
  360.750   13.137    0.477    0.346   70.106
  361.000   13.627    0.502    0.386   66.470
  361.250   14.134    0.443    0.352   62.228
  361.500   14.393    0.409    0.312   59.196
  361.750   14.654    0.397    0.303   57.983
  362.000   14.925    0.407    0.309   60.999
  362.250   14.918    0.412    0.324   64.620
  362.500   14.914    0.389    0.330   68.244
  362.750   14.632    0.395    0.334   83.962
  363.000   14.898    0.412    0.321   94.843
  363.250   14.893    0.433    0.312   96.045
  363.500   14.888    0.450    0.317   87.569
  363.750   14.882    0.444    0.328   80.910
  364.000   15.156    0.442    0.326   76.065
  364.250   15.151    0.414    0.323   72.429
  364.500   15.147    0.422    0.319   70.002
  364.750   15.425    0.433    0.326   65.155
  365.000   15.416    0.429    0.337   63.337
  365.250   15.698    0.418    0.341   63.330
  365.500   15.694    0.428    0.336   63.323
  365.750   15.689    0.396    0.333   60.293
  366.000   15.684    0.401    0.329   58.470
  366.250   15.677    0.404    0.340   57.251
  366.500   15.673    0.393    0.343   57.246
  366.750   15.665    0.399    0.329   57.842
  367.000   15.660    0.383    0.320   58.442
  367.250   15.655    0.390    0.329   59.645
  367.500   15.650    0.400    0.331   60.244
  367.750   15.645    0.376    0.319   62.050
  368.000   15.639    0.375    0.314   61.439
  368.250   15.631    0.384    0.328   60.828
  368.500   15.626    0.394    0.334   61.426
  368.750   15.336    0.404    0.339   62.627
  369.000   15.331    0.414    0.348   63.227
  369.250   15.326    0.406    0.340   63.823
  369.500   15.318    0.416    0.336   62.001
  369.750   15.314    0.424    0.332   61.392
  370.000   15.310    0.428    0.350   60.174
  370.250   15.024    0.421    0.356   58.955
  370.500   15.017    0.408    0.344   58.950
  370.750   15.013    0.399    0.336   58.944
  371.000   15.009    0.404    0.330   58.933
  371.250   15.001    0.414    0.328   59.531
  371.500   14.996    0.419    0.338   60.132
  371.750   14.718    0.425    0.351   63.149
  372.000   14.709    0.421    0.355   66.771
  372.250   14.706    0.415    0.349   69.183
  372.500   14.702    0.409    0.344   67.968
  372.750   14.694    0.404    0.340   65.540
  373.000   14.422    0.400    0.338   64.326
  373.250   14.418    0.400    0.335   63.712
  373.500   14.410    0.404    0.331   63.102
  373.750   14.407    0.409    0.332   64.305
  374.000   14.402    0.382    0.337   67.322
  374.250   14.665    0.381    0.341   68.524
  374.500   14.659    0.393    0.346   68.518
  374.750   14.928    0.404    0.343   68.511
  375.000   14.921    0.400    0.338   67.895
  375.250   14.918    0.397    0.332   68.496
  375.500   15.189    0.409    0.327   69.093
  375.750   15.465    0.416    0.332   69.694
  376.000   15.749    0.436    0.338   70.289
  376.250   15.745    0.435    0.340   70.285
  376.500   16.030    0.430    0.345   69.673
  376.750   16.326    0.444    0.339   67.849
  377.000   16.623    0.455    0.328   66.634
  377.250   16.926    0.446    0.333   65.416
  377.500   17.235    0.429    0.334   64.806
  377.750   17.230    0.441    0.320   62.983
  378.000   17.547    0.440    0.315   62.371
  378.250   17.537    0.427    0.305   61.761
  378.500   17.532    0.441    0.308   61.149
  378.750   17.527    0.433    0.319   60.538
  379.000   17.517    0.436    0.305   61.135
  379.250   17.513    0.438    0.301   61.731
  379.500   17.509    0.431    0.315   61.726
  379.750   17.499    0.437    0.326   61.115
  380.000   17.495    0.431    0.326   61.108
  380.250   17.490    0.432    0.333   60.497
  380.500   17.481    0.432    0.322   59.885
  380.750   17.477    0.424    0.335   59.878
  381.000   17.468    0.418    0.342   61.683
  381.250   17.463    0.411    0.330   62.888
  381.500   17.459    0.418    0.324   64.696
  381.750   17.131    0.423    0.316   65.899
  382.000   17.126    0.430    0.329   62.865
  382.250   16.806    0.426    0.333   62.256
  382.500   16.802    0.431    0.338   63.456
  382.750   16.183    0.434    0.329   64.056
  383.000   16.179    0.426    0.323   63.444
  383.250   16.173    0.442    0.313   62.833
  383.500   15.873    0.423    0.318   62.825
  383.750   16.159    0.409    0.320   64.030
  384.000   16.155    0.418    0.314   67.044
  384.250   16.151    0.428    0.309   68.854
  384.500   16.146    0.448    0.317   70.662
  384.750   16.138    0.429    0.315   74.278
  385.000   16.133    0.418    0.307   76.691
  385.250   16.429    0.431    0.313   78.501
  385.500   17.041    0.442    0.300   79.707
  385.750   17.676    0.453    0.297   81.514
  386.000   19.740    0.470    0.291   84.531
  386.250   22.876    0.456    0.286   80.894
  386.500   29.072    0.425    0.243   78.470
  386.750   37.638    0.328    0.160   76.647
  387.000   46.954    0.155    0.000   73.617
  387.250   50.539    0.140    0.000   68.165
  387.500   53.397    0.132    0.000   63.319
  387.750   54.372    0.138    0.000   59.080
  388.000   49.560    0.252    0.031   56.653
  388.250   38.967    0.300    0.091   59.671
  388.500   31.793    0.325    0.194   63.293
  388.750   24.091    0.333    0.259   66.915
  389.000   20.023    0.361    0.320   68.722
  389.250   16.950    0.427    0.333   69.927
  389.500   15.167    0.445    0.340   71.130
  389.750   13.824    0.460    0.331   69.913
  390.000   13.074    0.460    0.336   69.301
  390.250   12.364    0.472    0.344   71.713
  390.500   12.133    0.478    0.350   67.472
  390.750   11.908    0.473    0.344   65.045
  391.000   11.687    0.463    0.359   68.061
  391.250   11.681    0.457    0.359   69.869
  391.500   11.677    0.460    0.353   71.074
  391.750   11.672    0.467    0.346   70.460
  392.000   11.886    0.465    0.357   71.061
  392.250   12.558    0.454    0.372   71.658
  392.500   13.027    0.449    0.350   71.046
  392.750   13.513    0.461    0.342   68.012
  393.000   13.761    0.404    0.316   66.799
  393.250   14.009    0.372    0.279   62.558
  393.500   14.006    0.402    0.258   64.969
  393.750   14.002    0.425    0.295   66.173
  394.000   13.487    0.437    0.318   61.325
  394.250   13.484    0.434    0.343   61.321
  394.500   13.233    0.451    0.330   64.339
  394.750   13.226    0.460    0.357   65.541
  395.000   13.470    0.448    0.335   62.509
  395.250   13.972    0.422    0.346   59.478
  395.500   15.604    0.402    0.328   58.868
  395.750   19.110    0.311    0.303   54.624
  396.000   22.557    0.210    0.251   49.779
  396.250   25.194    0.229    0.080   47.355
  396.500   27.115    0.264    0.125   52.791
  396.750   22.528    0.295    0.169   55.204
  397.000   21.308    0.246    0.108   52.778
  397.250   20.157    0.257    0.121   50.352
  397.500   17.064    0.309    0.165   61.834
  397.750   13.920    0.343    0.286   68.480
  398.000   12.925    0.386    0.327   70.290
  398.250   11.145    0.425    0.343   70.888
  398.500   10.349    0.431    0.350   72.696
  398.750    8.923    0.424    0.355   78.131
  399.000    8.286    0.432    0.337   87.800
  399.250    7.014    0.442    0.294   92.028
  399.500    6.162    0.457    0.252   95.650
  399.750    5.616    0.469    0.254   97.458
  400.000    5.119    0.477    0.256   99.266
  400.250    4.753    0.467    0.262  101.678
  400.500    4.664    0.486    0.257   99.857
  400.750    4.663    0.502    0.242   96.221
  401.000    4.747    0.489    0.233  101.050
  401.250    4.659    0.472    0.227  103.463
  401.500    4.573    0.480    0.228  104.667
  401.750    4.168    0.494    0.233  104.660
