~VERSION INFORMATION
 VERS.                 2.0:   CWLS LOG ASCII STANDARD -VERSION 2.0
 WRAP.                  NO:   ONE LINE PER DEPTH STEP
~WELL INFORMATION BLOCK
#MNEM.UNIT           DATA                    DESCRIPTION OF MNEMONIC
#---------    -------------------            -------------------------------
# Generated from Intellog Unique Number	CC_80_83/WELL/2442
NULL.         -999.25                        : NULL_VALUE
WELL.         GULF RESDELN                   : Well_name    - WELL              
LOC .         16-03-083-07W4                 : Location     - LOCATION          
UWI .         00/16-03-083-07W4/0            : Uwi          - UNIQUE WELL ID    
ENTR.         DW                             : Entered      - ENTERED BY        
SRVC.         SCHLUMBERGER                   : Scn          - SERVICE COMPANY   
DATE.         08 MAR 81                      : Date         - LOG DATE
STRT.M        210                            : top_depth    - START DEPTH       
STOP.M        459.892                        : bot_depth    - STOP DEPTH        
STEP.M        0.3                            : increment    - STEP LENGTH       
~CURVE INFORMATION BLOCK
#MNEM UNIT       ERCB CURVE CODE    CURVE DESCRIPTION
#-----------   ------------------   ----------------------------------
DEPT.M        00 001 00 00         : DEPTH        - DEPTH                       
DPHI.V/V      00 890 00 00         : PHID         - DENSITY POROSITY (LIMESTONE)
NPHI.V/V      00 330 00 00         : PHIN         - NEUTRON POROSITY (LIMESTONE)
GR  .API      00 310 00 00         : GR           - GAMMA RAY                   
ILD .OHMM     00 120 00 00         : RESD         - DEEP RESISTIVITY (DIL)      
~PARAMETER INFORMATION       
#MNEM.UNIT           DATA             DESCRIPTION OF MNEMONIC
#---------         -----------     ------------------------------
GL  .M        670.8                : gl           - GROUND LEVEL ELEVATION      
EREF.M        675.45               : kb           - ELEVATION OF DEPTH REFERENCE
DATM.M        675.45               : datum        - DATUM ELEVATION             
TDD .M        505                  : tdd          - TOTAL DEPTH DRILLER         
RUN .         ONE                  : Run          - RUN NUMBER                  
ENG .         BILL                 : Engineer     - RECORDING ENGINEER          
WIT .         JIM                  : Witness      - WITNESSED BY                
MUD .         GEL                  : Mud_type     - MUD TYPE                    
MATR.         LIMESTONE            : Logunit      - NEUTRON MATRIX              
TMAX.C        18                   : BHT          - MAXIMUM RECORDED TEMPERATURE
BHTD.M        505                  : BHTDEP       - MAXIMUM RECORDED TEMPERATURE
MATR.         1                    : LOGUNIT      - NEUTRON MATRIX              
RMT .C        25                   : MDTP         - TEMPERATURE OF MUD          
NEUT.         1                    : NEUTRON      - NEUTRON TYPE                
RESI.         0                    : RESIST       - RESISTIVITY TYPE            
RMC .OHMM     0.25                 : RMC          - RESISTIVITY OF MUD CAKE     
RMF .OHMM     0.25                 : RMF          - RESISTIVITY OF MUD FILTRATE 
SUFT.C        4                    : SUFT         - SURFACE TEMPERATURE         
~A  DEPTH     PHID     PHIN       GR     RESD
# ...
  418.794    0.291    0.419   57.698   43.204
  419.094    0.244    0.393   53.909   40.000
  419.394    0.208    0.384   44.517   54.320
  419.694    0.243    0.421   36.376  161.742
  419.994    0.299    0.447   31.344  177.909
  420.294    0.294    0.433   31.913  164.730
  420.594    0.278    0.402   33.712  135.967
  420.894    0.291    0.410   39.865   85.838
  421.194    0.308    0.410   42.908   75.035
  421.494    0.327    0.401   38.504   80.973
  421.794    0.349    0.425   30.982   99.924
  422.094    0.281    0.474   29.058  158.140
  422.394    0.306    0.452   29.002  177.324
  422.694    0.322    0.431   30.803  177.266
  422.994    0.323    0.403   30.108  184.099
  423.294    0.320    0.411   27.564  191.225
  423.594    0.324    0.422   28.742  194.839
  423.894    0.310    0.430   35.529  176.975
  424.194    0.306    0.436   44.796  135.302
  424.494    0.303    0.408   55.925  101.478
  424.794    0.287    0.399   65.173   73.257
  425.094    0.224    0.382   71.340   22.337
  425.394    0.222    0.378   84.954   18.793
  425.694    0.240    0.419   88.605   16.429
  425.994    0.180    0.432   87.313   13.560
  426.294    0.194    0.420   78.555   12.799
  426.594    0.194    0.446   72.276   13.040
  426.894    0.211    0.468   75.948   13.806
  427.194    0.182    0.487   76.502   14.338
  427.493    0.144    0.428   77.686   14.061
  427.793    0.189    0.354   97.516   12.292
  428.093    0.148    0.360   93.104   11.381
  428.393    0.121    0.344   81.860   11.821
  428.693    0.152    0.362   66.260   13.004
  428.993    0.196    0.383   50.026   20.980
  429.293    0.225    0.386   48.099   43.414
  429.593    0.255    0.395   48.663   53.572
  429.893    0.270    0.400   57.313   57.816
  430.193    0.279    0.402   67.197   51.508
  430.493    0.309    0.405   68.375   48.623
  430.793    0.304    0.416   75.767   36.469
  431.093    0.292    0.425   82.554   23.467
  431.393    0.258    0.393   86.206   20.125
  431.693    0.238    0.398   86.134   18.994
  431.993    0.230    0.403   86.707   17.927
  432.293    0.240    0.403   88.504   16.283
  432.593    0.254    0.396   89.681   15.367
  432.893    0.255    0.407   88.400   16.269
  433.193    0.245    0.409   82.743   17.895
  433.493    0.231    0.386   80.821   19.685
  433.793    0.257    0.396   83.231   20.061
  434.093    0.250    0.415   84.421   21.238
  434.393    0.238    0.417   81.259   21.639
  434.693    0.266    0.412   76.838   21.629
  434.993    0.266    0.412   77.386   21.620
  435.293    0.246    0.417   78.593   21.614
  435.593    0.261    0.425   81.629   21.195
  435.893    0.257    0.430   84.683   20.390
  436.193    0.266    0.429   87.735   18.878
  436.493    0.246    0.419  103.214   14.996
  436.793    0.215    0.409  104.387   11.687
  437.093    0.116    0.400  101.201    9.108
  437.393    0.142    0.398   98.665    7.518
  437.693    0.163    0.400   95.511    7.372
  437.993    0.177    0.445   94.817    7.228
  438.293    0.161    0.472  102.222    7.225
  438.593    0.167    0.474  104.030    7.223
  438.893    0.164    0.450  102.721    6.949
  439.193    0.189    0.445  100.801    6.815
  439.493    0.194    0.461   97.623    6.811
  439.793    0.188    0.447   92.589    7.074
  440.093    0.155    0.443   83.825    7.635
  440.393    0.163    0.456   78.174    8.561
  440.693    0.183    0.470   76.876   10.167
  440.993    0.205    0.467   73.695   11.845
  441.293    0.245    0.440   67.423   14.068
  441.593    0.262    0.412   61.781   17.360
  441.893    0.237    0.415   58.606   18.027
  442.193    0.257    0.450   59.780   17.345
  442.493    0.248    0.450   64.082   15.753
  442.793    0.231    0.429   62.778   14.310
  443.093    0.212    0.430   48.418   12.040
  443.393    0.220    0.423   37.172   10.325
  443.693    0.268    0.443   36.486    9.560
  443.993    0.294    0.459   40.776    9.196
  444.293    0.327    0.439   45.675    9.020
  444.593    0.308    0.437   51.219    9.016
  444.893    0.306    0.428   56.751    9.012
  445.193    0.302    0.427   56.056    9.009
  445.493    0.292    0.428   57.864    8.833
  445.793    0.275    0.419   63.408    8.831
  446.093    0.259    0.424   68.325    8.333
  446.393    0.239    0.431   66.997    7.866
  446.693    0.217    0.419   61.367    6.876
  446.993    0.232    0.418   41.413    6.366
  447.293    0.247    0.437   46.325    6.008
  447.593    0.280    0.463   64.907    5.780
  447.893    0.326    0.454   60.495    5.668
  448.193    0.286    0.400   49.249    5.558
  448.493    0.215    0.388   40.480    5.348
  448.793    0.258    0.405   38.551    5.047
  449.093    0.299    0.427   38.504    4.763
  449.393    0.310    0.408   35.326    4.671
  449.693    0.300    0.420   29.049    4.581
  449.993    0.297    0.402   28.372    4.579
  450.293    0.302    0.408   35.150    4.755
  450.593    0.309    0.419   56.226    5.132
  450.893    0.310    0.413   70.459    5.979
  451.193    0.257    0.401   68.516    7.378
  451.493    0.000    0.373   67.232   10.020
  451.793    0.000    0.352   65.915   15.858
  452.092    0.000    0.351   65.230   19.947
  452.392    0.000    0.286   65.800   22.800
  452.692    0.000    0.264   66.963   24.138
  452.992    0.000    0.254   66.899   25.071
  453.292    0.000    0.246   66.219   25.061
  453.592    0.000    0.240   65.552   26.025
  453.892    0.001    0.237   64.253   26.518
  454.192    0.001    0.237   62.947   27.020
  454.492    0.002    0.240   63.499   26.498
  454.792    0.002    0.242   64.679   25.982
  455.092    0.002    0.250   65.875   25.483
  455.392    0.003    0.251   64.568   24.986
  455.692    0.004    0.249   61.388   25.459
  455.992    0.005    0.255   61.340   26.442
  456.292    0.005    0.259   63.755   26.941
  456.592    0.002    0.258   66.196   27.453
  456.892    0.000    0.250   66.130   27.441
  457.192    0.000    0.245   63.554   26.400
  457.492    0.000    0.247   62.898   25.887
  457.792    0.000    0.251   61.581   25.878
  458.092    0.000    0.254   62.147   25.378
  458.392    0.000    0.261   63.953   25.366
  458.692    0.000    0.261   64.513   24.400
  458.992    0.001    0.255   63.215   24.393
  459.292    0.001    0.259   60.043   23.470
  459.592    0.001    0.264   56.265   21.727
  459.892    0.001    0.264   49.364   21.307
