~VERSION INFORMATION
 VERS.                 2.0:   CWLS LOG ASCII STANDARD -VERSION 2.0
 WRAP.                  NO:   ONE LINE PER DEPTH STEP
~WELL INFORMATION BLOCK
#MNEM.UNIT           DATA                    DESCRIPTION OF MNEMONIC
#---------    -------------------            -------------------------------
# Generated from Intellog Unique Number	CX_WELLS/WELL/4035
WELL.         PACIFIC AMADOU                 : Well_name    - WELL
LOC .         00/10-06-076-20W4/0            : Location     - LOCATION
UWI .         00/10-06-076-20W4/0            : Uwi          - UNIQUE WELL ID
ENTR.         T                              : Entered      - ENTERED BY
SRVC.         SCHLUMBERGER                   : Scn          - SERVICE COMPANY
STRT.F        1000                           : top_depth    - START DEPTH
STOP.F        1749.67                        : bot_depth    - STOP DEPTH
STEP.F        0.82                           : increment    - STEP LENGTH
 NULL. -999.2500:NULL Value
~CURVE INFORMATION BLOCK
#MNEM UNIT       ERCB CURVE CODE    CURVE DESCRIPTION
#-----------   ------------------   ----------------------------------
DEPT.F        00 001 00 00         : DEPTH        - DEPTH
GR  .API      00 310 00 00         : GR           - GAMMA RAY
NPHI.V/V      00 330 00 00         : PHIN         - NEUTRON POROSITY (SANDSTONE)
DPHI.V/V      00 890 00 00         : PHID         - DENSITY POROSITY (SANDSTONE)
ILD .OHMM     00 120 00 00         : RESD         - DEEP RESISTIVITY (DIL)
~PARAMETER INFORMATION
#MNEM.UNIT           DATA             DESCRIPTION OF MNEMONIC
#---------         -----------     ------------------------------
GL  .F        2101.6               : gl           - GROUND LEVEL ELEVATION
EREF.F        2109.8               : kb           - ELEVATION OF DEPTH REFERENCE
DATM.F        2109.8               : datum        - DATUM ELEVATION
TDD .F        1942                 : tdd          - TOTAL DEPTH DRILLER
RUN .         ONE                  : Run          - RUN NUMBER
ENG .         BILL                 : Engineer     - RECORDING ENGINEER
WIT .         JIM                  : Witness      - WITNESSED BY
MUD .         GEL                  : Mud_type     - MUD TYPE
MATR.         SANDSTONE            : Logunit      - NEUTRON MATRIX
TMAX.F        76                   : BHT          - MAXIMUM RECORDED TEMPERATURE
BHTD.F        1947                 : BHTDEP       - MAXIMUM RECORDED TEMPERATURE
MATR.         1                    : LOGUNIT      - NEUTRON MATRIX
RMT .F        77                   : MDTP         - TEMPERATURE OF MUD
NEUT.         1                    : NEUTRON      - NEUTRON TYPE
RESI.         4.42                 : RESIST       - RESISTIVITY TYPE
RMC .OHMM     4.3                  : RMC          - RESISTIVITY OF MUD CAKE
RMF .OHMM     3                    : RMF          - RESISTIVITY OF MUD FILTRATE
SUFT.F        39.2                 : SUFT         - SURFACE TEMPERATURE
~A  DEPTH       GR     PHIN     PHID     RESD
# ...
 1428.150   85.466    0.449    0.243    4.806
 1428.970   84.321    0.448    0.245    4.803
 1429.790   84.338    0.448    0.245    4.802
 1430.610   84.351    0.447    0.242    4.799
 1431.430   84.941    0.444    0.241    4.797
 1432.250   86.692    0.441    0.236    4.795
 1433.070   88.444    0.442    0.233    4.880
 1433.890   89.616    0.442    0.231    5.058
 1434.710   90.209    0.441    0.231    4.965
 1435.530   90.805    0.440    0.230    4.874
 1436.350   91.401    0.438    0.230    4.872
 1437.170   90.835    0.435    0.229    4.871
 1437.990   90.269    0.434    0.226    4.868
 1438.810   90.282    0.430    0.219    4.867
 1439.630   90.872    0.425    0.212    4.865
 1440.450   92.623    0.423    0.205    4.951
 1441.270   94.378    0.420    0.201    4.949
 1442.090   97.871    0.417    0.198    5.036
 1442.910   99.622    0.414    0.196    5.126
 1443.730   99.636    0.414    0.198    5.218
 1444.550   99.649    0.414    0.200    5.311
 1445.370   99.659    0.415    0.201    5.308
 1446.190  100.259    0.417    0.202    5.403
 1447.010  100.852    0.411    0.201    5.498
 1447.830  102.020    0.406    0.200    5.596
 1448.650  104.358    0.407    0.195    5.594
 1449.480  104.944    0.407    0.191    5.694
 1450.300  104.957    0.407    0.191    5.691
 1451.120  103.236    0.407    0.191    5.792
 1451.940  102.667    0.404    0.191    5.790
 1452.760  102.108    0.401    0.191    5.893
 1453.580  101.542    0.409    0.190    5.890
 1454.400  100.972    0.414    0.194    5.995
 1455.220   96.934    0.414    0.197    5.992
 1456.040   94.630    0.409    0.198    6.100
 1456.860   92.905    0.407    0.196    6.208
 1457.680   93.498    0.407    0.197    6.432
 1458.500   95.249    0.407    0.200    6.430
 1459.320   96.421    0.409    0.200    6.545
 1460.140   96.438    0.415    0.201    6.659
 1460.960   95.872    0.419    0.202    6.658
 1461.780   95.882    0.420    0.204    6.655
 1462.600   95.896    0.414    0.204    6.652
 1463.420   96.488    0.411    0.203    6.650
 1464.240   96.505    0.410    0.199    6.647
 1465.060   97.101    0.414    0.196    6.645
 1465.880   97.111    0.415    0.193    6.761
 1466.700   97.132    0.415    0.195    6.760
 1467.520   97.138    0.416    0.196    6.756
 1468.340   96.576    0.416    0.197    6.754
 1469.160   96.006    0.416    0.198    6.751
 1469.980   96.020    0.416    0.199    6.748
 1470.800   96.616    0.416    0.199    6.746
 1471.620   98.374    0.416    0.200    6.743
 1472.440   99.543    0.415    0.202    6.740
 1473.260   99.556    0.411    0.200    6.859
 1474.080   95.514    0.398    0.196    6.858
 1474.900   92.052    0.373    0.185    6.979
 1475.720   88.585    0.326    0.136    7.103
 1476.540   88.019    0.352    0.156    7.360
 1477.360   94.989    0.386    0.174    7.492
 1478.180  100.795    0.404    0.189    7.489
 1479.000  101.967    0.408    0.199    7.352
 1479.820  103.140    0.405    0.195    6.962
 1480.640  102.001    0.418    0.191    6.593
 1481.460  100.849    0.411    0.193    6.242
 1482.280   98.548    0.394    0.199    6.128
 1483.100   95.672    0.382    0.165    6.126
 1483.920   93.361    0.384    0.167    6.235
 1484.740   87.584    0.383    0.168    6.461
 1485.560   82.960    0.377    0.165    6.818
 1486.380   77.759    0.370    0.160    8.615
 1487.200   74.876    0.372    0.160    9.948
 1488.020   70.254    0.373    0.158   11.487
 1488.850   66.212    0.361    0.132   15.049
 1489.670   61.594    0.320    0.090   20.810
 1490.490   58.131    0.274    0.062   24.027
 1491.310   57.565    0.264    0.049   24.018
 1492.130   58.158    0.317    0.163   23.160
 1492.950   59.913    0.379    0.209   20.775
 1493.770   62.244    0.431    0.237   17.977
 1494.590   63.995    0.457    0.256   14.472
 1495.410   65.747    0.486    0.270   12.525
 1496.230   66.340    0.493    0.280    9.904
 1497.050   68.091    0.483    0.277    8.266
 1497.870   72.160    0.477    0.267    7.687
 1498.690   76.808    0.469    0.258    7.149
 1499.510   81.456    0.464    0.251    6.894
 1500.330   84.953    0.459    0.247    6.296
 1501.150   85.542    0.455    0.238    6.071
 1501.970   86.138    0.445    0.229    5.748
 1502.790   86.148    0.437    0.220    5.542
 1503.610   87.906    0.432    0.216    5.541
 1504.430   88.499    0.433    0.211    5.439
 1505.250   89.668    0.435    0.211    5.437
 1506.070   90.257    0.433    0.217    5.337
 1506.890   90.857    0.434    0.220    5.336
 1507.710   90.874    0.439    0.221    5.333
 1508.530   90.880    0.446    0.224    5.236
 1509.350   90.897    0.451    0.232    5.233
 1510.170   90.910    0.455    0.242    5.231
 1510.990   90.924    0.460    0.250    5.229
 1511.810   89.782    0.449    0.244    5.134
 1512.630   89.213    0.442    0.235    5.132
 1513.450   88.067    0.439    0.226    5.129
 1514.270   87.508    0.435    0.220    5.127
 1515.090   87.515    0.430    0.215    5.126
 1515.910   86.952    0.430    0.215    5.123
 1516.730   86.966    0.436    0.223    5.215
 1517.550   86.403    0.442    0.228    5.212
 1518.370   85.837    0.442    0.229    5.210
 1519.190   85.275    0.442    0.228    5.302
 1520.010   85.281    0.437    0.227    5.301
 1520.830   85.295    0.432    0.224    5.394
 1521.650   84.153    0.428    0.216    5.393
 1522.470   83.011    0.419    0.210    5.391
 1523.290   83.024    0.424    0.206    5.388
 1524.110   82.451    0.426    0.206    5.386
 1524.930   82.475    0.425    0.206    5.482
 1525.750   83.061    0.424    0.206    5.478
 1526.570   84.243    0.424    0.208    5.577
 1527.400   84.833    0.427    0.210    5.574
 1528.220   85.419    0.435    0.211    5.572
 1529.040   86.015    0.433    0.212    5.671
 1529.860   86.608    0.430    0.212    5.877
 1530.680   87.200    0.426    0.211    5.981
 1531.500   87.214    0.424    0.208    6.087
 1532.320   86.648    0.419    0.203    6.085
 1533.140   84.923    0.411    0.197    6.082
 1533.960   84.357    0.405    0.191    6.080
 1534.780   84.374    0.393    0.184    6.078
 1535.600   83.225    0.382    0.179    6.186
 1536.420   74.549    0.363    0.171    6.296
 1537.240   66.454    0.337    0.160    6.642
 1538.060   59.516    0.300    0.120    7.398
 1538.880   53.156    0.248    0.043    8.391
 1539.700   53.169    0.237    0.002   11.193
 1540.520   68.249    0.267    0.045   14.144
 1541.340   72.894    0.311    0.090   13.884
 1542.160   81.601    0.338    0.140   12.234
 1542.980   89.146    0.394    0.170   10.028
 1543.800   89.739    0.411    0.185    8.523
 1544.620   89.177    0.409    0.191    7.926
 1545.440   89.769    0.405    0.191    7.239
 1546.260   92.103    0.403    0.190    7.108
 1547.080   93.272    0.405    0.190    6.853
 1547.900   95.024    0.403    0.192    6.728
 1548.720   93.306    0.397    0.192    6.605
 1549.540   92.737    0.389    0.186    6.484
 1550.360   92.171    0.378    0.169    6.482
 1551.180   92.763    0.378    0.161    6.363
 1552.000   93.935    0.384    0.166    6.361
 1552.820   94.525    0.388    0.173    6.244
 1553.640   96.866    0.393    0.178    6.241
 1554.460   98.031    0.380    0.172    6.239
 1555.280   99.203    0.391    0.163    6.236
 1556.100   99.799    0.400    0.175    6.234
 1556.920   99.233    0.391    0.166    6.119
 1557.740   98.085    0.372    0.161    6.117
 1558.560   96.364    0.373    0.160    6.115
 1559.380   96.960    0.383    0.156    6.003
 1560.200   97.549    0.388    0.160    6.000
 1561.020   98.721    0.403    0.169    5.998
 1561.840   98.155    0.406    0.184    6.104
 1562.660   96.430    0.406    0.186    6.103
 1563.480   99.347    0.404    0.188    6.099
 1564.300   99.933    0.400    0.189    6.097
 1565.120  102.271    0.395    0.187    6.095
 1565.940  103.446    0.385    0.182    6.430
 1566.770  103.453    0.363    0.159    6.545
 1567.590  103.470    0.369    0.150    6.782
 1568.410  102.904    0.381    0.152    7.029
 1569.230  102.338    0.383    0.157    7.153
 1570.050  100.617    0.364    0.151    7.151
