~VERSION INFORMATION
 VERS.                 2.0:   CWLS LOG ASCII STANDARD -VERSION 2.0
 WRAP.                  NO:   ONE LINE PER DEPTH STEP
~WELL INFORMATION BLOCK
#MNEM.UNIT           DATA                    DESCRIPTION OF MNEMONIC
#---------    -------------------            -------------------------------
# Generated from Intellog Unique Number	CS_67_68/WELL/2215
WELL.         BP ATMORE                      : Well_name    - WELL
LOC .         00/13-20-067-17W4/0            : Location     - LOCATION
UWI .         00/13-20-067-17W4/0            : Uwi          - UNIQUE WELL ID
ENTR.         SP                             : Entered      - ENTERED BY
SRVC.         SCHLUMBERGER                   : Scn          - SERVICE COMPANY
STRT.M        345                            : top_depth    - START DEPTH
STOP.M        510                            : bot_depth    - STOP DEPTH
STEP.M        0.25                           : increment    - STEP LENGTH
 NULL. -999.2500:NULL Value
~CURVE INFORMATION BLOCK
#MNEM UNIT       ERCB CURVE CODE    CURVE DESCRIPTION
#-----------   ------------------   ----------------------------------
DEPT.M        00 001 00 00         : DEPTH        - DEPTH
ILD .OHMM     00 120 00 00         : RESD         - DEEP RESISTIVITY (DIL)
DPHI.V/V      00 890 00 00         : PHID         - DENSITY POROSITY (LIMESTONE)
NPHI.V/V      00 330 00 00         : PHIN         - NEUTRON POROSITY (LIMESTONE)
GR  .API      00 310 00 00         : GR           - GAMMA RAY
CALI.MM       00 280 01 00         : CAL          - CALIPER
~PARAMETER INFORMATION
#MNEM.UNIT           DATA             DESCRIPTION OF MNEMONIC
#---------         -----------     ------------------------------
GL  .M        582.64               : gl           - GROUND LEVEL ELEVATION
EREF.M        586.34               : kb           - ELEVATION OF DEPTH REFERENCE
DATM.M        586.34               : datum        - DATUM ELEVATION
TDD .M        537                  : tdd          - TOTAL DEPTH DRILLER
RUN .         ONE                  : Run          - RUN NUMBER
ENG .         BILL                 : Engineer     - RECORDING ENGINEER
WIT .         JIM                  : Witness      - WITNESSED BY
MUD .         GEL                  : Mud_type     - MUD TYPE
MATR.         LIMESTONE            : Logunit      - NEUTRON MATRIX
TMAX.C        13                   : BHT          - MAXIMUM RECORDED TEMPERATURE
BHTD.M        537                  : BHTDEP       - MAXIMUM RECORDED TEMPERATURE
MATR.         1                    : LOGUNIT      - NEUTRON MATRIX
RMT .C        25                   : MDTP         - TEMPERATURE OF MUD
NEUT.         1                    : NEUTRON      - NEUTRON TYPE
RESI.         0                    : RESIST       - RESISTIVITY TYPE
RMC .OHMM     0.25                 : RMC          - RESISTIVITY OF MUD CAKE
RMF .OHMM     0.25                 : RMF          - RESISTIVITY OF MUD FILTRATE
SUFT.C        15                   : SUFT         - SURFACE TEMPERATURE
~A  DEPTH     RESD     PHID     PHIN       GR      CAL
# ...
  491.000   11.924    0.233    0.304   67.557  160.361
  491.250   12.386    0.242    0.297   65.132  158.746
  491.500   12.698    0.236    0.300   63.739  157.637
  491.750   12.920    0.228    0.307   63.741  157.943
  492.000   13.121    0.220    0.314   64.653  159.058
  492.250   13.075    0.240    0.325   65.686  159.769
  492.500   12.930    0.238    0.321   65.930  159.570
  492.750   12.763    0.226    0.322   65.871  159.269
  493.000   12.503    0.230    0.324   68.056  157.655
  493.250   12.179    0.230    0.315   71.455  155.838
  493.500   11.841    0.220    0.313   72.851  153.920
  493.750   11.822    0.214    0.318   72.368  152.811
  494.000   11.915    0.219    0.310   70.793  152.915
  494.250   12.169    0.232    0.303   67.276  153.221
  494.500   12.498    0.237    0.304   65.155  153.527
  494.750   12.765    0.252    0.303   65.460  153.631
  495.000   12.817    0.263    0.301   67.828  153.836
  495.250   12.675    0.247    0.297   67.708  154.244
  495.500   12.254    0.231    0.298   66.982  154.449
  495.750   11.846    0.227    0.303   66.316  154.856
  496.000   11.583    0.234    0.306   64.195  156.173
  496.250   11.542    0.233    0.303   61.650  157.693
  496.500   11.480    0.233    0.304   60.499  158.707
  496.750   11.353    0.222    0.303   59.651  158.709
  497.000   11.122    0.237    0.303   60.745  157.297
  497.250    9.931    0.233    0.316   61.656  155.480
  497.500    9.122    0.217    0.325   62.325  154.068
  497.750    9.090    0.199    0.319   62.630  153.262
  498.000    9.144    0.187    0.321   62.450  152.658
  498.250    9.340    0.201    0.317   61.845  152.358
  498.500    9.556    0.212    0.304   60.088  152.664
  498.750    9.909    0.224    0.294   61.728  152.768
  499.000   10.332    0.234    0.290   63.609  153.580
  499.250   10.856    0.217    0.293   65.128  154.694
  499.500   11.320    0.224    0.298   63.977  156.315
  499.750   11.583    0.230    0.301   63.251  157.430
  500.000   11.741    0.217    0.299   61.918  157.938
  500.250   11.833    0.217    0.299   60.221  157.234
  500.500   11.792    0.204    0.303   60.830  156.630
  500.750   11.907    0.196    0.313   62.348  156.936
  501.000   12.345    0.204    0.326   61.379  157.545
  501.250   12.632    0.217    0.336   57.560  157.447
  501.500   12.660    0.216    0.329   56.652  154.519
  501.750   12.639    0.212    0.335   57.199  151.084
  502.000   12.643    0.230    0.324   53.804  149.369
  502.250   12.598    0.243    0.322   52.775  149.372
  502.500   12.271    0.230    0.322   53.687  150.486
  502.750   11.251    0.238    0.329   54.538  153.017
  503.000   10.513    0.230    0.337   55.206  155.244
  503.250    7.381    0.220    0.330   56.057  156.257
  503.500    5.085    0.220    0.330   58.182  154.744
  503.750    3.977    0.221    0.340   60.852  152.017
  504.000    6.992    0.202    0.352   62.553  151.717
  504.250    8.777    0.186    0.362   58.733  152.023
  504.500   10.812    0.164    0.342   53.458  152.127
  504.750   13.317    0.125    0.321   45.392  152.130
  505.000   17.361    0.104    0.294   22.952  150.718
  505.250   27.041    0.124    0.262   13.855  147.284
  505.500   40.784    0.152    0.242   10.764  146.376
  505.750   58.669    0.178    0.235   11.251  147.289
  506.000   75.767    0.171    0.240   12.102  146.989
  506.250   91.577    0.165    0.265   11.557  145.880
  506.500  112.587    0.104    0.290    9.376  143.760
  506.750  125.443    0.092    0.310    9.620  145.178
  507.000  142.168    0.095    0.325   11.381  147.607
  507.250  125.035    0.092    0.336   12.838  149.026
  507.500  110.590    0.121    0.320   13.811  149.938
  507.750   98.932    0.145    0.295   14.722  150.547
  508.000   91.052    0.166    0.278   15.331  150.854
  508.250   86.863    0.160    0.290   15.575  150.553
  508.500   83.032    0.156    0.307   15.334  150.051
  508.750   82.895    0.180    0.317   14.304  148.032
  509.000   82.912    0.173    0.318   13.093  146.720
  509.250   83.882    0.160    0.316   11.942  145.612
  509.500   83.904    0.171    0.305   11.277  145.513
  509.750   82.352    0.185    0.310   11.400  146.224
  510.000   79.765    0.198    0.317   11.341  147.339
