~VERSION INFORMATION
 VERS.                 2.0:   CWLS LOG ASCII STANDARD -VERSION 2.0
 WRAP.                  NO:   ONE LINE PER DEPTH STEP
~WELL INFORMATION BLOCK
#MNEM.UNIT           DATA                    DESCRIPTION OF MNEMONIC
#---------    -------------------            -------------------------------
# Generated from Intellog Unique Number	CW_82_90/WELL/928
WELL.         TEXEX WABASCA 10-27            : Well_name    - WELL
LOC .         00/10-27-082-24W4/0            : Location     - LOCATION
UWI .         00/10-27-082-24W4/0            : Uwi          - UNIQUE WELL ID
ENTR.         JAYE                           : Entered      - ENTERED BY
SRVC.         SCHLUMBERGER                   : Scn          - SERVICE COMPANY
STRT.M        228.6                          : top_depth    - START DEPTH
STOP.M        457.1                          : bot_depth    - STOP DEPTH
STEP.M        0.25                           : increment    - STEP LENGTH
 NULL. -999.2500:NULL Value
~CURVE INFORMATION BLOCK
#MNEM UNIT       ERCB CURVE CODE    CURVE DESCRIPTION
#-----------   ------------------   ----------------------------------
DEPT.M        00 001 00 00         : DEPTH        - DEPTH
CALI.MM       00 280 01 00         : CAL          - CALIPER
GR  .API      00 310 00 00         : GR           - GAMMA RAY
DPHI.V/V      00 890 00 00         : PHID         - DENSITY POROSITY (SANDSTONE)
NPHI.V/V      00 330 00 00         : PHIN         - NEUTRON POROSITY (SANDSTONE)
ILD .OHMM     00 120 00 00         : RESD         - DEEP RESISTIVITY (DIL)
~PARAMETER INFORMATION
#MNEM.UNIT           DATA             DESCRIPTION OF MNEMONIC
#---------         -----------     ------------------------------
GL  .M        599.572              : gl           - GROUND LEVEL ELEVATION
EREF.M        603.23               : kb           - ELEVATION OF DEPTH REFERENCE
DATM.M        599.572              : datum        - DATUM ELEVATION
TDD .M        491.033              : tdd          - TOTAL DEPTH DRILLER
RUN .         ONE                  : Run          - RUN NUMBER
ENG .         EARLEY               : Engineer     - RECORDING ENGINEER
WIT .         SEVERS               : Witness      - WITNESSED BY
BASE.         EDMONTON             : Branch       - HOME BASE OF LOGGING UNIT
MUD .         WATER & LOST CIRC    : Mud_type     - MUD TYPE
MATR.         SANDSTONE            : Logunit      - NEUTRON MATRIX
TMAX.C        18.8889              : BHT          - MAXIMUM RECORDED TEMPERATURE
BHTD.M        490.728              : BHTDEP       - MAXIMUM RECORDED TEMPERATURE
RMT .C        4.44444              : MDTP         - TEMPERATURE OF MUD
MUDD.KG/M     1000                 : MWT          - MUD DENSITY
NEUT.         1                    : NEUTRON      - NEUTRON TYPE
RESI.         0                    : RESIST       - RESISTIVITY TYPE
RM  .OHMM     0.25                 : RM           - RESISTIVITY OF MUD
RMC .OHMM     0.25                 : RMC          - RESISTIVITY OF MUD CAKE
RMF .OHMM     0.25                 : RMF          - RESISTIVITY OF MUD FILTRATE
SUFT.C        4                    : SUFT         - SURFACE TEMPERATURE
~A  DEPTH      CAL       GR     PHID     PHIN     RESD
# ...
  301.600  218.820  113.224    0.218    0.546    4.284
  301.850  220.587  114.036    0.231    0.535    3.238
  302.100  220.902  111.742    0.234    0.528    2.772
  302.350  219.460  108.206    0.228    0.530    2.610
  302.600  215.018  100.450    0.231    0.520    2.784
  302.850  213.886   94.245    0.232    0.518    3.141
  303.100  213.787   92.138    0.238    0.508    3.523
  303.350  213.486   92.514    0.245    0.510    4.235
  303.600  213.282   97.236    0.231    0.519    5.023
  303.850  213.185  103.325    0.233    0.530    5.182
  304.100  213.191  100.596    0.227    0.536    5.017
  304.350  213.819  102.153    0.229    0.544    4.733
  304.600  215.791  103.708    0.241    0.542    4.431
  304.850  219.212  101.229    0.246    0.546    4.196
  305.100  216.735   97.135    0.259    0.547    4.169
  305.350  215.811   89.751    0.269    0.543    4.221
  305.600  215.816   85.160    0.283    0.545    4.290
  305.850  215.616   86.220    0.288    0.558    4.526
  306.100  215.106   85.788    0.284    0.554    4.774
  306.350  215.007   85.109    0.280    0.538    4.999
  306.600  214.708   87.534    0.269    0.521    5.263
  306.850  214.709   88.532    0.258    0.507    5.625
  307.100  214.617   87.356    0.258    0.499    6.046
  307.350  214.412   88.105    0.261    0.493    6.534
  307.600  214.004   91.026    0.260    0.486    7.048
  307.850  214.004   92.458    0.249    0.476    7.421
  308.100  213.811   91.903    0.245    0.462    7.388
  308.350  213.609   92.900    0.258    0.461    7.221
  308.600  213.617   94.518    0.266    0.465    6.850
  308.850  215.903   96.819    0.260    0.524    6.122
  309.100  216.421   98.002    0.236    0.517    5.280
  309.350  219.016   93.039    0.221    0.476    5.307
  309.600  216.641   87.517    0.200    0.440    6.031
  309.850  211.785   85.597    0.168    0.419    6.893
  310.100  212.411   87.898    0.163    0.442    7.878
  310.350  215.729   93.178    0.222    0.519    8.562
  310.600  212.527   97.342    0.222    0.530    8.766
  310.850  208.601   97.532    0.223    0.536    7.676
  311.100  209.228  100.950    0.229    0.529    6.708
  311.350  211.614  103.065    0.225    0.527    6.051
  311.600  215.863  102.883    0.224    0.524    5.478
  311.850  219.079  100.837    0.231    0.515    4.969
  312.100  217.945   97.613    0.260    0.513    4.592
  312.350  216.192   90.228    0.260    0.516    4.488
  312.600  213.823   90.791    0.258    0.521    4.544
  312.850  213.721   91.293    0.264    0.518    4.830
  313.100  214.141   86.328    0.273    0.521    5.603
  313.350  214.873   80.993    0.282    0.524    6.344
  313.600  215.913   74.601    0.286    0.519    7.400
  313.850  215.299   68.397    0.302    0.514    8.812
  314.100  213.443   61.757    0.324    0.516   10.993
  314.350  209.418   57.477    0.333    0.516   12.967
  314.600  209.005   54.005    0.321    0.522   15.098
  314.850  207.564   56.305    0.325    0.517   16.441
  315.100  206.741   61.151    0.333    0.518   16.896
  315.350  205.195   61.404    0.336    0.515   16.636
  315.600  203.863   61.532    0.344    0.532   15.780
  315.850  203.863   60.914    0.349    0.534   15.682
  316.100  203.973   59.988    0.343    0.529   15.528
  316.350  200.771   61.233    0.329    0.521   15.489
  316.600  203.883   63.533    0.314    0.497   15.624
  316.850  202.855   63.786    0.316    0.473   15.850
  317.100  203.170   65.527    0.304    0.441   16.351
  317.350  203.385   67.022    0.281    0.405   16.898
  317.600  203.596   64.418    0.161    0.357   18.297
  317.850  203.914   62.000    0.119    0.284   20.832
  318.100  203.505   61.694    0.130    0.277   23.632
  318.350  201.960   62.070    0.162    0.288   28.509
  318.600  201.960   60.646    0.187    0.293   30.925
  318.850  205.493   58.973    0.172    0.238   31.196
  319.100  205.807   56.493    0.031    0.203   31.468
  319.350  205.807   53.206    0.031    0.187   32.702
  319.600  208.821   51.472    0.028    0.174   33.927
  319.850  210.069   51.352    0.037    0.176   36.124
  320.100  210.069   51.604    0.053    0.187   39.330
  320.350  211.431   52.166    0.085    0.240   42.906
  320.600  211.536   55.398    0.184    0.309   43.200
  320.850  212.992   59.810    0.318    0.415   39.555
  321.100  212.686   62.919    0.340    0.526   31.669
  321.350  211.658   65.468    0.334    0.513   26.025
  321.600  209.187   71.494    0.312    0.518   22.534
  321.850  209.085   76.961    0.286    0.512   15.924
  322.100  208.676   84.228    0.281    0.488   11.357
  322.350  211.999   92.800    0.270    0.482    8.162
  322.600  212.207   98.764    0.251    0.498    5.987
  322.850  212.207  101.251    0.248    0.525    4.938
  323.100  219.670   99.951    0.267    0.547    4.728
  323.350  217.815   96.726    0.287    0.554    4.787
  323.600  216.267   88.162    0.323    0.521    4.883
  323.850  215.550   78.605    0.322    0.505    5.123
  324.100  216.384   79.788    0.325    0.510    5.800
  324.350  216.907   81.841    0.330    0.523    7.525
  324.600  217.123   84.080    0.316    0.523    9.335
  324.850  217.127   82.407    0.314    0.513   10.491
  325.100  215.581   80.114    0.318    0.517   11.402
  325.350  214.759   80.056    0.315    0.517   11.566
  325.600  215.076   80.743    0.318    0.517   11.261
  325.850  215.076   81.926    0.318    0.510   11.026
  326.100  215.076   83.668    0.324    0.493   10.916
  326.350  218.718   83.423    0.331    0.487   10.931
  326.600  218.622   80.137    0.322    0.489   10.782
  326.850  218.004   80.761    0.315    0.511   10.676
  327.100  218.013   81.510    0.310    0.522   10.591
  327.350  218.224   84.246    0.308    0.512   10.623
  327.600  218.024   86.485    0.317    0.508   10.519
  327.850  218.024   87.295    0.310    0.534   10.337
  328.100  217.626   92.079    0.297    0.537   10.121
  328.350  217.629   96.553    0.281    0.519    9.781
  328.600  217.629  101.400    0.264    0.495    9.107
  328.850  219.195  105.129    0.244    0.500    8.003
  329.100  221.373  105.567    0.240    0.516    6.956
  329.350  223.034  101.970    0.244    0.516    5.856
  329.600  222.110  100.918    0.248    0.508    5.392
  329.850  220.567  102.413    0.242    0.511    5.389
  330.100  221.915  103.471    0.232    0.505    5.527
  330.350  221.915  104.220    0.227    0.508    5.864
  330.600  224.517  103.913    0.226    0.515    6.186
  330.850  224.521  102.985    0.223    0.530    6.440
  331.100  224.733   99.513    0.234    0.522    6.619
  331.350  223.085   96.660    0.243    0.529    6.517
  331.600  223.085   96.665    0.245    0.526    6.170
  331.850  220.408   96.606    0.222    0.502    5.453
  332.100  220.205   97.914    0.216    0.487    4.891
  332.350  220.108  100.215    0.224    0.492    4.596
  332.600  220.222  101.025    0.234    0.527    4.467
  332.850  220.121  102.023    0.229    0.529    4.350
  333.100  220.121  103.206    0.221    0.525    4.235
  333.350  219.311  103.954    0.217    0.531    4.296
  333.600  219.519  103.710    0.207    0.536    4.317
  333.850  218.703  103.217    0.209    0.531    4.413
  334.100  218.704  102.290    0.197    0.513    4.577
  334.350  218.713   95.898    0.217    0.506    4.802
  334.600  218.716   91.991    0.239    0.506    5.122
  334.850  217.793   90.318    0.250    0.501    5.515
  335.100  214.903   84.424    0.264    0.491    5.960
  335.350  213.768   85.360    0.249    0.493    6.454
  335.600  213.768   87.101    0.230    0.494    7.172
  335.850  211.817   91.700    0.213    0.510    7.810
  336.100  211.821   92.200    0.215    0.506    8.393
  336.350  212.448   88.851    0.211    0.477    8.609
  336.600  214.420   92.084    0.215    0.465    8.683
  336.850  215.049   96.122    0.224    0.465    8.664
  337.100  215.468   99.727    0.236    0.471    8.659
  337.350  215.468   99.359    0.237    0.483    8.462
  337.600  217.552   98.244    0.240    0.488    8.316
  337.850  217.763   97.317    0.231    0.478    8.172
