~VERSION INFORMATION
 VERS.                 2.0:   CWLS LOG ASCII STANDARD -VERSION 2.0
 WRAP.                  NO:   ONE LINE PER DEPTH STEP
~WELL INFORMATION BLOCK
#MNEM.UNIT           DATA                    DESCRIPTION OF MNEMONIC
#---------    -------------------            -------------------------------
# Generated from Intellog Unique Number	cxy/WELL/1154
WELL.         HB MISTEMAE                    : Well_name    - WELL
LOC .         00/10-27-079-01W5/0            : Location     - LOCATION
UWI .         00/10-27-079-01W5/0            : Uwi          - UNIQUE WELL ID
ENTR.         T                              : Entered      - ENTERED BY
SRVC.         SCHLUMBERGER                   : Scn          - SERVICE COMPANY
STRT.F        950                            : top_depth    - START DEPTH
STOP.F        1799.74                        : bot_depth    - STOP DEPTH
STEP.F        0.82                           : increment    - STEP LENGTH
 NULL. -999.2500:NULL Value
~CURVE INFORMATION BLOCK
#MNEM UNIT       ERCB CURVE CODE    CURVE DESCRIPTION
#-----------   ------------------   ----------------------------------
DEPT.F        00 001 00 00         : DEPTH        - DEPTH
CALI.IN       00 280 01 00         : CAL          - CALIPER
GR  .API      00 310 00 00         : GR           - GAMMA RAY
NPHI.V/V      00 330 00 00         : PHIN         - NEUTRON POROSITY (SANDSTONE)
ILD .OHMM     00 120 00 00         : RESD         - DEEP RESISTIVITY (DIL)
DPHI.V/V      00 890 00 00         : PHID         - DENSITY POROSITY (SANDSTONE)
~PARAMETER INFORMATION
#MNEM.UNIT           DATA             DESCRIPTION OF MNEMONIC
#---------         -----------     ------------------------------
GL  .F        1965                 : gl           - GROUND LEVEL ELEVATION
EREF.F        1978                 : kb           - ELEVATION OF DEPTH REFERENCE
DATM.F        1978                 : datum        - DATUM ELEVATION
TDD .F        1810                 : tdd          - TOTAL DEPTH DRILLER
RUN .         ONE                  : Run          - RUN NUMBER
ENG .         BILL                 : Engineer     - RECORDING ENGINEER
WIT .         JIM                  : Witness      - WITNESSED BY
MUD .         GEL                  : Mud_type     - MUD TYPE
MATR.         SANDSTONE            : Logunit      - NEUTRON MATRIX
TMAX.F        78                   : BHT          - MAXIMUM RECORDED TEMPERATURE
BHTD.F        1810                 : BHTDEP       - MAXIMUM RECORDED TEMPERATURE
MATR.         1                    : LOGUNIT      - NEUTRON MATRIX
RMT .F        77                   : MDTP         - TEMPERATURE OF MUD
NEUT.         1                    : NEUTRON      - NEUTRON TYPE
RESI.         5.67                 : RESIST       - RESISTIVITY TYPE
RMC .OHMM     5.67                 : RMC          - RESISTIVITY OF MUD CAKE
RMF .OHMM     5.67                 : RMF          - RESISTIVITY OF MUD FILTRATE
SUFT.F        4                    : SUFT         - SURFACE TEMPERATURE
~A  DEPTH      CAL       GR     PHIN     RESD     PHID
# ...
 1548.750    8.016  111.711    0.443    8.278    0.134
 1549.570    8.017  110.537    0.450    7.150    0.129
 1550.390    8.017  102.866    0.453    6.645    0.132
 1551.210    8.018   99.330    0.450    6.895    0.130
 1552.030    8.018   98.746    0.449    7.422    0.139
 1552.850    8.018   98.757    0.446    7.844    0.142
 1553.670    8.019   99.354    0.444    8.760    0.133
 1554.490    8.019   97.588    0.439    9.259    0.131
 1555.310    8.020   85.193    0.433    9.606    0.127
 1556.140    8.020   78.113    0.428    9.609    0.118
 1556.960    8.021   70.442    0.420    9.611    0.115
 1557.780    8.021   55.685    0.417    9.614    0.146
 1558.600    8.022   44.475    0.409    9.270    0.175
 1559.420    8.022   39.165    0.395    9.103    0.218
 1560.240    7.983   24.998    0.380    8.618    0.243
 1561.060    7.944   23.824    0.380    8.463    0.273
 1561.880    7.865   23.240    0.409    8.622    0.276
 1562.700    7.865   23.247    0.416    8.946    0.276
 1563.520    7.826   23.256    0.423    9.991    0.278
 1564.340    7.827   23.265    0.421   11.364    0.280
 1565.160    7.827   22.680    0.419   12.458    0.286
 1565.980    7.788   22.098    0.413   14.698    0.286
 1566.800    7.788   22.107    0.405   17.027    0.285
 1567.620    7.789   22.116    0.396   20.462    0.281
 1568.440    7.789   22.119    0.391   26.463    0.280
 1569.260    7.790   22.717    0.389   32.989    0.278
 1570.080    7.751   25.677    0.387   42.663    0.275
 1570.900    7.751   27.457    0.386   50.336    0.272
 1571.720    7.712   26.874    0.387   45.940    0.266
 1572.540    7.712   26.290    0.392   41.920    0.261
 1573.360    7.634   25.116    0.395   37.561    0.261
 1574.180    7.595   24.533    0.402   34.910    0.266
 1575.000    7.595   25.723    0.405   31.282    0.273
 1575.820    7.595   26.911    0.406   30.717    0.277
 1576.640    7.596   26.920    0.405   29.078    0.269
 1577.460    7.596   26.927    0.404   28.039    0.263
 1578.280    7.597   26.932    0.404   27.538    0.267
 1579.100    7.597   26.351    0.405   29.102    0.274
 1579.920    7.598   25.178    0.392   33.712    0.276
 1580.740    7.638   25.183    0.390   42.804    0.279
 1581.560    7.638   24.602    0.413   53.364    0.279
 1582.380    7.639   26.381    0.417   56.398    0.278
 1583.200    7.639   27.569    0.418   57.457    0.275
 1584.020    7.639   28.166    0.415   60.724    0.275
 1584.840    7.600   28.174    0.413   64.176    0.278
 1585.660    7.601   28.184    0.413   67.824    0.281
 1586.480    7.601   28.188    0.416   74.365    0.282
 1587.300    7.602   28.195    0.419   81.535    0.282
 1588.120    7.602   28.202    0.422   87.761    0.279
 1588.940    7.603   28.801    0.421   94.474    0.280
 1589.760    7.603   29.399    0.411   98.030    0.282
 1590.580    7.603   29.408    0.409   96.277    0.281
 1591.400    7.604   30.005    0.410   92.825    0.281
 1592.220    7.644   31.194    0.411   91.165    0.277
 1593.040    7.644   31.789    0.411   89.524    0.267
 1593.860    7.684   31.209    0.413   87.923    0.269
 1594.690    7.685   32.988    0.417   87.939    0.275
 1595.510    7.685   34.178    0.418   86.367    0.276
 1596.330    7.686   34.182    0.414   84.822    0.275
 1597.150    7.686   33.008    0.413   83.300    0.275
 1597.970    7.687   32.428    0.413   81.806    0.274
 1598.790    7.647   33.616    0.417   80.338    0.268
 1599.610    7.648   35.393    0.422   78.897    0.259
 1600.430    7.648   40.717    0.429   77.481    0.263
 1601.250    7.649   41.904    0.433   74.721    0.265
 1602.070    7.649   42.503    0.438   72.038    0.264
 1602.890    7.650   43.102    0.441   66.952    0.262
 1603.710    7.650   43.109    0.439   51.796    0.261
 1604.530    7.650   43.115    0.426   29.876    0.262
 1605.350    7.651   43.718    0.412   18.208    0.269
 1606.170    7.652   43.721    0.404   15.727    0.275
 1606.990    7.652   43.732    0.400   13.583    0.269
 1607.810    7.613   43.737    0.398   12.395    0.261
 1608.630    7.613   43.744    0.398   11.521    0.264
 1609.450    7.574   43.749    0.402   10.907    0.265
 1610.270    7.575   44.347    0.412   10.517    0.264
 1611.090    7.575   44.356    0.420   10.140    0.259
 1611.910    7.575   44.363    0.421    9.778    0.258
 1612.730    7.615   44.370    0.417    9.603    0.256
 1613.550    7.616   44.968    0.409    9.429    0.262
 1614.370    7.656   44.977    0.407    9.261    0.264
 1615.190    7.656   44.987    0.406    9.263    0.257
 1616.010    7.656   44.992    0.401    9.096    0.246
 1616.830    7.934   44.998    0.406    8.771    0.251
 1617.650    8.014   44.416    0.412    8.153    0.259
 1618.470    8.014   44.425    0.414    8.155    0.269
 1619.290    8.015   44.432    0.411    8.009    0.265
 1620.110    8.015   44.439    0.406    8.159    0.253
 1620.930    8.016   46.218    0.395    8.161    0.240
 1621.750    8.056   48.586    0.379    8.314    0.215
 1622.570    8.056   54.498    0.368    8.787    0.202
 1623.390    8.017   62.185    0.366    9.813    0.186
 1624.210    7.899   68.688    0.390    9.996    0.199
 1625.030    7.899   76.374    0.393    9.638    0.226
 1625.850    7.900   80.514    0.418    9.293    0.236
 1626.670    7.900   85.246    0.421    8.961    0.236
 1627.490    7.901   89.981    0.421    8.330    0.211
 1628.310    7.901   91.758    0.418    8.031    0.203
 1629.130    7.901   89.993    0.423    7.743    0.190
 1629.950    7.902   87.638    0.438    7.889    0.185
 1630.770    7.902   84.694    0.453    7.891    0.177
 1631.590    7.942   87.654    0.423    8.040    0.167
 1632.410    7.982   96.520    0.444    8.041    0.166
 1633.230    7.983  104.204    0.471    7.612    0.172
 1634.060    7.983  103.623    0.494    7.207    0.178
 1634.880    7.984  103.630    0.506    6.949    0.178
 1635.700    7.984  104.229    0.483    6.700    0.172
 1636.520    7.984  106.008    0.465    6.460    0.161
 1637.340    7.985  106.604    0.470    6.117    0.149
 1638.160    7.985  107.792    0.477    5.898    0.154
 1638.980    7.986  109.571    0.489    5.686    0.158
 1639.800    7.986  112.534    0.507    5.483    0.159
 1640.620    7.987  114.313    0.507    5.484    0.159
 1641.440    7.987  113.139    0.501    5.385    0.159
 1642.260    7.948  111.373    0.500    5.387    0.162
 1643.080    7.949  110.789    0.501    5.388    0.165
 1643.900    7.909  110.796    0.500    5.389    0.166
 1644.720    7.950  110.214    0.496    5.391    0.161
 1645.540    7.950  109.040    0.485    5.392    0.157
 1646.360    7.990  104.913    0.482    5.394    0.156
 1647.180    7.990   97.243    0.478    5.597    0.150
 1648.000    8.030   89.572    0.472    6.136    0.147
 1648.820    8.031   88.402    0.462    7.108    0.136
 1649.640    8.031   89.588    0.442    8.235    0.094
 1650.460    8.032   93.731    0.398    8.544    0.069
 1651.280    8.032   96.689    0.378    8.392    0.092
 1652.100    8.033  100.240    0.448    7.800    0.119
 1652.920    8.033  100.841    0.492    7.250    0.143
 1653.740    7.994   98.484    0.498    7.251    0.074
 1654.560    7.994   97.902    0.466    7.663    0.057
 1655.380    7.995   97.911    0.434    8.100    0.102
 1656.200    7.995   99.099    0.403    8.251    0.127
 1657.020    7.996  100.284    0.446    8.563    0.145
 1657.840    7.996   99.704    0.449    8.564    0.177
 1658.660    7.996   97.938    0.447    8.566    0.212
 1659.480    7.997  102.081    0.459    8.568    0.213
 1660.300    7.998  104.448    0.509    8.414    0.213
 1661.120    7.998  104.455    0.516    8.114    0.217
 1661.940    8.038  100.332    0.528    8.266    0.220
 1662.760    8.038   95.612    0.537    8.577    0.210
 1663.580    8.039   79.674    0.510    9.233    0.189
 1664.400    8.039   71.413    0.401   10.501    0.183
 1665.220    8.000   79.688    0.361   13.831    0.157
 1666.040    8.001   86.782    0.349   19.971    0.149
 1666.860    8.001   92.106    0.344   20.722    0.078
 1667.680    8.001   96.247    0.349   18.228    0.162
