~VERSION INFORMATION
 VERS.                 2.0:   CWLS LOG ASCII STANDARD -VERSION 2.0
 WRAP.                  NO:   ONE LINE PER DEPTH STEP
~WELL INFORMATION BLOCK
#MNEM.UNIT           DATA                    DESCRIPTION OF MNEMONIC
#---------    -------------------            -------------------------------
# Generated from Intellog Unique Number	CS_77_79/WELL/977
WELL.         UNEX ET AL CHARD               : Well_name    - WELL
LOC .         00/10-31-079-05W4/0            : Location     - LOCATION
UWI .         00/10-31-079-05W4/0            : Uwi          - UNIQUE WELL ID
ENTR.         JHS                            : Entered      - ENTERED BY
SRVC.         SCHLUMBERGER                   : Scn          - SERVICE COMPANY
STRT.M        105                            : top_depth    - START DEPTH
STOP.M        280                            : bot_depth    - STOP DEPTH
STEP.M        0.25                           : increment    - STEP LENGTH
 NULL. -999.2500:NULL Value
~CURVE INFORMATION BLOCK
#MNEM UNIT       ERCB CURVE CODE    CURVE DESCRIPTION
#-----------   ------------------   ----------------------------------
DEPT.M        00 001 00 00         : DEPTH        - DEPTH
DPHI.V/V      00 890 00 00         : PHID         - DENSITY POROSITY (LIMESTONE)
NPHI.V/V      00 330 00 00         : PHIN         - NEUTRON POROSITY (LIMESTONE)
GR  .API      00 310 00 00         : GR           - GAMMA RAY
ILD .OHMM     00 120 00 00         : RESD         - DEEP RESISTIVITY (DIL)
RHOB.KG/M3    00 350 00 00         : DENS         - BULK DENSITY
~PARAMETER INFORMATION
#MNEM.UNIT           DATA             DESCRIPTION OF MNEMONIC
#---------         -----------     ------------------------------
GL  .M        457.3                : gl           - GROUND LEVEL ELEVATION
EREF.M        460.8                : kb           - ELEVATION OF DEPTH REFERENCE
DATM.M        460.8                : datum        - DATUM ELEVATION
TDD .M        329                  : tdd          - TOTAL DEPTH DRILLER
RUN .         ONE                  : Run          - RUN NUMBER
ENG .         BILL                 : Engineer     - RECORDING ENGINEER
WIT .         JIM                  : Witness      - WITNESSED BY
MUD .         GEL                  : Mud_type     - MUD TYPE
MATR.         LIMESTONE            : Logunit      - NEUTRON MATRIX
TMAX.C        19                   : BHT          - MAXIMUM RECORDED TEMPERATURE
BHTD.M        329                  : BHTDEP       - MAXIMUM RECORDED TEMPERATURE
MATR.         1                    : LOGUNIT      - NEUTRON MATRIX
RMT .C        25                   : MDTP         - TEMPERATURE OF MUD
NEUT.         1                    : NEUTRON      - NEUTRON TYPE
RESI.         0                    : RESIST       - RESISTIVITY TYPE
RMC .OHMM     0.25                 : RMC          - RESISTIVITY OF MUD CAKE
RMF .OHMM     0.25                 : RMF          - RESISTIVITY OF MUD FILTRATE
SUFT.C        15                   : SUFT         - SURFACE TEMPERATURE
~A  DEPTH     PHID     PHIN       GR     RESD     DENS
# ...
  141.500    0.262    0.462   84.560    7.913    0.000
  141.750    0.271    0.451   88.264    7.775    0.000
  142.000    0.261    0.430   90.736    7.639    0.000
  142.250    0.247    0.436   90.756    7.505    0.000
  142.500    0.250    0.443   90.155    7.510    0.000
  142.750    0.253    0.440   88.324    7.518    0.000
  143.000    0.249    0.443   84.648    7.669    0.000
  143.250    0.242    0.456   81.591    7.674    0.000
  143.500    0.238    0.481   87.139    7.540    0.000
  143.750    0.250    0.505   91.455    7.408    0.000
  144.000    0.257    0.512   86.553    7.278    0.000
  144.250    0.256    0.495   84.113    7.017    0.000
  144.500    0.238    0.484   85.354    6.766    0.000
  144.750    0.241    0.493   86.600    6.525    0.000
  145.000    0.256    0.474   89.071    6.529    0.000
  145.250    0.251    0.475   92.774    6.660    0.000
  145.500    0.269    0.494   83.571    7.053    0.000
  145.750    0.297    0.480   78.666    7.325    0.000
  146.000    0.291    0.472   77.449    8.052    0.000
  146.250    0.285    0.453   82.383    8.686    0.000
  146.500    0.278    0.448   83.012    9.196    0.000
  146.750    0.279    0.459   76.879    9.556    0.000
  147.000    0.307    0.440   75.665    9.751    0.000
  147.250    0.314    0.430   78.138    9.575    0.000
  147.500    0.298    0.441   77.538    9.409    0.000
  147.750    0.285    0.445   76.325    9.243    0.000
  148.000    0.297    0.443   77.573    9.426    0.000
  148.250    0.297    0.449   78.202    9.612    0.000
  148.500    0.292    0.446   79.442    9.989    0.000
  148.750    0.286    0.443   81.304    9.997    0.000
  149.000    0.281    0.459   83.162   10.009    0.000
  149.250    0.280    0.466   77.642    9.833    0.000
  149.500    0.275    0.452   73.972    9.660    0.000
  149.750    0.274    0.450   75.215    9.490    0.000
  150.000    0.275    0.449   77.072    9.499    0.000
  150.250    0.266    0.439   80.777    9.333    0.000
  150.500    0.260    0.427   85.710    8.830    0.000
  150.750    0.255    0.420   95.564    8.200    0.000
  151.000    0.260    0.423  105.414    6.936    0.000
  151.250    0.280    0.553  109.125    5.243    0.000
  151.500    0.284    0.571  108.517    4.192    0.000
  151.750    0.282    0.582  101.768    3.613    0.000
  152.000    0.294    0.588   98.714    3.357    0.000
  152.250    0.290    0.547   98.110    3.359    0.000
  152.500    0.271    0.521   98.126    3.490    0.000
  152.750    0.253    0.529   99.984    3.766    0.000
  153.000    0.249    0.555  106.763    3.912    0.000
  153.250    0.282    0.531  111.696    4.382    0.000
  153.500    0.304    0.498  108.635    5.001    0.000
  153.750    0.289    0.479   93.282    5.599    0.000
  154.000    0.283    0.483   95.754    6.760    0.000
  154.250    0.254    0.497  103.764    7.430    0.000
  154.500    0.249    0.506   97.632    7.866    0.000
  154.750    0.262    0.506   95.801    7.876    0.000
  155.000    0.271    0.503   98.275    7.452    0.000
  155.250    0.258    0.507  100.135    6.920    0.000
  155.500    0.250    0.510   98.919    6.429    0.000
  155.750    0.253    0.508   95.862    6.314    0.000
  156.000    0.256    0.508   95.264    6.203    0.000
  156.250    0.257    0.511   95.273    6.095    0.000
  156.500    0.259    0.513  100.212    5.989    0.000
  156.750    0.263    0.513  100.839    5.772    0.000
  157.000    0.254    0.509   99.624    5.462    0.000
  157.250    0.265    0.496   99.639    4.886    0.000
  157.500    0.285    0.510  101.500    4.133    0.000
  157.750    0.304    0.540  106.432    3.431    0.000
  158.000    0.315    0.615  109.521    3.012    0.000
  158.250    0.306    0.593  107.078    2.645    0.000
  158.500    0.288    0.574  106.475    2.504    0.000
  158.750    0.280    0.607  108.339    2.459    0.000
  159.000    0.273    0.599  107.734    2.555    0.000
  159.250    0.296    0.579  105.290    2.655    0.000
  159.500    0.290    0.576  106.535    2.865    0.000
  159.750    0.276    0.576  108.395    3.090    0.000
  160.000    0.267    0.521  106.565    3.334    0.000
  160.250    0.270    0.525  102.890    3.529    0.000
  160.500    0.275    0.547   97.987    3.736    0.000
  160.750    0.283    0.516   93.084    4.107    0.000
  161.000    0.284    0.488   93.713    4.514    0.000
  161.250    0.276    0.509   98.036    4.869    0.000
  161.500    0.270    0.520   99.278    5.156    0.000
  161.750    0.292    0.527   95.601    5.359    0.000
  162.000    0.290    0.528   82.705    5.781    0.000
  162.250    0.275    0.511   71.041    6.235    0.000
  162.500    0.195    0.470   61.218    7.669    0.000
  162.750    0.115    0.365   56.930    8.917    0.000
  163.000    0.118    0.306   60.632    9.439    0.000
  163.250    0.233    0.420   72.328    9.629    0.000
  163.500    0.280    0.462   80.338    9.460    0.000
  163.750    0.272    0.454   77.900    9.123    0.000
  164.000    0.280    0.469   79.137    8.793    0.000
  164.250    0.294    0.517   82.840    8.166    0.000
  164.500    0.288    0.517   86.546    7.585    0.000
  164.750    0.284    0.478   89.635    7.315    0.000
  165.000    0.285    0.456   90.877    7.322    0.000
  165.250    0.283    0.478   79.213    7.326    0.000
  165.500    0.289    0.502   68.776    8.055    0.000
  165.750    0.281    0.472   64.486    8.687    0.000
  166.000    0.223    0.391   65.114    9.373    0.000
  166.250    0.150    0.309   78.045    9.559    0.000
  166.500    0.234    0.402   82.975    9.390    0.000
  166.750    0.274    0.440   86.064    9.053    0.000
  167.000    0.291    0.423   87.922    8.895    0.000
  167.250    0.296    0.428   92.857    8.576    0.000
  167.500    0.291    0.448   94.100    8.120    0.000
  167.750    0.292    0.469   86.124    8.124    0.000
  168.000    0.297    0.477   79.378    8.288    0.000
  168.250    0.297    0.479   79.396    8.451    0.000
  168.500    0.279    0.465   80.639    8.783    0.000
  168.750    0.258    0.468   81.879    8.789    0.000
  169.000    0.243    0.487   82.515    8.800    0.000
  169.250    0.242    0.496   82.522    8.643    0.000
  169.500    0.289    0.493   84.996    8.492    0.000
  169.750    0.285    0.489   90.547    8.037    0.000
  170.000    0.282    0.486   91.790    7.748    0.000
  170.250    0.278    0.486   94.267    7.331    0.000
  170.500    0.269    0.494   99.198    6.937    0.000
  170.750    0.260    0.497  104.747    6.815    0.000
  171.000    0.259    0.495  105.376    6.572    0.000
  171.250    0.262    0.469  101.704    6.703    0.000
  171.500    0.260    0.420   96.802    6.835    0.000
  171.750    0.257    0.399   94.352    7.236    0.000
  172.000    0.267    0.403   90.679    7.522    0.000
  172.250    0.281    0.434   83.933    7.668    0.000
  172.500    0.293    0.461   80.872    7.397    0.000
  172.750    0.299    0.479   86.421    6.998    0.000
  173.000    0.279    0.457   96.887    6.498    0.000
  173.250    0.261    0.449  103.666    5.601    0.000
  173.500    0.260    0.454  101.223    4.738    0.000
  173.750    0.273    0.472   93.245    4.319    0.000
  174.000    0.280    0.494   94.488    4.405    0.000
  174.250    0.262    0.518   96.346    4.492    0.000
  174.500    0.251    0.530   95.135    4.847    0.000
  174.750    0.257    0.521   98.838    5.131    0.000
  175.000    0.272    0.538  100.084    5.332    0.000
  175.250    0.275    0.546   97.640    5.141    0.000
  175.500    0.267    0.503   96.425    4.774    0.000
  175.750    0.261    0.513   98.284    4.517    0.000
  176.000    0.268    0.530   98.910    4.355    0.000
  176.250    0.284    0.536   99.542    4.443    0.000
  176.500    0.295    0.539  101.398    4.616    0.000
  176.750    0.315    0.543   93.422    4.980    0.000
  177.000    0.321    0.492   75.608    5.372    0.000
  177.250    0.309    0.465   81.771    5.277    0.000
  177.500    0.290    0.473   90.393    4.723    0.000
  177.750    0.287    0.521   97.784    4.552    0.000
