~VERSION INFORMATION
 VERS.                 2.0:   CWLS LOG ASCII STANDARD -VERSION 2.0
 WRAP.                  NO:   ONE LINE PER DEPTH STEP
~WELL INFORMATION BLOCK
#MNEM.UNIT           DATA                    DESCRIPTION OF MNEMONIC
#---------    -------------------            -------------------------------
# Generated from Intellog Unique Number	CW_73_75/WELL/1030
WELL.         CHEVRON ET AL ROCK 10-33       : Well_name    - WELL
LOC .         00/10-33-075-22W4/0            : Location     - LOCATION
UWI .         00/10-33-075-22W4/0            : Uwi          - UNIQUE WELL ID
ENTR.         JAYE                           : Entered      - ENTERED BY
SRVC.         SCHLUMBERGER                   : Scn          - SERVICE COMPANY
DATE.         14 JAN 73                      : Date         - LOG DATE
STRT.M        371.856                        : top_depth    - START DEPTH
STOP.M        655.356                        : bot_depth    - STOP DEPTH
STEP.M        0.25                           : increment    - STEP LENGTH
 NULL. -999.2500:NULL Value
~CURVE INFORMATION BLOCK
#MNEM UNIT       ERCB CURVE CODE    CURVE DESCRIPTION
#-----------   ------------------   ----------------------------------
DEPT.M        00 001 00 00         : DEPTH        - DEPTH
ILD .OHMM     00 120 00 00         : RESD         - DEEP RESISTIVITY (DLL)
NPHI.V/V      00 330 00 00         : PHIN         - NEUTRON POROSITY (SANDSTONE)
DPHI.V/V      00 890 00 00         : PHID         - DENSITY POROSITY (SANDSTONE)
GR  .API      00 310 00 00         : GR           - GAMMA RAY
CALI.MM       00 280 01 00         : CAL          - CALIPER
~PARAMETER INFORMATION
#MNEM.UNIT           DATA             DESCRIPTION OF MNEMONIC
#---------         -----------     ------------------------------
GL  .M        669.036              : gl           - GROUND LEVEL ELEVATION
EREF.M        672.267              : kb           - ELEVATION OF DEPTH REFERENCE
DATM.M        669.036              : datum        - DATUM ELEVATION
TDD .M        603.504              : tdd          - TOTAL DEPTH DRILLER
RUN .         ONE                  : Run          - RUN NUMBER
MATR.         SANDSTONE            : Logunit      - NEUTRON MATRIX
TMAX.C        32.7778              : BHT          - MAXIMUM RECORDED TEMPERATURE
BHTD.M        603.199              : BHTDEP       - MAXIMUM RECORDED TEMPERATURE
RMT .C        18.8889              : MDTP         - TEMPERATURE OF MUD
MUDD.KG/M     0                    : MWT          - MUD DENSITY
NEUT.         0                    : NEUTRON      - NEUTRON TYPE
RESI.         1                    : RESIST       - RESISTIVITY TYPE
RM  .OHMM     0                    : RM           - RESISTIVITY OF MUD
RMC .OHMM     3.5                  : RMC          - RESISTIVITY OF MUD CAKE
RMF .OHMM     3.51                 : RMF          - RESISTIVITY OF MUD FILTRATE
SUFT.C        -17.7778             : SUFT         - SURFACE TEMPERATURE
~A  DEPTH     RESD     PHIN     PHID       GR      CAL
# ...
  444.856    4.915    0.535    0.232   97.491  213.212
  445.106    5.161    0.497    0.213  100.186  213.742
  445.356    5.389    0.520    0.169  101.905  213.964
  445.606    5.545    0.541    0.205  103.501  214.390
  445.856    5.726    0.516    0.187  103.082  214.716
  446.106    5.891    0.488    0.168   99.121  215.042
  446.356    6.347    0.466    0.172   94.674  215.261
  446.606    7.213    0.527    0.185   93.034  215.483
  446.856    9.326    0.530    0.196   91.700  215.600
  447.106   14.739    0.493    0.190   90.244  215.512
  447.356   20.819    0.447    0.182   88.236  214.802
  447.606   25.050    0.376    0.174   83.056  212.129
  447.856   18.739    0.294    0.178   75.312  212.144
  448.106   14.816    0.215    0.091   70.070  213.812
  448.356   12.424    0.224    0.022   64.584  212.276
  448.606   10.190    0.286    0.072   71.003  210.740
  448.856    9.031    0.403    0.212   76.689  208.481
  449.106    8.243    0.583    0.269   83.535  206.944
  449.356    7.721    0.576    0.297   87.328  206.234
  449.606    7.271    0.556    0.279   83.491  204.802
  449.856    7.053    0.535    0.258   78.982  203.989
  450.106    6.918    0.533    0.259   74.840  203.385
  450.356    6.747    0.526    0.282   70.818  203.193
  450.606    6.641    0.498    0.305   68.141  203.207
  450.856    6.489    0.489    0.298   70.470  203.427
  451.106    6.435    0.492    0.310   72.187  203.441
  451.356    6.196    0.504    0.297   68.105  203.250
  451.606    6.132    0.527    0.320   66.100  203.264
  451.856    6.116    0.531    0.312   65.742  202.867
  452.106    6.042    0.549    0.310   66.177  202.879
  452.356    6.036    0.563    0.308   68.628  202.690
  452.606    6.097    0.543    0.295   68.759  202.597
  452.856    6.205    0.496    0.299   68.768  202.200
  453.106    6.659    0.478    0.303   69.875  201.593
  453.356    7.335    0.462    0.309   71.409  201.299
  453.606    7.991    0.464    0.321   71.479  200.900
  453.856    8.965    0.500    0.303   69.779  200.602
  454.106    9.275    0.526    0.313   67.650  201.548
  454.356    8.734    0.446    0.300   65.033  203.838
  454.606    7.871    0.379    0.271   63.821  206.435
  454.856    7.224    0.350    0.230   62.487  211.309
  455.106    6.680    0.363    0.212   63.167  209.153
  455.356    6.154    0.464    0.287   65.068  207.306
  455.606    5.828    0.511    0.301   66.969  207.114
  455.856    5.601    0.519    0.297   69.603  206.819
  456.106    5.513    0.519    0.282   72.602  206.835
  456.356    5.498    0.496    0.274   77.006  207.571
  456.606    5.624    0.427    0.278   82.632  207.690
  456.856    5.744    0.409    0.299   84.838  207.600
  457.106    5.878    0.426    0.311   70.073  207.925
  457.356    6.059    0.453    0.315   65.381  208.042
  457.606    6.245    0.485    0.294   67.892  208.058
  457.856    6.355    0.509    0.291   69.916  208.071
  458.106    6.443    0.507    0.286   71.633  207.878
  458.356    6.423    0.487    0.261   73.596  208.101
  458.606    6.382    0.471    0.233   72.139  208.219
  458.856    6.294    0.465    0.260   70.255  208.441
  459.106    6.207    0.451    0.277   68.738  208.145
  459.356    6.122    0.462    0.270   68.257  208.057
  459.606    6.025    0.486    0.271   70.586  207.657
  459.856    5.943    0.484    0.287   71.204  207.569
  460.106    5.860    0.467    0.298   69.748  208.098
  460.356    5.812    0.469    0.280   70.978  208.836
  460.606    5.751    0.479    0.278   73.551  208.231
  460.856    5.651    0.456    0.267   77.771  207.626
  461.106    5.625    0.469    0.239   79.916  207.641
  461.356    5.589    0.489    0.250   78.948  208.897
  461.606    5.584    0.500    0.258   73.096  210.252
  461.856    5.588    0.500    0.254   75.730  211.612
  462.106    5.582    0.474    0.232   80.806  212.038
  462.356    5.545    0.478    0.231   79.716  210.296
  462.606    5.550    0.494    0.272   79.846  206.176
  462.856    5.575    0.492    0.283   82.602  208.051
  463.106    5.579    0.472    0.228   86.090  211.787
  463.356    5.574    0.507    0.204   90.372  215.213
  463.606    5.589    0.524    0.227   90.320  212.953
  463.856    5.604    0.510    0.237   89.353  211.935
  464.106    5.756    0.546    0.227   89.970  214.740
  464.356    5.835    0.579    0.206   91.260  216.511
  464.606    5.830    0.531    0.233   95.054  208.981
  464.856    5.759    0.516    0.225   98.909  207.341
  465.106    5.722    0.499    0.226  100.077  207.871
  465.356    5.737    0.487    0.247   98.926  208.817
  465.606    5.668    0.471    0.242   92.097  209.451
  465.856    5.601    0.430    0.265   84.780  209.880
  466.106    5.461    0.440    0.257   87.535  209.687
  466.356    5.427    0.492    0.207   90.474  210.635
  466.606    5.441    0.487    0.209   91.093  211.580
  466.856    5.456    0.455    0.236   87.989  212.317
  467.106    5.429    0.427    0.240   89.462  212.849
  467.356    5.355    0.461    0.248   90.997  213.070
  467.606    5.368    0.464    0.220   92.593  213.081
  467.856    5.373    0.480    0.206   92.052  213.509
  468.106    5.329    0.509    0.215   91.633  213.834
  468.356    5.237    0.523    0.223   91.642  214.262
  468.606    5.202    0.484    0.228   91.712  214.588
  468.856    5.206    0.477    0.228   92.757  214.601
  469.106    5.229    0.520    0.200   94.231  214.203
  469.356    5.177    0.546    0.194   95.278  214.527
  469.606    5.278    0.471    0.194   96.629  216.610
  469.856    5.410    0.497    0.201   97.981  218.897
  470.106    5.818    0.567    0.227   96.098  211.675
  470.356    6.325    0.627    0.268   90.978  206.213
  470.606    6.993    0.598    0.263   85.248  204.676
  470.856    7.576    0.525    0.260   79.701  203.658
  471.106    8.375    0.475    0.274   80.564  203.980
  471.356    9.571    0.413    0.211   81.794  206.064
  471.606   10.503    0.389    0.194   80.398  207.421
  471.856    9.947    0.339    0.160   76.256  208.574
  472.106    8.341    0.322    0.138   76.080  209.414
  472.356    7.379    0.377    0.137   81.950  209.637
  472.606    5.953    0.528    0.207   89.346  209.550
  472.856    5.627    0.496    0.223   84.775  209.769
  473.106    5.478    0.513    0.246   81.731  210.093
  473.356    5.463    0.545    0.221   79.421  210.110
  473.606    5.527    0.514    0.257   79.123  209.917
  473.856    5.584    0.488    0.270   79.743  209.312
  474.106    5.692    0.505    0.275   81.460  208.910
  474.356    5.857    0.517    0.284   84.705  208.721
  474.606    6.081    0.481    0.251   87.949  209.044
  474.856    6.338    0.496    0.228   92.475  209.780
  475.106    6.582    0.470    0.211   95.597  211.038
  475.356    6.760    0.445    0.178   91.271  211.672
  475.606    6.753    0.453    0.179   86.396  212.824
  475.856    6.647    0.450    0.183   83.962  214.594
  476.106    6.506    0.471    0.188   81.163  214.711
  476.356    6.312    0.487    0.192   78.668  213.485
  476.606    6.043    0.517    0.205   75.929  212.053
  476.856    5.841    0.550    0.278   75.084  210.619
  477.106    5.531    0.517    0.294   76.191  208.877
  477.356    5.239    0.482    0.275   78.458  208.891
  477.606    4.915    0.452    0.277   81.030  209.218
  477.856    4.689    0.452    0.264   82.566  210.576
  478.106    4.532    0.529    0.231   85.566  211.726
  478.356    4.469    0.539    0.219   89.909  212.775
  478.606    4.540    0.541    0.198   91.321  213.306
  478.856    4.792    0.551    0.220   93.955  212.082
  479.106    5.097    0.538    0.217   95.185  211.681
  479.356    5.573    0.546    0.209   93.667  211.902
  479.606    6.299    0.502    0.210   90.685  212.227
  479.856    7.373    0.487    0.222   86.176  209.968
  480.106    9.981    0.454    0.230   80.690  208.536
  480.356   13.414    0.402    0.224   74.227  208.446
  480.606   21.754    0.308    0.209   68.557  209.080
  480.856   29.616    0.260    0.117   62.461  210.026
  481.106   37.243    0.169    0.056   58.074  211.180
