~VERSION INFORMATION
 VERS.                 2.0:   CWLS LOG ASCII STANDARD -VERSION 2.0
 WRAP.                  NO:   ONE LINE PER DEPTH STEP
~WELL INFORMATION BLOCK
#MNEM.UNIT           DATA                    DESCRIPTION OF MNEMONIC
#---------    -------------------            -------------------------------
# Generated from Intellog Unique Number	CN_91_93/WELL/3146
WELL.         10-25-092-18W4                 : Well_name    - WELL
LOC .         00/10-25-092-18W4/0            : Location     - LOCATION
UWI .         00/10-25-092-18W400            : Uwi          - UNIQUE WELL ID
ENTR.         JOETTE                         : Entered      - ENTERED BY
SRVC.         SCHLUMBERGER                   : Scn          - SERVICE COMPANY
DATE.         04/12/92                       : Date         - LOG DATE
STRT.M        100                            : top_depth    - START DEPTH
STOP.M        266                            : bot_depth    - STOP DEPTH
STEP.M        0.25                           : increment    - STEP LENGTH
 NULL. -999.2500:NULL Value
~CURVE INFORMATION BLOCK
#MNEM UNIT       ERCB CURVE CODE    CURVE DESCRIPTION
#-----------   ------------------   ----------------------------------
DEPT.M        00 001 00 00         : DEPTH        - DEPTH
CALI.MM       00 280 01 00         : CAL          - CALIPER
GR  .API      00 310 00 00         : GR           - GAMMA RAY
NPHI.V/V      00 330 00 00         : PHIN         - NEUTRON POROSITY (SANDSTONE)
DPHI.V/V      00 890 00 00         : PHID         - DENSITY POROSITY (SANDSTONE)
ILD .OHMM     00 120 00 00         : RESD         - DEEP RESISTIVITY (DIL)
~PARAMETER INFORMATION
#MNEM.UNIT           DATA             DESCRIPTION OF MNEMONIC
#---------         -----------     ------------------------------
GL  .M        520.54               : gl           - GROUND LEVEL ELEVATION
EREF.M        523.54               : kb           - ELEVATION OF DEPTH REFERENCE
DATM.M        523.54               : datum        - DATUM ELEVATION
TDD .M        268.5                : tdd          - TOTAL DEPTH DRILLER
RUN .         ONE                  : Run          - RUN NUMBER
ENG .         BILL                 : Engineer     - RECORDING ENGINEER
WIT .         JIM                  : Witness      - WITNESSED BY
MUD .         GEL                  : Mud_type     - MUD TYPE
MATR.         SANDSTONE            : Logunit      - NEUTRON MATRIX
TMAX.C        25                   : BHT          - MAXIMUM RECORDED TEMPERATURE
BHTD.M        268.5                : BHTDEP       - MAXIMUM RECORDED TEMPERATURE
RMT .C        17                   : MDTP         - TEMPERATURE OF MUD
MUDD.KG/M     1135                 : MWT          - MUD DENSITY
NEUT.         1                    : NEUTRON      - NEUTRON TYPE
RESI.         0                    : RESIST       - RESISTIVITY TYPE
RM  .OHMM     6.25                 : RM           - RESISTIVITY OF MUD
RMC .OHMM     6.25                 : RMC          - RESISTIVITY OF MUD CAKE
RMF .OHMM     5.21                 : RMF          - RESISTIVITY OF MUD FILTRATE
SUFT.C        4                    : SUFT         - SURFACE TEMPERATURE
~A  DEPTH      CAL       GR     PHIN     PHID     RESD
# ...
  209.500  162.765   17.680    0.239    0.340   90.144
  209.750  162.774   14.585    0.249    0.337   65.665
  210.000  162.804   12.730    0.286    0.328   48.790
  210.250  162.813   11.495    0.319    0.318   32.194
  210.500  162.835   11.508    0.318    0.309   24.398
  210.750  162.848   12.143    0.318    0.309   19.617
  211.000  162.865   12.150    0.318    0.310   18.849
  211.250  163.923   12.161    0.330    0.314   18.475
  211.500  163.940   11.552    0.345    0.316   18.837
  211.750  163.962   11.563    0.338    0.319   20.376
  212.000  163.975   13.438    0.331    0.320   20.779
  212.250  163.988   14.689    0.323    0.323   22.039
  212.500  164.010   17.813    0.321    0.324   23.842
  212.750  164.023   19.064    0.331    0.326   24.800
  213.000  164.045   20.940    0.347    0.328   27.365
  213.250  165.102   22.816    0.359    0.328   29.606
  213.500  165.111   23.450    0.365    0.324   33.993
  213.750  168.246   24.080    0.358    0.321   39.806
  214.000  169.295   24.712    0.376    0.322   46.612
  214.250  171.380   25.966    0.377    0.326   54.583
  214.500  175.551   27.838    0.368    0.330   66.495
  214.750  176.604   28.473    0.373    0.331   82.625
  215.000  176.622   28.484    0.379    0.331   98.686
  215.250  176.639   28.497    0.383    0.329  111.069
  215.500  176.656   28.505    0.383    0.327  115.507
  215.750  175.642   28.515    0.386    0.325  117.770
  216.000  175.655   29.150    0.384    0.311  115.420
  216.250  174.632   29.160    0.370    0.297  110.902
  216.500  171.549   29.168    0.361    0.292   94.646
  216.750  170.526   28.559    0.389    0.318   98.418
  217.000  168.467   28.570    0.401    0.318  112.980
  217.250  167.457   29.199    0.387    0.310  119.853
  217.500  167.466   31.080    0.379    0.308  122.201
  217.750  170.592   31.707    0.374    0.311  122.155
  218.000  175.803   31.720    0.368    0.310  122.109
  218.250  177.884   31.728    0.387    0.307  119.673
  218.500  181.009   31.738    0.404    0.307  114.977
  218.750  185.167   32.370    0.398    0.307  112.683
  219.000  188.293   31.762    0.397    0.307  110.445
  219.250  190.382   31.769    0.399    0.312  106.122
  219.500  194.553   31.785    0.406    0.309  106.072
  219.750  196.638   34.285    0.408    0.307  108.150
  220.000  199.769   34.912    0.414    0.312  108.110
  220.250  201.858   36.168    0.413    0.311  108.069
  220.500  202.907   35.557    0.408    0.311  112.388
  220.750  204.997   34.324    0.412    0.316  119.213
  221.000  206.051   33.713    0.429    0.319  123.989
  221.250  208.145   35.588    0.437    0.314  128.943
  221.500  210.234   38.088    0.445    0.305  134.083
  221.750  211.283   38.715    0.433    0.281  134.033
  222.000  214.413   38.725    0.421    0.254  114.375
  222.250  215.467   37.492    0.399    0.224   95.698
  222.500  216.521   37.503    0.410    0.269   90.134
  222.750  217.574   38.756    0.431    0.289   95.608
  223.000  218.628   41.254    0.439    0.299   97.490
  223.250  218.645   44.372    0.439    0.284   91.831
  223.500  218.658   47.491    0.446    0.261   79.935
  223.750  218.675   51.232    0.444    0.224   55.971
  224.000  217.661   59.327    0.429    0.197   31.528
  224.250  216.647   69.284    0.432    0.196   22.517
  224.500  214.596   73.649    0.439    0.203   18.108
  224.750  212.532   71.172    0.442    0.229   15.759
  225.000  210.477   70.559    0.432    0.246   14.270
  225.250  207.386   66.217    0.416    0.274   13.711
  225.500  203.268   64.984    0.416    0.271   13.438
  225.750  198.096   68.728    0.416    0.237   14.252
  226.000  193.973   67.495    0.409    0.224   15.119
  226.250  190.882   63.772    0.404    0.241   17.018
  226.500  189.859   64.404    0.411    0.268   19.155
  226.750  187.809   67.523    0.404    0.285   22.430
  227.000  184.717   69.399    0.399    0.241   25.749
  227.250  180.590   70.031    0.406    0.244   28.983
  227.500  179.567   72.528    0.410    0.256   28.974
  227.750  175.449   76.269    0.414    0.242   24.725
  228.000  174.421   76.279    0.407    0.211   22.836
  228.250  173.403   77.538    0.401    0.208   21.510
  228.500  172.388   76.305    0.416    0.229   21.502
  228.750  171.369   70.718    0.429    0.259   21.496
  229.000  169.319   60.160    0.392    0.283   23.255
  229.250  168.296   55.818    0.349    0.310   27.778
  229.500  166.245   50.233    0.314    0.323   39.641
  229.750  166.254   44.651    0.323    0.316   55.464
  230.000  166.271   42.797    0.319    0.319   67.568
  230.250  166.293   42.805    0.319    0.329   77.573
  230.500  166.310   41.572    0.333    0.339   89.058
  230.750  167.368   43.447    0.338    0.348   94.467
  231.000  169.458   45.323    0.333    0.340   96.318
  231.250  170.516   45.955    0.328    0.331  100.166
  231.500  171.565   44.722    0.319    0.321   92.512
  231.750  172.614   43.489    0.317    0.314   83.762
  232.000  172.645   44.123    0.372    0.310   92.434
  232.250  172.653   46.621    0.419    0.311  104.052
  232.500  172.666   48.496    0.427    0.315  106.090
  232.750  170.611   47.266    0.417    0.312   99.932
  233.000  168.561   44.784    0.413    0.308   92.287
  233.250  164.438   44.795    0.415    0.308   72.768
  233.500  163.411   44.808    0.407    0.301   55.147
  233.750  161.356   44.818    0.397    0.288   41.793
  234.000  158.269   41.096    0.403    0.297   42.612
  234.250  157.246   33.646    0.388    0.308   50.895
  234.500  157.268   28.061    0.342    0.322   64.504
  234.750  157.285   24.342    0.311    0.334   85.052
  235.000  157.302   21.866    0.287    0.342  118.999
  235.250  157.324   20.016    0.282    0.355  247.286
  235.500  157.341   21.892    0.284    0.364  257.168
  235.750  158.395   24.391    0.294    0.358  237.495
  236.000  159.448   25.640    0.340    0.344  256.951
  236.250  159.470   27.515    0.365    0.327  278.027
  236.500  160.519   29.393    0.398    0.315  277.922
  236.750  160.537   29.404    0.427    0.312  246.730
  237.000  161.590   28.171    0.428    0.314  256.565
  237.250  161.603   25.692    0.422    0.318  300.465
  237.500  160.585   21.975    0.416    0.323  351.842
  237.750  160.606   20.120    0.408    0.327  403.937
  238.000  160.624   20.128    0.402    0.328  482.410
  238.250  159.601   20.139    0.394    0.331  532.356
  238.500  160.654   20.773    0.369    0.333  564.688
  238.750  168.969   21.408    0.381    0.335  587.252
  239.000  168.978   21.413    0.390    0.331  587.032
  239.250  166.923   22.051    0.376    0.303  610.489
  239.500  165.904   21.434    0.357    0.255  660.564
  239.750  164.890   20.828    0.259    0.181  686.960
  240.000  168.020   20.833    0.240    0.270  700.354
  240.250  169.069   20.227    0.251    0.310  520.366
  240.500  172.199   21.481    0.357    0.331  435.309
  240.750  174.293   22.111    0.366    0.331  435.105
  241.000  176.379   22.124    0.377    0.323  426.504
  241.250  178.464   21.512    0.372    0.319  409.770
  241.500  180.558   21.525    0.367    0.322  356.689
  241.750  181.607   21.531    0.367    0.320  213.203
  242.000  183.701   22.784    0.380    0.314  127.438
  242.250  184.759   26.525    0.385    0.305   85.771
  242.500  183.732   32.130    0.379    0.294   51.263
  242.750  179.613   38.979    0.374    0.285   43.736
  243.000  182.739   47.693    0.399    0.285   42.872
  243.250  183.784   52.058    0.428    0.285   42.848
  243.500  185.873   52.069    0.420    0.284   42.836
  243.750  187.963   52.698    0.415    0.277   42.824
  244.000  190.053   53.957    0.415    0.270   41.147
  244.250  192.155   55.830    0.419    0.266   37.259
  244.500  193.204   60.192    0.415    0.254   30.561
  244.750  193.218   58.959    0.409    0.248   25.566
  245.000  193.235   57.107    0.407    0.248   22.254
  245.250  193.257   61.467    0.419    0.247   19.756
  245.500  193.274   67.694    0.444    0.243   17.539
  245.750  192.255   70.813    0.450    0.235   14.964
