~VERSION INFORMATION
 VERS.                 2.0:   CWLS LOG ASCII STANDARD -VERSION 2.0
 WRAP.                  NO:   ONE LINE PER DEPTH STEP
~WELL INFORMATION BLOCK
#MNEM.UNIT           DATA                    DESCRIPTION OF MNEMONIC
#---------    -------------------            -------------------------------
# Generated from Intellog Unique Number	CS_73_76/WELL/908
WELL.         HOLSTON OIL                    : Well_name    - WELL
LOC .         00/10-20-076-17W4/0            : Location     - LOCATION
UWI .         00/10-20-076-17W4/0            : Uwi          - UNIQUE WELL ID
ENTR.         T                              : Entered      - ENTERED BY
SRVC.         SCHLUMBERGER                   : Scn          - SERVICE COMPANY
STRT.F        1100                           : top_depth    - START DEPTH
STOP.F        1810.3                         : bot_depth    - STOP DEPTH
STEP.F        0.82                           : increment    - STEP LENGTH
 NULL. -999.2500:NULL Value
~CURVE INFORMATION BLOCK
#MNEM UNIT       ERCB CURVE CODE    CURVE DESCRIPTION
#-----------   ------------------   ----------------------------------
DEPT.F        00 001 00 00         : DEPTH        - DEPTH
GR  .API      00 310 00 00         : GR           - GAMMA RAY
DPHI.V/V      00 890 00 00         : PHID         - DENSITY POROSITY (SANDSTONE)
ILD .OHMM     00 120 00 00         : RESD         - DEEP RESISTIVITY (DIL)
~PARAMETER INFORMATION
#MNEM.UNIT           DATA             DESCRIPTION OF MNEMONIC
#---------         -----------     ------------------------------
GL  .F        2324                 : gl           - GROUND LEVEL ELEVATION
EREF.F        2334                 : kb           - ELEVATION OF DEPTH REFERENCE
DATM.F        2334                 : datum        - DATUM ELEVATION
TDD .F        1870                 : tdd          - TOTAL DEPTH DRILLER
RUN .         ONE                  : Run          - RUN NUMBER
ENG .         BILL                 : Engineer     - RECORDING ENGINEER
WIT .         JIM                  : Witness      - WITNESSED BY
MUD .         GEL                  : Mud_type     - MUD TYPE
MATR.         SANDSTONE            : Logunit      - NEUTRON MATRIX
TMAX.F        69                   : BHT          - MAXIMUM RECORDED TEMPERATURE
BHTD.F        1870                 : BHTDEP       - MAXIMUM RECORDED TEMPERATURE
MATR.         1                    : LOGUNIT      - NEUTRON MATRIX
RMT .F        73                   : MDTP         - TEMPERATURE OF MUD
NEUT.         1                    : NEUTRON      - NEUTRON TYPE
RESI.         0                    : RESIST       - RESISTIVITY TYPE
RMC .OHMM     1.64                 : RMC          - RESISTIVITY OF MUD CAKE
RMF .OHMM     1.64                 : RMF          - RESISTIVITY OF MUD FILTRATE
SUFT.F        59                   : SUFT         - SURFACE TEMPERATURE
~A  DEPTH       GR     PHID     RESD
# ...
 1277.990   36.602    0.271    8.376
 1278.810   36.006    0.270    9.522
 1279.630   36.011    0.269   10.436
 1280.450   36.018    0.267   11.438
 1281.270   36.025    0.267   12.537
 1282.090   36.028    0.268   13.995
 1282.910   36.032    0.270   15.911
 1283.730   37.239    0.272   16.811
 1284.550   38.448    0.273   16.210
 1285.370   39.054    0.274   15.630
 1286.190   39.060    0.277   14.797
 1287.010   38.464    0.278   13.755
 1287.830   38.469    0.277   13.263
 1288.650   38.476    0.277   12.329
 1289.470   38.480    0.278   11.672
 1290.290   39.086    0.280   11.051
 1291.110   39.090    0.281   10.852
 1291.930   40.899    0.281   10.464
 1292.750   42.106    0.281   10.090
 1293.570   41.511    0.283    9.909
 1294.390   40.315    0.285    9.731
 1295.210   39.116    0.280    9.556
 1296.030   37.921    0.278    9.557
 1296.850   36.724    0.279    9.559
 1297.670   37.330    0.279    9.561
 1298.490   39.740    0.279    9.562
 1299.310   40.947    0.279    9.564
 1300.130   42.154    0.279    9.567
 1300.950   41.558    0.277    9.568
 1301.770   41.563    0.277    9.569
 1302.590   40.368    0.277    9.748
 1303.410   39.771    0.278    9.749
 1304.230   39.174    0.280    9.931
 1305.050   39.780    0.283    9.933
 1305.870   42.791    0.288    9.935
 1306.690   45.802    0.285    9.936
 1307.510   47.612    0.284    9.938
 1308.330   47.615    0.285    9.939
 1309.150   47.621    0.285    9.942
 1309.970   48.227    0.289    9.762
 1310.790   48.233    0.294    9.587
 1311.610   48.838    0.291    9.245
 1312.430   50.648    0.288    8.915
 1313.250   51.254    0.287    8.595
 1314.070   50.658    0.286    8.137
 1314.900   49.461    0.285    7.846
 1315.720   47.062    0.280    7.848
 1316.540   44.664    0.263    8.142
 1317.360   44.067    0.254    8.446
 1318.180   45.877    0.243    9.090
 1319.000   49.489    0.236    9.782
 1319.820   51.295    0.239   10.527
 1320.640   54.307    0.241   10.921
 1321.460   56.716    0.243   10.923
 1322.280   58.525    0.247   10.925
 1323.100   59.130    0.251   10.729
 1323.920   57.333    0.250   10.535
 1324.740   54.333    0.247   10.159
 1325.560   51.331    0.247   10.161
 1326.380   51.337    0.243   10.163
 1327.200   54.949    0.241   10.352
 1328.020   56.156    0.239   10.353
 1328.840   56.163    0.239   10.742
 1329.660   56.168    0.238   10.941
 1330.480   55.572    0.238   11.145
 1331.300   54.976    0.243   10.747
 1332.120   54.380    0.250   10.175
 1332.940   53.183    0.255    9.992
 1333.760   51.984    0.261    9.635
 1334.580   48.987    0.265    9.462
 1335.400   48.392    0.267    9.463
 1336.220   48.998    0.268    9.294
 1337.040   49.001    0.271    9.466
 1337.860   47.804    0.275    9.643
 1338.680   45.404    0.278   10.004
 1339.500   43.606    0.280   10.005
 1340.320   41.808    0.281    9.648
 1341.140   42.416    0.282    9.475
 1341.960   43.022    0.279    9.136
 1342.780   43.629    0.272    8.971
 1343.600   44.236    0.269    8.810
 1344.420   44.843    0.274    8.342
 1345.240   45.447    0.277    8.343
 1346.060   45.452    0.281    8.193
 1346.880   46.058    0.283    7.900
 1347.700   46.063    0.278    7.757
 1348.520   44.866    0.274    7.480
 1349.340   44.871    0.273    7.346
 1350.160   44.876    0.275    7.214
 1350.980   44.282    0.275    7.215
 1351.800   44.288    0.270    7.217
 1352.620   44.294    0.263    7.218
 1353.440   44.297    0.262    7.219
 1354.270   44.302    0.262    7.090
 1355.090   44.908    0.266    7.091
 1355.910   45.517    0.275    7.091
 1356.730   45.521    0.283    6.964
 1357.550   45.527    0.291    6.966
 1358.370   45.531    0.293    6.967
 1359.190   44.936    0.291    6.968
 1360.010   44.339    0.286    6.969
 1360.830   43.745    0.279    6.970
 1361.650   43.147    0.274    6.972
 1362.470   43.152    0.265    6.973
 1363.290   43.157    0.266    6.974
 1364.110   43.163    0.274    7.104
 1364.930   43.169    0.278    7.106
 1365.750   43.174    0.284    7.107
 1366.570   43.179    0.286    7.108
 1367.390   43.184    0.283    7.109
 1368.210   43.791    0.282    7.111
 1369.030   44.398    0.284    7.111
 1369.850   45.003    0.287    6.984
 1370.670   45.609    0.284    6.985
 1371.490   45.614    0.281    6.987
 1372.310   44.417    0.279    6.988
 1373.130   42.620    0.280    6.989
 1373.950   41.422    0.281    6.990
 1374.770   39.624    0.281    6.991
 1375.590   37.227    0.274    7.121
 1376.410   37.232    0.270    7.123
 1377.230   35.434    0.269    7.124
 1378.050   33.034    0.268    7.257
 1378.870   32.438    0.269    7.258
 1379.690   33.045    0.272    7.259
 1380.510   33.651    0.274    7.261
 1381.330   33.658    0.274    7.262
 1382.150   33.061    0.274    7.264
 1382.970   32.465    0.273    7.398
 1383.790   32.470    0.273    7.400
 1384.610   31.874    0.272    7.401
 1385.430   31.278    0.271    7.539
 1386.250   30.682    0.269    7.541
 1387.070   31.288    0.267    7.542
 1387.890   34.301    0.265    7.682
 1388.710   35.507    0.262    7.684
 1389.530   36.714    0.257    7.685
 1390.350   37.922    0.250    7.687
 1391.170   38.528    0.229    7.688
 1391.990   38.533    0.215    7.689
 1392.810   37.337    0.240    7.691
 1393.640   34.938    0.253    7.834
 1394.460   33.741    0.265    7.836
 1395.280   33.746    0.264    7.837
 1396.100   34.353    0.261    7.838
 1396.920   34.359    0.258    7.840
 1397.740   34.361    0.258    7.841
 1398.560   34.366    0.259    7.843
 1399.380   35.576    0.262    7.843
 1400.200   37.386    0.264    7.990
 1401.020   37.989    0.265    7.992
 1401.840   39.197    0.266    7.993
 1402.660   39.804    0.268    8.141
 1403.480   39.810    0.269    8.144
 1404.300   39.813    0.270    8.144
 1405.120   39.818    0.271    8.296
 1405.940   39.223    0.269    8.298
 1406.760   38.627    0.260    8.452
 1407.580   37.430    0.260    8.454
 1408.400   37.435    0.264    8.771
 1409.220   37.441    0.270    8.772
 1410.040   38.048    0.268    8.936
 1410.860   38.654    0.266    9.103
 1411.680   39.262    0.266    9.104
 1412.500   39.865    0.266    9.274
 1413.320   39.870    0.264    9.275
 1414.140   40.477    0.260    9.277
 1414.960   41.083    0.251    8.783
 1415.780   42.294    0.251    7.588
 1416.600   44.701    0.240    6.677
 1417.420   43.504    0.211    6.094
 1418.240   42.908    0.182    5.265
 1419.060   50.727    0.183    4.894
 1419.880   54.941    0.196    5.078
 1420.700   54.945    0.210    5.172
 1421.520   56.153    0.212    5.366
 1422.340   59.164    0.219    5.670
 1423.160   63.378    0.256    5.882
 1423.980   66.989    0.255    5.883
 1424.800   70.600    0.247    5.177
 1425.620   73.009    0.244    4.725
 1426.440   68.208    0.244    4.726
 1427.260   65.206    0.248    4.994
 1428.080   64.008    0.251    5.180
 1428.900   61.609    0.259    5.678
 1429.720   59.811    0.269    6.223
 1430.540   61.018    0.272    6.946
 1431.360   64.631    0.271    7.614
 1432.190   68.845    0.267    7.208
 1433.010   71.855    0.264    6.824
 1433.830   71.860    0.235    6.460
 1434.650   71.264    0.210    5.897
 1435.470   73.073    0.204    5.686
 1436.290   74.280    0.204    5.482
 1437.110   73.684    0.205    5.286
 1437.930   72.487    0.205    5.191
 1438.750   70.088    0.204    5.098
 1439.570   68.290    0.204    5.099
 1440.390   71.901    0.204    5.007
 1441.210   74.312    0.204    4.917
 1442.030   74.316    0.204    4.829
 1442.850   74.321    0.204    4.742
 1443.670   74.326    0.204    4.573
 1444.490   73.731    0.204    4.409
 1445.310   73.135    0.205    4.251
 1446.130   72.541    0.208    4.025
 1446.950   72.543    0.210    3.953
 1447.770   72.551    0.213    3.953
 1448.590   73.157    0.218    3.954
 1449.410   76.767    0.221    4.028
 1450.230   76.774    0.220    4.179
 1451.050   74.976    0.221    4.256
 1451.870   71.373    0.223    4.581
 1452.690   65.368    0.235    4.929
 1453.510   58.161    0.258    5.503
 1454.330   54.558    0.268    5.921
 1455.150   50.957    0.270    6.143
