~VERSION INFORMATION
 VERS.                 2.0:   CWLS LOG ASCII STANDARD -VERSION 2.0
 WRAP.                  NO:   ONE LINE PER DEPTH STEP
~WELL INFORMATION BLOCK
#MNEM.UNIT           DATA                    DESCRIPTION OF MNEMONIC
#---------    -------------------            -------------------------------
# Generated from Intellog Unique Number	CW_70_72/WELL/1062
NULL.         -999.25                        : NULL_VALUE
WELL.         MIKAS AMOCO CALLLING LAKE 11-3 : Well_name    - WELL              
LOC .         11-34-071-20W4                 : Location     - LOCATION          
UWI .         00/11-34-071-20W4/0            : Uwi          - UNIQUE WELL ID    
ENTR.         JAYE                           : Entered      - ENTERED BY        
SRVC.         SCHLUMBERGER                   : Scn          - SERVICE COMPANY   
DATE.         8 FEB 73                       : Date         - LOG DATE          
STRT.M        320.04                         : top_depth    - START DEPTH       
STOP.M        533.04                         : bot_depth    - STOP DEPTH        
STEP.M        0.25                           : increment    - STEP LENGTH       
~CURVE INFORMATION BLOCK
#MNEM UNIT       ERCB CURVE CODE    CURVE DESCRIPTION
#-----------   ------------------   ----------------------------------
DEPT.M        00 001 00 00         : DEPTH        - DEPTH                       
DPHI.V/V      00 890 00 00         : PHID         - DENSITY POROSITY (SANDSTONE)
NPHI.V/V      00 330 00 00         : PHIN         - NEUTRON POROSITY (SANDSTONE)
GR  .API      00 310 00 00         : GR           - GAMMA RAY                   
CALI.MM       00 280 01 00         : CAL          - CALIPER                     
ILD .OHMM     00 120 00 00         : RESD         - DEEP RESISTIVITY (DIL)      
~PARAMETER INFORMATION       
#MNEM.UNIT           DATA             DESCRIPTION OF MNEMONIC
#---------         -----------     ------------------------------
GL  .M        591.83               : gl           - GROUND LEVEL ELEVATION      
EREF.M        594.97               : kb           - ELEVATION OF DEPTH REFERENCE
DATM.M        591.83               : datum        - DATUM ELEVATION             
TDD .M        541.63               : tdd          - TOTAL DEPTH DRILLER         
RUN .         ONE                  : Run          - RUN NUMBER                  
ENG .         MACIJUK              : Engineer     - RECORDING ENGINEER          
WIT .         LEWIN/CONVENEY       : Witness      - WITNESSED BY                
BASE.         EDM                  : Branch       - HOME BASE OF LOGGING UNIT   
MUD .         GEL                  : Mud_type     - MUD TYPE                    
MATR.         SANDSTONE            : Logunit      - NEUTRON MATRIX              
TMAX.C        25.5556              : BHT          - MAXIMUM RECORDED TEMPERATURE
BHTD.M        540.41               : BHTDEP       - MAXIMUM RECORDED TEMPERATURE
RMT .C        15                   : MDTP         - TEMPERATURE OF MUD          
MUDD.KG/M     1104                 : MWT          - MUD DENSITY                 
NEUT.         1                    : NEUTRON      - NEUTRON TYPE                
RESI.         0                    : RESIST       - RESISTIVITY TYPE            
RM  .OHMM     4.44                 : RM           - RESISTIVITY OF MUD          
RMC .OHMM     0                    : RMC          - RESISTIVITY OF MUD CAKE     
RMF .OHMM     4.5                  : RMF          - RESISTIVITY OF MUD FILTRATE 
SUFT.C        0                    : SUFT         - SURFACE TEMPERATURE         
~A  DEPTH     PHID     PHIN       GR      CAL     RESD
# ...
  393.040    0.243    0.370   63.398  157.020    6.274
  393.290    0.214    0.340   65.148  157.190    6.076
  393.540    0.169    0.346   67.933  157.670    5.810
  393.790    0.191    0.381   71.941  158.151    5.690
  394.040    0.225    0.406   75.271  158.626    5.634
  394.290    0.225    0.421   78.723  159.106    5.609
  394.540    0.223    0.454   81.447  159.590    5.593
  394.790    0.232    0.470   82.401  161.004    5.619
  395.040    0.234    0.474   82.626  162.406    5.719
  395.290    0.233    0.479   83.337  163.109    5.938
  395.540    0.212    0.487   85.206  163.472    6.177
  395.790    0.200    0.511   88.542  163.851    6.449
  396.040    0.216    0.552   92.174  164.442    6.599
  396.290    0.225    0.527   95.021  164.615    6.546
  396.540    0.233    0.494   90.912  164.579    6.410
  396.790    0.234    0.475   86.138  164.546    6.152
  397.040    0.222    0.458   85.200  164.399    5.915
  397.290    0.237    0.459   86.034  164.569    5.729
  397.540    0.235    0.497   87.905  165.051    5.611
  397.790    0.222    0.517   90.933  165.650    5.435
  398.040    0.225    0.573   92.067  166.235    5.311
  398.290    0.216    0.584   93.025  166.811    5.259
  398.540    0.203    0.575   93.430  167.801    5.122
  398.790    0.232    0.569   93.469  169.208    4.943
  399.040    0.217    0.554   92.228  171.761    4.805
  399.290    0.217    0.560   90.559  175.745    4.688
  399.540    0.234    0.599   87.857  183.147    4.574
  399.790    0.257    0.589   84.481  185.585    4.398
  400.040    0.292    0.565   80.130  172.334    4.206
  400.290    0.301    0.569   74.683  165.496    4.058
  400.540    0.266    0.516   69.237  162.046    3.895
  400.790    0.277    0.498   64.644  158.193    3.801
  401.040    0.296    0.481   62.122  156.189    3.896
  401.290    0.316    0.462   59.660  155.331    4.067
  401.540    0.326    0.452   58.112  154.984    4.405
  401.790    0.302    0.441   56.323  154.842    4.710
  402.040    0.274    0.402   54.109  155.335    5.196
  402.290    0.249    0.344   51.769  155.805    5.484
  402.540    0.208    0.304   49.795  156.393    5.520
  402.790    0.167    0.285   58.071  156.976    5.415
  403.040    0.190    0.360   65.608  157.246    5.226
  403.290    0.239    0.424   72.785  157.932    5.108
  403.540    0.279    0.441   77.704  158.627    5.021
  403.790    0.254    0.450   77.683  159.416    4.962
  404.040    0.248    0.469   76.202  160.405    4.823
  404.290    0.228    0.486   74.350  162.437    4.604
  404.540    0.194    0.513   72.191  164.365    4.338
  404.790    0.244    0.534   69.731  165.782    3.963
  405.040    0.251    0.513   67.148  165.644    3.634
  405.290    0.272    0.499   63.715  165.087    3.418
  405.540    0.305    0.503   60.215  164.747    3.292
  405.790    0.347    0.527   56.907  163.983    3.212
  406.040    0.354    0.525   55.299  162.921    3.198
  406.290    0.351    0.495   54.307  162.262    3.278
  406.540    0.340    0.491   54.707  161.501    3.441
  406.790    0.317    0.494   57.064  160.757    3.679
  407.040    0.325    0.502   59.970  160.602    3.920
  407.290    0.305    0.508   63.488  160.676    4.085
  407.540    0.298    0.515   67.249  160.643    4.265
  407.790    0.292    0.527   69.971  160.706    4.397
  408.040    0.289    0.520   72.022  160.682    4.524
  408.290    0.297    0.516   73.102  160.950    4.612
  408.540    0.302    0.526   73.443  161.115    4.684
  408.790    0.303    0.537   72.871  161.899    4.698
  409.040    0.309    0.562   71.390  164.146    4.719
  409.290    0.322    0.538   71.188  165.856    4.750
  409.540    0.312    0.523   72.504  167.063    4.773
  409.790    0.300    0.519   74.071  165.798    4.752
  410.040    0.286    0.534   74.597  165.034    4.687
  410.290    0.314    0.553   73.725  164.688    4.590
  410.540    0.317    0.556   71.204  164.450    4.389
  410.790    0.314    0.531   67.892  164.110    4.197
  411.040    0.307    0.519   65.853  163.962    3.991
  411.290    0.304    0.515   63.639  164.039    3.788
  411.540    0.311    0.524   63.372  163.996    3.663
  411.790    0.319    0.536   63.234  163.855    3.613
  412.040    0.319    0.540   61.622  164.023    3.564
  412.290    0.311    0.534   59.955  164.295    3.555
  412.540    0.317    0.489   60.727  164.368    3.565
  412.790    0.305    0.514   62.660  164.437    3.595
  413.040    0.300    0.528   64.527  164.503    3.672
  413.290    0.303    0.523   64.996  164.575    3.991
  413.540    0.293    0.507   65.827  164.442    4.626
  413.790    0.286    0.484   68.915  164.394    5.715
  414.040    0.299    0.460   68.471  164.468    7.048
  414.290    0.283    0.426   65.583  164.326    8.692
  414.540    0.262    0.382   61.849  164.506   10.112
  414.790    0.210    0.300   59.013  164.981    9.321
  415.040    0.138    0.272   60.157  165.454    6.626
  415.290    0.090    0.313   61.290  166.245    5.363
  415.540    0.112    0.372   62.430  166.324    4.570
  415.790    0.156    0.463   62.593  165.661    3.838
  416.040    0.264    0.532   62.205  164.800    3.392
  416.290    0.297    0.535   63.344  163.940    3.439
  416.540    0.318    0.516   64.782  163.182    3.718
  416.790    0.318    0.497   65.922  162.637    3.990
  417.040    0.305    0.485   65.292  162.297    4.274
  417.290    0.274    0.438   64.232  162.251    4.462
  417.540    0.229    0.375   61.648  162.113    4.491
  417.790    0.187    0.366   62.610  162.068    4.248
  418.040    0.175    0.424   63.684  161.828    3.916
  418.290    0.271    0.455   62.746  161.494    3.616
  418.540    0.325    0.478   60.041  161.461    3.402
  418.790    0.323    0.488   59.108  161.306    3.295
  419.040    0.324    0.458   59.451  161.168    3.274
  419.290    0.317    0.450   61.932  161.028    3.301
  419.540    0.303    0.452   64.651  160.997    3.347
  419.790    0.331    0.455   68.782  161.072    3.381
  420.040    0.320    0.458   72.051  160.934    3.486
  420.290    0.317    0.478   71.664  160.691    3.612
  420.540    0.303    0.494   68.478  160.871    3.731
  420.790    0.290    0.508   66.075  161.441    3.867
  421.040    0.280    0.526   67.883  163.053    4.060
  421.290    0.275    0.557   68.530  164.590    4.238
  421.540    0.268    0.547   65.343  164.861    4.401
  421.790    0.260    0.533   65.501  164.810    4.429
  422.040    0.253    0.507   67.981  164.774    4.442
  422.290    0.240    0.495   72.717  165.052    4.414
  422.540    0.251    0.515   77.026  166.466    4.260
  422.790    0.248    0.558   79.871  167.252    4.081
  423.040    0.232    0.599   82.043  168.559    3.838
  423.290    0.255    0.604   84.097  169.863    3.584
  423.540    0.275    0.586   85.905  171.378    3.389
  423.790    0.251    0.557   87.472  173.312    3.091
  424.040    0.248    0.578   88.610  175.233    2.896
  424.290    0.233    0.600   90.785  176.744    2.755
  424.540    0.242    0.615   92.593  178.054    3.050
  424.790    0.267    0.633   93.056  178.737    3.521
  425.040    0.262    0.596   92.978  179.418    3.891
  425.290    0.256    0.573   93.139  179.499    4.276
  425.540    0.244    0.536   94.152  179.142    4.288
  425.790    0.256    0.535   93.216  177.150    4.436
  426.040    0.249    0.522   89.963  174.221    4.700
  426.290    0.216    0.511   89.091  163.961    4.934
  426.540    0.202    0.521   90.718  170.533    5.114
  426.790    0.194    0.501   91.790  177.418    5.214
  427.040    0.201    0.504   91.105  179.966    5.335
  427.290    0.202    0.488   89.799  175.596    5.410
  427.540    0.195    0.444   86.362  171.531    5.484
  427.790    0.185    0.419   81.036  167.777    5.490
  428.040    0.159    0.412   79.007  165.469    5.406
  428.290    0.198    0.442   81.360  164.197    5.352
  428.540    0.231    0.468   84.206  163.746    5.487
  428.790    0.223    0.462   87.358  163.104    5.718
  429.040    0.209    0.474   85.809  162.758    5.872
  429.290    0.208    0.470   80.056  161.997    5.933
