~VERSION INFORMATION
 VERS.                 2.0:   CWLS LOG ASCII STANDARD -VERSION 2.0
 WRAP.                  NO:   ONE LINE PER DEPTH STEP
~WELL INFORMATION BLOCK
#MNEM.UNIT           DATA                    DESCRIPTION OF MNEMONIC
#---------    -------------------            -------------------------------
# Generated from Intellog Unique Number	CC_80_83/WELL/2388
NULL.         -999.25                        : NULL_VALUE
WELL.         CDN SUP ALGAR                  : Well_name    - WELL
LOC .         10-32-083-15W4                 : Location     - LOCATION          
UWI .         00/10-32-083-15W400            : Uwi          - UNIQUE WELL ID    
ENTR.         DW                             : Entered      - ENTERED BY        
SRVC.         SCHLUMBERGER                   : Scn          - SERVICE COMPANY   
DATE.         12 MAR 76                      : Date         - LOG DATE
STRT.M        85.344                         : top_depth    - START DEPTH       
STOP.M        279.195                        : bot_depth    - STOP DEPTH        
STEP.M        0.3048                         : increment    - STEP LENGTH       
~CURVE INFORMATION BLOCK
#MNEM UNIT       ERCB CURVE CODE    CURVE DESCRIPTION
#-----------   ------------------   ----------------------------------
DEPT.M        00 001 00 00         : DEPTH        - DEPTH                       
DPHI.V/V      00 890 00 00         : PHID         - DENSITY POROSITY (LIMESTONE)
NPHI.V/V      00 330 00 00         : PHIN         - NEUTRON POROSITY (LIMESTONE)
GR  .API      00 310 00 00         : GR           - GAMMA RAY                   
ILD .OHMM     00 120 00 00         : RESD         - DEEP RESISTIVITY (DIL)      
~PARAMETER INFORMATION       
#MNEM.UNIT           DATA             DESCRIPTION OF MNEMONIC
#---------         -----------     ------------------------------
GL  .M        544.068              : gl           - GROUND LEVEL ELEVATION      
EREF.M        547.421              : kb           - ELEVATION OF DEPTH REFERENCE
DATM.M        547.421              : datum        - DATUM ELEVATION             
TDD .M        278.282              : tdd          - TOTAL DEPTH DRILLER         
RUN .         ONE                  : Run          - RUN NUMBER                  
ENG .         BILL                 : Engineer     - RECORDING ENGINEER          
WIT .         JIM                  : Witness      - WITNESSED BY                
MUD .         GEL                  : Mud_type     - MUD TYPE                    
MATR.         LIMESTONE            : Logunit      - NEUTRON MATRIX              
TMAX.C        22.2222              : BHT          - MAXIMUM RECORDED TEMPERATURE
BHTD.M        278.282              : BHTDEP       - MAXIMUM RECORDED TEMPERATURE
MATR.         1                    : LOGUNIT      - NEUTRON MATRIX              
RMT .C        25                   : MDTP         - TEMPERATURE OF MUD          
NEUT.         1                    : NEUTRON      - NEUTRON TYPE                
RESI.         0                    : RESIST       - RESISTIVITY TYPE            
RMC .OHMM     0.25                 : RMC          - RESISTIVITY OF MUD CAKE     
RMF .OHMM     0.25                 : RMF          - RESISTIVITY OF MUD FILTRATE 
SUFT.C        15                   : SUFT         - SURFACE TEMPERATURE         
~A  DEPTH     PHID     PHIN       GR     RESD
   85.344    0.288    0.540  116.385    3.040
   85.649    0.292    0.537  118.798    3.213
   85.954    0.271    0.530  121.217    3.334
   86.258    0.255    0.519  119.426    3.272
   86.563    0.262    0.523  114.044    3.333
   86.868    0.232    0.537  118.260    3.332
   87.173    0.220    0.552  124.873    3.394
   87.478    0.252    0.562  124.892    3.393
   87.782    0.245    0.552  123.705    3.456
   88.087    0.237    0.542  119.525    3.392
   88.392    0.253    0.529  116.543    3.329
   88.697    0.251    0.520  114.757    3.268
   89.002    0.250    0.516  111.176    3.207
   89.306    0.268    0.531  112.992    3.148
   89.611    0.281    0.544  116.604    3.206
   89.916    0.282    0.550  113.025    3.266
   90.221    0.259    0.546  112.441    3.517
   90.526    0.262    0.550  114.257    3.649
   90.830    0.270    0.543  120.269    3.786
   91.135    0.235    0.522  123.882    3.856
   91.440    0.254    0.511  119.699    4.001
   91.745    0.264    0.544  120.917    4.152
   92.050    0.254    0.578  121.530    3.927
   92.354    0.262    0.526  113.151    3.646
   92.659    0.269    0.531  115.570    3.645
   92.964    0.280    0.545  116.183    3.713
   93.269    0.302    0.521  107.802    4.386
   93.574    0.311    0.508   97.623    7.232
   93.879    0.276    0.511   87.445   16.040
   94.183    0.248    0.504   76.666   34.924
   94.488    0.299    0.458   59.291   56.529
   94.793    0.351    0.313   59.907   57.578
   95.098    0.448    0.268   61.127   49.636
   95.403    0.418    0.283   59.938   42.791
   95.707    0.405    0.297   54.562   36.214
   96.012    0.395    0.300   55.773   31.805
   96.317    0.388    0.311   61.787   25.936
   96.622    0.383    0.342   64.804   20.761
   96.927    0.377    0.373   61.822   17.898
   97.231    0.367    0.380   64.241   16.618
   97.536    0.359    0.391   65.450   13.303
   97.841    0.342    0.402   69.665   11.051
   98.146    0.319    0.444   82.872   10.260
   98.451    0.297    0.461   95.483    9.179
   98.755    0.277    0.462   95.498    8.212
   99.060    0.250    0.420   96.715    7.912
   99.365    0.229    0.426  101.527    7.766
   99.670    0.227    0.441  102.144    7.910
   99.975    0.255    0.448   99.759    8.839
  100.279    0.273    0.445   96.179    9.876
  100.584    0.301    0.436   94.995   10.248
  100.889    0.317    0.432   88.414   10.832
  101.194    0.329    0.421   87.831   11.033
  101.499    0.275    0.434   90.245   11.238
  101.803    0.282    0.449   81.269   11.660
  102.108    0.290    0.457   80.085   11.658
  102.413    0.265    0.475   81.298   11.232
  102.718    0.276    0.473   89.111   10.428
  103.023    0.302    0.456   99.921   10.048
  103.327    0.303    0.452  109.532    9.157
  103.632    0.299    0.488  112.551    8.042
  103.937    0.283    0.487  111.363    6.933
  104.242    0.253    0.485  102.387    6.203
  104.547    0.258    0.494  104.800    5.653
  104.851    0.247    0.470  104.814    5.248
  105.156    0.251    0.505   99.433    5.056
  105.461    0.283    0.544   98.850    4.963
  105.766    0.302    0.468  101.265    4.871
  106.071    0.314    0.468  107.880    4.871
  106.375    0.311    0.512  107.296    5.148
  106.680    0.312    0.523   95.315    6.311
  106.985    0.302    0.517   77.342    8.488
  107.290    0.302    0.497   65.964   14.257
  107.595    0.320    0.457   50.987   16.842
  107.899    0.338    0.430   51.605   17.154
  108.204    0.348    0.419   55.821   14.517
  108.509    0.341    0.418   59.430   11.198
  108.814    0.297    0.420   72.641    8.021
  109.119    0.273    0.452   83.450    6.303
  109.423    0.244    0.501   97.259    4.862
  109.728    0.257    0.534  109.870    4.115
  110.033    0.283    0.543  116.484    3.547
  110.338    0.263    0.546  116.498    3.482
  110.643    0.263    0.547  116.513    3.891
  110.947    0.257    0.544  119.531    4.859
  111.252    0.231    0.529  115.946   12.499
  111.557    0.190    0.460   99.769   18.102
  111.862    0.203    0.409   85.394   19.857
  112.167    0.324    0.390   75.815   16.803
  112.471    0.324    0.384   77.035   13.704
  112.776    0.314    0.408   83.643   10.186
  113.081    0.266    0.430   93.256    9.113
  113.386    0.200    0.454   96.269    9.112
  113.691    0.183    0.469   95.085   11.808
  113.995    0.281    0.442   86.706   13.693
  114.300    0.350    0.392   81.325   14.208
  114.605    0.319    0.401   92.734   12.249
  114.910    0.280    0.428  107.145   10.958
  115.215    0.265    0.448  107.762   10.957
  115.519    0.276    0.460  101.779   13.185
  115.824    0.288    0.455   95.198   14.732
  116.129    0.314    0.418   93.418   15.287
  116.434    0.322    0.417  100.628   15.862
  116.739    0.293    0.445  106.640   15.568
  117.043    0.281    0.439  100.658   15.565
  117.348    0.292    0.434   95.880   15.563
  117.653    0.309    0.424   97.097   15.561
  117.958    0.327    0.416  101.907   15.559
  118.263    0.310    0.420  103.724   15.271
  118.567    0.308    0.442  105.537   13.918
  118.872    0.302    0.445  114.548   12.223
  119.177    0.289    0.440  130.158   10.154
  119.482    0.271    0.436  131.975    7.689
  119.787    0.228    0.456  131.992    5.822
  120.091    0.206    0.506  130.810    5.506
  120.396    0.224    0.516  129.025    5.929
  120.701    0.229    0.503  127.239    7.135
  121.006    0.230    0.468  117.659    8.747
  121.311    0.213    0.430  105.082    9.595
  121.615    0.231    0.402  100.902    9.075
  121.920    0.242    0.395  105.715    8.271
  122.225    0.210    0.414  116.525    6.999
  122.530    0.220    0.455  122.537    6.619
  122.835    0.218    0.463  123.753    6.742
  123.139    0.203    0.450  118.971    6.996
  123.444    0.179    0.430  119.590    7.259
  123.749    0.185    0.427  120.205    6.739
  124.054    0.202    0.450  118.420    6.029
  124.359    0.211    0.482  124.432    5.598
  124.663    0.223    0.508  129.248    5.494
  124.968    0.222    0.515  128.066    5.392
  125.273    0.197    0.498  128.079    5.391
  125.578    0.212    0.492  123.897    5.492
  125.883    0.225    0.495  129.311    5.698
  126.187    0.240    0.495  129.329    6.023
  126.492    0.196    0.481  129.944    6.366
  126.797    0.218    0.477  132.958    6.365
  127.102    0.223    0.502  132.373    6.364
  127.407    0.238    0.502  130.594    6.132
  127.711    0.206    0.477  131.209    6.018
  128.016    0.201    0.461  130.623    5.692
  128.321    0.222    0.462  127.039    5.691
  128.626    0.242    0.482  125.262    6.016
  128.931    0.242    0.504  125.872    6.477
  129.235    0.213    0.510  119.893    7.511
  129.540    0.206    0.494  109.713    8.873
  129.845    0.237    0.509   98.339   10.877
  130.150    0.253    0.463   90.556   11.497
  130.455    0.269    0.420   79.779   11.930
  130.759    0.278    0.403   71.997   11.709
  131.064    0.263    0.376   68.419   11.074
  131.369    0.258    0.369   72.630   10.281
  131.674    0.263    0.383   75.647    9.545
  131.979    0.247    0.416   76.260    9.544
  132.283    0.263    0.401   74.478    9.721
  132.588    0.250    0.387   85.288    9.901
  132.893    0.234    0.398   93.699    9.900
  133.198    0.241    0.423   93.121    9.539
  133.503    0.255    0.419   93.731    8.856
  133.807    0.249    0.413   96.146    9.189
  134.112    0.230    0.432   94.364    9.894
  134.417    0.241    0.416   91.381   10.653
  134.722    0.212    0.408   84.800   11.054
  135.027    0.239    0.390   77.622   10.850
  135.331    0.255    0.382   77.036    9.528
  135.636    0.233    0.383   87.249    8.524
  135.941    0.238    0.405   90.860    7.914
  136.246    0.245    0.452   87.882    7.767
  136.551    0.246    0.442   89.097    7.912
  136.855    0.233    0.449   93.310    8.059
  137.160    0.257    0.471   95.127    7.622
  137.465    0.263    0.449   98.139    6.819
  137.770    0.233    0.438  115.544    6.331
  138.074    0.233    0.463  122.758    5.987
