~VERSION INFORMATION
 VERS.                 2.0:   CWLS LOG ASCII STANDARD -VERSION 2.0
 WRAP.                  NO:   ONE LINE PER DEPTH STEP
~WELL INFORMATION BLOCK
#MNEM.UNIT           DATA                    DESCRIPTION OF MNEMONIC
#---------    -------------------            -------------------------------
# Generated from Intellog Unique Number	CX_WELLS/WELL/3834
WELL.         PAN AM VENARENT                : Well_name    - WELL
LOC .         00/16-05-087-07W4/0            : Location     - LOCATION
UWI .         00/16-05-087-07W400            : Uwi          - UNIQUE WELL ID
ENTR.         T                              : Entered      - ENTERED BY
SRVC.         SCHLUMBERGER                   : Scn          - SERVICE COMPANY
STRT.F        150                            : top_depth    - START DEPTH
STOP.F        770.079                        : bot_depth    - STOP DEPTH
STEP.F        0.82                           : increment    - STEP LENGTH
 NULL. -999.2500:NULL Value
~CURVE INFORMATION BLOCK
#MNEM UNIT       ERCB CURVE CODE    CURVE DESCRIPTION
#-----------   ------------------   ----------------------------------
DEPT.F        00 001 00 00         : DEPTH        - DEPTH
GR  .API      00 310 00 00         : GR           - GAMMA RAY
NPHI.V/V      00 330 00 00         : PHIN         - NEUTRON POROSITY (SANDSTONE)
ILD .OHMM     00 120 00 00         : RESD         - DEEP RESISTIVITY (DIL)
~PARAMETER INFORMATION
#MNEM.UNIT           DATA             DESCRIPTION OF MNEMONIC
#---------         -----------     ------------------------------
GL  .F        1517                 : gl           - GROUND LEVEL ELEVATION
EREF.F        1527                 : kb           - ELEVATION OF DEPTH REFERENCE
DATM.F        1527                 : datum        - DATUM ELEVATION
TDD .F        800                  : tdd          - TOTAL DEPTH DRILLER
RUN .         ONE                  : Run          - RUN NUMBER
ENG .         BILL                 : Engineer     - RECORDING ENGINEER
WIT .         JIM                  : Witness      - WITNESSED BY
MUD .         GEL                  : Mud_type     - MUD TYPE
MATR.         SANDSTONE            : Logunit      - NEUTRON MATRIX
TMAX.F        66.4                 : BHT          - MAXIMUM RECORDED TEMPERATURE
BHTD.F        800                  : BHTDEP       - MAXIMUM RECORDED TEMPERATURE
MATR.         1                    : LOGUNIT      - NEUTRON MATRIX
RMT .F        50                   : MDTP         - TEMPERATURE OF MUD
NEUT.         1                    : NEUTRON      - NEUTRON TYPE
RESI.         6                    : RESIST       - RESISTIVITY TYPE
RMC .OHMM     6                    : RMC          - RESISTIVITY OF MUD CAKE
RMF .OHMM     2.6                  : RMF          - RESISTIVITY OF MUD FILTRATE
SUFT.F        39.2                 : SUFT         - SURFACE TEMPERATURE
~A  DEPTH       GR     PHIN     RESD
  150.000   90.531    0.432   18.526
  150.820   99.864    0.439   18.169
  151.640  103.956    0.450   17.994
  152.461  108.627    0.459   18.002
  153.281  106.928    0.458   17.827
  154.101  103.477    0.450   17.655
  154.921   98.287    0.445   17.658
  155.741   92.526    0.447   17.486
  156.562   93.727    0.447   17.489
  157.382   96.659    0.440   17.494
  158.202   97.849    0.450   17.322
  159.022   96.160    0.471   17.325
  159.843   95.610    0.468   17.330
  160.663   95.661    0.458   17.159
  161.483   95.682    0.459   17.162
  162.303   95.142    0.457   16.989
  163.123   94.002    0.450   16.992
  163.944   91.733    0.457   16.820
  164.764   95.234    0.473   16.823
  165.584  101.656    0.463   16.649
  166.404  101.127    0.458   16.477
  167.224  101.147    0.458   16.481
  168.045  102.348    0.465   16.487
  168.865  102.959    0.468   16.493
  169.685  102.420    0.476   16.496
  170.505  101.300    0.479   16.503
  171.325  100.761    0.484   16.509
  172.146  100.211    0.483   16.515
  172.966  100.252    0.477   16.518
  173.786   99.692    0.467   16.524
  174.606   98.583    0.456   16.531
  175.427   94.553    0.450   16.535
  176.247   91.092    0.441   16.542
  177.067   84.751    0.442   16.729
  177.887   80.151    0.444   16.914
  178.707   79.602    0.444   16.919
  179.528   83.693    0.447   16.742
  180.348   87.215    0.455   16.389
  181.168   88.986    0.462   15.138
  181.988   89.037    0.448   14.421
  182.808   88.477    0.446   12.808
  183.629   90.859    0.469   10.836
  184.449   92.029    0.473   10.122
  185.269   94.970    0.471    9.588
  186.089   96.751    0.469    9.233
  186.909   99.683    0.466    8.341
  187.730  104.365    0.466    7.446
  188.550  104.975    0.486    6.733
  189.370  106.176    0.501    6.560
  190.190  106.797    0.506    6.564
  191.010  105.678    0.508    6.569
  191.831  104.538    0.507    6.574
  192.651  102.838    0.502    6.580
  193.471  100.558    0.498    6.765
  194.291   97.108    0.492    7.130
  195.112   94.238    0.459    7.496
  195.932   90.208    0.435    8.042
  196.752   82.127    0.424    8.225
  197.572   79.857    0.404    8.591
  198.392   80.447    0.404    8.597
  199.213   85.709    0.429    8.422
  200.033   92.132    0.478    7.890
  200.853   97.383    0.501    7.534
  201.673   98.014    0.490    7.179
  202.493   96.874    0.474    7.185
  203.314   92.854    0.460    7.909
  204.134   89.984    0.460    8.275
  204.954   89.445    0.460    8.283
  205.774   89.486    0.495    8.286
  206.594   87.786    0.492    8.294
  207.415   87.226    0.462    8.299
  208.235   87.277    0.448    8.482
  209.055   87.878    0.436    8.310
  209.875   89.659    0.442    7.776
  210.696   90.850    0.446    7.420
  211.516   94.951    0.445    7.065
  212.336   97.302    0.479    6.532
  213.156  103.725    0.488    6.178
  213.976  107.246    0.496    5.825
  214.797  109.027    0.510    5.828
  215.617  107.898    0.513    6.194
  216.437  106.188    0.479    6.740
  217.257  103.908    0.466    7.285
  218.077  101.638    0.467    7.648
  218.898  101.079    0.474    8.736
  219.718   98.219    0.478    8.919
  220.538   97.079    0.478    9.105
  221.358   94.799    0.476    8.749
  222.178   93.680    0.475    8.217
  222.999   93.140    0.469    8.041
  223.819   93.161    0.467    8.407
  224.639   93.781    0.466    8.593
  225.459   95.563    0.464    8.061
  226.280   96.774    0.461    7.884
  227.100   97.954    0.455    8.610
  227.920   98.575    0.452    9.335
  228.740   97.446    0.452    9.339
  229.560   93.996    0.452    9.346
  230.381   88.225    0.454    9.351
  231.201   81.304    0.463    9.719
  232.021   81.345    0.474   10.441
  232.841   83.706    0.485   11.165
  233.661   79.665    0.459   12.070
  234.482   72.734    0.437   12.616
  235.302   69.885    0.434   12.619
  236.122   71.645    0.434   11.008
  236.942   75.167    0.442    9.753
  237.762   78.678    0.455    8.142
  238.583   83.940    0.466    7.608
  239.403   89.793    0.473    7.431
  240.223   92.724    0.463    6.899
  241.043   94.505    0.457    6.723
  241.864   95.696    0.459    6.731
  242.684   97.477    0.464    6.735
  243.504  100.418    0.467    7.283
  244.324  102.769    0.469    7.467
  245.144  104.540    0.462    7.650
  245.965  102.831    0.442    8.375
  246.785   98.230    0.430    9.101
  247.605   94.200    0.438    9.647
  248.425   88.429    0.443    9.830
  249.245   86.160    0.444   10.915
  250.066   85.020    0.425   12.538
  250.886   82.170    0.407   13.983
  251.706   79.870    0.414   14.886
  252.526   75.259    0.419   15.612
  253.346   68.339    0.423   15.796
  254.167   68.369    0.428   15.265
  254.987   74.221    0.431   15.088
  255.807   77.142    0.437   14.735
  256.627   82.415    0.402   14.200
  257.448   79.534    0.411   13.127
  258.268   76.695    0.417   11.873
  259.088   78.456    0.423   10.801
  259.908   82.547    0.358   10.446
  260.728   82.588    0.200   12.072
  261.549   71.596    0.172   14.775
  262.369   69.306    0.174   15.138
  263.189   59.474    0.189   16.044
  264.009   57.205    0.217   17.307
  264.829   61.866    0.248   17.851
  265.650   68.868    0.349   18.217
  266.470   74.721    0.374   18.225
  267.290   75.901    0.397   18.228
  268.110   77.102    0.405   17.696
  268.930   77.713    0.435   17.160
  269.751   79.515    0.403   16.447
  270.571   79.535    0.413   16.094
  271.391   80.156    0.435   16.097
  272.211   80.186    0.432   16.824
  273.031   80.227    0.426   17.007
  273.852   78.517    0.424   17.373
  274.672   75.067    0.414   17.559
  275.492   75.108    0.402   17.567
  276.312   77.459    0.393   17.570
  277.133   80.981    0.395   17.218
  277.953   79.851    0.388   16.863
  278.773   74.660    0.384   16.686
  279.593   74.131    0.388   16.331
  280.413   75.322    0.394   15.262
  281.234   75.943    0.393   14.904
  282.054   75.383    0.381   14.191
  282.874   74.844    0.376   12.938
  283.694   77.205    0.380   11.684
  284.514   78.976    0.381   10.610
  285.335   84.828    0.392    9.717
  286.155   87.169    0.426    9.003
  286.975   88.960    0.443    8.112
  287.795   89.561    0.451    8.295
  288.615   89.602    0.454    8.662
  289.436   89.062    0.457    8.667
  290.256   89.093    0.452    8.675
  291.076   90.294    0.443    8.498
  291.896   90.904    0.430    8.324
  292.717   92.116    0.434    8.148
  293.537   92.146    0.443    7.976
  294.357   92.177    0.448    7.979
  295.177   92.177    0.455    7.807
  295.997   92.818    0.466    7.450
  296.818   94.029    0.471    7.277
  297.638   94.050    0.469    7.643
  298.458   94.091    0.449    7.829
  299.278   91.811    0.442    8.191
  300.098   89.531    0.436    8.737
  300.919   88.971    0.428    9.281
  301.739   88.442    0.418   10.007
  302.559   87.882    0.421   10.191
  303.379   87.353    0.432   10.379
  304.199   86.213    0.437   10.382
  305.020   82.193    0.421   10.030
  305.840   82.814    0.427    9.317
  306.660   86.325    0.438    8.781
  307.480   90.417    0.457    7.890
  308.301   94.529    0.465    7.713
  309.121   96.310    0.473    7.181
  309.941   98.071    0.474    7.185
  310.761  102.182    0.480    6.831
  311.581  104.534    0.485    6.656
  312.402  103.984    0.489    6.301
  313.222  101.714    0.485    5.948
  314.042  100.575    0.484    5.773
  314.862   98.875    0.480    5.597
  315.682   97.755    0.480    5.426
  316.503   97.786    0.478    5.430
  317.323   98.397    0.473    5.435
  318.143   99.588    0.468    5.623
  318.963  101.369    0.474    5.805
  319.783  104.890    0.483    6.173
  320.604  104.351    0.476    6.176
  321.424  102.631    0.459    6.181
  322.244   99.771    0.453    6.367
  323.064   97.491    0.453    6.372
  323.885   95.222    0.453    6.737
  324.705   94.662    0.453    6.922
  325.525   94.682    0.450    7.471
  326.345   99.944    0.449    7.834
  327.165  100.575    0.448    8.199
