~VERSION INFORMATION
 VERS.                 2.0:   CWLS LOG ASCII STANDARD -VERSION 2.0
 WRAP.                  NO:   ONE LINE PER DEPTH STEP
~WELL INFORMATION BLOCK
#MNEM.UNIT           DATA                    DESCRIPTION OF MNEMONIC
#---------    -------------------            -------------------------------
# Generated from Intellog Unique Number	CS_73_76/WELL/3261
WELL.         ALLIED ROXANA MINERALS         : Well_name    - WELL
LOC .         00/11-10-076-15W4/0            : Location     - LOCATION
UWI .         00/11-10-076-15W4/0            : Uwi          - UNIQUE WELL ID
ENTR.         SP                             : Entered      - ENTERED BY
SRVC.         SCHLUMBERGER                   : Scn          - SERVICE COMPANY
STRT.M        341.376                        : top_depth    - START DEPTH
STOP.M        569.626                        : bot_depth    - STOP DEPTH
STEP.M        0.25                           : increment    - STEP LENGTH
 NULL. -999.2500:NULL Value
~CURVE INFORMATION BLOCK
#MNEM UNIT       ERCB CURVE CODE    CURVE DESCRIPTION
#-----------   ------------------   ----------------------------------
DEPT.M        00 001 00 00         : DEPTH        - DEPTH
GR  .API      00 310 00 00         : GR           - GAMMA RAY
DPHI.V/V      00 890 00 00         : PHID         - DENSITY POROSITY (SANDSTONE)
NPHI.V/V      00 330 00 00         : PHIN         - NEUTRON POROSITY (SANDSTONE)
ILD .OHMM     00 120 00 00         : RESD         - DEEP RESISTIVITY (DIL)
~PARAMETER INFORMATION
#MNEM.UNIT           DATA             DESCRIPTION OF MNEMONIC
#---------         -----------     ------------------------------
GL  .M        715.518              : gl           - GROUND LEVEL ELEVATION
EREF.M        718.566              : kb           - ELEVATION OF DEPTH REFERENCE
DATM.M        715.518              : datum        - DATUM ELEVATION
TDD .M        579.12               : tdd          - TOTAL DEPTH DRILLER
RUN .         ONE                  : Run          - RUN NUMBER
ENG .         BILL                 : Engineer     - RECORDING ENGINEER
WIT .         JIM                  : Witness      - WITNESSED BY
MUD .         GEL                  : Mud_type     - MUD TYPE
MATR.         SANDSTONE            : Logunit      - NEUTRON MATRIX
TMAX.C        23.3333              : BHT          - MAXIMUM RECORDED TEMPERATURE
BHTD.M        579.12               : BHTDEP       - MAXIMUM RECORDED TEMPERATURE
MATR.         1                    : LOGUNIT      - NEUTRON MATRIX
RMT .C        25                   : MDTP         - TEMPERATURE OF MUD
NEUT.         1                    : NEUTRON      - NEUTRON TYPE
RESI.         0                    : RESIST       - RESISTIVITY TYPE
RMC .OHMM     0.25                 : RMC          - RESISTIVITY OF MUD CAKE
RMF .OHMM     0.25                 : RMF          - RESISTIVITY OF MUD FILTRATE
SUFT.C        15                   : SUFT         - SURFACE TEMPERATURE
~A  DEPTH       GR     PHID     PHIN     RESD
# ...
  515.376  105.734    0.208    0.636    1.878
  515.626  105.547    0.210    0.617    2.086
  515.876  101.131    0.199    0.592    2.594
  516.126   98.206    0.177    0.537    3.154
  516.376   94.519    0.138    0.471    3.811
  516.626   96.739    0.145    0.430    4.685
  516.876   94.875    0.147    0.438    6.068
  517.126   91.521    0.122    0.435    7.158
  517.376   86.926    0.074    0.404    8.098
  517.626   83.919    0.078    0.367    8.254
  517.876   84.844    0.135    0.376    8.395
  518.126   84.939    0.153    0.408    8.420
  518.376   85.071    0.145    0.438    7.870
  518.626   87.751    0.131    0.430    7.087
  518.876   90.736    0.115    0.433    6.698
  519.126   87.147    0.127    0.451    6.890
  519.376   85.227    0.123    0.428    6.796
  519.626   89.431    0.119    0.417    6.793
  519.876   93.088    0.130    0.430    6.912
  520.126   94.121    0.117    0.433    7.531
  520.376   86.356    0.091    0.408    8.284
  520.626   81.416    0.060    0.335    9.219
  520.876   76.461    0.030    0.310    9.833
  521.126   79.886    0.083    0.327   10.738
  521.376   82.120    0.111    0.360   11.824
  521.626   81.128    0.120    0.371   12.338
  521.876   80.447    0.116    0.363   12.059
  522.126   81.477    0.102    0.362   12.035
  522.376   87.576    0.060    0.348   12.120
  522.626   91.894    0.087    0.344   11.329
  522.876   96.148    0.139    0.374   10.211
  523.126   98.975    0.141    0.400    9.479
  523.376   99.327    0.129    0.427    8.540
  523.626   97.916    0.122    0.445    7.564
  523.876   94.503    0.128    0.458    6.985
  524.126   92.633    0.136    0.471    7.123
  524.376   90.620    0.128    0.409    7.294
  524.626   91.216    0.067    0.399    7.628
  524.876   93.998    0.090    0.409    7.835
  525.126   97.349    0.119    0.418    7.811
  525.376   99.608    0.137    0.431    7.491
  525.626  100.455    0.136    0.430    6.916
  525.876  100.324    0.152    0.437    6.190
  526.126   97.147    0.143    0.456    5.724
  526.376   96.273    0.136    0.484    5.281
  526.626   95.941    0.122    0.466    5.058
  526.876   95.720    0.118    0.471    4.942
  527.126   97.759    0.131    0.454    5.011
  527.376   98.326    0.142    0.459    5.322
  527.626   97.915    0.149    0.433    5.858
  527.876   97.956    0.158    0.416    6.836
  528.126  101.212    0.173    0.435    7.716
  528.376   99.119    0.177    0.447    9.451
  528.626   94.822    0.188    0.423   11.501
  528.876   93.007    0.201    0.384   13.471
  529.126   92.961    0.205    0.358   14.275
  529.376   98.586    0.173    0.353   13.868
  529.626  106.191    0.145    0.373   12.685
  529.876  111.080    0.138    0.391   12.018
  530.126  114.303    0.144    0.391   10.945
  530.376  115.024    0.130    0.398    9.558
  530.626  111.093    0.120    0.404    8.498
  530.876   95.419    0.125    0.394    8.234
  531.126   81.353    0.127    0.379    8.508
  531.376   76.057    0.120    0.323    9.869
  531.626   74.595    0.082    0.334   12.073
  531.876   80.626    0.121    0.357   14.436
  532.126   89.369    0.165    0.381   16.685
  532.376   87.165    0.180    0.409   21.115
  532.626   85.639    0.188    0.393   22.298
  532.876   86.899    0.201    0.378   22.449
  533.126   87.301    0.207    0.379   21.578
  533.376   86.733    0.197    0.377   20.959
  533.626   87.936    0.171    0.369   20.525
  533.876   88.518    0.179    0.362   20.060
  534.126   87.054    0.171    0.350   19.180
  534.376   86.069    0.171    0.340   20.119
  534.626   86.099    0.176    0.333   21.772
  534.876   81.296    0.166    0.347   24.484
  535.126   74.083    0.187    0.365   26.146
  535.376   68.613    0.204    0.377   28.946
  535.626   74.019    0.227    0.368   29.062
  535.876   80.571    0.206    0.358   28.018
  536.126   87.874    0.168    0.366   24.056
  536.376   92.686    0.145    0.378   19.763
  536.626   91.263    0.169    0.388   18.627
  536.876   89.944    0.183    0.396   18.675
  537.126   82.898    0.194    0.393   19.809
  537.376   73.177    0.212    0.382   26.247
  537.626   67.906    0.241    0.364   34.843
  537.876   65.077    0.268    0.364   46.459
  538.126   70.207    0.253    0.378   55.433
  538.376   74.186    0.237    0.375   61.281
  538.626   77.249    0.210    0.353   59.961
  538.876   80.796    0.187    0.341   35.338
  539.126   82.345    0.150    0.343   23.240
  539.376   81.575    0.161    0.355   17.769
  539.626   81.106    0.139    0.361   15.162
  539.876   81.482    0.124    0.368   15.498
  540.126   82.820    0.135    0.374   15.962
  540.376   80.192    0.160    0.379   17.956
  540.626   76.212    0.197    0.381   19.284
  540.876   74.288    0.215    0.382   23.222
  541.126   72.656    0.219    0.381   27.738
  541.376   71.650    0.220    0.377   30.713
  541.626   71.276    0.227    0.377   31.220
  541.876   70.601    0.230    0.372   30.437
  542.126   70.750    0.219    0.367   27.643
  542.376   73.862    0.198    0.376   23.647
  542.626   78.255    0.203    0.382   21.341
  542.876   80.362    0.200    0.387   20.157
  543.126   82.063    0.190    0.397   20.256
  543.376   82.284    0.188    0.408   20.592
  543.626   80.529    0.197    0.401   21.095
  543.876   75.803    0.208    0.401   22.354
  544.126   72.083    0.198    0.431   26.154
  544.376   68.109    0.194    0.430   31.448
  544.626   67.047    0.214    0.419   37.385
  544.876   66.630    0.236    0.411   41.083
  545.126   65.038    0.241    0.409   48.041
  545.376   62.600    0.237    0.431   53.576
  545.626   58.010    0.233    0.468   57.206
  545.876   53.904    0.246    0.481   71.603
  546.126   51.203    0.270    0.460   84.257
  546.376   45.351    0.281    0.457   98.130
  546.626   40.427    0.282    0.440  113.578
  546.876   36.658    0.284    0.415  271.044
  547.126   37.296    0.281    0.403  274.904
  547.376   36.309    0.278    0.402  269.685
  547.626   35.469    0.295    0.405  268.818
  547.876   34.876    0.285    0.400  269.248
  548.126   34.527    0.290    0.392  271.220
  548.376   33.385    0.278    0.388  270.594
  548.626   41.136    0.258    0.356  265.380
  548.876   47.179    0.221    0.345  171.774
  549.126   73.329    0.169    0.333   62.270
  549.376   94.569    0.160    0.350   31.813
  549.626  101.417    0.164    0.363   24.486
  549.876  104.170    0.168    0.358   20.769
  550.126  102.817    0.163    0.340   18.234
  550.376  100.133    0.182    0.327   15.783
  550.626   82.938    0.214    0.313   15.399
  550.876   62.320    0.241    0.293   15.730
  551.126   58.666    0.253    0.279   19.281
  551.376   56.603    0.272    0.273   23.930
  551.626   54.990    0.289    0.268   31.414
  551.876   54.202    0.289    0.294   37.662
  552.126   55.227    0.264    0.320   41.067
  552.376   57.098    0.241    0.356   39.371
  552.626   58.983    0.240    0.378   28.371
  552.876   59.182    0.248    0.468   22.631
  553.126   64.141    0.270    0.528   17.992
  553.376   69.717    0.292    0.472   16.440
  553.626   72.306    0.260    0.408   16.176
  553.876   72.143    0.232    0.338   17.820
  554.126   70.221    0.255    0.300   19.666
  554.376   70.343    0.248    0.308   23.074
  554.626   67.644    0.261    0.329   26.400
  554.876   66.268    0.270    0.351   29.154
  555.126   63.255    0.267    0.355   29.228
  555.376   56.194    0.281    0.337   25.104
  555.626   42.711    0.275    0.326   20.967
  555.876   35.538    0.289    0.347   15.109
  556.126   35.180    0.304    0.397    9.595
  556.376   37.100    0.312    0.449    8.339
  556.626   39.595    0.320    0.479    7.769
  556.876   44.048    0.314    0.498    7.816
  557.126   47.371    0.310    0.486    7.994
  557.376   49.644    0.285    0.437    8.266
  557.626   46.129    0.272    0.412    8.452
  557.876   42.957    0.281    0.402    8.231
  558.126   42.723    0.268    0.391    7.437
  558.376   46.631    0.248    0.401    6.918
  558.626   57.055    0.264    0.395    6.739
