~VERSION INFORMATION
 VERS.                 2.0:   CWLS LOG ASCII STANDARD -VERSION 2.0
 WRAP.                  NO:   ONE LINE PER DEPTH STEP
~WELL INFORMATION BLOCK
#MNEM.UNIT           DATA                    DESCRIPTION OF MNEMONIC
#---------    -------------------            -------------------------------
# Generated from Intellog Unique Number	CW_70_72/WELL/1047
NULL.         -999.25                        : NULL_VALUE
WELL.         SUNDANCE ET AL TOMATO 10-33    : Well_name    - WELL              
LOC .         10-33-072-23W4                 : Location     - LOCATION          
UWI .         00/10-33-072-23W4/0            : Uwi          - UNIQUE WELL ID    
ENTR.         JAYE                           : Entered      - ENTERED BY        
SRVC.         SCHLUMBERGER                   : Scn          - SERVICE COMPANY   
DATE.         11 JAN 74                      : Date         - LOG DATE          
STRT.M        414.528                        : top_depth    - START DEPTH       
STOP.M        637.028                        : bot_depth    - STOP DEPTH        
STEP.M        0.25                           : increment    - STEP LENGTH       
~CURVE INFORMATION BLOCK
#MNEM UNIT       ERCB CURVE CODE    CURVE DESCRIPTION
#-----------   ------------------   ----------------------------------
DEPT.M        00 001 00 00         : DEPTH        - DEPTH                       
DPHI.V/V      00 890 00 00         : PHID         - DENSITY POROSITY (SANDSTONE)
NPHI.V/V      00 330 00 00         : PHIN         - NEUTRON POROSITY (SANDSTONE)
GR  .API      00 310 00 00         : GR           - GAMMA RAY                   
CALI.MM       00 280 01 00         : CAL          - CALIPER                     
ILD .OHMM     00 120 00 00         : RESD         - DEEP RESISTIVITY (DIL)      
~PARAMETER INFORMATION       
#MNEM.UNIT           DATA             DESCRIPTION OF MNEMONIC
#---------         -----------     ------------------------------
GL  .M        670.103              : gl           - GROUND LEVEL ELEVATION      
EREF.M        673.151              : kb           - ELEVATION OF DEPTH REFERENCE
DATM.M        670.103              : datum        - DATUM ELEVATION             
TDD .M        647.09               : tdd          - TOTAL DEPTH DRILLER         
RUN .         ONE                  : Run          - RUN NUMBER                  
MATR.         SANDSTONE            : Logunit      - NEUTRON MATRIX              
TMAX.C        41.6667              : BHT          - MAXIMUM RECORDED TEMPERATURE
BHTD.M        646.176              : BHTDEP       - MAXIMUM RECORDED TEMPERATURE
RMT .C        14.4444              : MDTP         - TEMPERATURE OF MUD          
MUDD.KG/M     0                    : MWT          - MUD DENSITY                 
NEUT.         1                    : NEUTRON      - NEUTRON TYPE                
RESI.         0                    : RESIST       - RESISTIVITY TYPE            
RM  .OHMM     3.72                 : RM           - RESISTIVITY OF MUD          
RMC .OHMM     0                    : RMC          - RESISTIVITY OF MUD CAKE     
RMF .OHMM     2.21                 : RMF          - RESISTIVITY OF MUD FILTRATE 
SUFT.C        0                    : SUFT         - SURFACE TEMPERATURE         
~A  DEPTH     PHID     PHIN       GR      CAL     RESD
  414.528    0.190    0.636  110.398  184.704    2.397
  414.778    0.182    0.628  110.229  186.184    2.406
  415.028    0.171    0.659  108.031  187.454    2.461
  415.278    0.197    0.617  106.079  187.061    2.539
  415.528    0.188    0.621  107.813  179.806    2.664
  415.778    0.191    0.643  110.590  174.422    2.754
  416.028    0.198    0.609  111.707  172.680    2.874
  416.278    0.203    0.618  111.967  171.764    2.917
  416.528    0.208    0.655  111.919  169.295    2.939
  416.778    0.213    0.662  111.073  165.676    2.918
  417.028    0.197    0.645  108.631  165.908    2.839
  417.278    0.199    0.628  104.959  172.378    2.818
  417.528    0.207    0.602   99.385  179.677    2.903
  417.778    0.241    0.562   92.829  183.443    3.068
  418.028    0.280    0.526   83.449  169.533    3.415
  418.278    0.291    0.437   73.331  154.064    3.899
  418.528    0.269    0.413   63.828  154.715    4.363
  418.778    0.249    0.440   57.149  155.152    4.837
  419.028    0.221    0.454   55.320  155.070    5.324
  419.278    0.199    0.470   53.492  154.056    5.648
  419.528    0.180    0.484   50.803  154.179    5.818
  419.778    0.276    0.480   48.115  154.829    5.723
  420.028    0.282    0.454   49.481  155.265    5.527
  420.278    0.280    0.447   51.703  155.599    5.231
  420.528    0.291    0.461   53.251  154.064    4.869
  420.778    0.286    0.485   56.583  152.528    4.516
  421.028    0.271    0.506   59.849  152.238    4.306
  421.278    0.268    0.500   61.706  153.095    4.128
  421.528    0.267    0.477   62.332  154.265    4.024
  421.778    0.277    0.465   62.962  155.012    3.980
  422.028    0.267    0.485   63.896  156.071    4.003
  422.278    0.274    0.469   65.012  157.654    4.207
  422.528    0.248    0.438   67.359  158.716    4.480
  422.778    0.210    0.401   71.057  161.028    4.787
  423.028    0.183    0.392   77.026  166.352    4.824
  423.278    0.210    0.578   84.224  173.860    4.641
  423.528    0.228    0.622   87.676  182.826    4.218
  423.778    0.218    0.650   85.418  195.636    3.716
  424.028    0.255    0.633   88.132  208.137    3.478
  424.278    0.236    0.558   92.690  218.350    3.669
  424.528    0.249    0.522   93.870  182.709    4.244
  424.778    0.256    0.497   93.576  166.616    4.785
  425.028    0.259    0.506   88.677  162.167    5.364
  425.278    0.260    0.492   82.121  160.529    6.136
  425.528    0.247    0.447   76.671  159.823    6.942
  425.778    0.222    0.427   82.762  160.053    7.125
  426.028    0.208    0.437   90.758  160.701    6.919
  426.278    0.208    0.463   99.428  161.139    6.501
  426.528    0.203    0.466   95.021  159.915    6.266
  426.778    0.195    0.422   89.141  160.354    6.019
  427.028    0.190    0.396   88.110  162.144    5.792
  427.278    0.202    0.422   92.177  170.693    5.563
  427.528    0.196    0.522   95.567  180.384    5.422
  427.778    0.216    0.547   98.895  187.997    5.453
  428.028    0.236    0.537   92.892  192.178    5.753
  428.278    0.225    0.456   85.353  178.061    5.958
  428.528    0.242    0.389   76.832  158.330    6.070
  428.778    0.250    0.371   67.513  155.027    6.150
  429.028    0.231    0.398   69.983  154.946    6.128
  429.278    0.232    0.443   70.119  155.174    6.017
  429.528    0.211    0.446   65.773  156.342    5.769
  429.778    0.194    0.431   67.751  157.613    5.480
  430.028    0.208    0.419   77.220  158.675    5.224
  430.278    0.207    0.474   85.829  164.105    5.009
  430.528    0.219    0.503   94.501  168.081    4.891
  430.778    0.217    0.549  101.268  171.221    4.829
  431.028    0.200    0.567  100.729  175.610    4.920
  431.278    0.218    0.534   98.840  168.977    5.152
  431.528    0.198    0.477   95.475  160.062    5.446
  431.778    0.212    0.428   89.411  157.274    5.671
  432.028    0.220    0.410   84.512  155.634    5.918
  432.278    0.208    0.400   87.904  156.906    6.073
  432.528    0.202    0.417   91.356  161.816    6.164
  432.778    0.199    0.444   93.701  171.403    6.280
  433.028    0.216    0.407   95.556  172.570    6.457
  433.278    0.202    0.403   93.789  166.770    6.602
  433.528    0.213    0.417   89.075  166.794    6.688
  433.778    0.203    0.431   84.117  168.896    6.628
  434.028    0.179    0.446   79.339  170.687    6.413
  434.278    0.235    0.429   69.836  165.406    6.125
  434.528    0.278    0.374   57.754  158.151    5.578
  434.778    0.300    0.358   44.996  154.226    4.959
  435.028    0.292    0.359   33.528  152.373    4.574
  435.278    0.293    0.366   29.611  150.737    4.195
  435.528    0.293    0.378   30.302  149.926    3.898
  435.778    0.294    0.375   30.622  149.118    3.737
  436.028    0.303    0.373   29.345  148.932    3.683
  436.278    0.305    0.376   31.016  150.304    3.731
  436.528    0.305    0.372   32.259  153.759    3.872
  436.778    0.303    0.374   30.922  156.280    4.122
  437.028    0.266    0.381   28.969  156.924    4.596
  437.278    0.261    0.382   28.430  156.739    5.021
  437.528    0.280    0.374   30.777  155.835    5.537
  437.778    0.286    0.364   34.721  155.433    5.874
  438.028    0.270    0.358   39.645  155.458    6.394
  438.278    0.281    0.375   47.150  155.376    6.537
  438.528    0.267    0.375   55.145  155.607    6.550
  438.778    0.262    0.375   63.940  156.568    6.444
  439.028    0.252    0.385   73.040  157.523    6.133
  439.278    0.188    0.406   85.518  159.211    5.890
  439.528    0.164    0.417   91.917  160.273    5.606
  439.778    0.172    0.424   90.703  161.128    5.424
  440.028    0.192    0.456   83.717  161.779    5.238
  440.278    0.215    0.452   80.782  162.004    5.115
  440.528    0.231    0.448   80.920  162.338    4.977
  440.778    0.271    0.451   76.819  162.675    4.797
  441.028    0.273    0.460   80.579  162.903    4.433
  441.278    0.251    0.489   85.504  163.760    4.014
  441.528    0.226    0.527   90.797  167.214    3.542
  441.778    0.191    0.565   96.520  173.579    3.214
  442.028    0.181    0.617  102.061  182.750    2.964
  442.278    0.132    0.642  103.180  193.899    2.785
  442.528    0.161    0.633  102.273  184.980    2.655
  442.778    0.181    0.649  103.881  190.930    2.569
  443.028    0.150    0.701  107.825  206.235    2.560
  443.278    0.229    0.694  112.505  205.946    2.613
  443.528    0.202    0.721  115.404  199.316    2.691
  443.778    0.196    0.603  114.681  212.232    3.012
  444.028    0.220    0.580  114.632  220.882    3.272
  444.278    0.250    0.545  115.936  214.459    3.668
  444.528    0.230    0.516  118.957  194.519    4.181
  444.778    0.209    0.499  114.919  183.524    4.627
  445.028    0.216    0.488  112.786  184.065    4.972
  445.278    0.201    0.516  112.797  191.678    5.217
  445.528    0.228    0.518  112.074  184.214    5.413
  445.778    0.212    0.523  110.551  196.193    5.566
  446.028    0.229    0.549  104.057  179.478    5.786
  446.278    0.249    0.521   94.430  161.930    6.026
  446.528    0.249    0.499   80.506  156.962    6.184
  446.778    0.258    0.518   72.661  153.345    6.254
  447.028    0.262    0.515   76.112  152.432    6.220
  447.278    0.270    0.497   73.118  152.351    5.985
  447.528    0.270    0.468   76.264  152.905    5.633
  447.778    0.256    0.510   80.759  153.758    5.491
  448.028    0.266    0.529   84.026  154.503    5.522
  448.278    0.274    0.543   85.883  156.501    5.584
  448.528    0.253    0.511   85.956  159.225    5.710
  448.778    0.231    0.444   86.339  161.534    5.817
  449.028    0.214    0.449   91.448  166.755    5.970
  449.278    0.186    0.506   98.093  173.848    6.104
  449.528    0.218    0.533  100.193  177.199    6.196
  449.778    0.207    0.505   96.339  167.033    6.197
  450.028    0.229    0.501   94.450  166.848    6.062
  450.278    0.238    0.507   93.296  165.832    5.791
  450.528    0.259    0.484   92.882  163.359    5.470
  450.778    0.253    0.499   94.490  160.991    5.235
