~VERSION INFORMATION
 VERS.                 2.0:   CWLS LOG ASCII STANDARD -VERSION 2.0
 WRAP.                  NO:   ONE LINE PER DEPTH STEP
~WELL INFORMATION BLOCK
#MNEM.UNIT           DATA                    DESCRIPTION OF MNEMONIC
#---------    -------------------            -------------------------------
# Generated from Intellog Unique Number	CW_82_90/WELL/3436
WELL.         CDN SUP LIEGE                  : Well_name    - WELL
LOC .         00/10-03-090-19W4/0            : Location     - LOCATION
UWI .         00/10-03-090-19W4/0            : Uwi          - UNIQUE WELL ID
ENTR.         MAX                            : Entered      - ENTERED BY
SRVC.         COMPUTALOG                     : Scn          - SERVICE COMPANY
STRT.M        115                            : top_depth    - START DEPTH
STOP.M        250                            : bot_depth    - STOP DEPTH
STEP.M        0.25                           : increment    - STEP LENGTH
 NULL. -999.2500:NULL Value
~CURVE INFORMATION BLOCK
#MNEM UNIT       ERCB CURVE CODE    CURVE DESCRIPTION
#-----------   ------------------   ----------------------------------
DEPT.M        00 001 00 00         : DEPTH        - DEPTH
ILD .OHMM     00 120 00 00         : RESD         - DEEP RESISTIVITY (DIL)
CALI.MM       00 280 01 00         : CAL          - CALIPER
DPHI.V/V      00 890 00 00         : PHID         - DENSITY POROSITY (LIMESTONE)
NPHI.V/V      00 330 00 00         : PHIN         - NEUTRON POROSITY (LIMESTONE)
GR  .API      00 310 00 00         : GR           - GAMMA RAY
~PARAMETER INFORMATION
#MNEM.UNIT           DATA             DESCRIPTION OF MNEMONIC
#---------         -----------     ------------------------------
GL  .M        511                  : gl           - GROUND LEVEL ELEVATION
EREF.M        514.8                : kb           - ELEVATION OF DEPTH REFERENCE
DATM.M        514.8                : datum        - DATUM ELEVATION
TDD .M        250                  : tdd          - TOTAL DEPTH DRILLER
RUN .         ONE                  : Run          - RUN NUMBER
ENG .         BILL                 : Engineer     - RECORDING ENGINEER
WIT .         JIM                  : Witness      - WITNESSED BY
MUD .         GEL                  : Mud_type     - MUD TYPE
MATR.         LIMESTONE            : Logunit      - NEUTRON MATRIX
TMAX.C        18                   : BHT          - MAXIMUM RECORDED TEMPERATURE
BHTD.M        2072                 : BHTDEP       - MAXIMUM RECORDED TEMPERATURE
MATR.         1                    : LOGUNIT      - NEUTRON MATRIX
RMT .C        25                   : MDTP         - TEMPERATURE OF MUD
NEUT.         1                    : NEUTRON      - NEUTRON TYPE
RESI.         0                    : RESIST       - RESISTIVITY TYPE
RMC .OHMM     6                    : RMC          - RESISTIVITY OF MUD CAKE
RMF .OHMM     5                    : RMF          - RESISTIVITY OF MUD FILTRATE
SUFT.C        1                    : SUFT         - SURFACE TEMPERATURE
~A  DEPTH     RESD      CAL     PHID     PHIN       GR
  115.000    6.703  166.592    0.217    0.451  116.566
  115.250    5.997  170.603    0.197    0.451  116.265
  115.500    5.468  169.102    0.203    0.449  118.675
  115.750    4.984  167.602    0.226    0.452  123.193
  116.000    4.672  168.607    0.248    0.470  124.398
  116.250    4.674  169.111    0.250    0.484  124.096
  116.500    4.675  169.113    0.246    0.497  124.096
  116.750    4.678  167.613    0.240    0.508  127.108
  117.000    4.636  166.112    0.236    0.508  128.916
  117.250    4.595  165.614    0.233    0.489  130.422
  117.500    4.596  165.616    0.222    0.487  125.602
  117.750    4.598  164.116    0.214    0.495  123.795
  118.000    4.600  162.615    0.222    0.486  125.904
  118.250    4.601  162.618    0.242    0.466  125.904
  118.500    4.560  165.627    0.251    0.470  128.614
  118.750    4.562  167.133    0.246    0.487  127.410
  119.000    4.564  167.136    0.237    0.480  126.205
  119.250    4.608  167.138    0.218    0.474  127.108
  119.500    4.567  167.642    0.204    0.465  127.108
  119.750    4.527  166.643    0.198    0.455  127.108
  120.000    4.487  165.142    0.226    0.453  127.410
  120.250    4.406  167.650    0.240    0.462  125.602
  120.500    4.326  169.157    0.243    0.473  125.602
  120.750    4.248  169.159    0.248    0.473  126.807
  121.000    4.171  167.658    0.254    0.490  123.795
  121.250    4.134  167.661    0.259    0.490  120.783
  121.500    4.136  165.659    0.259    0.481  120.783
  121.750    4.176  162.655    0.248    0.462  119.578
  122.000    4.256  161.155    0.248    0.459  120.482
  122.250    4.419  161.157    0.253    0.503  119.578
  122.500    4.587  161.661    0.259    0.508  119.880
  122.750    4.852  162.165    0.254    0.503  120.181
  123.000    5.228  162.669    0.249    0.499  119.578
  123.250    5.740  163.674    0.248    0.492  112.651
  123.500    6.359  163.677    0.250    0.478  103.313
  123.750    7.520  162.176    0.244    0.468   99.096
  124.000    7.735  163.181    0.234    0.458  103.916
  124.250    7.525  162.682    0.240    0.438  109.639
  124.500    7.528  162.685    0.252    0.458  111.145
  124.750    7.889  163.690    0.256    0.471  109.940
  125.000    8.191  162.691    0.252    0.460  105.120
  125.250    8.270  161.691    0.257    0.448   96.687
  125.500    8.197  162.696    0.267    0.441   93.072
  125.750    7.542  163.200    0.286    0.434   91.868
  126.000    7.202  163.203    0.286    0.427   93.976
  126.250    6.689  163.706    0.276    0.421   98.795
  126.500    5.930  162.205    0.260    0.411  110.542
  126.750    5.257  162.208    0.245    0.425  120.783
  127.000    4.661  161.710    0.188    0.441  124.096
  127.250    4.249  164.218    0.184    0.453  124.096
  127.500    3.909  164.722    0.188    0.495  125.904
  127.750    3.631  162.219    0.219    0.521  130.422
  128.000    3.467  161.721    0.253    0.521  131.627
  128.250    3.311  160.721    0.257    0.515  131.325
  128.500    3.221  160.724    0.256    0.511  128.614
  128.750    3.223  160.726    0.267    0.504  129.819
  129.000    3.254  160.729    0.270    0.500  128.313
  129.250    3.286  160.732    0.276    0.509  124.398
  129.500    3.317  160.234    0.279    0.523  120.783
  129.750    3.412  160.236    0.282    0.512  121.386
  130.000    3.445  158.235    0.279    0.489  124.398
  130.250    3.511  160.742    0.270    0.496  123.193
  130.500    3.578  161.747    0.268    0.501  118.072
  130.750    3.580  161.249    0.272    0.475  114.157
  131.000    3.483  159.748    0.237    0.503  110.241
  131.250    3.420  162.257    0.201    0.531  110.843
  131.500    3.266  161.258    0.248    0.544  114.759
  131.750    3.119  161.761    0.291    0.532  116.566
  132.000    3.091  163.267    0.312    0.523  117.169
  132.250    3.209  163.270    0.306    0.517  119.880
  132.500    3.395  163.272    0.291    0.514  121.386
  132.750    3.624  163.275    0.273    0.504  122.289
  133.000    3.978  164.280    0.251    0.486  121.084
  133.250    4.837  164.283    0.245    0.464  119.277
  133.500    5.773  165.287    0.245    0.451  114.759
  133.750    6.577  165.290    0.248    0.458  111.747
  134.000    7.355  165.293    0.250    0.425  103.614
  134.250    8.150  164.294    0.217    0.386   97.590
  134.500    8.864  163.795    0.195    0.371   96.687
  134.750    9.375  165.301    0.234    0.376   95.783
  135.000    9.734  165.805    0.240    0.376   93.374
  135.250    9.828  166.809    0.205    0.366   90.964
  135.500    9.386  164.808    0.134    0.367   89.458
  135.750    8.637  164.310    0.119    0.381   91.265
  136.000    8.171  164.813    0.181    0.390   98.494
  136.250    7.588  165.818    0.219    0.401  105.120
  136.500    7.113  168.326    0.239    0.413  106.024
  136.750    6.985  170.334    0.239    0.418  109.337
  137.000    7.053  168.833    0.229    0.409  110.241
  137.250    7.188  167.333    0.223    0.417  107.831
  137.500    7.393  165.331    0.232    0.418  104.819
  137.750    7.605  162.828    0.251    0.417   98.193
  138.000    7.896  162.330    0.254    0.425   95.482
  138.250    8.198  162.332    0.259    0.430   99.096
  138.500    8.512  162.836    0.262    0.431  102.410
  138.750    8.755  162.839    0.265    0.433  100.301
  139.000    9.090  164.345    0.267    0.430  100.000
  139.250    9.438  164.347    0.257    0.405  102.711
  139.500   10.076  164.350    0.241    0.401  103.614
  139.750   10.364  164.855    0.201    0.405   93.072
  140.000   11.065  164.857    0.159    0.428   87.349
  140.250   11.172  164.358    0.203    0.406   86.446
  140.500   11.176  163.359    0.246    0.391   82.229
  140.750   10.873  163.361    0.280    0.394   77.711
  141.000   10.192  163.865    0.280    0.389   77.410
  141.250    9.466  163.868    0.267    0.379   84.036
  141.500    8.791  163.870    0.248    0.381   91.566
  141.750    7.866  164.374    0.224    0.393  107.229
  142.000    6.845  164.377    0.195    0.419  116.566
  142.250    5.847  166.885    0.217    0.426  122.289
  142.500    5.089  163.881    0.224    0.438  127.410
  142.750    4.512  162.381    0.236    0.453  123.193
  143.000    4.349  161.381    0.248    0.480  117.169
  143.250    4.076  161.885    0.228    0.490  111.747
  143.500    4.116  161.887    0.179    0.472  109.337
  143.750    4.156  161.891    0.122    0.479  116.566
  144.000    4.314  164.900    0.187    0.485  118.675
  144.250    4.736  166.406    0.223    0.475  114.458
  144.500    5.447  166.909    0.240    0.440  107.530
  144.750    5.924  163.405    0.215    0.416  100.602
  145.000    6.442  163.908    0.197    0.388   97.590
  145.250    7.205  165.916    0.178    0.386   99.699
  145.500    8.286  167.422    0.194    0.391  102.410
  145.750    8.367  165.921    0.220    0.389  103.614
  146.000    7.916  164.420    0.221    0.391  100.301
  146.250    7.559  162.418    0.223    0.408  101.807
  146.500    7.286  162.421    0.235    0.420  100.904
  146.750    7.564  161.422    0.242    0.435   94.879
  147.000    8.001  160.422    0.252    0.454   90.663
  147.250    8.866  159.423    0.259    0.450   85.241
  147.500    9.464  158.924    0.242    0.403   80.121
  147.750   10.198  158.927    0.252    0.391   76.807
  148.000   11.093  158.930    0.250    0.395   72.892
  148.250   11.624  159.434    0.228    0.404   71.385
  148.500   11.520  160.439    0.238    0.407   79.217
  148.750    9.750  161.443    0.256    0.413   91.868
  149.000    8.406  161.446    0.251    0.413  108.735
  149.250    7.522  160.447    0.244    0.409  111.145
  149.500    7.387  160.449    0.245    0.404   98.494
  149.750    7.886  159.950    0.226    0.389   87.349
  150.000    8.656  158.951    0.245    0.392   80.422
  150.250   10.236  159.455    0.258    0.399   80.121
  150.500   10.431  159.959    0.266    0.404   81.626
  150.750    9.962  160.463    0.273    0.411   81.626
  151.000    8.832  160.967    0.265    0.413   82.530
  151.250    8.202  160.969    0.240    0.411   88.855
