~VERSION INFORMATION
 VERS.                 2.0:   CWLS LOG ASCII STANDARD -VERSION 2.0
 WRAP.                  NO:   ONE LINE PER DEPTH STEP
~WELL INFORMATION BLOCK
#MNEM.UNIT           DATA                    DESCRIPTION OF MNEMONIC
#---------    -------------------            -------------------------------
# Generated from Intellog Unique Number	CW_70_72/WELL/1034
NULL.         -999.25                        : NULL_VALUE
WELL.         SUNDANCE ET AL SMITH 10-10     : Well_name    - WELL              
LOC .         10-10-071-23W4                 : Location     - LOCATION          
UWI .         00/10-10-071-23W4/0            : Uwi          - UNIQUE WELL ID    
ENTR.         J                              : Entered      - ENTERED BY        
SRVC.         SCHLUMBERGER                   : Scn          - SERVICE COMPANY   
DATE.         25 FEB 1976                    : Date         - LOG DATE          
STRT.M        423.672                        : top_depth    - START DEPTH       
STOP.M        612.672                        : bot_depth    - STOP DEPTH        
STEP.M        0.25                           : increment    - STEP LENGTH       
~CURVE INFORMATION BLOCK
#MNEM UNIT       ERCB CURVE CODE    CURVE DESCRIPTION
#-----------   ------------------   ----------------------------------
DEPT.M        00 001 00 00         : DEPTH        - DEPTH                       
DPHI.V/V      00 890 00 00         : PHID         - DENSITY POROSITY (SANDSTONE)
NPHI.V/V      00 330 00 00         : PHIN         - NEUTRON POROSITY (SANDSTONE)
GR  .API      00 310 00 00         : GR           - GAMMA RAY                   
CALI.MM       00 280 01 00         : CAL          - CALIPER                     
ILD .OHMM     00 120 00 00         : RESD         - DEEP RESISTIVITY (DIL)      
~PARAMETER INFORMATION       
#MNEM.UNIT           DATA             DESCRIPTION OF MNEMONIC
#---------         -----------     ------------------------------
GL  .M        662.026              : gl           - GROUND LEVEL ELEVATION      
EREF.M        665.683              : kb           - ELEVATION OF DEPTH REFERENCE
DATM.M        661.721              : datum        - DATUM ELEVATION             
TDD .M        620.268              : tdd          - TOTAL DEPTH DRILLER         
RUN .         ONE                  : Run          - RUN NUMBER                  
BASE.         EDM                  : Branch       - HOME BASE OF LOGGING UNIT   
MUD .         GEL CHEM             : Mud_type     - MUD TYPE                    
MATR.         SANDSTONE            : Logunit      - NEUTRON MATRIX              
TMAX.C        24.4444              : BHT          - MAXIMUM RECORDED TEMPERATURE
BHTD.M        620.268              : BHTDEP       - MAXIMUM RECORDED TEMPERATURE
RMT .C        -17.7778             : MDTP         - TEMPERATURE OF MUD          
MUDD.KG/M     0                    : MWT          - MUD DENSITY                 
NEUT.         1                    : NEUTRON      - NEUTRON TYPE                
RESI.         0                    : RESIST       - RESISTIVITY TYPE            
RM  .OHMM     0                    : RM           - RESISTIVITY OF MUD          
RMC .OHMM     0                    : RMC          - RESISTIVITY OF MUD CAKE     
RMF .OHMM     0                    : RMF          - RESISTIVITY OF MUD FILTRATE 
SUFT.C        0                    : SUFT         - SURFACE TEMPERATURE         
~A  DEPTH     PHID     PHIN       GR      CAL     RESD
# ...
  533.172    0.188    0.421   93.152  167.529    6.890
  533.422    0.178    0.416   94.099  167.875    6.671
  533.672    0.181    0.407   95.170  168.004    6.436
  533.922    0.178    0.400   99.286  167.927    6.301
  534.172    0.176    0.404  101.847  167.635    6.135
  534.422    0.170    0.420  101.303  167.240    6.006
  534.672    0.174    0.423  100.760  167.264    5.923
  534.922    0.187    0.418  101.084  167.077    5.810
  535.172    0.200    0.412  101.037  166.786    5.804
  535.422    0.199    0.403   99.499  166.385    5.896
  535.672    0.180    0.413   96.780  165.566    6.055
  535.922    0.191    0.439   97.725  164.649    6.265
  536.172    0.190    0.453  104.512  164.353    6.364
  536.422    0.176    0.461  105.273  164.804    6.370
  536.672    0.178    0.449  103.486  166.092    6.387
  536.922    0.187    0.433  102.071  167.059    6.382
  537.172    0.178    0.436  104.075  168.871    6.375
  537.422    0.183    0.452  107.692  169.950    6.265
  537.672    0.180    0.453  103.668  170.819    6.145
  537.922    0.168    0.434  101.512  171.370    5.950
  538.172    0.163    0.427  101.524  171.922    5.783
  538.422    0.179    0.426  103.215  172.366    5.672
  538.672    0.169    0.433  106.523  172.178    5.624
  538.922    0.166    0.445  110.205  170.206    5.567
  539.172    0.169    0.449  106.863  168.547    5.584
  539.422    0.176    0.439  102.714  166.465    5.609
  539.672    0.175    0.429   97.014  162.598    5.624
  539.922    0.184    0.420   92.367  159.571    5.660
  540.172    0.198    0.447   87.598  159.280    6.328
  540.422    0.222    0.429   83.076  161.832    7.193
  540.672    0.209    0.409   80.108  164.172    8.115
  540.922    0.246    0.412   79.439  165.142    8.537
  541.172    0.154    0.386   75.105  164.957    8.267
  541.422    0.139    0.359   74.995  163.298    7.843
  541.672    0.084    0.312   80.540  160.164    7.265
  541.922    0.103    0.422   81.053  157.457    6.499
  542.172    0.178    0.427   82.992  158.638    5.900
  542.422    0.167    0.409   87.294  161.187    5.587
  542.672    0.195    0.402   90.540  162.898    5.311
  542.922    0.207    0.407   92.046  164.395    5.142
  543.172    0.186    0.429   94.235  165.050    5.147
  543.422    0.191    0.440   98.723  166.026    5.219
  543.672    0.183    0.445  102.715  166.361    5.360
  543.922    0.181    0.453  103.164  167.125    5.525
  544.172    0.185    0.460   97.275  167.569    5.717
  544.422    0.202    0.440   91.265  168.226    5.776
  544.672    0.197    0.431   87.052  168.568    5.718
  544.922    0.184    0.426   94.463  168.698    5.659
  545.172    0.164    0.427   99.012  168.722    5.490
  545.422    0.202    0.430  101.947  168.742    5.444
  545.672    0.185    0.433  103.330  168.664    5.379
  545.922    0.207    0.445  103.965  168.795    5.354
  546.172    0.205    0.431  101.246  168.403    5.349
  546.422    0.188    0.433  102.564  168.423    5.344
  546.672    0.185    0.438  104.569  168.241    5.359
  546.922    0.177    0.440   98.620  168.055    5.424
  547.172    0.154    0.446   93.351  167.762    5.449
  547.422    0.134    0.450   88.332  167.682    5.454
  547.672    0.136    0.434   93.442  167.497    5.408
  547.922    0.146    0.423   95.135  167.100    5.364
  548.172    0.188    0.426   96.268  167.122    5.261
  548.422    0.208    0.416   98.208  167.149    5.170
  548.672    0.184    0.414  100.274  166.962    5.108
  548.922    0.199    0.419  100.414  166.779    5.048
  549.172    0.197    0.422  101.981  166.065    5.024
  549.422    0.184    0.419  104.357  166.095    4.992
  549.672    0.187    0.435  103.004  166.015    5.005
  549.922    0.192    0.444  100.781  165.934    5.094
  550.172    0.190    0.430   97.254  166.063    5.309
  550.422    0.200    0.437   90.994  165.773    5.720
  550.672    0.172    0.448   84.236  165.481    6.187
  550.922    0.145    0.419   75.986  165.399    6.580
  551.172    0.106    0.379   76.622  165.001    6.758
  551.422    0.073    0.353   84.963  165.130    6.079
  551.672    0.103    0.369   92.123  164.943    5.348
  551.922    0.150    0.441   96.923  164.862    5.294
  552.172    0.184    0.467   97.310  165.208    5.789
  552.422    0.163    0.481   90.054  165.129    7.083
  552.672    0.120    0.462   80.997  165.045    9.805
  552.922    0.088    0.435   65.914  164.653   13.550
  553.172    0.033    0.268   53.501  164.676   15.120
  553.422    0.005    0.230   61.409  164.697   13.776
  553.672    0.014    0.251   71.549  164.721   10.614
  553.922    0.054    0.286   83.431  164.750    8.299
  554.172    0.092    0.321   91.276  164.035    7.076
  554.422    0.152    0.342   95.951  164.795    6.364
  554.672    0.168    0.373   97.954  163.981    5.548
  554.922    0.171    0.397  101.198  163.267    5.564
  555.172    0.175    0.408  107.117  162.556    5.693
  555.422    0.187    0.413  103.714  163.006    5.945
  555.672    0.189    0.418   99.255  163.345    6.300
  555.922    0.215    0.426   94.299  164.101    6.639
  556.172    0.227    0.431   90.087  164.972    6.959
  556.422    0.188    0.433   85.442  165.310    7.347
  556.672    0.184    0.427   82.103  165.757    7.465
  556.922    0.178    0.412   79.072  166.731    7.443
  557.172    0.159    0.380   76.042  167.911    7.208
  557.422    0.132    0.366   78.603  168.250    7.005
  557.672    0.137    0.354   83.153  167.538    6.819
  557.922    0.144    0.366   87.395  166.829    6.578
  558.172    0.157    0.383   89.334  165.487    6.241
  558.422    0.176    0.390   91.463  164.774    5.901
  558.672    0.169    0.401   94.459  164.375    5.619
  558.922    0.172    0.408   98.576  164.400    5.273
  559.172    0.203    0.421  103.375  164.214    4.985
  559.422    0.179    0.435  107.738  167.397    4.704
  559.672    0.181    0.453  114.027  171.632    4.488
  559.922    0.171    0.492  112.552  172.075    4.418
  560.172    0.137    0.478  106.974  165.472    4.406
  560.422    0.094    0.445  104.565  164.233    4.434
  560.672    0.048    0.459  109.861  169.834    4.504
  560.922    0.075    0.503  114.971  172.173    4.668
  561.172    0.191    0.526  117.720  170.623    4.875
  561.422    0.185    0.514  113.136  167.489    5.138
  561.672    0.187    0.435  107.374  164.778    5.496
  561.922    0.181    0.421  103.535  164.487    5.813
  562.172    0.163    0.411  100.815  164.723    6.048
  562.422    0.179    0.419   99.774  165.379    6.042
  562.672    0.162    0.427  101.281  166.247    6.015
  562.922    0.137    0.414  104.463  167.006    6.020
  563.172    0.108    0.415  109.635  167.138    6.048
  563.422    0.184    0.427  104.679  166.741    6.269
  563.672    0.169    0.430   97.734  165.295    6.510
  563.922    0.148    0.418   92.716  163.843    7.040
  564.172    0.144    0.414   92.981  163.134    7.420
  564.422    0.131    0.415   92.869  163.158    7.331
  564.672    0.134    0.426   85.179  162.976    7.178
  564.922    0.105    0.408   88.922  162.788    6.965
  565.172    0.076    0.391   94.591  162.709    6.781
  565.422    0.055    0.424  102.373  162.730    6.625
  565.672    0.140    0.435  101.393  162.756    6.450
  565.922    0.159    0.427   91.093  162.893    6.246
  566.172    0.165    0.418   92.723  162.810    6.138
  566.422    0.159    0.410   96.964  162.618    6.086
  566.672    0.143    0.411  102.260  162.011    6.035
  566.922    0.126    0.435  100.721  161.522    5.888
  567.172    0.145    0.448   96.013  161.220    5.690
  567.422    0.115    0.436   93.232  160.930    5.449
  567.672    0.083    0.417   99.646  160.849    5.334
  567.922    0.123    0.430  107.116  160.982    5.419
  568.172    0.146    0.444  109.120  160.687    5.658
  568.422    0.156    0.455  107.893  161.032    5.930
  568.672    0.177    0.456  107.720  161.582    6.113
  568.922    0.172    0.449  102.826  162.129    6.234
  569.172    0.179    0.439   97.125  162.480    6.343
  569.422    0.165    0.426   97.760  162.497    6.420
