~VERSION INFORMATION
VERS.                2.00:   CWLS LOG ASCII STANDARD -VERSION 2.0
WRAP.                  NO:
~WELL INFORMATION BLOCK
#MNEM.UNIT           DATA                    DESCRIPTION OF MNEMONIC
#---------    -------------------            -------------------------------
# Generated from Intellog Unique Number	CN_91_93/WELL/2737
LOC .         11-07-093-18W4                 : Location     - LOCATION          
UWI .         00/11-07-093-18W400            : Uwi          - UNIQUE WELL ID    
ENTR.         JOETTE                         : Entered      - ENTERED BY        
STRT.M            70.0000:
STOP.M           250.0000:
STEP.M             0.2500:
NULL.           -999.2500:
COMP.     :COMPANY
WELL.  PETRO-CANADA INC. :WELL
FLD.      :FIELD
LOC.      :LOCATION
CTRY.     :COUNTRY
PROV.     :PROVINCE
SRVC.  SCHLUMBERGER  :SERVICE COMPANY
DATE.  03/23/92  :LOG DATE
UWI.      :UNIQUE WELL ID
~Curve Information Block
#MNEM UNIT       ERCB CURVE CODE    CURVE DESCRIPTION
#MNEM.UNIT        API CODE    Curve Description
#---------    ------------    -------------------------------------------
DEPT.M                    :   DEPTH
CALI.MM       00 280 01 00:   CAL          - CALIPER
DPHI.V/V      00 890 00 00:   PHID         - DENSITY POROSITY (SANDSTONE)
GR  .API      00 310 00 00:   GR           - GAMMA RAY
ILD .OHMM     00 120 00 00:   RESD         - DEEP RESISTIVITY (DIL)
NPHI.V/V      00 330 00 00:   PHIN         - NEUTRON POROSITY (SANDSTONE)
~PARAMETER INFORMATION       
#MNEM.UNIT           DATA             DESCRIPTION OF MNEMONIC
#---------         -----------     ------------------------------
GL  .M        512.3                : gl           - GROUND LEVEL ELEVATION      
EREF.M        515.6                : kb           - ELEVATION OF DEPTH REFERENCE
DATM.M        515.6                : datum        - DATUM ELEVATION             
TDD .M        250.8                : tdd          - TOTAL DEPTH DRILLER         
RUN .         ONE                  : Run          - RUN NUMBER                  
ENG .         BILL                 : Engineer     - RECORDING ENGINEER          
WIT .         JIM                  : Witness      - WITNESSED BY                
MUD .         GEL                  : Mud_type     - MUD TYPE                    
MATR.         SANDSTONE            : Logunit      - NEUTRON MATRIX              
TMAX.C        18                   : BHT          - MAXIMUM RECORDED TEMPERATURE
BHTD.M        250.8                : BHTDEP       - MAXIMUM RECORDED TEMPERATURE
RMT .C        15                   : MDTP         - TEMPERATURE OF MUD          
MUDD.KG/M     1150                 : MWT          - MUD DENSITY                 
NEUT.         1                    : NEUTRON      - NEUTRON TYPE                
RESI.         0                    : RESIST       - RESISTIVITY TYPE            
RM  .OHMM     2.66                 : RM           - RESISTIVITY OF MUD          
RMC .OHMM     2.66                 : RMC          - RESISTIVITY OF MUD CAKE     
RMF .OHMM     2.66                 : RMF          - RESISTIVITY OF MUD FILTRATE 
SUFT.C        4                    : SUFT         - SURFACE TEMPERATURE         
~A  Depth           CALI        DPHI          GR         ILD        NPHI
70.0000         173.2030      0.2580     78.9760      8.3440      0.4330
70.2500         170.1120      0.2520     82.5580      8.1780      0.4490
70.5000         165.9970      0.2650     88.5280      7.4330      0.4940
70.7500         164.9530      0.2780     87.2870      5.9140      0.5010
71.0000         163.8520      0.2950     83.6130      5.9070      0.4540
71.2500         163.7740      0.3040     84.7830      6.1280      0.4480
71.5000         160.6830      0.2890     89.5590      6.1210      0.4640
71.7500         160.6060      0.2840     90.7070      5.6700      0.4730
72.0000         161.5520      0.2830     89.4550      4.5960      0.4740
72.2500         164.4890      0.2860     89.4200      4.7690      0.4890
72.5000         164.4110      0.2910     89.9650      4.7620      0.5010
72.7500         163.3100      0.2960     91.7260      4.3270      0.5050
73.0000         161.2430      0.3070     92.2830      4.0080      0.5260
73.2500         160.1410      0.3110     91.0310      4.0030      0.5450
73.5000         161.0100      0.2900     88.5850      4.4800      0.5190
73.7500         161.9570      0.2650     84.9100      5.5110      0.4810
74.0000         162.9040      0.2540     85.4660      7.0420      0.4700
74.2500         165.8210      0.2560     82.9970      8.8290      0.4600
74.5000         168.7570      0.2610     80.5400     10.4600      0.4610
74.7500         169.7230      0.2610     78.6850     11.9260      0.4600
75.0000         166.6120      0.1890     74.4300     11.9160      0.4500
75.2500         162.5170      0.1610     65.9330      9.8460      0.4360
75.5000         164.4680      0.2770     70.1180      8.2940      0.3900
75.7500         163.3660      0.2860     74.8940      6.9860      0.4200
76.0000         162.2840      0.2820     80.2720      5.9960      0.4960
76.2500         167.2300      0.2730     82.6370      5.3440      0.5210
76.5000         172.1950      0.2670     81.3850      5.2410      0.4990
76.7500         172.1180      0.2740     80.1220      4.9420      0.4810
77.0000         168.0220      0.2870     81.8830      4.9390      0.4930
77.2500         164.9300      0.3050     83.6450      4.7480      0.5190
77.5000         162.8440      0.2970     81.7910      4.4820      0.5170
77.7500         161.7230      0.2800     75.1140      4.2300      0.5140
78.0000         160.6220      0.2360     69.6420      4.6450      0.5060
78.2500         160.5830      0.2080     66.5700      5.5020      0.4810
78.5000         160.5050      0.1700     65.9210      7.0300      0.4110
78.7500         164.4470      0.2460     67.6940      8.8130      0.3930
79.0000         168.3880      0.2620     72.4700      8.6360      0.4400
79.2500         171.3240      0.2640     77.8370      7.8490      0.4520
79.5000         171.2470      0.2560     81.4190      6.4850      0.4620
79.7500         170.1450      0.2480     83.7840      6.8590      0.4900
80.0000         169.0830      0.2380     78.9150      7.3880      0.5100
80.2500         169.0050      0.2160     73.4320      7.9600      0.5000
80.5000         169.9330      0.1950     72.1800      8.1030      0.4720
80.7500         164.8130      0.2070     75.1590      7.9400      0.4480
81.0000         166.7440      0.2670     80.5370      7.4970      0.4430
81.2500         170.6860      0.2900     85.9160      6.3150      0.4480
81.5000         170.6080      0.2900     88.2810      5.4170      0.4680
81.7500         171.5160      0.2670     85.2090      5.2110      0.4970
82.0000         171.4770      0.2720     86.9820      5.2040      0.5160
82.2500         171.4000      0.2710     89.9380      5.2010      0.4370
82.5000         173.3320      0.2480     83.8640      5.5990      0.4480
82.7500         171.2260      0.2190     80.8040      5.7030      0.4630
83.0000         169.1390      0.2420     79.5520      6.1430      0.4600
83.2500         169.0620      0.2630     79.5050      6.3760      0.4720
83.5000         169.9890      0.2810     79.4590      6.1320      0.5250
83.7500         169.9110      0.2740     77.5920      4.9730      0.5850
84.0000         167.8250      0.2680     79.3660      4.2680      0.5360
84.2500         166.7430      0.2770     85.3470      4.4290      0.5340
84.5000         166.6270      0.2840     85.8920      4.7710      0.5350
84.7500         165.5640      0.2850     85.8340      5.0430      0.5140
85.0000         162.4730      0.2780     87.0160      5.0380      0.4780
85.2500         161.3710      0.2690     82.1470      4.7550      0.4910
85.5000         162.3370      0.2600     76.6640      4.7490      0.4990
85.7500         166.2780      0.2490     74.2070      6.9280      0.4790
86.0000         170.2190      0.2400     71.7490      7.4670      0.4510
86.2500         168.1330      0.2480     68.0860     10.4880      0.4340
86.5000         165.0220      0.2640     64.4000     11.9610      0.4240
86.7500         162.9550      0.2700     63.7740     13.1310      0.4120
87.0000         162.8580      0.2680     63.1240     12.1560      0.4020
87.2500         165.7750      0.2680     64.8750     11.0510      0.4000
87.5000         168.7120      0.2740     70.2650      6.8740      0.4280
87.7500         168.6540      0.2960     75.0410      5.6810      0.4580
88.0000         163.5530      0.3100     78.5990      5.2610      0.4860
88.2500         162.4520      0.3170     79.1670      5.1550      0.5170
88.5000         163.3790      0.3250     81.5200      5.1500      0.5260
88.7500         163.3210      0.3370     84.4990      5.6560      0.5490
89.0000         160.2290      0.3150     89.8780      6.3250      0.5170
89.2500         163.1660      0.2240     92.2430      6.5640      0.4780
89.5000         169.0970      0.2050     89.7740      6.6840      0.4600
89.7500         169.0200      0.2240     93.3550      6.8020      0.4660
90.0000         165.9090      0.2400     98.1310      6.4150      0.4860
90.2500         165.8510      0.2380     95.0710      6.1730      0.5090
90.5000         165.7730      0.2530     87.7910      5.8240      0.5030
90.7500         165.6960      0.2510     84.7190      5.8180      0.4750
91.0000         164.5950      0.2540     84.0820      5.9240      0.4390
91.2500         164.5170      0.2690     81.5890      6.3790      0.4500
91.5000         164.4780      0.2560     78.5520      6.6200      0.4790
91.7500         164.3820      0.2650     64.6410      7.2710      0.4890
92.0000         162.2950      0.2950     50.7080      8.4510      0.4470
92.2500         160.1890      0.2710     50.0590     10.2010      0.4270
92.5000         162.1400      0.2620     51.8320     11.8530      0.4320
92.7500         164.0720      0.2550     57.8130     12.7710      0.4420
93.0000         166.0040      0.2500     63.1800     12.9970      0.4490
93.2500         167.9360      0.2820     63.1340     12.7460      0.4440
93.5000         167.8390      0.2920     61.2790     12.0280      0.4450
93.7500         166.7760      0.3080     61.2330     12.2370      0.4490
94.0000         166.6990      0.3210     62.9950     12.2300      0.4000
94.2500         167.6260      0.3100     65.9740     12.9270      0.4110
94.5000         168.5340      0.3030     67.7240     13.1590      0.4280
94.7500         167.4520      0.3060     64.0730     13.1480      0.4360
95.0000         164.3610      0.3410     62.8090     12.6410      0.4330
95.2500         167.3160      0.3570     66.3910     11.7060      0.4300
95.5000         174.2710      0.3760     72.9750      9.8580      0.4310
95.7500         173.1700      0.3330     75.9310      9.1280      0.4540
96.0000         169.0740      0.3030     75.8840      8.6140      0.4710
96.2500         162.9300      0.3020     77.0430      7.9770      0.4470
96.5000         161.8870      0.3030     80.0220      7.5250      0.4540
96.7500         161.8090      0.3000     84.1950      7.2420      0.4660
97.0000         162.6980      0.2950     87.1510      6.4550      0.4830
97.2500         163.6450      0.2990     87.1170      6.0930      0.4960
