~VERSION INFORMATION
 VERS.                 2.0:   CWLS LOG ASCII STANDARD -VERSION 2.0
 WRAP.                  NO:   ONE LINE PER DEPTH STEP
~WELL INFORMATION BLOCK
#MNEM.UNIT           DATA                    DESCRIPTION OF MNEMONIC
#---------    -------------------            -------------------------------
# Generated from Intellog Unique Number	CW_82_90/WELL/3080
WELL.         11-32-086-22W4                 : Well_name    - WELL
LOC .         00/11-32-086-22W4/0            : Location     - LOCATION
UWI .         00/11-32-086-22W4/0            : Uwi          - UNIQUE WELL ID
ENTR.         MAX                            : Entered      - ENTERED BY
SRVC.         SCHLUMBERGER                   : Scn          - SERVICE COMPANY
STRT.M        152.4                          : top_depth    - START DEPTH
STOP.M        347.4                          : bot_depth    - STOP DEPTH
STEP.M        0.25                           : increment    - STEP LENGTH
 NULL. -999.2500:NULL Value
~CURVE INFORMATION BLOCK
#MNEM UNIT       ERCB CURVE CODE    CURVE DESCRIPTION
#-----------   ------------------   ----------------------------------
DEPT.M        00 001 00 00         : DEPTH        - DEPTH
ILD .OHMM     00 120 00 00         : RESD         - DEEP RESISTIVITY (DIL)
NPHI.V/V      00 330 00 00         : PHIN         - NEUTRON POROSITY (SANDSTONE)
DPHI.V/V      00 890 00 00         : PHID         - DENSITY POROSITY (SANDSTONE)
CALI.MM       00 280 01 00         : CAL          - CALIPER
GR  .API      00 310 00 00         : GR           - GAMMA RAY
~PARAMETER INFORMATION
#MNEM.UNIT           DATA             DESCRIPTION OF MNEMONIC
#---------         -----------     ------------------------------
GL  .M        563.88               : gl           - GROUND LEVEL ELEVATION
EREF.M        567.233              : kb           - ELEVATION OF DEPTH REFERENCE
DATM.M        563.88               : datum        - DATUM ELEVATION
TDD .M        350.52               : tdd          - TOTAL DEPTH DRILLER
RUN .         ONE                  : Run          - RUN NUMBER
ENG .         BILL                 : Engineer     - RECORDING ENGINEER
WIT .         JIM                  : Witness      - WITNESSED BY
MUD .         GEL                  : Mud_type     - MUD TYPE
MATR.         SANDSTONE            : Logunit      - NEUTRON MATRIX
TMAX.C        20.5556              : BHT          - MAXIMUM RECORDED TEMPERATURE
BHTD.M        2.56383e+06          : BHTDEP       - MAXIMUM RECORDED TEMPERATURE
MATR.         1                    : LOGUNIT      - NEUTRON MATRIX
RMT .C        15.5556              : MDTP         - TEMPERATURE OF MUD
NEUT.         1                    : NEUTRON      - NEUTRON TYPE
RESI.         0                    : RESIST       - RESISTIVITY TYPE
RMC .OHMM     4.28                 : RMC          - RESISTIVITY OF MUD CAKE
RMF .OHMM     3.31                 : RMF          - RESISTIVITY OF MUD FILTRATE
SUFT.C        -17.7778             : SUFT         - SURFACE TEMPERATURE
~A  DEPTH     RESD     PHIN     PHID      CAL       GR
# ...
  261.900   13.370    0.425    0.257  309.272   73.417
  262.150   16.162    0.367    0.235  312.206   72.561
  262.400   20.073    0.320    0.171  315.141   70.268
  262.650   24.486    0.297    0.095  317.103   65.962
  262.900   25.854    0.251    0.059  319.064   60.792
  263.150   24.498    0.225    0.051  320.048   57.924
  263.400   22.593    0.192    0.021  320.549   57.643
  263.650   19.738    0.201    0.032  319.587   63.977
  263.900   14.269    0.267    0.102  319.602   76.352
  264.150   13.278    0.341    0.206  320.099   84.700
  264.400   11.496    0.390    0.228  321.572   92.472
  264.650   10.413    0.407    0.242  322.559   96.506
  264.900   10.046    0.426    0.244  320.623   98.814
  265.150    9.693    0.421    0.244  322.099   99.396
  265.400    9.694    0.432    0.243  322.111  100.267
  265.650    9.963    0.427    0.240  320.660   97.973
  265.900   10.147    0.424    0.232  321.161   97.407
  266.150   10.241    0.431    0.216  321.660   95.689
  266.400   10.430    0.438    0.210  322.162   94.544
  266.650   10.622    0.441    0.207  323.147   95.127
  266.900   10.721    0.437    0.200  323.159   97.147
  267.150   10.919    0.450    0.202  324.148   98.594
  267.400   11.221    0.441    0.216  326.105   96.875
  267.650   11.428    0.427    0.224  324.172   94.583
  267.900   11.534    0.406    0.243  319.313   94.303
  268.150   11.747    0.405    0.254  318.839   96.898
  268.400   11.856    0.406    0.259  319.338   97.192
  268.650   11.967    0.404    0.269  316.918   95.186
  268.900   11.969    0.406    0.266  313.037   91.456
  269.150   11.973    0.404    0.253  312.557   93.190
  269.400   11.975    0.401    0.241  312.086   95.208
  269.650   11.977    0.417    0.233  313.558   93.778
  269.900   11.980    0.420    0.220  314.542   84.008
  270.150   11.876    0.429    0.217  315.043   85.165
  270.400   11.771    0.435    0.244  315.542   88.912
  270.650   11.460    0.395    0.248  315.556   90.357
  270.900   11.360    0.381    0.244  315.567   94.390
  271.150   11.362    0.379    0.243  315.580   97.848
  271.400   11.162    0.387    0.243  315.595   96.418
  271.650   11.164    0.400    0.238  316.581   96.139
  271.900   11.067    0.410    0.233  317.080   97.585
  272.150   10.970    0.414    0.229  316.605   96.153
  272.400   10.874    0.420    0.230  314.670   93.286
  272.650   10.779    0.427    0.240  312.734   90.703
  272.900   10.685    0.433    0.245  313.233   88.123
  273.150   10.402    0.430    0.243  314.221   84.680
  273.400   10.036    0.420    0.239  315.205   87.563
  273.650    9.596    0.403    0.236  318.630   92.746
  273.900    9.426    0.410    0.230  320.590   99.081
  274.150    9.344    0.439    0.227  320.602  100.527
  274.400    9.762    0.440    0.215  322.412   96.648
  274.650    9.177    0.425    0.190  321.494   92.641
  274.900    7.961    0.403    0.181  321.057   87.483
  275.150    6.261    0.398    0.212  319.644   88.956
  275.400    5.195    0.414    0.238  318.733   93.606
  275.650    4.798    0.459    0.254  318.290   98.829
  275.900    5.067    0.465    0.261  317.854   96.844
  276.150    5.399    0.465    0.260  317.437   94.575
  276.400    6.235    0.448    0.258  317.476   93.737
  276.650    6.884    0.477    0.254  317.059   91.172
  276.900    7.949    0.452    0.249  317.098   86.876
  277.150    8.247    0.436    0.239  317.170   85.184
  277.400    6.721    0.443    0.225  317.216   84.353
  277.650    6.043    0.443    0.210  317.268   83.803
  277.900    5.337    0.421    0.182  317.320   85.284
  278.150    5.110    0.427    0.221  317.861   86.749
  278.400    5.396    0.449    0.252  316.955   90.826
  278.650    6.573    0.469    0.247  316.506   95.183
  278.900    7.130    0.462    0.240  315.106  100.125
  279.150    7.944    0.462    0.232  315.158   96.114
  279.400    8.618    0.466    0.212  316.689   92.976
  279.650    9.347    0.453    0.170  318.193   90.118
  279.900    9.699    0.428    0.152  320.205   87.849
  280.150    9.706    0.432    0.185  322.218   90.184
  280.400    9.543    0.433    0.205  322.765   92.245
  280.650    9.467    0.439    0.232  322.329   93.710
  280.900    9.645    0.434    0.231  321.892   94.618
  281.150   10.279    0.434    0.229  321.456   95.218
  281.400   11.150    0.455    0.229  320.538  100.156
  281.650   12.095    0.462    0.233  320.590  103.937
  281.900   13.002    0.438    0.238  326.516  100.799
  282.150   14.487    0.403    0.233  323.143   97.080
  282.400   16.581    0.376    0.219  320.753   92.784
  282.650   19.317    0.375    0.197  320.818   90.511
  282.900   23.323    0.368    0.112  321.359   86.215
  283.150   29.713    0.251    0.038  320.929   76.727
  283.400   38.538    0.241    0.035  319.998   68.393
  283.650   44.901    0.219    0.021  320.063   64.963
  283.900   31.724    0.205    0.001  319.627   65.578
  284.150   23.645    0.188    0.016  319.184   66.470
  284.400   18.101    0.210    0.037  319.249   68.812
  284.650   13.858    0.283    0.058  312.945   72.016
  284.900   12.349    0.318    0.092  271.474   76.666
  285.150   11.408    0.353    0.193  243.685   82.469
  285.400   11.018    0.395    0.215  241.790   86.827
  285.650   10.927    0.420    0.216  241.849   91.481
  285.900   10.744    0.444    0.223  240.924   91.515
  286.150   10.754    0.456    0.226  240.488   91.542
  286.400   10.958    0.457    0.214  240.058   91.861
  286.650   11.678    0.462    0.205  240.110   91.608
  286.900   12.553    0.467    0.204  240.163   88.758
  287.150   15.431    0.469    0.206  240.234   85.908
  287.400   21.113    0.455    0.190  240.273   83.339
  287.650   28.380    0.432    0.154  239.844   78.466
  287.900   33.066    0.408    0.090  239.407   70.421
  288.150   30.267    0.325    0.035  238.984   65.259
  288.400   26.735    0.297    0.053  238.541   62.413
  288.650   23.403    0.279    0.055  238.593   63.021
  288.900   20.488    0.303    0.117  238.164   67.379
  289.150   19.964    0.376    0.169  237.245   77.509
  289.400   19.282    0.405    0.121  237.298   78.693
  289.650   18.294    0.372    0.098  237.350   76.420
  289.900   17.667    0.352    0.125  237.415   76.163
  290.150   17.369    0.361    0.139  237.949   78.505
  290.400   16.481    0.382    0.154  238.496   83.151
  290.650   15.492    0.408    0.127  238.548   85.208
  290.900   14.438    0.431    0.135  238.600   84.374
  291.150   14.071    0.446    0.177  238.184   82.678
  291.400   14.336    0.437    0.179  237.741   82.709
  291.650   15.006    0.441    0.195  237.800   83.897
  291.900   15.703    0.465    0.172  237.845   86.232
  292.150   17.974    0.456    0.159  237.435   85.982
  292.400   18.809    0.442    0.109  237.474   82.836
  292.650   18.997    0.381    0.091  237.044   81.436
  292.900   18.023    0.364    0.119  237.090   82.328
  293.150   16.351    0.388    0.150  237.142   84.670
  293.400   14.574    0.425    0.142  236.712   87.013
  293.650   14.072    0.413    0.175  236.276   88.770
  293.900   13.839    0.445    0.180  236.335   92.266
  294.150   13.973    0.464    0.183  236.393   94.608
  294.400   14.112    0.473    0.193  236.446   94.924
  294.650   14.124    0.468    0.177  236.009   93.224
  294.900   14.139    0.463    0.190  235.579   90.955
  295.150   14.279    0.471    0.194  235.156   88.963
  295.400   14.549    0.455    0.203  235.208   87.555
  295.650   14.435    0.450    0.202  234.779   87.297
  295.900   14.189    0.446    0.176  234.824   87.044
  296.150   13.462    0.438    0.167  234.883   87.074
  296.400   13.002    0.433    0.172  234.935   87.971
  296.650   13.252    0.438    0.180  234.994   88.871
  296.900   13.025    0.458    0.207  234.551   88.905
  297.150   12.922    0.449    0.192  234.610   88.940
  297.400   13.050    0.426    0.191  233.698   89.832
  297.650   12.606    0.438    0.191  233.744   91.024
  297.900   12.502    0.466    0.167  234.773   88.744
  298.150   12.513    0.465    0.153  235.326   89.936
