~VERSION INFORMATION
 VERS.                 2.0:   CWLS LOG ASCII STANDARD -VERSION 2.0
 WRAP.                  NO:   ONE LINE PER DEPTH STEP
~WELL INFORMATION BLOCK
#MNEM.UNIT           DATA                    DESCRIPTION OF MNEMONIC
#---------    -------------------            -------------------------------
# Generated from Intellog Unique Number	CS_73_76/WELL/2022
WELL.         AMOCO CANADA PETROLEUM CO.LTD. : Well_name    - WELL
LOC .         00/10-19-073-04W4/0            : Location     - LOCATION
UWI .         00/10-19-073-04W4/0            : Uwi          - UNIQUE WELL ID
ENTR.         JOETTE                         : Entered      - ENTERED BY
SRVC.         SCHLUMBERGER                   : Scn          - SERVICE COMPANY
DATE.         05/13/92                       : Date         - LOG DATE
STRT.M        300                            : top_depth    - START DEPTH
STOP.M        470                            : bot_depth    - STOP DEPTH
STEP.M        0.25                           : increment    - STEP LENGTH
 NULL. -999.2500:NULL Value
~CURVE INFORMATION BLOCK
#MNEM UNIT       ERCB CURVE CODE    CURVE DESCRIPTION
#-----------   ------------------   ----------------------------------
DEPT.M        00 001 00 00         : DEPTH        - DEPTH
CALI.MM       00 280 01 00         : CAL          - CALIPER
GR  .API      00 310 00 00         : GR           - GAMMA RAY
NPHI.V/V      00 330 00 00         : PHIN         - NEUTRON POROSITY (SANDSTONE)
DPHI.V/V      00 890 00 00         : PHID         - DENSITY POROSITY (SANDSTONE)
ILD .OHMM     00 120 00 00         : RESD         - DEEP RESISTIVITY (DIL)
~PARAMETER INFORMATION
#MNEM.UNIT           DATA             DESCRIPTION OF MNEMONIC
#---------         -----------     ------------------------------
GL  .M        630                  : gl           - GROUND LEVEL ELEVATION
EREF.M        634.4                : kb           - ELEVATION OF DEPTH REFERENCE
DATM.M        634.4                : datum        - DATUM ELEVATION
TDD .M        475.7                : tdd          - TOTAL DEPTH DRILLER
RUN .         ONE                  : Run          - RUN NUMBER
ENG .         BILL                 : Engineer     - RECORDING ENGINEER
WIT .         JIM                  : Witness      - WITNESSED BY
MUD .         GEL                  : Mud_type     - MUD TYPE
MATR.         SANDSTONE            : Logunit      - NEUTRON MATRIX
TMAX.C        20                   : BHT          - MAXIMUM RECORDED TEMPERATURE
BHTD.M        475.7                : BHTDEP       - MAXIMUM RECORDED TEMPERATURE
MATR.         1                    : LOGUNIT      - NEUTRON MATRIX
RMT .C        17                   : MDTP         - TEMPERATURE OF MUD
NEUT.         1                    : NEUTRON      - NEUTRON TYPE
RESI.         0                    : RESIST       - RESISTIVITY TYPE
RMC .OHMM     6.3                  : RMC          - RESISTIVITY OF MUD CAKE
RMF .OHMM     5.3                  : RMF          - RESISTIVITY OF MUD FILTRATE
SUFT.C        15                   : SUFT         - SURFACE TEMPERATURE
~A  DEPTH      CAL       GR     PHIN     PHID     RESD
# ...
  336.500  225.495  116.124    0.427    0.221    3.990
  336.750  228.840  121.889    0.441    0.210    4.077
  337.000  229.010  120.112    0.444    0.207    4.164
  337.250  228.093  115.177    0.453    0.220    4.174
  337.500  227.262  112.774    0.460    0.236    4.185
  337.750  227.389  111.623    0.474    0.240    4.116
  338.000  229.690  110.472    0.484    0.235    3.981
  338.250  230.861  108.695    0.505    0.234    3.986
  338.500  232.075  101.906    0.515    0.239    4.001
  338.750  231.201  100.755    0.511    0.247    4.081
  339.000  227.195  100.857    0.492    0.245    4.248
  339.250  220.142  103.465    0.479    0.243    4.262
  339.500  217.095  106.725    0.469    0.237    3.967
  339.750  216.221  109.933    0.457    0.236    3.757
  340.000  218.521  100.639    0.442    0.256    3.500
  340.250  218.649   91.946    0.430    0.291    3.714
  340.500  217.775   87.062    0.439    0.300    3.861
  340.750  215.857   88.417    0.446    0.280    4.167
  341.000  214.983   93.530    0.447    0.267    4.419
  341.250  219.371  100.522    0.447    0.252    4.594
  341.500  223.717  109.420    0.446    0.242    4.786
  341.750  227.019  111.401    0.444    0.224    4.795
  342.000  228.233  108.371    0.435    0.184    4.725
  342.250  227.359   99.051    0.426    0.155    4.644
  342.500  221.265   93.516    0.415    0.189    4.325
  342.750  221.435   97.376    0.424    0.216    3.955
  343.000  219.560   99.984    0.435    0.230    3.818
  343.250  216.555   99.485    0.437    0.243    3.618
  343.500  214.637   97.081    0.431    0.230    3.496
  343.750  216.895   97.183    0.427    0.207    3.379
  344.000  222.285   94.127    0.429    0.206    3.264
  344.250  226.674   87.991    0.435    0.226    3.210
  344.500  227.930   86.814    0.438    0.248    3.220
  344.750  228.015   89.448    0.436    0.263    3.228
  345.000  229.229   91.429    0.432    0.256    3.237
  345.250  230.443   89.051    0.431    0.262    3.245
  345.500  232.828   86.596    0.429    0.271    3.253
  345.750  232.913   90.456    0.437    0.268    3.199
  346.000  229.994   99.354    0.448    0.260    3.038
  346.250  225.988  106.346    0.447    0.249    2.931
  346.500  223.985  105.195    0.440    0.242    2.681
  346.750  220.021  100.286    0.434    0.242    2.587
  347.000  217.059   96.003    0.429    0.248    2.408
  347.250  215.141   88.563    0.423    0.246    2.287
  347.500  216.355   80.521    0.424    0.240    2.249
  347.750  219.657   77.517    0.438    0.270    2.213
  348.000  220.914   75.088    0.437    0.304    2.219
  348.250  220.039   73.310    0.431    0.319    2.224
  348.500  221.296   69.028    0.422    0.320    2.230
  348.750  223.469   71.661    0.417    0.315    2.279
  349.000  227.858   72.990    0.414    0.308    2.284
  349.250  229.072   73.092    0.412    0.306    2.168
  349.500  230.286   68.809    0.410    0.304    2.133
  349.750  229.369   66.431    0.414    0.278    2.059
  350.000  229.539   69.038    0.419    0.273    2.025
  350.250  229.709   70.419    0.428    0.303    1.995
  350.500  229.879   71.723    0.434    0.320    1.998
  350.750  228.046   72.451    0.444    0.324    2.119
  351.000  227.087   72.553    0.447    0.322    2.246
  351.250  223.081   72.680    0.449    0.320    2.384
  351.500  224.295   72.156    0.449    0.320    2.433
  351.750  227.639   72.284    0.445    0.318    2.437
  352.000  228.853   72.335    0.442    0.314    2.400
  352.250  227.979   73.088    0.441    0.306    2.405
  352.500  220.841   74.443    0.439    0.292    2.280
  352.750  214.747   77.051    0.439    0.283    2.123
  353.000  213.830   76.526    0.440    0.280    1.977
  353.250  214.000   72.243    0.445    0.296    1.875
  353.500  213.126   68.587    0.442    0.315    1.846
  353.750  207.075   66.158    0.437    0.321    1.884
  354.000  203.026   62.501    0.434    0.324    1.959
  354.250  201.108   65.109    0.443    0.329    2.040
  354.500  208.586   69.621    0.447    0.334    2.162
  354.750  219.281   73.507    0.452    0.330    2.167
  355.000  221.539   75.489    0.452    0.325    2.174
  355.250  218.620   74.312    0.449    0.309    2.063
  355.500  213.485   66.897    0.443    0.300    1.990
  355.750  210.522   61.962    0.438    0.296    1.820
  356.000  215.955   63.995    0.430    0.298    1.823
  356.250  225.564   64.071    0.424    0.304    1.897
  356.500  227.864   64.199    0.421    0.332    1.973
  356.750  228.993   64.901    0.421    0.343    2.015
  357.000  230.250   66.256    0.425    0.344    2.097
  357.250  229.376   68.263    0.432    0.342    2.103
  357.500  226.414   70.871    0.458    0.337    2.150
  357.750  220.277   72.852    0.460    0.330    2.154
  358.000  221.491   74.232    0.447    0.321    2.160
  358.250  224.793   72.429    0.441    0.312    2.164
  358.500  227.093   70.000    0.439    0.302    2.212
  358.750  227.263   64.465    0.441    0.291    2.259
  359.000  227.391   58.929    0.447    0.275    2.306
  359.250  228.647   63.441    0.462    0.290    2.400
  359.500  228.817   68.555    0.469    0.305    2.450
  359.750  228.987   68.656    0.468    0.306    2.550
  360.000  230.201   69.385    0.459    0.299    2.653
  360.250  231.415   73.245    0.454    0.283    2.760
  360.500  229.455   76.530    0.449    0.279    2.872
  360.750  225.491   77.208    0.450    0.286    2.933
  361.000  221.485   76.683    0.449    0.288    2.995
  361.250  220.611   74.280    0.446    0.280    3.003
  361.500  224.915   81.298    0.444    0.248    3.014
  361.750  228.302   86.436    0.445    0.243    2.966
  362.000  225.382   78.996    0.450    0.246    2.813
  362.250  223.379   72.182    0.453    0.261    2.717
  362.500  220.417   70.430    0.457    0.279    2.674
  362.750  221.673   72.386    0.456    0.293    2.679
  363.000  222.845   75.671    0.455    0.305    2.740
  363.250  223.057   77.026    0.451    0.306    2.795
  363.500  221.139   77.153    0.449    0.290    2.803
  363.750  222.353   78.457    0.456    0.257    2.610
  364.000  226.657   84.197    0.466    0.242    2.383
  364.250  230.001   86.204    0.472    0.248    2.178
  364.500  225.995   77.510    0.465    0.260    1.990
  364.750  223.033   67.590    0.455    0.277    1.821
  365.000  223.203   61.402    0.447    0.301    1.789
  365.250  222.287   56.518    0.443    0.326    1.729
  365.500  221.455   56.620    0.443    0.355    1.701
  365.750  221.625   56.722    0.460    0.366    1.643
  366.000  224.927   59.304    0.466    0.363    1.618
  366.250  229.316   64.469    0.468    0.358    1.563
  366.500  229.486   63.944    0.469    0.357    1.567
  366.750  225.437   60.237    0.469    0.358    1.541
  367.000  222.475   59.712    0.467    0.353    1.545
  367.250  221.601   62.371    0.467    0.349    1.550
  367.500  221.771   63.099    0.468    0.350    1.553
  367.750  221.983   62.549    0.466    0.353    1.587
  368.000  219.021   60.197    0.457    0.350    1.653
  368.250  217.018   60.248    0.453    0.345    1.718
  368.500  211.968   60.350    0.454    0.344    1.856
  368.750  211.094   59.851    0.455    0.346    2.004
  369.000  213.352   59.326    0.456    0.351    2.330
  369.250  217.741   56.296    0.454    0.347    2.711
  369.500  222.087   52.640    0.443    0.312    3.037
  369.750  225.389   50.812    0.387    0.256    3.158
  370.000  226.603   48.408    0.332    0.178    2.535
  370.250  226.773   49.763    0.357    0.091    2.074
  370.500  231.161   54.300    0.392    0.242    1.930
  370.750  232.418   57.535    0.434    0.281    1.797
  371.000  229.456   58.864    0.456    0.303    1.736
  371.250  224.320   61.471    0.462    0.342    1.707
  371.500  221.358   61.574    0.460    0.347    1.622
  371.750  222.572   61.100    0.460    0.354    1.625
  372.000  224.915   59.924    0.462    0.353    1.598
  372.250  225.128   54.989    0.465    0.353    1.601
  372.500  225.213   52.585    0.468    0.353    1.605
  372.750  221.292   53.940    0.469    0.352    1.610
