~VERSION INFORMATION
 VERS.                 2.0:   CWLS LOG ASCII STANDARD -VERSION 2.0
 WRAP.                  NO:   ONE LINE PER DEPTH STEP
~WELL INFORMATION BLOCK
#MNEM.UNIT           DATA                    DESCRIPTION OF MNEMONIC
#---------    -------------------            -------------------------------
# Generated from Intellog Unique Number	CS_71_72/WELL/850
WELL.         BVX ET AL DIXON                : Well_name    - WELL
LOC .         00/10-03-072-15W4/0            : Location     - LOCATION
UWI .         00/10-03-072-15W4/0            : Uwi          - UNIQUE WELL ID
ENTR.         SP                             : Entered      - ENTERED BY
SRVC.         SCHLUMBERGER                   : Scn          - SERVICE COMPANY
STRT.M        290                            : top_depth    - START DEPTH
STOP.M        475                            : bot_depth    - STOP DEPTH
STEP.M        0.25                           : increment    - STEP LENGTH
 NULL. -999.2500:NULL Value
~CURVE INFORMATION BLOCK
#MNEM UNIT       ERCB CURVE CODE    CURVE DESCRIPTION
#-----------   ------------------   ----------------------------------
DEPT.M        00 001 00 00         : DEPTH        - DEPTH
ILD .OHMM     00 120 00 00         : RESD         - DEEP RESISTIVITY (DIL)
DPHI.V/V      00 890 00 00         : PHID         - DENSITY POROSITY (LIMESTONE)
NPHI.V/V      00 330 00 00         : PHIN         - NEUTRON POROSITY (LIMESTONE)
GR  .API      00 310 00 00         : GR           - GAMMA RAY
~PARAMETER INFORMATION
#MNEM.UNIT           DATA             DESCRIPTION OF MNEMONIC
#---------         -----------     ------------------------------
GL  .M        609.7                : gl           - GROUND LEVEL ELEVATION
EREF.M        613                  : kb           - ELEVATION OF DEPTH REFERENCE
DATM.M        609.7                : datum        - DATUM ELEVATION
TDD .M        476                  : tdd          - TOTAL DEPTH DRILLER
RUN .         ONE                  : Run          - RUN NUMBER
ENG .         BILL                 : Engineer     - RECORDING ENGINEER
WIT .         JIM                  : Witness      - WITNESSED BY
MUD .         GEL                  : Mud_type     - MUD TYPE
MATR.         LIMESTONE            : Logunit      - NEUTRON MATRIX
TMAX.C        23                   : BHT          - MAXIMUM RECORDED TEMPERATURE
BHTD.M        476                  : BHTDEP       - MAXIMUM RECORDED TEMPERATURE
MATR.         1                    : LOGUNIT      - NEUTRON MATRIX
RMT .C        25                   : MDTP         - TEMPERATURE OF MUD
NEUT.         1                    : NEUTRON      - NEUTRON TYPE
RESI.         0                    : RESIST       - RESISTIVITY TYPE
RMC .OHMM     0.25                 : RMC          - RESISTIVITY OF MUD CAKE
RMF .OHMM     0.25                 : RMF          - RESISTIVITY OF MUD FILTRATE
SUFT.C        15                   : SUFT         - SURFACE TEMPERATURE
~A  DEPTH     RESD     PHID     PHIN       GR
# ...
  420.500    4.423    0.254    0.415   95.442
  420.750    4.344    0.253    0.446   98.492
  421.000    4.265    0.239    0.462  100.323
  421.250    4.266    0.227    0.474  102.157
  421.500    4.269    0.219    0.482  101.561
  421.750    4.350    0.245    0.472  100.962
  422.000    4.434    0.248    0.464   99.756
  422.250    4.518    0.253    0.487  100.379
  422.500    4.604    0.253    0.496  101.604
  422.750    4.692    0.226    0.493  103.436
  423.000    4.781    0.209    0.477  104.659
  423.250    4.874    0.213    0.481  105.887
  423.500    4.875    0.214    0.487  106.500
  423.750    4.876    0.216    0.489  106.510
  424.000    4.879    0.226    0.489  105.312
  424.250    4.791    0.231    0.499  104.106
  424.500    4.793    0.215    0.483  103.506
  424.750    4.707    0.196    0.465  102.306
  425.000    4.622    0.214    0.449  104.137
  425.250    4.539    0.234    0.444  107.185
  425.500    4.377    0.235    0.441  109.628
  425.750    4.298    0.229    0.439  109.631
  426.000    4.143    0.225    0.441  104.182
  426.250    4.069    0.214    0.448  101.761
  426.500    4.146    0.220    0.449   99.947
  426.750    4.386    0.224    0.441   96.922
  427.000    4.552    0.230    0.434   93.897
  427.250    4.996    0.212    0.433   90.874
  427.500    5.689    0.220    0.437   88.455
  427.750    6.360    0.252    0.461   85.432
  428.000    6.980    0.265    0.472   83.616
  428.250    7.804    0.269    0.473   80.588
  428.500    8.888    0.211    0.433   75.135
  428.750    9.754    0.141    0.380   72.110
  429.000   11.108    0.082    0.245   70.904
  429.250   13.624    0.048    0.218   75.778
  429.500   14.951    0.049    0.244   78.214
  429.750   13.634    0.074    0.301   81.868
  430.000   10.142    0.130    0.375   84.916
  430.250    8.125    0.228    0.462   84.924
  430.500    7.272    0.276    0.453   85.544
  430.750    6.633    0.276    0.440   87.989
  431.000    6.395    0.263    0.430   89.819
  431.250    6.280    0.258    0.423   90.433
  431.500    6.399    0.254    0.438   92.270
  431.750    6.401    0.261    0.445   92.277
  432.000    6.645    0.257    0.448   86.823
  432.250    7.160    0.194    0.439   80.152
  432.500    7.714    0.106    0.400   70.449
  432.750    8.157    0.086    0.353   69.241
  433.000    8.627    0.057    0.297   74.719
  433.250    9.123    0.118    0.357   80.198
  433.500    9.297    0.154    0.380   82.634
  433.750    8.479    0.086    0.353   77.180
  434.000    7.451    0.055    0.322   74.153
  434.250    6.547    0.150    0.344   79.629
  434.500    5.861    0.191    0.387   85.713
  434.750    5.445    0.202    0.425   93.621
  435.000    5.249    0.200    0.431   97.275
  435.250    5.155    0.197    0.436   97.893
  435.500    5.157    0.189    0.436   99.121
  435.750    5.354    0.176    0.431   99.734
  436.000    5.455    0.152    0.419  101.566
  436.250    5.769    0.172    0.405  105.222
  436.500    6.102    0.199    0.396  107.663
  436.750    6.334    0.202    0.397  107.671
  437.000    6.220    0.194    0.407  105.863
  437.250    5.996    0.193    0.408  107.701
  437.500    5.889    0.187    0.401  108.316
  437.750    5.574    0.208    0.402  107.714
  438.000    5.575    0.211    0.403  104.080
  438.250    5.683    0.212    0.394   97.413
  438.500    5.790    0.183    0.403   91.353
  438.750    6.124    0.086    0.354   87.717
  439.000    6.598    0.058    0.308   86.514
  439.250    6.723    0.049    0.287   87.131
  439.500    7.110    0.061    0.311   90.787
  439.750    6.854    0.081    0.345   93.834
  440.000    6.136    0.107    0.390   96.272
  440.250    5.392    0.154    0.414   99.930
  440.500    4.827    0.184    0.420   98.115
  440.750    4.164    0.204    0.425   94.485
  441.000    3.797    0.218    0.427   96.920
  441.250    3.276    0.230    0.487  102.398
  441.500    2.932    0.239    0.510  104.838
  441.750    2.625    0.228    0.528  106.065
  442.000    2.484    0.225    0.521  106.681
  442.250    2.485    0.230    0.513  108.516
  442.500    2.678    0.216    0.511  110.347
  442.750    2.831    0.213    0.516  110.360
  443.000    3.107    0.229    0.487  107.334
  443.250    3.474    0.228    0.428  101.881
  443.500    3.813    0.213    0.412  100.066
  443.750    4.184    0.189    0.416   95.829
  444.000    4.592    0.191    0.429   93.405
  444.250    4.946    0.196    0.438   89.166
  444.500    5.429    0.061    0.418   84.924
  444.750    5.741    0.030    0.342   78.861
  445.000    6.185    0.065    0.302   81.303
  445.250    6.304    0.167    0.366   96.499
  445.500    6.423    0.198    0.406   94.077
  445.750    6.794    0.171    0.405   85.587
  446.000    7.185    0.115    0.291   77.704
  446.250    7.598    0.067    0.249   74.674
  446.500    8.338    0.114    0.282   80.153
  446.750    8.818    0.154    0.324   87.451
  447.000    9.154    0.192    0.359   91.710
  447.250    8.196    0.120    0.390   92.936
  447.500    7.474    0.084    0.350   94.161
  447.750    6.568    0.067    0.318  102.070
  448.000    5.665    0.157    0.356  105.114
  448.250    4.978    0.175    0.406  108.769
  448.500    4.295    0.191    0.422  108.783
  448.750    3.916    0.198    0.432  108.790
  449.000    3.706    0.186    0.441  111.235
  449.250    3.574    0.197    0.455  112.458
  449.500    3.575    0.181    0.464  113.681
  449.750    3.642    0.193    0.454  110.655
  450.000    3.852    0.191    0.452  105.809
  450.250    3.999    0.203    0.466  103.999
  450.500    4.229    0.180    0.462  104.005
  450.750    4.391    0.167    0.451  106.451
  451.000    4.475    0.189    0.449  108.889
  451.250    4.560    0.192    0.447  111.329
  451.500    4.478    0.199    0.444  111.945
  451.750    4.317    0.176    0.444  108.313
  452.000    4.085    0.168    0.445  105.892
  452.250    3.726    0.185    0.447  110.762
  452.500    3.592    0.192    0.456  104.701
  452.750    3.527    0.162    0.401   97.425
  453.000    3.594    0.108    0.376   93.790
  453.250    3.732    0.085    0.411  102.910
  453.500    3.874    0.155    0.455  108.386
  453.750    4.023    0.160    0.450  112.040
  454.000    4.100    0.167    0.437  112.053
  454.250    4.177    0.175    0.435  112.061
  454.500    4.256    0.161    0.451  111.465
  454.750    4.585    0.136    0.435  108.442
  455.000    4.760    0.095    0.375  106.022
  455.250    4.852    0.111    0.385  108.463
  455.500    4.764    0.178    0.420  112.115
  455.750    4.426    0.196    0.453  116.987
  456.000    3.962    0.205    0.473  119.426
  456.250    3.613    0.199    0.493  116.401
  456.500    3.682    0.203    0.492  114.586
  456.750    4.352    0.194    0.467  112.168
  457.000    5.143    0.183    0.409  103.680
  457.250    5.966    0.157    0.374  100.042
  457.500    7.318    0.133    0.346   90.943
  457.750    8.490    0.092    0.347   95.207
  458.000    9.146    0.108    0.363   98.253
  458.250   10.226    0.151    0.380   91.582
  458.500   11.015    0.055    0.370   79.449
  458.750   12.089    0.023    0.279   69.133
  459.000   12.094    0.161    0.307   71.574
  459.250   14.030    0.187    0.317   72.191
  459.500   17.530    0.206    0.332   67.350
  459.750   21.104    0.214    0.352   66.748
  460.000   28.394    0.226    0.370   66.155
  460.250   36.813    0.243    0.379   66.161
  460.500   45.992    0.260    0.384   65.566
  460.750   52.380    0.284    0.382   68.006
  461.000   54.378    0.307    0.383   72.879
  461.250   45.203    0.275    0.376   75.314
  461.500   35.546    0.265    0.371   79.579
  461.750   29.006    0.240    0.370   84.446
  462.000   22.808    0.217    0.363   91.745
  462.250   17.283    0.198    0.361   97.830
  462.500   13.342    0.184    0.356  103.915
  462.750   11.298    0.180    0.354  106.957
  463.000   10.114    0.191    0.349  113.042
  463.250    9.053    0.168    0.345  122.163
  463.500    7.957    0.167    0.344  133.713
  463.750    7.529    0.169    0.354  143.438
