~VERSION INFORMATION
 VERS.                 2.0:   CWLS LOG ASCII STANDARD -VERSION 2.0
 WRAP.                  NO:   ONE LINE PER DEPTH STEP
~WELL INFORMATION BLOCK
#MNEM.UNIT           DATA                    DESCRIPTION OF MNEMONIC
#---------    -------------------            -------------------------------
# Generated from Intellog Unique Number	CS_73_76/WELL/3259
WELL.         T0TAL ET AL DEVENISH           : Well_name    - WELL
LOC .         00/11-08-075-08W4/0            : Location     - LOCATION
UWI .         00/11-08-075-08W4/0            : Uwi          - UNIQUE WELL ID
ENTR.         SP                             : Entered      - ENTERED BY
SRVC.         SCHLUMBERGER                   : Scn          - SERVICE COMPANY
STRT.M        275                            : top_depth    - START DEPTH
STOP.M        500                            : bot_depth    - STOP DEPTH
STEP.M        0.25                           : increment    - STEP LENGTH
 NULL. -999.2500:NULL Value
~CURVE INFORMATION BLOCK
#MNEM UNIT       ERCB CURVE CODE    CURVE DESCRIPTION
#-----------   ------------------   ----------------------------------
DEPT.M        00 001 00 00         : DEPTH        - DEPTH
ILD .OHMM     00 120 00 00         : RESD         - DEEP RESISTIVITY (DIL)
DPHI.V/V      00 890 00 00         : PHID         - DENSITY POROSITY (LIMESTONE)
NPHI.V/V      00 330 00 00         : PHIN         - NEUTRON POROSITY (LIMESTONE)
GR  .API      00 310 00 00         : GR           - GAMMA RAY
~PARAMETER INFORMATION
#MNEM.UNIT           DATA             DESCRIPTION OF MNEMONIC
#---------         -----------     ------------------------------
GL  .M        665.61               : gl           - GROUND LEVEL ELEVATION
EREF.M        669                  : kb           - ELEVATION OF DEPTH REFERENCE
DATM.M        665.61               : datum        - DATUM ELEVATION
TDD .M        514                  : tdd          - TOTAL DEPTH DRILLER
RUN .         ONE                  : Run          - RUN NUMBER
ENG .         BILL                 : Engineer     - RECORDING ENGINEER
WIT .         JIM                  : Witness      - WITNESSED BY
MUD .         GEL                  : Mud_type     - MUD TYPE
MATR.         LIMESTONE            : Logunit      - NEUTRON MATRIX
TMAX.C        23.8                 : BHT          - MAXIMUM RECORDED TEMPERATURE
BHTD.M        514                  : BHTDEP       - MAXIMUM RECORDED TEMPERATURE
MATR.         1                    : LOGUNIT      - NEUTRON MATRIX
RMT .C        25                   : MDTP         - TEMPERATURE OF MUD
NEUT.         1                    : NEUTRON      - NEUTRON TYPE
RESI.         0                    : RESIST       - RESISTIVITY TYPE
RMC .OHMM     0.25                 : RMC          - RESISTIVITY OF MUD CAKE
RMF .OHMM     0.25                 : RMF          - RESISTIVITY OF MUD FILTRATE
SUFT.C        15                   : SUFT         - SURFACE TEMPERATURE
~A  DEPTH     RESD     PHID     PHIN       GR
# ...
  362.000    3.653    0.251    0.524   94.538
  362.250    3.388    0.248    0.513   95.133
  362.500    3.325    0.244    0.504   95.124
  362.750    3.141    0.251    0.509   93.280
  363.000    3.141    0.262    0.516   91.442
  363.250    3.140    0.256    0.531   88.990
  363.500    3.198    0.252    0.539   83.487
  363.750    3.446    0.256    0.550   79.818
  364.000    3.927    0.268    0.555   74.929
  364.250    4.561    0.278    0.539   71.869
  364.500    5.601    0.279    0.482   76.122
  364.750    6.265    0.261    0.451   78.551
  365.000    6.625    0.246    0.470   80.978
  365.250    6.748    0.223    0.480   80.964
  365.500    6.745    0.225    0.446   80.952
  365.750    6.743    0.242    0.447   80.941
  366.000    6.741    0.256    0.450   81.538
  366.250    6.739    0.248    0.453   83.966
  366.500    6.737    0.245    0.458   84.564
  366.750    6.862    0.250    0.466   80.281
  367.000    6.608    0.252    0.464   78.438
  367.250    5.581    0.274    0.458   79.645
  367.500    5.082    0.268    0.458   81.466
  367.750    4.456    0.262    0.491   85.111
  368.000    3.694    0.276    0.550   87.540
  368.250    3.363    0.290    0.578   82.650
  368.500    3.179    0.269    0.558   86.906
  368.750    2.948    0.258    0.561   91.771
  369.000    2.947    0.265    0.572   93.589
  369.250    3.002    0.265    0.578   90.525
  369.500    3.116    0.263    0.569   89.905
  369.750    3.234    0.262    0.557   86.235
  370.000    3.685    0.261    0.563   79.512
  370.250    4.279    0.260    0.556   77.063
  370.500    5.256    0.267    0.524   74.613
  370.750    5.770    0.256    0.484   78.869
  371.000    6.453    0.246    0.447   81.905
  371.250    6.573    0.237    0.436   83.114
  371.500    6.696    0.224    0.453   86.145
  371.750    6.693    0.234    0.475   87.356
  372.000    6.817    0.248    0.489   87.955
  372.250    6.815    0.248    0.510   82.454
  372.500    6.943    0.247    0.453   80.004
  372.750    7.479    0.239    0.440   82.427
  373.000    7.619    0.233    0.452   83.028
  373.250    8.055    0.238    0.461   82.407
  373.500    8.054    0.244    0.441   80.564
  373.750    8.052    0.249    0.429   78.112
  374.000    8.201    0.245    0.427   77.489
  374.250    8.512    0.253    0.442   80.527
  374.500    8.669    0.247    0.444   79.906
  374.750    8.997    0.239    0.429   75.011
  375.000    8.994    0.257    0.435   73.176
  375.250    8.661    0.270    0.445   74.992
  375.500    7.739    0.277    0.441   78.029
  375.750    7.314    0.271    0.449   82.283
  376.000    7.043    0.252    0.450   85.930
  376.250    6.909    0.232    0.451   84.089
  376.500    6.907    0.219    0.455   82.248
  376.750    6.777    0.221    0.460   81.626
  377.000    6.649    0.214    0.459   83.441
  377.250    6.524    0.208    0.469   85.870
  377.500    6.401    0.204    0.472   82.199
  377.750    6.164    0.207    0.460   81.577
  378.000    5.936    0.207    0.450   84.615
  378.250    5.823    0.196    0.466   82.770
  378.500    5.714    0.187    0.466   82.760
  378.750    5.607    0.204    0.475   86.405
  379.000    5.501    0.239    0.502   89.442
  379.250    5.397    0.253    0.492   86.376
  379.500    5.197    0.223    0.476   85.759
  379.750    4.912    0.203    0.482   85.748
  380.000    3.922    0.229    0.490   84.516
  380.250    3.440    0.255    0.493   82.676
  380.500    2.905    0.271    0.493   86.925
  380.750    2.548    0.273    0.518   88.745
  381.000    2.363    0.279    0.564   90.565
  381.250    2.152    0.284    0.586   90.551
  381.500    2.111    0.280    0.591   90.541
  381.750    2.274    0.280    0.557   92.358
  382.000    2.641    0.274    0.527   89.906
  382.250    2.899    0.256    0.507   85.017
  382.500    3.561    0.247    0.508   84.389
  382.750    3.983    0.267    0.517   84.990
  383.000    4.801    0.270    0.476   83.151
  383.250    5.271    0.260    0.470   77.035
  383.500    5.786    0.255    0.483   75.810
  383.750    6.472    0.260    0.474   72.749
  384.000    6.844    0.271    0.468   68.469
  384.250    7.237    0.292    0.439   63.577
  384.500    7.371    0.313    0.415   58.078
  384.750    7.650    0.325    0.414   53.798
  385.000    7.648    0.320    0.423   50.735
  385.250    7.644    0.318    0.440   49.506
  385.500    7.643    0.321    0.415   47.661
  385.750    7.498    0.322    0.418   49.479
  386.000    7.496    0.324    0.425   51.294
  386.250    7.356    0.325    0.425   52.507
  386.500    7.216    0.329    0.425   51.270
  386.750    7.080    0.335    0.438   50.653
  387.000    6.946    0.330    0.441   49.421
  387.250    6.945    0.328    0.419   50.019
  387.500    6.814    0.326    0.412   51.224
  387.750    6.685    0.321    0.432   51.214
  388.000    6.559    0.321    0.435   52.420
  388.250    6.436    0.326    0.413   54.846
  388.500    6.434    0.331    0.416   57.883
  388.750    6.312    0.334    0.427   60.312
  389.000    6.311    0.334    0.422   56.030
  389.250    6.309    0.335    0.420   51.745
  389.500    6.074    0.341    0.431   51.128
  389.750    6.073    0.338    0.439   52.942
  390.000    5.959    0.324    0.437   56.590
  390.250    5.957    0.318    0.438   62.674
  390.500    5.954    0.313    0.443   65.714
  390.750    5.953    0.318    0.439   66.919
  391.000    5.951    0.328    0.426   64.470
  391.250    6.062    0.336    0.428   63.843
  391.500    6.060    0.339    0.454   63.835
  391.750    6.172    0.312    0.469   63.822
  392.000    6.056    0.297    0.449   62.590
  392.250    6.054    0.283    0.442   65.627
  392.500    5.940    0.268    0.432   70.492
  392.750    5.937    0.289    0.417   68.038
  393.000    5.825    0.324    0.419   65.591
  393.250    5.824    0.348    0.430   63.749
  393.500    5.823    0.357    0.443   61.300
  393.750    5.713    0.348    0.452   61.285
  394.000    5.711    0.338    0.457   63.105
  394.250    5.708    0.336    0.464   61.260
  394.500    5.707    0.343    0.464   60.031
  394.750    5.706    0.345    0.468   59.405
  395.000    5.704    0.340    0.481   60.007
  395.250    5.596    0.343    0.481   61.214
  395.500    5.595    0.338    0.467   59.980
  395.750    5.698    0.332    0.468   56.311
  396.000    5.696    0.337    0.464   53.859
  396.250    5.803    0.337    0.464   53.846
  396.500    5.909    0.334    0.473   53.833
  396.750    6.020    0.333    0.464   53.214
  397.000    6.018    0.331    0.457   55.640
  397.250    6.131    0.339    0.457   58.678
  397.500    6.244    0.344    0.461   57.444
  397.750    6.361    0.343    0.453   54.994
  398.000    6.477    0.337    0.449   53.152
  398.250    6.476    0.331    0.445   54.968
  398.500    6.474    0.335    0.465   58.613
  398.750    6.594    0.341    0.461   60.433
  399.000    6.592    0.335    0.449   57.982
  399.250    6.591    0.329    0.444   55.532
  399.500    6.466    0.330    0.452   54.300
  399.750    6.464    0.335    0.451   53.062
  400.000    6.463    0.335    0.443   53.056
  400.250    6.707    0.334    0.438   53.654
  400.500    6.831    0.324    0.446   55.471
  400.750    7.089    0.302    0.453   54.236
  401.000    7.221    0.241    0.280   50.569
  401.250    7.085    0.167    0.271   51.163
  401.500    6.952    0.211    0.404   54.812
  401.750    6.694    0.275    0.438   59.066
  402.000    6.446    0.304    0.433   60.884
  402.250    6.324    0.336    0.422   60.260
  402.500    6.205    0.330    0.433   59.031
  402.750    6.321    0.317    0.426   55.356
  403.000    7.070    0.308    0.445   55.349
  403.250    8.210    0.300    0.479   55.336
  403.500    9.533    0.196    0.361   52.885
  403.750   11.931    0.047    0.196   48.603
  404.000   14.115    0.009    0.153   44.934
  404.250   14.926    0.046    0.152   43.094
  404.500   11.919    0.088    0.311   47.349
  404.750    9.341    0.125    0.415   52.825
  405.000    8.192    0.182    0.436   56.467
  405.250    6.791    0.274    0.433   55.237
