~VERSION INFORMATION
 VERS.                 2.0:   CWLS LOG ASCII STANDARD -VERSION 2.0
 WRAP.                  NO:   ONE LINE PER DEPTH STEP
~WELL INFORMATION BLOCK
#MNEM.UNIT           DATA                    DESCRIPTION OF MNEMONIC
#---------    -------------------            -------------------------------
# Generated from Intellog Unique Number	CS_71_72/WELL/927
WELL.         ET AL SCHELTENS                : Well_name    - WELL
LOC .         00/16-13-071-01W4/0            : Location     - LOCATION
UWI .         00/16-13-071-01W4/0            : Uwi          - UNIQUE WELL ID
ENTR.         SP                             : Entered      - ENTERED BY
SRVC.         SCHLUMBERGER                   : Scn          - SERVICE COMPANY
STRT.M        365                            : top_depth    - START DEPTH
STOP.M        620                            : bot_depth    - STOP DEPTH
STEP.M        0.25                           : increment    - STEP LENGTH
 NULL. -999.2500:NULL Value
~CURVE INFORMATION BLOCK
#MNEM UNIT       ERCB CURVE CODE    CURVE DESCRIPTION
#-----------   ------------------   ----------------------------------
DEPT.M        00 001 00 00         : DEPTH        - DEPTH
ILD .OHMM     00 120 00 00         : RESD         - DEEP RESISTIVITY (DIL)
DPHI.V/V      00 890 00 00         : PHID         - DENSITY POROSITY (LIMESTONE)
NPHI.V/V      00 330 00 00         : PHIN         - NEUTRON POROSITY (LIMESTONE)
GR  .API      00 310 00 00         : GR           - GAMMA RAY
~PARAMETER INFORMATION
#MNEM.UNIT           DATA             DESCRIPTION OF MNEMONIC
#---------         -----------     ------------------------------
GL  .M        708.9                : gl           - GROUND LEVEL ELEVATION
EREF.M        713.2                : kb           - ELEVATION OF DEPTH REFERENCE
DATM.M        708.9                : datum        - DATUM ELEVATION
TDD .M        825                  : tdd          - TOTAL DEPTH DRILLER
RUN .         ONE                  : Run          - RUN NUMBER
ENG .         BILL                 : Engineer     - RECORDING ENGINEER
WIT .         JIM                  : Witness      - WITNESSED BY
MUD .         GEL                  : Mud_type     - MUD TYPE
MATR.         LIMESTONE            : Logunit      - NEUTRON MATRIX
TMAX.C        23                   : BHT          - MAXIMUM RECORDED TEMPERATURE
BHTD.M        825                  : BHTDEP       - MAXIMUM RECORDED TEMPERATURE
MATR.         1                    : LOGUNIT      - NEUTRON MATRIX
RMT .C        25                   : MDTP         - TEMPERATURE OF MUD
NEUT.         1                    : NEUTRON      - NEUTRON TYPE
RESI.         0                    : RESIST       - RESISTIVITY TYPE
RMC .OHMM     0.25                 : RMC          - RESISTIVITY OF MUD CAKE
RMF .OHMM     0.25                 : RMF          - RESISTIVITY OF MUD FILTRATE
SUFT.C        15                   : SUFT         - SURFACE TEMPERATURE
~A  DEPTH     RESD     PHID     PHIN       GR
  365.000    2.847    0.283    0.544   92.822
  365.250    2.874    0.281    0.532   92.863
  365.500    2.917    0.284    0.561   90.586
  365.750    2.939    0.286    0.551   87.277
  366.000    3.017    0.286    0.524   84.697
  366.250    3.039    0.281    0.528   84.006
  366.500    3.090    0.270    0.544   83.375
  366.750    3.184    0.248    0.560   82.927
  367.000    3.238    0.241    0.542   86.565
  367.250    3.306    0.250    0.515   87.766
  367.500    3.432    0.262    0.498   87.258
  367.750    3.604    0.270    0.504   84.008
  368.000    3.742    0.277    0.539   81.549
  368.250    3.805    0.272    0.515   79.883
  368.500    3.798    0.269    0.521   79.499
  368.750    3.776    0.263    0.550   83.805
  369.000    3.818    0.258    0.539   83.847
  369.250    3.949    0.261    0.495   82.789
  369.500    4.108    0.268    0.478   83.014
  369.750    4.217    0.272    0.502   88.235
  370.000    4.216    0.265    0.536   89.557
  370.250    4.067    0.264    0.546   88.863
  370.500    3.850    0.271    0.554   87.991
  370.750    3.611    0.279    0.559   87.973
  371.000    3.457    0.283    0.565   87.279
  371.250    3.379    0.281    0.571   85.800
  371.500    3.372    0.278    0.546   88.583
  371.750    3.429    0.276    0.520   88.379
  372.000    3.527    0.271    0.502   88.235
  372.250    3.607    0.278    0.494   90.045
  372.500    3.682    0.284    0.504   91.855
  372.750    3.766    0.274    0.510   91.530
  373.000    3.917    0.266    0.502   89.925
  373.250    4.144    0.263    0.498   87.711
  373.500    4.377    0.270    0.509   85.678
  373.750    4.674    0.276    0.527   84.196
  374.000    4.790    0.264    0.513   83.810
  374.250    4.798    0.253    0.480   85.802
  374.500    4.594    0.265    0.466   88.644
  374.750    4.235    0.280    0.471   90.090
  375.000    3.964    0.280    0.492   91.288
  375.250    3.627    0.274    0.505   89.621
  375.500    3.440    0.271    0.507   86.615
  375.750    3.395    0.268    0.513   83.305
  376.000    3.902    0.265    0.524   82.370
  376.250    4.792    0.260    0.535   82.899
  376.500    6.739    0.255    0.502   77.271
  376.750    7.703    0.251    0.467   72.255
  377.000    9.300    0.256    0.446   71.379
  377.250   10.914    0.245    0.426   69.104
  377.500   11.969    0.238    0.436   65.915
  377.750   12.928    0.247    0.442   65.896
  378.000   13.297    0.258    0.415   71.970
  378.250   13.170    0.248    0.416   75.242
  378.500   12.705    0.233    0.424   73.699
  378.750   12.750    0.237    0.432   66.851
  379.000   12.991    0.256    0.408   64.090
  379.250   13.236    0.264    0.391   69.068
  379.500   13.537    0.249    0.389   74.470
  379.750   14.002    0.242    0.393   75.731
  380.000   14.428    0.251    0.407   73.516
  380.250   14.840    0.255    0.423   72.887
  380.500   15.263    0.244    0.434   71.283
  380.750   15.405    0.260    0.400   65.717
  381.000   14.945    0.230    0.394   62.344
  381.250   11.649    0.202    0.416   70.856
  381.500   11.453    0.184    0.428   77.663
  381.750   10.659    0.200    0.438   82.153
  382.000   11.088    0.251    0.422   79.024
  382.250   11.731    0.266    0.396   73.580
  382.500   12.318    0.229    0.378   67.892
  382.750   12.646    0.206    0.365   71.347
  383.000   12.361    0.193    0.392   78.212
  383.250   11.657    0.207    0.457   85.074
  383.500   11.077    0.222    0.510   88.960
  383.750   10.665    0.244    0.503   92.780
  384.000   10.504    0.268    0.491   91.724
  384.250   10.462    0.257    0.478   87.619
  384.500   10.539    0.236    0.464   84.857
  384.750   11.321    0.217    0.451   81.913
  385.000   11.383    0.206    0.438   83.841
  385.250   11.424    0.212    0.439   86.564
  385.500   11.531    0.220    0.443   86.057
  385.750   11.882    0.227    0.435   84.452
  386.000   12.360    0.247    0.440   73.097
  386.250   13.503    0.272    0.462   59.790
  386.500   15.032    0.295    0.444   46.056
  386.750   17.182    0.304    0.426   37.137
  387.000   19.165    0.322    0.417   33.704
  387.250   21.135    0.335    0.414   30.453
  387.500   22.830    0.339    0.393   27.631
  387.750   24.018    0.325    0.380   30.292
  388.000   23.389    0.309    0.375   34.173
  388.250   20.963    0.294    0.391   37.078
  388.500   20.032    0.295    0.365   39.192
  388.750   22.092    0.308    0.349   33.564
  389.000   24.226    0.333    0.367   23.001
  389.250   26.366    0.346    0.374   19.505
  389.500   28.913    0.334    0.385   21.437
  389.750   32.124    0.329    0.401   25.195
  390.000   32.734    0.332    0.404   27.735
  390.250   33.858    0.334    0.394   27.227
  390.500   34.627    0.330    0.384   24.709
  390.750   35.016    0.328    0.374   23.408
  391.000   34.746    0.329    0.367   24.120
  391.250   34.028    0.338    0.362   25.014
  391.500   33.387    0.360    0.361   25.297
  391.750   33.131    0.355    0.355   24.730
  392.000   33.125    0.337    0.356   24.954
  392.250   33.120    0.353    0.389   25.726
  392.500   32.681    0.369    0.402   25.949
  392.750   29.125    0.379    0.409   27.695
  393.000   24.762    0.395    0.414   31.395
  393.250   19.597    0.381    0.411   43.017
  393.500   15.626    0.349    0.425   61.890
  393.750   13.411    0.335    0.457   80.093
  394.000   11.663    0.324    0.465   89.215
  394.250   10.181    0.282    0.476   86.574
  394.500    8.787    0.235    0.483   89.724
  394.750    7.358    0.186    0.468   95.493
  395.000    6.435    0.209    0.472  101.503
  395.250    6.138    0.232    0.497  103.011
  395.500    5.789    0.249    0.512  101.832
  395.750    5.460    0.258    0.533  100.592
  396.000    5.110    0.260    0.522  102.339
  396.250    4.738    0.260    0.505  102.930
  396.500    4.579    0.260    0.498  101.752
  396.750    4.327    0.259    0.508  102.403
  397.000    4.205    0.261    0.503  103.846
  397.250    4.682    0.269    0.494  103.093
  397.500    5.301    0.279    0.505   99.840
  397.750    6.003    0.290    0.510   96.653
  398.000    6.645    0.281    0.483   92.550
  398.250    7.711    0.266    0.463   89.545
  398.500    9.450    0.259    0.451   82.942
  398.750   10.884    0.289    0.453   71.830
  399.000   14.575    0.312    0.434   61.205
  399.250   16.227    0.339    0.418   54.602
  399.500   18.866    0.365    0.405   53.120
  399.750   20.378    0.359    0.422   55.412
  400.000   20.568    0.356    0.442   57.711
  400.250   20.602    0.353    0.498   61.835
  400.500   20.717    0.353    0.497   65.839
  400.750   21.469    0.355    0.496   69.288
  401.000   22.586    0.360    0.495   70.126
  401.250   23.406    0.361    0.494   69.313
  401.500   23.446    0.360    0.495   63.684
  401.750   23.662    0.372    0.425   54.522
  402.000   23.840    0.379    0.427   53.223
  402.250   24.519    0.370    0.419   62.101
  402.500   24.795    0.372    0.418   69.578
  402.750   24.698    0.371    0.434   74.068
  403.000   23.424    0.368    0.453   77.827
  403.250   21.678    0.374    0.467   80.609
  403.500   19.724    0.354    0.452   81.443
  403.750   18.323    0.338    0.451   81.850
  404.000   17.312    0.316    0.461   73.115
  404.250   16.637    0.296    0.426   65.293
  404.500   16.666    0.305    0.404   57.350
  404.750   17.531    0.317    0.400   44.653
  405.000   17.664    0.322    0.411   36.039
  405.250   19.517    0.320    0.414   35.286
  405.500   21.042    0.323    0.421   36.304
  405.750   22.687    0.329    0.437   33.419
  406.000   23.868    0.336    0.447   29.620
  406.250   25.063    0.343    0.419   28.138
  406.500   25.296    0.353    0.394   30.678
  406.750   24.540    0.358    0.382   38.214
  407.000   23.673    0.347    0.384   45.691
  407.250   22.879    0.334    0.407   52.558
  407.500   22.322    0.325    0.427   59.364
  407.750   22.276    0.321    0.434   61.782
  408.000   22.696    0.322    0.430   61.700
  408.250   22.437    0.326    0.421   60.580
