~VERSION INFORMATION
 VERS.                 2.0:   CWLS LOG ASCII STANDARD -VERSION 2.0
 WRAP.                  NO:   ONE LINE PER DEPTH STEP
~WELL INFORMATION BLOCK
#MNEM.UNIT           DATA                    DESCRIPTION OF MNEMONIC
#---------    -------------------            -------------------------------
# Generated from Intellog Unique Number	CW_73_75/WELL/2749
WELL.         COSEKA ETAL MITSUE 12-31       : Well_name    - WELL
LOC .         00/12-31-073-04W5/0            : Location     - LOCATION
UWI .         00/12-31-073-04W5/0            : Uwi          - UNIQUE WELL ID
ENTR.         JAYE                           : Entered      - ENTERED BY
SRVC.         WESTERN ATLAS                  : Scn          - SERVICE COMPANY
DATE.         19 JUNE 84                     : Date         - LOG DATE
STRT.M        365                            : top_depth    - START DEPTH
STOP.M        585                            : bot_depth    - STOP DEPTH
STEP.M        0.25                           : increment    - STEP LENGTH
 NULL. -999.2500:NULL Value
~CURVE INFORMATION BLOCK
#MNEM UNIT       ERCB CURVE CODE    CURVE DESCRIPTION
#-----------   ------------------   ----------------------------------
DEPT.M        00 001 00 00         : DEPTH        - DEPTH
DPHI.V/V      00 890 00 00         : PHID         - DENSITY POROSITY (SANDSTONE)
NPHI.V/V      00 330 00 00         : PHIN         - NEUTRON POROSITY (SANDSTONE)
GR  .API      00 310 00 00         : GR           - GAMMA RAY
CALI.MM       00 280 01 00         : CAL          - CALIPER
ILD .OHMM     00 120 00 00         : RESD         - DEEP RESISTIVITY (DIL)
~PARAMETER INFORMATION
#MNEM.UNIT           DATA             DESCRIPTION OF MNEMONIC
#---------         -----------     ------------------------------
GL  .M        585.2                : gl           - GROUND LEVEL ELEVATION
EREF.M        598.8                : kb           - ELEVATION OF DEPTH REFERENCE
DATM.M        585.2                : datum        - DATUM ELEVATION
TDD .M        1645                 : tdd          - TOTAL DEPTH DRILLER
RUN .         ONE                  : Run          - RUN NUMBER
ENG .         TAKEYASU             : Engineer     - RECORDING ENGINEER
WIT .         JONES                : Witness      - WITNESSED BY
BASE.         EDM                  : Branch       - HOME BASE OF LOGGING UNIT
MUD .         GEL CHEM             : Mud_type     - MUD TYPE
MATR.         SANDSTONE            : Logunit      - NEUTRON MATRIX
TMAX.C        49                   : BHT          - MAXIMUM RECORDED TEMPERATURE
BHTD.M        1645.6               : BHTDEP       - MAXIMUM RECORDED TEMPERATURE
RMT .C        16                   : MDTP         - TEMPERATURE OF MUD
MUDD.KG/M     1090                 : MWT          - MUD DENSITY
NEUT.         1                    : NEUTRON      - NEUTRON TYPE
RESI.         0                    : RESIST       - RESISTIVITY TYPE
RM  .OHMM     1.2                  : RM           - RESISTIVITY OF MUD
RMC .OHMM     1.2                  : RMC          - RESISTIVITY OF MUD CAKE
RMF .OHMM     0.6                  : RMF          - RESISTIVITY OF MUD FILTRATE
SUFT.C        0                    : SUFT         - SURFACE TEMPERATURE
~A  DEPTH     PHID     PHIN       GR      CAL     RESD
# ...
  401.500    0.308    0.372   57.260  223.818    7.203
  401.750    0.303    0.404   58.509  224.257    7.076
  402.000    0.299    0.400   55.508  229.646    6.988
  402.250    0.313    0.399   52.260  230.475    6.968
  402.500    0.247    0.416   50.059  232.045    7.144
  402.750    0.157    0.444   55.127  233.924    7.436
  403.000    0.233    0.461   61.736  234.774    7.797
  403.250    0.284    0.450   61.630  235.108    8.116
  403.500    0.314    0.398   55.733  234.724    8.198
  403.750    0.318    0.393   56.120  234.445    8.052
  404.000    0.314    0.416   54.535  234.274    7.821
  404.250    0.314    0.410   61.944  234.400    7.625
  404.500    0.311    0.458   72.497  234.533    7.504
  404.750    0.302    0.357   76.211  234.461    7.496
  405.000    0.291    0.367   77.397  234.384    7.558
  405.250    0.290    0.419   84.067  234.207    7.851
  405.500    0.288    0.394   76.014  234.034    8.233
  405.750    0.284    0.431   66.790  234.264    8.730
  406.000    0.289    0.469   78.204  234.600    9.019
  406.250    0.288    0.416   83.274  234.839    9.128
  406.500    0.282    0.423   77.561  235.069    9.170
  406.750    0.279    0.420   73.328  235.202    9.263
  407.000    0.280    0.394   74.391  235.432    9.427
  407.250    0.280    0.443   83.588  235.463    9.558
  407.500    0.279    0.366   85.392  235.591    9.620
  407.750    0.280    0.367   88.181  235.622    9.608
  408.000    0.287    0.384   92.388  235.653    9.544
  408.250    0.304    0.413   90.001  235.678    9.236
  408.500    0.315    0.472   80.531  235.395    8.954
  408.750    0.317    0.461   75.681  235.119    8.762
  409.000    0.316    0.388   79.579  235.044    8.607
  409.250    0.308    0.382   75.593  235.278    8.469
  409.500    0.311    0.425   69.819  235.414    8.366
  409.750    0.322    0.406   70.944  235.436    8.341
  410.000    0.310    0.382   68.621  235.876    8.363
  410.250    0.295    0.382   66.545  236.213    8.417
  410.500    0.274    0.403   66.192  236.448    8.631
  410.750    0.308    0.407   59.862  236.679    8.833
  411.000    0.326    0.407   61.420  237.018    8.839
  411.250    0.337    0.507   66.735  237.765    8.164
  411.500    0.366    0.528   59.976  239.331    7.102
  411.750    0.491    0.477   49.828  242.439    5.145
  412.000    0.785    0.458   61.488  255.919    4.115
  412.250    0.801    0.537   69.761  260.567    3.501
  412.500    0.745    0.524   75.814  264.292    3.097
  412.750    0.637    0.488   79.097  270.790    2.877
  413.000    0.621    0.511   71.721  277.491    2.758
  413.250    0.637    0.484   79.193  289.738    2.649
  413.500    0.652    0.551   81.612  269.644    2.516
  413.750    0.600    0.644   77.933  258.684    2.476
  414.000    0.552    0.401   81.524  253.477    2.582
  414.250    0.492    0.386   87.947  248.064    2.831
  414.500    0.354    0.437   76.937  243.371    3.128
  414.750    0.344    0.417   65.003  238.881    3.759
  415.000    0.382    0.446   60.833  238.192    4.603
  415.250    0.401    0.496   61.710  238.427    5.689
  415.500    0.310    0.462   60.187  238.661    6.464
  415.750    0.311    0.407   56.570  238.384    6.015
  416.000    0.324    0.359   62.008  238.210    6.031
  416.250    0.328    0.376   68.185  237.824    6.206
  416.500    0.334    0.407   61.303  237.335    6.423
  416.750    0.327    0.383   57.192  237.163    6.477
  417.000    0.327    0.377   58.441  237.187    6.445
  417.250    0.340    0.394   62.217  237.221    6.451
  417.500    0.343    0.400   60.879  237.449    6.480
  417.750    0.323    0.378   59.171  237.682    6.546
  418.000    0.257    0.356   58.140  237.715    6.625
  418.250    0.216    0.369   55.323  237.635    6.605
  418.500    0.258    0.353   57.558  237.664    6.561
  418.750    0.306    0.349   62.195  237.900    6.408
  419.000    0.330    0.408   67.697  237.827    6.236
  419.250    0.324    0.390   64.447  237.544    5.990
  419.500    0.320    0.437   59.414  237.165    5.721
  419.750    0.317    0.470   55.180  237.087    5.812
  420.000    0.317    0.434   51.253  237.116    6.082
  420.250    0.325    0.412   56.569  237.864    6.597
  420.500    0.338    0.379   58.126  239.330    6.917
  420.750    0.338    0.400   59.746  241.926    7.172
  421.000    0.332    0.401   60.378  245.239    7.031
  421.250    0.335    0.396   59.040  249.272    6.629
  421.500    0.355    0.440   51.356  250.635    6.249
  421.750    0.375    0.430   51.804  251.074    6.002
  422.000    0.405    0.459   57.182  253.258    5.733
  422.250    0.486    0.491   65.207  257.086    5.455
  422.500    0.485    0.434   80.132  263.278    5.171
  422.750    0.272    0.409   86.001  261.762    5.042
  423.000    0.243    0.391   79.735  259.737    4.999
  423.250    0.221    0.384   81.416  258.945    5.031
  423.500    0.211    0.411   83.158  258.359    5.073
  423.750    0.223    0.400   83.668  259.413    5.067
  424.000    0.253    0.418   87.257  268.373    4.977
  424.250    0.262    0.393   87.583  268.606    4.817
  424.500    0.198    0.451   81.503  258.779    4.704
  424.750    0.243    0.454   83.243  259.835    4.604
  425.000    0.290    0.411   84.123  260.068    4.556
  425.250    0.366    0.454   82.045  258.145    4.525
  425.500    0.337    0.471   77.195  244.931    4.554
  425.750    0.322    0.452   71.792  243.520    4.731
  426.000    0.328    0.434   70.885  242.832    4.878
  426.250    0.322    0.414   69.116  242.447    5.154
  426.500    0.319    0.418   67.161  242.481    5.324
  426.750    0.317    0.432   65.761  242.916    5.299
  427.000    0.312    0.436   67.259  243.973    5.147
  427.250    0.308    0.415   70.231  245.645    4.925
  427.500    0.303    0.381   75.730  246.903    4.678
  427.750    0.295    0.386   78.643  248.881    4.401
  428.000    0.240    0.428   80.138  251.993    4.157
  428.250    0.170    0.504   84.284  253.150    3.978
  428.500    0.182    0.446   78.633  252.563    3.974
  428.750    0.304    0.421   71.010  251.562    4.136
  429.000    0.313    0.455   63.512  249.744    4.612
  429.250    0.280    0.434   59.156  246.897    5.340
  429.500    0.264    0.374   57.447  244.052    6.147
  429.750    0.273    0.406   56.848  242.435    7.117
  430.000    0.289    0.429   55.694  241.440    7.996
  430.250    0.292    0.426   55.404  240.751    8.138
  430.500    0.288    0.341   56.838  240.267    8.176
  430.750    0.289    0.360   54.637  239.880    8.106
  431.000    0.287    0.444   56.565  239.602    8.036
  431.250    0.278    0.406   59.538  239.116    7.998
  431.500    0.278    0.425   62.574  238.430    7.959
  431.750    0.280    0.410   61.974  238.252    7.862
  432.000    0.280    0.402   59.096  238.176    7.765
  432.250    0.277    0.399   54.370  237.999    7.670
  432.500    0.272    0.389   55.681  237.615    7.563
  432.750    0.265    0.399   59.763  237.648    7.471
  433.000    0.260    0.449   60.705  237.573    7.394
  433.250    0.265    0.399   61.707  237.599    7.316
  433.500    0.270    0.391   64.436  237.423    7.200
  433.750    0.280    0.408   68.271  237.654    7.059
  434.000    0.288    0.397   64.777  237.786    6.881
  434.250    0.293    0.385   66.089  238.329    6.672
  434.500    0.297    0.415   67.213  238.665    6.372
  434.750    0.301    0.438   67.971  239.003    6.143
  435.000    0.301    0.421   69.037  239.029    6.001
  435.250    0.296    0.440   69.175  239.058    5.994
  435.500    0.297    0.458   61.306  239.394    6.089
  435.750    0.307    0.449   60.772  239.524    6.116
  436.000    0.303    0.454   61.835  239.557    5.952
  436.250    0.297    0.414   60.558  239.789    5.643
  436.500    0.295    0.419   63.284  240.123    5.039
  436.750    0.287    0.437   64.719  240.562    4.466
  437.000    0.274    0.419   72.374  241.001    4.102
  437.250    0.271    0.436   84.343  241.442    3.845
  437.500    0.294    0.404   82.943  241.882    3.943
  437.750    0.320    0.458   70.824  242.319    4.150
