~VERSION INFORMATION
 VERS.                 2.0:   CWLS LOG ASCII STANDARD -VERSION 2.0
 WRAP.                  NO:   ONE LINE PER DEPTH STEP
~WELL INFORMATION BLOCK
#MNEM.UNIT           DATA                    DESCRIPTION OF MNEMONIC
#---------    -------------------            -------------------------------
# Generated from Intellog Unique Number	CS_69_70/WELL/862
WELL.         GULF OIL CANADA                : Well_name    - WELL
LOC .         00/10-10-069-15W4/0            : Location     - LOCATION
UWI .         00/10-10-069-15W4/0            : Uwi          - UNIQUE WELL ID
ENTR.         SP                             : Entered      - ENTERED BY
SRVC.         SCHLUMBERGER                   : Scn          - SERVICE COMPANY
STRT.M        260                            : top_depth    - START DEPTH
STOP.M        475                            : bot_depth    - STOP DEPTH
STEP.M        0.25                           : increment    - STEP LENGTH
 NULL. -999.2500:NULL Value
~CURVE INFORMATION BLOCK
#MNEM UNIT       ERCB CURVE CODE    CURVE DESCRIPTION
#-----------   ------------------   ----------------------------------
DEPT.M        00 001 00 00         : DEPTH        - DEPTH
GR  .API      00 310 00 00         : GR           - GAMMA RAY
NPHI.V/V      00 330 00 00         : PHIN         - NEUTRON POROSITY (LIMESTONE)
DPHI.V/V      00 890 00 00         : PHID         - DENSITY POROSITY (LIMESTONE)
ILD .OHMM     00 120 00 00         : RESD         - DEEP RESISTIVITY (DIL)
~PARAMETER INFORMATION
#MNEM.UNIT           DATA             DESCRIPTION OF MNEMONIC
#---------         -----------     ------------------------------
GL  .M        548.59               : gl           - GROUND LEVEL ELEVATION
EREF.M        552.55               : kb           - ELEVATION OF DEPTH REFERENCE
DATM.M        548.59               : datum        - DATUM ELEVATION
TDD .M        482                  : tdd          - TOTAL DEPTH DRILLER
RUN .         ONE                  : Run          - RUN NUMBER
ENG .         BILL                 : Engineer     - RECORDING ENGINEER
WIT .         JIM                  : Witness      - WITNESSED BY
MUD .         GEL                  : Mud_type     - MUD TYPE
MATR.         LIMESTONE            : Logunit      - NEUTRON MATRIX
TMAX.C        24                   : BHT          - MAXIMUM RECORDED TEMPERATURE
BHTD.M        482                  : BHTDEP       - MAXIMUM RECORDED TEMPERATURE
MATR.         1                    : LOGUNIT      - NEUTRON MATRIX
RMT .C        25                   : MDTP         - TEMPERATURE OF MUD
NEUT.         1                    : NEUTRON      - NEUTRON TYPE
RESI.         0                    : RESIST       - RESISTIVITY TYPE
RMC .OHMM     0.25                 : RMC          - RESISTIVITY OF MUD CAKE
RMF .OHMM     0.25                 : RMF          - RESISTIVITY OF MUD FILTRATE
SUFT.C        15                   : SUFT         - SURFACE TEMPERATURE
~A  DEPTH       GR     PHIN     PHID     RESD
# ...
  347.000   85.397    0.448    0.281    2.144
  347.250   85.936    0.454    0.280    2.161
  347.500   86.534    0.467    0.296    2.185
  347.750   87.311    0.480    0.307    2.198
  348.000   87.138    0.464    0.318    2.186
  348.250   86.788    0.455    0.301    2.174
  348.500   85.311    0.459    0.310    2.158
  348.750   84.368    0.459    0.324    2.147
  349.000   83.959    0.464    0.334    2.147
  349.250   84.023    0.469    0.334    2.136
  349.500   84.088    0.457    0.315    2.132
  349.750   82.789    0.409    0.188    2.160
  350.000   81.194    0.368    0.125    2.471
  350.250   79.598    0.320    0.155    2.933
  350.500   79.723    0.341    0.191    3.411
  350.750   78.957    0.364    0.219    3.937
  351.000   77.836    0.382    0.248    4.528
  351.250   75.174    0.349    0.163    4.834
  351.500   71.978    0.293    0.116    5.150
  351.750   72.814    0.237    0.087    5.066
  352.000   76.257    0.293    0.138    4.882
  352.250   80.828    0.332    0.186    3.971
  352.500   85.577    0.364    0.241    3.230
  352.750   89.792    0.405    0.288    2.857
  353.000   93.830    0.437    0.303    2.590
  353.250   97.689    0.466    0.269    2.491
  353.500  102.141    0.453    0.252    2.576
  353.750  105.230    0.457    0.241    2.765
  354.000  100.136    0.469    0.232    2.892
  354.250   95.161    0.480    0.246    3.025
  354.500   94.989    0.471    0.257    3.094
  354.750   97.960    0.460    0.252    3.170
  355.000   99.624    0.452    0.233    3.267
  355.250  103.010    0.445    0.224    3.341
  355.500  106.573    0.441    0.215    3.481
  355.750  106.934    0.456    0.210    3.710
  356.000  104.864    0.449    0.223    3.953
  356.250  104.455    0.443    0.222    4.196
  356.500  105.942    0.445    0.213    4.292
  356.750  106.126    0.440    0.206    4.341
  357.000  105.183    0.433    0.202    4.325
  357.250  102.344    0.428    0.212    4.286
  357.500  100.273    0.435    0.219    4.231
  357.750   98.381    0.445    0.226    4.170
  358.000   96.429    0.441    0.234    4.101
  358.250   97.680    0.446    0.229    4.034
  358.500  100.769    0.453    0.203    3.990
  358.750  103.622    0.457    0.198    3.983
  359.000  104.990    0.458    0.208    3.984
  359.250  105.826    0.453    0.215    3.999
  359.500  105.830    0.444    0.213    4.030
  359.750  105.836    0.433    0.204    4.099
  360.000  105.723    0.423    0.190    4.184
  360.250  102.586    0.419    0.172    4.320
  360.500   98.500    0.428    0.161    4.569
  360.750   93.229    0.421    0.149    4.805
  361.000   89.618    0.355    0.111    5.025
  361.250   85.117    0.300    0.084    5.295
  361.500   90.222    0.337    0.099    5.508
  361.750   97.935    0.398    0.133    5.529
  362.000  101.261    0.429    0.157    5.499
  362.250  101.563    0.458    0.165    5.339
  362.500  103.466    0.455    0.176    4.865
  362.750  106.140    0.446    0.203    4.467
  363.000  107.864    0.450    0.214    4.241
  363.250  110.182    0.459    0.219    4.109
  363.500  112.323    0.463    0.212    3.997
  363.750  113.337    0.454    0.201    3.946
  364.000  113.282    0.451    0.192    3.881
  364.250  112.695    0.456    0.197    3.817
  364.500  111.692    0.463    0.207    3.734
  364.750  108.436    0.480    0.183    3.686
  365.000  108.560    0.490    0.197    3.646
  365.250  112.361    0.482    0.206    3.599
  365.500  114.383    0.476    0.211    3.593
  365.750  111.127    0.470    0.203    3.581
  366.000  108.345    0.463    0.217    3.380
  366.250  105.979    0.456    0.233    2.760
  366.500  106.933    0.446    0.248    2.379
  366.750  112.986    0.470    0.262    2.120
  367.000  120.047    0.503    0.264    1.943
  367.250  122.010    0.549    0.254    1.862
  367.500  121.127    0.586    0.247    1.831
  367.750  120.835    0.562    0.238    1.838
  368.000  119.654    0.539    0.228    2.048
  368.250  118.178    0.520    0.220    2.269
  368.500  119.013    0.504    0.228    2.468
  368.750  118.129    0.493    0.221    2.674
  369.000  115.468    0.480    0.216    2.823
  369.250  114.524    0.467    0.210    2.986
  369.500  113.580    0.452    0.216    3.164
  369.750  111.868    0.446    0.231    3.284
  370.000  110.094    0.450    0.241    3.378
  370.250  106.246    0.462    0.234    3.449
  370.500  103.701    0.475    0.226    3.468
  370.750  101.038    0.489    0.219    3.431
  371.000   98.257    0.464    0.212    3.330
  371.250   94.705    0.445    0.207    3.215
  371.500   91.805    0.431    0.210    3.145
  371.750   91.040    0.448    0.241    3.042
  372.000   92.765    0.456    0.267    2.904
  372.250   92.949    0.463    0.283    2.835
  372.500   89.100    0.471    0.299    2.820
  372.750   84.066    0.474    0.285    2.868
  373.000   81.700    0.472    0.296    2.928
  373.250   81.646    0.467    0.323    3.034
  373.500   82.244    0.468    0.330    2.945
  373.750   82.903    0.474    0.324    2.750
  374.000   83.560    0.471    0.317    2.506
  374.250   83.506    0.464    0.304    2.384
  374.500   80.369    0.458    0.272    2.242
  374.750   76.521    0.453    0.221    2.125
  375.000   72.079    0.448    0.249    2.117
  375.250   68.053    0.445    0.297    2.040
  375.500   65.627    0.440    0.316    1.926
  375.750   62.966    0.435    0.304    1.887
  376.000   62.616    0.429    0.294    1.930
  376.250   63.036    0.423    0.296    2.023
  376.500   63.337    0.417    0.304    2.131
  376.750   63.462    0.415    0.314    2.172
  377.000   63.468    0.430    0.310    2.234
  377.250   62.939    0.448    0.283    2.354
  377.500   61.581    0.443    0.056    2.627
  377.750   59.333    0.170    0.026    3.310
  378.000   57.086    0.145    0.017    4.680
  378.250   57.566    0.150    0.055    5.963
  378.500   59.291    0.212    0.169    3.689
  378.750   61.669    0.299    0.239    2.679
  379.000   63.572    0.363    0.290    2.115
  379.250   65.652    0.401    0.306    1.847
  379.500   67.673    0.427    0.320    1.790
  379.750   69.575    0.443    0.305    1.800
  380.000   71.774    0.452    0.286    1.821
  380.250   73.855    0.451    0.283    1.852
  380.500   71.370    0.446    0.301    1.869
  380.750   69.657    0.441    0.312    1.859
  381.000   72.033    0.452    0.325    1.849
  381.250   72.988    0.462    0.334    1.843
  381.500   73.528    0.467    0.330    1.836
  381.750   72.525    0.462    0.323    1.850
  382.000   71.404    0.454    0.317    1.868
  382.250   71.646    0.447    0.311    1.886
  382.500   73.727    0.439    0.304    1.904
  382.750   75.690    0.432    0.314    1.947
  383.000   76.702    0.441    0.323    1.984
  383.250   75.463    0.450    0.330    2.018
  383.500   73.097    0.454    0.315    2.045
  383.750   72.806    0.450    0.313    2.065
  384.000   76.726    0.438    0.319    2.084
  384.250   78.568    0.429    0.317    2.104
  384.500   79.937    0.422    0.309    2.144
  384.750   79.942    0.423    0.306    2.185
  385.000   79.119    0.442    0.314    2.226
  385.250   79.361    0.457    0.319    2.256
  385.500   80.552    0.455    0.305    2.277
  385.750   81.803    0.447    0.287    2.295
  386.000   83.468    0.444    0.272    2.304
  386.250   84.423    0.445    0.296    2.330
  386.500   84.013    0.438    0.318    2.352
  386.750   84.789    0.435    0.310    2.366
  387.000   86.455    0.443    0.303    2.375
  387.250   86.757    0.457    0.305    2.371
  387.500   86.110    0.473    0.315    2.372
  387.750   90.207    0.478    0.304    2.385
  388.000   95.609    0.467    0.279    2.408
  388.250   99.764    0.453    0.258    2.449
  388.500  102.496    0.441    0.237    2.576
  388.750  105.644    0.440    0.219    2.886
  389.000  105.650    0.456    0.218    3.139
  389.250  103.283    0.471    0.234    3.295
  389.500  100.443    0.474    0.239    3.414
  389.750   98.078    0.459    0.230    3.479
  390.000   98.083    0.445    0.221    3.467
  390.250  100.223    0.447    0.209    3.410
