~VERSION INFORMATION
 VERS.                 2.0:   CWLS LOG ASCII STANDARD -VERSION 2.0
 WRAP.                  NO:   ONE LINE PER DEPTH STEP
~WELL INFORMATION BLOCK
#MNEM.UNIT           DATA                    DESCRIPTION OF MNEMONIC
#---------    -------------------            -------------------------------
# Generated from Intellog Unique Number	CS_67_68/WELL/834
WELL.         COBRA OIL & GAS  LTD           : Well_name    - WELL
LOC .         00/11-12-068-17W4/0            : Location     - LOCATION
UWI .         00/11-12-068-17W4/0            : Uwi          - UNIQUE WELL ID
ENTR.         SP                             : Entered      - ENTERED BY
SRVC.         SCHLUMBERGER                   : Scn          - SERVICE COMPANY
STRT.M        340                            : top_depth    - START DEPTH
STOP.M        530                            : bot_depth    - STOP DEPTH
STEP.M        0.25                           : increment    - STEP LENGTH
 NULL. -999.2500:NULL Value
~CURVE INFORMATION BLOCK
#MNEM UNIT       ERCB CURVE CODE    CURVE DESCRIPTION
#-----------   ------------------   ----------------------------------
DEPT.M        00 001 00 00         : DEPTH        - DEPTH
ILD .OHMM     00 120 00 00         : RESD         - DEEP RESISTIVITY (DIL)
DPHI.V/V      00 890 00 00         : PHID         - DENSITY POROSITY (LIMESTONE)
NPHI.V/V      00 330 00 00         : PHIN         - NEUTRON POROSITY (LIMESTONE)
GR  .API      00 310 00 00         : GR           - GAMMA RAY
~PARAMETER INFORMATION
#MNEM.UNIT           DATA             DESCRIPTION OF MNEMONIC
#---------         -----------     ------------------------------
GL  .M        595.4                : gl           - GROUND LEVEL ELEVATION
EREF.M        599.2                : kb           - ELEVATION OF DEPTH REFERENCE
DATM.M        595.4                : datum        - DATUM ELEVATION
TDD .M        530                  : tdd          - TOTAL DEPTH DRILLER
RUN .         ONE                  : Run          - RUN NUMBER
ENG .         BILL                 : Engineer     - RECORDING ENGINEER
WIT .         JIM                  : Witness      - WITNESSED BY
MUD .         GEL                  : Mud_type     - MUD TYPE
MATR.         LIMESTONE            : Logunit      - NEUTRON MATRIX
TMAX.C        13                   : BHT          - MAXIMUM RECORDED TEMPERATURE
BHTD.M        530                  : BHTDEP       - MAXIMUM RECORDED TEMPERATURE
MATR.         1                    : LOGUNIT      - NEUTRON MATRIX
RMT .C        25                   : MDTP         - TEMPERATURE OF MUD
NEUT.         1                    : NEUTRON      - NEUTRON TYPE
RESI.         0                    : RESIST       - RESISTIVITY TYPE
RMC .OHMM     0.25                 : RMC          - RESISTIVITY OF MUD CAKE
RMF .OHMM     0.25                 : RMF          - RESISTIVITY OF MUD FILTRATE
SUFT.C        15                   : SUFT         - SURFACE TEMPERATURE
~A  DEPTH     RESD     PHID     PHIN       GR
# ...
  383.500    3.561    0.231    0.440   83.647
  383.750    3.731    0.210    0.445   85.253
  384.000    3.895    0.195    0.449   86.430
  384.250    4.021    0.194    0.451   89.000
  384.500    4.167    0.213    0.455   91.032
  384.750    4.310    0.227    0.471   92.757
  385.000    4.442    0.234    0.486   93.095
  385.250    4.510    0.230    0.476   92.523
  385.500    4.472    0.221    0.464   91.838
  385.750    4.280    0.224    0.452   91.814
  386.000    4.097    0.218    0.445   93.293
  386.250    4.054    0.219    0.460   94.298
  386.500    4.056    0.226    0.482   94.093
  386.750    4.165    0.232    0.504   91.654
  387.000    4.213    0.233    0.511   88.490
  387.250    4.216    0.238    0.524   86.956
  387.500    4.186    0.252    0.541   85.847
  387.750    4.112    0.270    0.553   84.071
  388.000    4.024    0.283    0.537   81.332
  388.250    3.945    0.287    0.529   78.774
  388.500    3.847    0.287    0.531   81.646
  388.750    3.772    0.270    0.547   85.602
  389.000    3.739    0.243    0.512   88.896
  389.250    3.700    0.218    0.476   90.865
  389.500    3.669    0.206    0.480   92.650
  389.750    3.657    0.197    0.486   92.923
  390.000    3.658    0.206    0.466   93.142
  390.250    3.667    0.228    0.445   92.631
  390.500    3.696    0.235    0.438   92.189
  390.750    3.725    0.221    0.444   91.680
  391.000    3.776    0.238    0.453   90.873
  391.250    3.771    0.250    0.454   88.676
  391.500    3.683    0.257    0.454   85.573
  391.750    3.545    0.233    0.452   87.663
  392.000    3.425    0.208    0.456   90.352
  392.250    3.278    0.189    0.467   92.321
  392.500    3.103    0.190    0.474   93.081
  392.750    2.937    0.210    0.499   89.736
  393.000    2.859    0.211    0.525   87.238
  393.250    2.845    0.196    0.528   88.903
  393.500    2.888    0.204    0.507   93.519
  393.750    3.175    0.176    0.489   95.731
  394.000    3.446    0.190    0.467   96.796
  394.250    3.789    0.202    0.461   94.838
  394.500    3.969    0.214    0.457   92.701
  394.750    4.144    0.215    0.457   92.189
  395.000    4.208    0.220    0.468   93.860
  395.250    4.210    0.209    0.470   96.612
  395.500    4.244    0.202    0.458   96.465
  395.750    4.246    0.203    0.453   93.605
  396.000    4.256    0.211    0.450   90.979
  396.250    4.142    0.221    0.442   90.116
  396.500    3.807    0.233    0.435   88.220
  396.750    3.328    0.245    0.431   84.031
  397.000    3.139    0.260    0.429   80.748
  397.250    3.159    0.247    0.444   80.965
  397.500    3.166    0.226    0.451   85.826
  397.750    3.139    0.209    0.443   89.964
  398.000    3.049    0.207    0.454   88.918
  398.250    2.849    0.228    0.472   81.287
  398.500    2.500    0.245    0.462   75.828
  398.750    2.231    0.262    0.460   72.969
  399.000    2.020    0.275    0.460   69.446
  399.250    1.891    0.284    0.456   64.714
  399.500    1.834    0.302    0.452   62.214
  399.750    1.815    0.313    0.456   60.196
  400.000    1.874    0.297    0.445   59.388
  400.250    1.959    0.299    0.437   61.776
  400.500    2.119    0.304    0.438   64.046
  400.750    2.261    0.294    0.432   65.109
  401.000    2.326    0.281    0.422   65.685
  401.250    2.323    0.285    0.416   66.200
  401.500    2.211    0.289    0.415   66.302
  401.750    2.047    0.290    0.428   65.433
  402.000    1.917    0.301    0.442   61.545
  402.250    1.825    0.308    0.436   60.011
  402.500    1.802    0.313    0.431   60.890
  402.750    1.786    0.315    0.429   62.374
  403.000    1.777    0.308    0.433   62.592
  403.250    1.762    0.303    0.444   62.381
  403.500    1.753    0.305    0.451   61.937
  403.750    1.754    0.310    0.460   61.554
  404.000    1.752    0.311    0.451   61.651
  404.250    1.750    0.307    0.445   60.419
  404.500    1.761    0.303    0.434   60.030
  404.750    1.785    0.295    0.428   61.030
  405.000    1.819    0.295    0.428   63.784
  405.250    1.863    0.305    0.438   66.898
  405.500    1.971    0.310    0.443   70.252
  405.750    2.147    0.309    0.439   73.247
  406.000    2.413    0.300    0.433   76.662
  406.250    2.652    0.283    0.433   81.103
  406.500    2.981    0.263    0.450   88.077
  406.750    3.206    0.237    0.453   92.400
  407.000    3.499    0.206    0.431   90.564
  407.250    3.579    0.210    0.420   89.876
  407.500    3.627    0.219    0.411   91.058
  407.750    3.676    0.211    0.414   93.025
  408.000    3.679    0.195    0.430   94.390
  408.250    3.626    0.204    0.442   92.856
  408.500    3.465    0.209    0.453   89.994
  408.750    3.397    0.224    0.455   88.098
  409.000    3.367    0.221    0.447   88.073
  409.250    3.407    0.213    0.452   90.585
  409.500    3.453    0.206    0.451   95.263
  409.750    3.486    0.201    0.425   97.296
  410.000    3.488    0.197    0.409   99.559
  410.250    3.426    0.207    0.411  100.747
  410.500    3.202    0.193    0.424  100.541
  410.750    2.900    0.185    0.433   93.455
  411.000    2.592    0.190    0.444   83.533
  411.250    2.352    0.223    0.449   76.326
  411.500    2.247    0.246    0.459   70.748
  411.750    2.182    0.281    0.461   67.764
  412.000    2.148    0.289    0.469   65.931
  412.250    2.149    0.286    0.479   66.266
  412.500    2.178    0.291    0.476   69.921
  412.750    2.236    0.285    0.465   74.304
  413.000    2.374    0.268    0.463   79.169
  413.250    2.473    0.247    0.475   84.277
  413.500    2.592    0.230    0.487   89.078
  413.750    2.641    0.228    0.498   92.133
  414.000    2.542    0.241    0.508   88.668
  414.250    2.376    0.247    0.473   82.608
  414.500    2.249    0.263    0.438   78.781
  414.750    2.229    0.277    0.421   75.858
  415.000    2.252    0.286    0.422   74.687
  415.250    2.295    0.294    0.427   74.301
  415.500    2.391    0.273    0.431   74.157
  415.750    2.496    0.255    0.435   73.223
  416.000    2.553    0.262    0.441   72.357
  416.250    2.540    0.270    0.446   71.908
  416.500    2.472    0.267    0.450   72.186
  416.750    2.366    0.260    0.452   72.642
  417.000    2.244    0.263    0.441   72.197
  417.250    2.128    0.276    0.444   71.326
  417.500    2.053    0.286    0.452   70.581
  417.750    2.058    0.298    0.451   70.433
  418.000    2.144    0.305    0.454   72.459
  418.250    2.267    0.298    0.458   77.803
  418.500    2.367    0.276    0.462   83.816
  418.750    2.430    0.260    0.455   91.151
  419.000    2.486    0.247    0.450   96.683
  419.250    2.451    0.225    0.462   96.057
  419.500    2.389    0.230    0.477   91.929
  419.750    2.245    0.252    0.486   83.509
  420.000    2.141    0.263    0.467   79.990
  420.250    2.038    0.277    0.449   76.224
  420.500    2.039    0.287    0.434   75.474
  420.750    2.129    0.293    0.441   77.260
  421.000    2.353    0.285    0.449   77.355
  421.250    2.540    0.266    0.444   75.398
  421.500    2.656    0.239    0.433   73.868
  421.750    2.487    0.202    0.407   77.038
  422.000    2.324    0.231    0.384   79.546
  422.250    2.196    0.266    0.406   80.191
  422.500    2.193    0.287    0.427   75.881
  422.750    2.465    0.300    0.441   74.408
  423.000    2.709    0.309    0.451   76.735
  423.250    2.963    0.298    0.457   78.401
  423.500    3.133    0.280    0.453   77.895
  423.750    3.307    0.247    0.434   76.478
  424.000    3.395    0.202    0.422   76.518
  424.250    3.378    0.188    0.431   77.699
  424.500    3.361    0.222    0.465   79.001
  424.750    3.370    0.240    0.502   79.763
  425.000    3.396    0.251    0.492   80.335
  425.250    3.487    0.251    0.485   80.556
  425.500    3.534    0.239    0.475   80.895
  425.750    3.562    0.225    0.459   81.473
  426.000    3.531    0.220    0.462   82.113
  426.250    3.469    0.219    0.469   79.676
  426.500    3.296    0.230    0.461   78.081
  426.750    3.155    0.223    0.453   78.359
