~VERSION INFORMATION
 VERS.                 2.0:   CWLS LOG ASCII STANDARD -VERSION 2.0
 WRAP.                  NO:   ONE LINE PER DEPTH STEP
~WELL INFORMATION BLOCK
#MNEM.UNIT           DATA                    DESCRIPTION OF MNEMONIC
#---------    -------------------            -------------------------------
# Generated from Intellog Unique Number	CS_77_79/WELL/931
WELL.         ASHLAND OIL CANADA LIMITED     : Well_name    - WELL
LOC .         00/10-05-077-18W4/0            : Location     - LOCATION
UWI .         00/10-05-077-18W4/0            : Uwi          - UNIQUE WELL ID
ENTR.         SP                             : Entered      - ENTERED BY
SRVC.         SCHLUMBERGER                   : Scn          - SERVICE COMPANY
STRT.M        207.264                        : top_depth    - START DEPTH
STOP.M        399.014                        : bot_depth    - STOP DEPTH
STEP.M        0.25                           : increment    - STEP LENGTH
 NULL. -999.2500:NULL Value
~CURVE INFORMATION BLOCK
#MNEM UNIT       ERCB CURVE CODE    CURVE DESCRIPTION
#-----------   ------------------   ----------------------------------
DEPT.M        00 001 00 00         : DEPTH        - DEPTH
GR  .API      00 310 00 00         : GR           - GAMMA RAY
DPHI.V/V      00 890 00 00         : PHID         - DENSITY POROSITY (SANDSTONE)
NPHI.V/V      00 330 00 00         : PHIN         - NEUTRON POROSITY (SANDSTONE)
ILD .OHMM     00 120 00 00         : RESD         - DEEP RESISTIVITY (DIL)
~PARAMETER INFORMATION
#MNEM.UNIT           DATA             DESCRIPTION OF MNEMONIC
#---------         -----------     ------------------------------
GL  .M        567.842              : gl           - GROUND LEVEL ELEVATION
EREF.M        572.11               : kb           - ELEVATION OF DEPTH REFERENCE
DATM.M        567.842              : datum        - DATUM ELEVATION
TDD .M        416.662              : tdd          - TOTAL DEPTH DRILLER
RUN .         ONE                  : Run          - RUN NUMBER
ENG .         BILL                 : Engineer     - RECORDING ENGINEER
WIT .         JIM                  : Witness      - WITNESSED BY
MUD .         GEL                  : Mud_type     - MUD TYPE
MATR.         SANDSTONE            : Logunit      - NEUTRON MATRIX
TMAX.C        22.2222              : BHT          - MAXIMUM RECORDED TEMPERATURE
BHTD.M        416.662              : BHTDEP       - MAXIMUM RECORDED TEMPERATURE
MATR.         1                    : LOGUNIT      - NEUTRON MATRIX
RMT .C        25                   : MDTP         - TEMPERATURE OF MUD
NEUT.         1                    : NEUTRON      - NEUTRON TYPE
RESI.         0                    : RESIST       - RESISTIVITY TYPE
RMC .OHMM     0.25                 : RMC          - RESISTIVITY OF MUD CAKE
RMF .OHMM     0.25                 : RMF          - RESISTIVITY OF MUD FILTRATE
SUFT.C        15                   : SUFT         - SURFACE TEMPERATURE
~A  DEPTH       GR     PHID     PHIN     RESD
  207.264   95.020    0.598    0.542    4.782
  207.514   94.078    0.212    0.544    4.789
  207.764   93.396    0.211    0.549    4.798
  208.014   96.035    0.196    0.550    4.806
  208.264   97.530    0.223    0.567    4.814
  208.514   98.989    0.213    0.579    4.823
  208.764   96.237    0.213    0.590    4.846
  209.014   94.063    0.214    0.569    4.621
  209.264   92.564    0.181    0.552    4.653
  209.514   94.145    0.198    0.540    4.498
  209.764   98.339    0.215    0.543    4.469
  210.014   94.933    0.215    0.540    4.468
  210.264   93.059    0.219    0.544    4.266
  210.514   91.861    0.224    0.564    4.231
  210.764   96.131    0.232    0.572    4.099
  211.014   96.460    0.223    0.572    4.103
  211.264   95.395    0.216    0.585    4.076
  211.514   95.471    0.236    0.576    3.918
  211.764   97.510    0.232    0.567    3.824
  212.014   93.301    0.238    0.550    3.722
  212.264   90.987    0.224    0.546    3.547
  212.514   88.471    0.219    0.557    3.578
  212.764   91.035    0.212    0.564    3.362
  213.014   93.276    0.213    0.547    3.345
  213.264   91.299    0.211    0.533    3.875
  213.514   85.359    0.223    0.521    4.394
  213.764   76.749    0.234    0.501    5.671
  214.014   67.196    0.284    0.459    6.871
  214.264   64.480    0.317    0.452   10.227
  214.514   67.953    0.295    0.462   13.658
  214.764   71.456    0.293    0.445   16.423
  215.014   74.897    0.287    0.443   16.872
  215.264   76.485    0.278    0.435   15.565
  215.514   76.419    0.262    0.435   14.756
  215.764   73.908    0.267    0.440   14.539
  216.014   71.130    0.273    0.441   15.213
  216.264   67.416    0.312    0.427   15.649
  216.514   67.371    0.299    0.423   15.839
  216.764   69.147    0.307    0.428   15.678
  217.014   69.823    0.287    0.446   13.899
  217.264   72.655    0.284    0.435   12.924
  217.514   80.369    0.274    0.437   11.091
  217.764   87.529    0.242    0.433    9.639
  218.014   90.148    0.237    0.452    8.415
  218.264   92.740    0.243    0.469    7.183
  218.514   93.119    0.236    0.482    6.204
  218.764   92.899    0.232    0.520    5.890
  219.014   91.871    0.223    0.535    5.342
  219.264   90.765    0.225    0.519    5.016
  219.514   91.307    0.217    0.503    4.924
  219.764   96.804    0.220    0.494    4.798
  220.014  104.159    0.214    0.496    4.826
  220.264  110.280    0.184    0.515    4.597
  220.514  108.156    0.160    0.523    4.624
  220.764  105.484    0.132    0.502    4.515
  221.014  109.121    0.133    0.477    4.448
  221.264  109.948    0.201    0.479    4.438
  221.514  107.453    0.218    0.487    4.673
  221.764  103.200    0.221    0.504    4.935
  222.014   95.934    0.216    0.517    5.902
  222.264   84.031    0.219    0.501    7.315
  222.514   69.218    0.204    0.471    8.941
  222.764   65.147    0.173    0.451   11.168
  223.014   65.721    0.195    0.452   13.095
  223.264   61.422    0.245    0.454   15.260
  223.514   56.244    0.257    0.439   16.128
  223.764   53.463    0.278    0.426   16.778
  224.014   53.489    0.285    0.427   17.629
  224.264   56.005    0.281    0.437   18.755
  224.514   59.304    0.252    0.443   19.294
  224.764   61.654    0.250    0.440   18.451
  225.014   64.941    0.234    0.425   16.845
  225.264   72.072    0.217    0.426   15.438
  225.514   76.800    0.190    0.439   13.878
  225.764   78.006    0.180    0.433   12.553
  226.014   80.639    0.210    0.418   11.363
  226.264   90.367    0.232    0.437   10.294
  226.514   94.870    0.222    0.447    9.619
  226.764   98.312    0.204    0.455    8.836
  227.014   99.673    0.208    0.459    8.314
  227.264   99.607    0.216    0.466    7.775
  227.514   96.902    0.201    0.459    8.371
  227.764   92.819    0.215    0.445    9.280
  228.014   87.275    0.237    0.447   11.209
  228.264   89.537    0.242    0.449   12.847
  228.514   95.626    0.223    0.431   14.112
  228.764   96.704    0.205    0.421   15.079
  229.014   97.145    0.214    0.414   14.795
  229.264   94.384    0.227    0.419   14.193
  229.514   91.836    0.228    0.424   13.886
  229.764   88.403    0.237    0.425   13.919
  230.014   85.729    0.241    0.416   13.684
  230.264   81.811    0.229    0.398   13.714
  230.514   78.061    0.203    0.395   13.718
  230.764   77.494    0.186    0.410   13.699
  231.014   77.496    0.231    0.420   13.527
  231.264   76.425    0.239    0.400   13.445
  231.514   73.804    0.236    0.405   13.341
  231.764   71.142    0.235    0.410   13.148
  232.014   74.972    0.226    0.411   13.111
  232.264   75.031    0.215    0.412   12.780
  232.514   76.668    0.210    0.399   12.797
  232.764   78.987    0.202    0.399   12.845
  233.014   80.984    0.215    0.415   13.198
  233.264   80.229    0.217    0.418   13.554
  233.514   73.881    0.202    0.409   13.645
  233.764   70.546    0.233    0.419   13.881
  234.014   69.537    0.254    0.416   11.751
  234.264   78.125    0.276    0.409   10.119
  234.514   90.488    0.256    0.414    7.885
  234.764   99.990    0.222    0.443    7.063
  235.014  108.346    0.201    0.514    6.053
  235.264  116.125    0.172    0.534    5.199
  235.514  114.887    0.165    0.543    4.853
  235.764  113.280    0.163    0.534    4.532
  236.014  113.587    0.164    0.530    4.352
  236.264  115.469    0.152    0.549    4.129
  236.514  119.161    0.154    0.555    4.161
  236.764  118.431    0.151    0.540    4.167
  237.014  120.017    0.166    0.523    4.166
  237.264  120.600    0.188    0.530    4.361
  237.514  118.929    0.185    0.557    4.448
  237.764  121.125    0.192    0.568    5.039
  238.014  124.282    0.182    0.568    5.317
  238.264  121.374    0.209    0.541    6.135
  238.514  116.108    0.219    0.502    6.654
  238.764  111.253    0.209    0.476    7.936
  239.014  106.901    0.201    0.452    8.567
  239.264  109.560    0.200    0.438    9.028
  239.514  113.567    0.209    0.456    9.052
  239.764  114.718    0.206    0.464    8.786
  240.014  112.936    0.197    0.464    8.652
  240.264  109.887    0.192    0.487    8.650
  240.514  102.978    0.218    0.497    8.914
  240.764   94.051    0.212    0.491    9.214
  241.014   87.659    0.206    0.484   10.168
  241.264   80.027    0.217    0.474   11.154
  241.514   77.325    0.231    0.456   13.183
  241.764   78.864    0.257    0.451   14.089
  242.014   79.761    0.259    0.449   14.903
  242.264   79.453    0.255    0.449   15.326
  242.514   83.347    0.291    0.451   15.281
  242.764   87.350    0.285    0.455   14.759
  243.014   88.895    0.266    0.463   13.910
  243.264   88.555    0.253    0.451   13.043
  243.514   92.113    0.248    0.449   12.433
  243.764   95.734    0.249    0.456   11.638
  244.014   97.090    0.219    0.462   11.354
  244.264   99.820    0.234    0.458   11.017
  244.514  105.167    0.239    0.460   10.936
  244.764  110.987    0.229    0.470   10.597
  245.014  114.665    0.215    0.472   10.280
  245.264  113.063    0.207    0.461    9.975
  245.514  107.928    0.211    0.466    9.444
  245.764   98.718    0.220    0.471    8.984
  246.014   89.916    0.207    0.469    8.872
  246.264   83.168    0.216    0.481    8.847
  246.514   77.124    0.226    0.509    9.500
  246.764   72.504    0.242    0.516   10.176
  247.014   72.694    0.270    0.472   11.020
  247.264   72.595    0.276    0.471   11.779
  247.514   70.607    0.270    0.482   12.049
  247.764   69.209    0.278    0.474   11.171
  248.014   65.522    0.267    0.472   10.695
  248.264   62.313    0.251    0.494   10.334
  248.514   56.684    0.220    0.516   11.180
  248.764   52.646    0.185    0.384   12.410
  249.014   53.722    0.148    0.372   14.283
  249.264   61.408    0.180    0.391   15.515
  249.514   63.429    0.195    0.346   16.681
  249.764   61.748    0.196    0.387   17.184
  250.014   62.673    0.250    0.438   16.008
  250.264   63.644    0.311    0.460   15.319
  250.514   64.152    0.317    0.478   14.303
