~VERSION INFORMATION
 VERS.                 2.0:   CWLS LOG ASCII STANDARD -VERSION 2.0
 WRAP.                  NO:   ONE LINE PER DEPTH STEP
~WELL INFORMATION BLOCK
#MNEM.UNIT           DATA                    DESCRIPTION OF MNEMONIC
#---------    -------------------            -------------------------------
# Generated from Intellog Unique Number	CC_80_83/WELL/2387
NULL.         -999.25                        : NULL_VALUE
WELL.         KASISER DIVIDE                 : Well_name    - WELL
LOC .         10-29-082-13W4                 : Location     - LOCATION          
UWI .         00/10-29-082-13W400            : Uwi          - UNIQUE WELL ID    
ENTR.         DW                             : Entered      - ENTERED BY        
SRVC.         SCHLUMBERGER                   : Scn          - SERVICE COMPANY   
DATE.         24 MAR 80                      : Date         - LOG DATE
STRT.M        95                             : top_depth    - START DEPTH       
STOP.M        379.997                        : bot_depth    - STOP DEPTH        
STEP.M        0.3                            : increment    - STEP LENGTH       
~CURVE INFORMATION BLOCK
#MNEM UNIT       ERCB CURVE CODE    CURVE DESCRIPTION
#-----------   ------------------   ----------------------------------
DEPT.M        00 001 00 00         : DEPTH        - DEPTH                       
DPHI.V/V      00 890 00 00         : PHID         - DENSITY POROSITY (LIMESTONE)
NPHI.V/V      00 330 00 00         : PHIN         - NEUTRON POROSITY (LIMESTONE)
GR  .API      00 310 00 00         : GR           - GAMMA RAY                   
ILD .OHMM     00 120 00 00         : RESD         - DEEP RESISTIVITY (DIL)      
~PARAMETER INFORMATION       
#MNEM.UNIT           DATA             DESCRIPTION OF MNEMONIC
#---------         -----------     ------------------------------
GL  .M        592.4                : gl           - GROUND LEVEL ELEVATION      
EREF.M        596.75               : kb           - ELEVATION OF DEPTH REFERENCE
DATM.M        596.75               : datum        - DATUM ELEVATION             
TDD .M        420                  : tdd          - TOTAL DEPTH DRILLER         
RUN .         ONE                  : Run          - RUN NUMBER                  
ENG .         BILL                 : Engineer     - RECORDING ENGINEER          
MUD .         GEL                  : Mud_type     - MUD TYPE                    
MATR.         LIMESTONE            : Logunit      - NEUTRON MATRIX              
TMAX.C        22                   : BHT          - MAXIMUM RECORDED TEMPERATURE
BHTD.M        420                  : BHTDEP       - MAXIMUM RECORDED TEMPERATURE
MATR.         1                    : LOGUNIT      - NEUTRON MATRIX              
RMT .C        25                   : MDTP         - TEMPERATURE OF MUD          
NEUT.         1                    : NEUTRON      - NEUTRON TYPE                
RESI.         0                    : RESIST       - RESISTIVITY TYPE            
RMC .OHMM     0.25                 : RMC          - RESISTIVITY OF MUD CAKE     
RMF .OHMM     0.25                 : RMF          - RESISTIVITY OF MUD FILTRATE 
SUFT.C        15                   : SUFT         - SURFACE TEMPERATURE         
~A  DEPTH     PHID     PHIN       GR     RESD
# ...
  199.401    0.235    0.516   83.069    6.068
  199.701    0.239    0.519   81.220    8.365
  200.001    0.245    0.504   89.943   10.693
  200.301    0.254    0.456   89.953   10.495
  200.601    0.262    0.432   86.864    9.733
  200.901    0.267    0.430   87.500    8.530
  201.201    0.273    0.443   90.628    8.061
  201.501    0.273    0.477   91.887    7.476
  201.801    0.257    0.492   92.521    7.620
  202.101    0.239    0.505   95.028    7.913
  202.401    0.249    0.497   94.419    9.033
  202.701    0.268    0.482   90.707    9.928
  203.001    0.275    0.484   88.235   10.118
  203.301    0.283    0.494   88.251   10.120
  203.601    0.290    0.476   92.623    9.932
  203.901    0.307    0.456   92.632    9.565
  204.201    0.313    0.444   87.676    9.212
  204.501    0.295    0.436   80.857    9.750
  204.801    0.300    0.429   79.626   10.921
  205.101    0.296    0.434   67.832   12.945
  205.401    0.291    0.479   59.143   16.238
  205.701    0.316    0.485   56.056   17.514
  206.001    0.333    0.457   56.070   18.191
  206.301    0.343    0.440   58.572   18.193
  206.601    0.349    0.453   64.184   18.196
  206.901    0.349    0.433   66.685   17.857
  207.201    0.347    0.427   62.350   18.548
  207.501    0.346    0.443   56.148   18.903
  207.801    0.345    0.486   57.409   18.553
  208.101    0.345    0.486   56.803   18.208
  208.401    0.352    0.473   53.715   17.869
  208.701    0.366    0.463   53.107   17.209
  209.001    0.377    0.449   52.500   17.541
  209.301    0.362    0.439   51.893   17.877
  209.601    0.352    0.448   53.776   18.220
  209.901    0.352    0.452   55.659   18.571
  210.201    0.358    0.449   55.669   18.225
  210.501    0.364    0.476   53.201   17.887
  210.801    0.362    0.504   51.350   17.554
  211.101    0.361    0.485   51.987   17.229
  211.401    0.362    0.462   56.356   17.559
  211.701    0.358    0.462   55.750   18.238
  212.001    0.353    0.481   57.012   18.241
  212.301    0.335    0.471   58.890   18.243
  212.601    0.335    0.460   58.907   17.904
  212.901    0.337    0.461   59.546   17.907
  213.201    0.338    0.467   60.184   17.908
  213.501    0.339    0.466   60.199   17.911
  213.801    0.339    0.458   58.972   17.914
  214.101    0.338    0.451   55.882   18.257
  214.401    0.336    0.456   52.789   19.324
  214.701    0.334    0.462   50.937   20.070
  215.001    0.337    0.457   49.089   20.456
  215.301    0.338    0.451   47.244   20.848
  215.601    0.334    0.468   46.635   20.460
  215.901    0.331    0.466   46.029   20.465
  216.201    0.331    0.452   47.910   20.084
  216.501    0.329    0.436   47.929   20.087
  216.801    0.330    0.430   46.705   19.345
  217.101    0.332    0.437   46.098   19.348
  217.401    0.332    0.475   47.352   19.718
  217.701    0.329    0.462   48.614   21.673
  218.001    0.319    0.457   48.004   39.657
  218.301    0.311    0.451   43.669   52.644
  218.601    0.284    0.449   41.200   75.365
  218.901    0.185    0.335   40.601   84.414
  219.201    0.000    0.144   39.990   91.046
  219.501    0.000    0.136   38.761   96.363
  219.801    0.000    0.130   36.295   98.217
  220.101    0.000    0.126   36.310  102.009
  220.401    0.000    0.123   36.323  107.965
  220.701    0.000    0.120   36.339  116.452
  221.001    0.000    0.119   35.737  120.948
  221.301    0.000    0.118   35.752  120.964
  221.601    0.000    0.118   35.142  116.496
  221.901    0.000    0.118   35.161  108.036
  222.201    0.000    0.119   37.044   92.907
  222.501    0.000    0.125   38.921   47.096
  222.801    0.000    0.138   43.291   30.515
  223.101    0.141    0.155   48.902   26.240
  223.401    0.200    0.212   51.405   21.731
  223.701    0.275    0.316   49.558   21.326
  224.001    0.325    0.437   47.708   20.540
  224.301    0.340    0.477   45.858   20.542
  224.601    0.325    0.462   45.252   20.545
  224.901    0.327    0.456   47.134   20.548
  225.201    0.328    0.465   47.771   20.166
  225.501    0.321    0.471   47.787   19.793
  225.801    0.328    0.471   46.562   19.425
  226.101    0.336    0.481   47.197   19.065
  226.401    0.336    0.474   49.698   19.067
  226.701    0.329    0.466   50.960   19.069
  227.001    0.321    0.474   52.219   19.435
  227.301    0.318    0.496   54.100   19.438
  227.601    0.310    0.501   55.979   19.440
  227.901    0.310    0.486   55.998   19.080
  228.201    0.328    0.484   56.631   19.081
  228.501    0.327    0.486   52.921   17.696
  228.801    0.324    0.480   53.555   16.412
  229.101    0.335    0.472   58.550   15.806
  229.401    0.340    0.458   58.560   16.109
  229.701    0.340    0.442   56.714   16.111
  230.001    0.318    0.472   54.864   16.422
  230.301    0.293    0.470   52.393   16.423
  230.601    0.098    0.441   52.409   16.426
  230.901    0.162    0.389   56.778   16.428
  231.201    0.237    0.373   57.421   16.122
  231.501    0.287    0.436   58.055   15.824
  231.801    0.344    0.473   59.315   15.826
  232.101    0.342    0.476   60.574   16.130
  232.401    0.339    0.477   63.075   16.131
  232.701    0.336    0.485   64.958   15.832
  233.001    0.329    0.498   65.596   15.248
  233.301    0.330    0.497   65.608   14.965
  233.601    0.330    0.482   64.381   14.413
  233.901    0.329    0.481   62.531   14.414
  234.201    0.324    0.470   65.655   14.691
  234.501    0.313    0.464   65.055   14.973
  234.801    0.309    0.477   63.201   14.976
  235.101    0.326    0.471   63.218   15.263
  235.401    0.324    0.464   61.372   15.264
  235.701    0.322    0.459   61.384   14.981
  236.001    0.332    0.455   61.404   14.983
  236.301    0.327    0.457   65.148   14.985
  236.601    0.323    0.459   65.167   15.273
  236.901    0.330    0.470   63.939   15.274
  237.201    0.316    0.474   63.952   15.568
  237.501    0.317    0.479   65.832   15.280
  237.801    0.309    0.485   65.227   14.996
  238.101    0.314    0.488   61.512   14.717
  238.401    0.326    0.487   65.260   14.718
  238.701    0.328    0.487   64.653   13.911
  239.001    0.324    0.480   65.290   12.422
  239.301    0.318    0.466   72.146   11.520
  239.601    0.313    0.457   72.791   11.966
  239.901    0.307    0.461   70.938   11.967
  240.201    0.303    0.501   69.090   11.525
  240.501    0.302    0.502   69.105   10.489
  240.801    0.303    0.484   71.607    9.727
  241.101    0.301    0.465   74.108    9.193
  241.401    0.289    0.468   72.257    9.023
  241.701    0.271    0.502   64.192    9.023
  242.001    0.301    0.519   60.477    8.856
  242.301    0.320    0.509   72.305    8.213
  242.602    0.290    0.479   79.781    8.215
  242.902    0.265    0.484   76.689    8.215
  243.202    0.274    0.486   72.359    9.030
  243.502    0.287    0.473   71.128   10.307
  243.802    0.306    0.470   64.927   12.450
  244.102    0.288    0.471   61.834   13.177
  244.402    0.275    0.471   60.609   13.430
  244.702    0.294    0.476   61.870   12.693
  245.002    0.304    0.465   60.019   11.550
  245.302    0.316    0.447   58.790    9.386
  245.602    0.319    0.444   65.645    8.542
  245.902    0.313    0.460   73.124    8.383
  246.202    0.304    0.480   76.245    8.384
  246.502    0.294    0.493   79.990    6.813
  246.802    0.293    0.484   86.846    7.076
  247.102    0.284    0.465   87.485    7.926
  247.402    0.314    0.461   83.147    9.047
  247.702    0.312    0.529   73.838   10.326
  248.002    0.315    0.552   67.016   11.566
  248.302    0.339    0.556   65.169   12.955
  248.602    0.352    0.503   67.051   12.477
  248.902    0.353    0.487   67.066   12.017
  249.202    0.354    0.489   67.085   11.572
  249.502    0.352    0.490   68.967   10.142
  249.802    0.349    0.495   69.597   10.143
  250.102    0.344    0.496   67.749   10.144
  250.402    0.336    0.498   67.143   10.737
  250.702    0.317    0.496   65.295   11.364
  251.002    0.265    0.495   57.852   11.582
  251.302    0.108    0.490   59.111   11.585
