~VERSION INFORMATION
 VERS.                 2.0:   CWLS LOG ASCII STANDARD -VERSION 2.0
 WRAP.                  NO:   ONE LINE PER DEPTH STEP
~WELL INFORMATION BLOCK
#MNEM.UNIT           DATA                    DESCRIPTION OF MNEMONIC
#---------    -------------------            -------------------------------
# Generated from Intellog Unique Number	CS_73_76/WELL/4786
WELL.         AMOCO                          : Well_name    - WELL
LOC .         00/11-05-074-04W4/0            : Location     - LOCATION
UWI .         00/11-05-074-04W4/0            : Uwi          - UNIQUE WELL ID
ENTR.         T                              : Entered      - ENTERED BY
SRVC.         SCHLUMBERGER                   : Scn          - SERVICE COMPANY
STRT.M        225                            : top_depth    - START DEPTH
STOP.M        440                            : bot_depth    - STOP DEPTH
STEP.M        0.25                           : increment    - STEP LENGTH
 NULL. -999.2500:NULL Value
~CURVE INFORMATION BLOCK
#MNEM UNIT       ERCB CURVE CODE    CURVE DESCRIPTION
#-----------   ------------------   ----------------------------------
DEPT.M        00 001 00 00         : DEPTH        - DEPTH
GR  .API      00 310 00 00         : GR           - GAMMA RAY
NPHI.V/V      00 330 00 00         : PHIN         - NEUTRON POROSITY (SANDSTONE)
DPHI.V/V      00 890 00 00         : PHID         - DENSITY POROSITY (SANDSTONE)
ILD .OHMM     00 120 00 00         : RESD         - DEEP RESISTIVITY (DIL)
~PARAMETER INFORMATION
#MNEM.UNIT           DATA             DESCRIPTION OF MNEMONIC
#---------         -----------     ------------------------------
GL  .M        630.2                : gl           - GROUND LEVEL ELEVATION
EREF.M        634.4                : kb           - ELEVATION OF DEPTH REFERENCE
DATM.M        634.4                : datum        - DATUM ELEVATION
TDD .M        445                  : tdd          - TOTAL DEPTH DRILLER
RUN .         ONE                  : Run          - RUN NUMBER
ENG .         BILL                 : Engineer     - RECORDING ENGINEER
WIT .         JIM                  : Witness      - WITNESSED BY
MUD .         GEL                  : Mud_type     - MUD TYPE
MATR.         SANDSTONE            : Logunit      - NEUTRON MATRIX
TMAX.C        21                   : BHT          - MAXIMUM RECORDED TEMPERATURE
BHTD.M        445                  : BHTDEP       - MAXIMUM RECORDED TEMPERATURE
MATR.         1                    : LOGUNIT      - NEUTRON MATRIX
RMT .C        25                   : MDTP         - TEMPERATURE OF MUD
NEUT.         1                    : NEUTRON      - NEUTRON TYPE
RESI.         0                    : RESIST       - RESISTIVITY TYPE
RMC .OHMM     5.6                  : RMC          - RESISTIVITY OF MUD CAKE
RMF .OHMM     5.4                  : RMF          - RESISTIVITY OF MUD FILTRATE
SUFT.C        15                   : SUFT         - SURFACE TEMPERATURE
~A  DEPTH       GR     PHIN     PHID     RESD
# ...
  312.000   63.936    0.475    0.310    1.078
  312.250   63.957    0.494    0.302    1.136
  312.500   63.973    0.491    0.291    1.177
  312.750   65.859    0.478    0.286    1.218
  313.000   66.495    0.474    0.282    1.305
  313.250   69.001    0.475    0.274    1.351
  313.500   71.507    0.474    0.267    1.399
  313.750   74.002    0.468    0.271    1.400
  314.000   76.502    0.463    0.278    1.426
  314.250   79.002    0.464    0.276    1.476
  314.500   82.123    0.465    0.265    1.528
  314.750   85.243    0.473    0.250    1.610
  315.000   90.841    0.497    0.245    1.638
  315.250   92.722    0.514    0.244    1.696
  315.500   93.369    0.521    0.242    1.756
  315.750   94.010    0.529    0.239    1.758
  316.000   92.797    0.527    0.237    1.760
  316.250   91.569    0.518    0.240    1.791
  316.500   89.737    0.509    0.251    1.825
  316.750   87.904    0.511    0.261    1.826
  317.000   87.301    0.518    0.270    1.891
  317.250   86.088    0.518    0.263    1.925
  317.500   85.479    0.502    0.256    1.994
  317.750   84.881    0.491    0.249    1.995
  318.000   84.283    0.471    0.243    2.067
  318.250   85.554    0.440    0.247    2.069
  318.500   86.185    0.443    0.257    2.070
  318.750   84.972    0.455    0.275    2.108
  319.000   83.749    0.466    0.277    2.110
  319.250   80.683    0.465    0.253    2.113
  319.500   79.454    0.460    0.248    2.114
  319.750   78.856    0.454    0.242    2.154
  320.000   78.888    0.451    0.242    2.155
  320.250   79.524    0.458    0.239    2.194
  320.500   79.540    0.466    0.233    2.235
  320.750   79.578    0.473    0.228    2.274
  321.000   79.594    0.479    0.227    2.355
  321.250   80.224    0.489    0.228    2.357
  321.500   80.246    0.510    0.229    2.399
  321.750   81.517    0.500    0.232    2.402
  322.000   82.153    0.486    0.235    2.404
  322.250   84.039    0.483    0.239    2.448
  322.500   85.920    0.492    0.240    2.493
  322.750   87.800    0.518    0.241    2.495
  323.000   89.067    0.530    0.245    2.497
  323.250   89.078    0.536    0.257    2.500
  323.500   89.724    0.511    0.266    2.461
  323.750   90.360    0.508    0.264    2.422
  324.000   91.017    0.512    0.262    2.425
  324.250   91.034    0.514    0.256    2.387
  324.500   91.050    0.509    0.248    2.311
  324.750   91.685    0.497    0.247    2.312
  325.000   91.712    0.482    0.242    2.314
  325.250   91.739    0.464    0.240    2.317
  325.500   92.375    0.469    0.234    2.359
  325.750   92.391    0.492    0.227    2.443
  326.000   93.032    0.496    0.213    2.445
  326.250   94.299    0.502    0.209    2.489
  326.500   95.554    0.503    0.211    2.534
  326.750   97.435    0.502    0.214    2.452
  327.000   99.321    0.504    0.216    2.414
  327.250  100.576    0.506    0.215    2.376
  327.500  102.457    0.511    0.214    2.380
  327.750  104.338    0.511    0.215    2.381
  328.000  105.599    0.504    0.219    2.384
  328.250  107.485    0.494    0.226    2.347
  328.500  106.892    0.488    0.236    2.348
  328.750  103.815    0.483    0.242    2.273
  329.000  102.597    0.482    0.244    2.238
  329.250  104.483    0.498    0.243    2.277
  329.500  105.738    0.528    0.242    2.320
  329.750  107.619    0.533    0.246    2.321
  330.000  108.885    0.537    0.245    2.284
  330.250  109.516    0.548    0.240    2.211
  330.500  109.543    0.562    0.237    2.140
  330.750  109.564    0.560    0.237    2.071
  331.000  109.586    0.558    0.238    2.038
  331.250  107.753    0.561    0.239    2.041
  331.500  107.145    0.569    0.245    2.077
  331.750  105.927    0.578    0.256    2.115
  332.000  105.334    0.584    0.257    2.191
  332.250  104.110    0.584    0.255    2.192
  332.500  101.658    0.578    0.249    2.233
  332.750   98.576    0.552    0.245    2.198
  333.000   93.020    0.536    0.253    2.162
  333.250   88.084    0.503    0.280    2.130
  333.500   82.528    0.481    0.300    2.131
  333.750   80.071    0.471    0.294    2.244
  334.000   80.717    0.477    0.285    2.284
  334.250   81.353    0.469    0.281    2.327
  334.500   82.614    0.466    0.276    2.289
  334.750   83.880    0.496    0.268    2.179
  335.000   84.516    0.503    0.254    2.109
  335.250   84.548    0.508    0.254    2.075
  335.500   84.570    0.489    0.259    2.043
  335.750   83.961    0.475    0.263    2.079
  336.000   82.748    0.467    0.270    2.117
  336.250   81.530    0.454    0.282    2.193
  336.500   80.312    0.418    0.301    2.231
  336.750   79.095    0.403    0.314    2.311
  337.000   77.877    0.380    0.353    2.353
  337.250   74.805    0.405    0.356    2.395
  337.500   74.196    0.445    0.343    2.398
  337.750   72.358    0.449    0.331    2.400
  338.000   71.760    0.441    0.336    2.284
  338.250   73.032    0.429    0.338    2.210
  338.500   74.282    0.418    0.324    2.139
  338.750   77.407    0.445    0.298    2.035
  339.000   79.902    0.456    0.314    1.906
  339.250   79.929    0.457    0.335    1.844
  339.500   78.717    0.453    0.343    1.725
  339.750   77.488    0.442    0.317    1.587
  340.000   75.661    0.445    0.290    1.460
  340.250   75.052    0.469    0.287    1.343
  340.500   75.699    0.475    0.281    1.194
  340.750   76.340    0.480    0.282    1.176
  341.000   76.976    0.478    0.279    1.238
  341.250   78.237    0.473    0.279    1.326
  341.500   80.117    0.464    0.273    1.350
  341.750   82.014    0.462    0.262    1.422
  342.000   82.650    0.466    0.249    1.497
  342.250   83.286    0.474    0.251    1.550
  342.500   83.927    0.486    0.253    1.632
  342.750   84.568    0.492    0.256    1.690
  343.000   85.215    0.480    0.262    1.750
  343.250   85.242    0.474    0.269    1.813
  343.500   85.252    0.466    0.254    1.845
  343.750   86.519    0.462    0.238    1.878
  344.000   87.155    0.461    0.234    1.880
  344.250   90.285    0.465    0.233    1.914
  344.500   90.916    0.466    0.235    1.916
  344.750   92.797    0.471    0.235    1.886
  345.000   94.058    0.497    0.243    1.794
  345.250   95.319    0.531    0.268    1.708
  345.500   96.579    0.549    0.279    1.625
  345.750   97.851    0.542    0.285    1.547
  346.000   98.482    0.538    0.287    1.522
  346.250   99.748    0.540    0.290    1.550
  346.500  100.384    0.548    0.294    1.577
  346.750  101.655    0.550    0.294    1.633
  347.000  102.291    0.555    0.292    1.663
  347.250  102.318    0.560    0.289    1.637
  347.500  100.480    0.567    0.289    1.611
  347.750   97.393    0.575    0.289    1.613
  348.000   92.462    0.578    0.287    1.670
  348.250   88.760    0.566    0.284    1.729
  348.500   84.443    0.517    0.283    1.853
  348.750   80.746    0.365    0.311    2.052
  349.000   77.050    0.305    0.331    2.235
  349.250   73.353    0.268    0.356    2.561
  349.500   70.276    0.255    0.380    3.035
  349.750   67.818    0.258    0.404    3.658
  350.000   65.377    0.268    0.402    4.121
  350.250   64.768    0.272    0.383    4.802
  350.500   63.545    0.272    0.383    4.647
  350.750   62.327    0.279    0.386    4.424
  351.000   61.739    0.304    0.382    4.281
  351.250   61.750    0.319    0.373    4.074
  351.500   61.152    0.333    0.371    3.942
  351.750   61.179    0.340    0.363    3.689
  352.000   61.825    0.334    0.363    3.570
  352.250   62.461    0.321    0.357    3.824
  352.500   63.722    0.301    0.338    3.828
  352.750   64.358    0.280    0.325    3.643
  353.000   65.624    0.308    0.347    3.585
  353.250   66.885    0.315    0.366    3.649
  353.500   67.527    0.324    0.377    3.976
  353.750   66.934    0.330    0.394    4.331
  354.000   66.330    0.330    0.384    4.560
  354.250   63.873    0.298    0.362    5.139
  354.500   60.181    0.283    0.342    5.410
  354.750   62.687    0.285    0.306    4.731
  355.000   65.802    0.294    0.308    4.138
  355.250   68.297    0.305    0.336    3.743
