~VERSION INFORMATION
 VERS.                 2.0:   CWLS LOG ASCII STANDARD -VERSION 2.0
 WRAP.                  NO:   ONE LINE PER DEPTH STEP
~WELL INFORMATION BLOCK
#MNEM.UNIT           DATA                    DESCRIPTION OF MNEMONIC
#---------    -------------------            -------------------------------
# Generated from Intellog Unique Number	CS_71_72/WELL/921
WELL.         HUDSON'S BAY OIL AND GAS       : Well_name    - WELL
LOC .         00/13-15-071-12W4/0            : Location     - LOCATION
UWI .         00/13-15-071-12W4/0            : Uwi          - UNIQUE WELL ID
ENTR.         SP                             : Entered      - ENTERED BY
SRVC.         SCHLUMBERGER                   : Scn          - SERVICE COMPANY
STRT.M        260                            : top_depth    - START DEPTH
STOP.M        480                            : bot_depth    - STOP DEPTH
STEP.M        0.25                           : increment    - STEP LENGTH
 NULL. -999.2500:NULL Value
~CURVE INFORMATION BLOCK
#MNEM UNIT       ERCB CURVE CODE    CURVE DESCRIPTION
#-----------   ------------------   ----------------------------------
DEPT.M        00 001 00 00         : DEPTH        - DEPTH
ILD .OHMM     00 120 00 00         : RESD         - DEEP RESISTIVITY (DIL)
DPHI.V/V      00 890 00 00         : PHID         - DENSITY POROSITY (LIMESTONE)
NPHI.V/V      00 330 00 00         : PHIN         - NEUTRON POROSITY (LIMESTONE)
GR  .API      00 310 00 00         : GR           - GAMMA RAY
~PARAMETER INFORMATION
#MNEM.UNIT           DATA             DESCRIPTION OF MNEMONIC
#---------         -----------     ------------------------------
GL  .M        597.56               : gl           - GROUND LEVEL ELEVATION
EREF.M        601.56               : kb           - ELEVATION OF DEPTH REFERENCE
DATM.M        597.96               : datum        - DATUM ELEVATION
TDD .M        484                  : tdd          - TOTAL DEPTH DRILLER
RUN .         ONE                  : Run          - RUN NUMBER
ENG .         BILL                 : Engineer     - RECORDING ENGINEER
WIT .         JIM                  : Witness      - WITNESSED BY
MUD .         GEL                  : Mud_type     - MUD TYPE
MATR.         LIMESTONE            : Logunit      - NEUTRON MATRIX
TMAX.C        22                   : BHT          - MAXIMUM RECORDED TEMPERATURE
BHTD.M        484                  : BHTDEP       - MAXIMUM RECORDED TEMPERATURE
MATR.         1                    : LOGUNIT      - NEUTRON MATRIX
RMT .C        25                   : MDTP         - TEMPERATURE OF MUD
NEUT.         1                    : NEUTRON      - NEUTRON TYPE
RESI.         0                    : RESIST       - RESISTIVITY TYPE
RMC .OHMM     0.25                 : RMC          - RESISTIVITY OF MUD CAKE
RMF .OHMM     0.25                 : RMF          - RESISTIVITY OF MUD FILTRATE
SUFT.C        15                   : SUFT         - SURFACE TEMPERATURE
~A  DEPTH     RESD     PHID     PHIN       GR
  260.000    2.399    0.235    0.538   99.872
  260.250    2.452    0.231    0.545   98.890
  260.500    2.507    0.225    0.551   98.570
  260.750    2.423    0.219    0.543   98.368
  261.000    2.311    0.220    0.543   97.313
  261.250    2.314    0.225    0.551   96.013
  261.500    2.357    0.225    0.547   94.776
  261.750    2.428    0.229    0.529   93.234
  262.000    2.473    0.236    0.531   92.730
  262.250    2.496    0.239    0.541   93.868
  262.500    2.495    0.232    0.537   93.971
  262.750    2.466    0.214    0.544   93.527
  263.000    2.488    0.203    0.552   91.923
  263.250    2.548    0.201    0.557   91.113
  263.500    2.635    0.218    0.533   91.216
  263.750    2.694    0.225    0.509   91.564
  264.000    2.817    0.214    0.516   91.240
  264.250    2.886    0.206    0.533   92.317
  264.500    3.007    0.211    0.529   93.946
  264.750    3.127    0.217    0.504   91.855
  265.000    3.227    0.201    0.488   91.045
  265.250    3.464    0.192    0.480   94.135
  265.500    3.536    0.182    0.472   95.699
  265.750    3.753    0.175    0.459   94.402
  266.000    3.809    0.169    0.444   92.921
  266.250    3.909    0.175    0.482   94.120
  266.500    3.989    0.189    0.485   96.844
  266.750    4.003    0.189    0.482   99.200
  267.000    3.775    0.194    0.492   99.428
  267.250    3.526    0.197    0.509   97.399
  267.500    3.369    0.196    0.520   98.417
  267.750    3.153    0.193    0.524   98.641
  268.000    3.024    0.193    0.514   95.880
  268.250    2.955    0.195    0.527   96.655
  268.500    2.921    0.195    0.512   98.525
  268.750    2.980    0.188    0.491   96.005
  269.000    3.076    0.188    0.481   94.768
  269.250    3.193    0.196    0.487   94.813
  269.500    3.307    0.203    0.513   96.562
  269.750    3.331    0.198    0.531   96.849
  270.000    3.280    0.196    0.542   96.403
  270.250    3.205    0.202    0.520   94.981
  270.500    3.168    0.203    0.513   94.538
  270.750    3.191    0.206    0.506   94.701
  271.000    3.238    0.214    0.482   97.789
  271.250    3.219    0.209    0.471  101.551
  271.500    3.098    0.210    0.485   98.302
  271.750    2.873    0.220    0.506   92.251
  272.000    2.807    0.239    0.528   88.331
  272.250    2.980    0.294    0.465   84.840
  272.500    3.483    0.411    0.437   74.461
  272.750    4.582    0.421    0.448   63.290
  273.000    6.511    0.411    0.340   52.972
  273.250   11.952    0.403    0.154   49.171
  273.500   23.433    0.394    0.122   47.510
  273.750   39.968    0.383    0.116   45.785
  274.000   46.008    0.374    0.159   46.925
  274.250   29.443    0.359    0.175   52.940
  274.500   19.055    0.349    0.189   57.857
  274.750   13.348    0.359    0.199   61.192
  275.000   11.180    0.339    0.211   64.281
  275.250    9.381    0.320    0.230   68.098
  275.500    8.329    0.295    0.257   71.556
  275.750    7.326    0.211    0.293   76.775
  276.000    6.817    0.190    0.343   80.294
  276.250    6.404    0.175    0.401   85.092
  276.500    6.189    0.148    0.386   90.193
  276.750    6.128    0.145    0.373   89.503
  277.000    6.125    0.169    0.388   95.214
  277.250    6.181    0.183    0.409   99.522
  277.500    6.202    0.182    0.421  102.003
  277.750    6.211    0.175    0.418   99.729
  278.000    6.150    0.181    0.418   98.066
  278.250    6.079    0.186    0.424   99.750
  278.500    5.963    0.178    0.425   95.956
  278.750    5.784    0.188    0.432   92.886
  279.000    5.652    0.199    0.430   93.360
  279.250    5.513    0.211    0.441   96.937
  279.500    5.491    0.194    0.452   88.325
  279.750    5.645    0.214    0.410   78.187
  280.000    5.971    0.228    0.385   73.540
  280.250    6.151    0.230    0.397   71.631
  280.500    6.148    0.238    0.405   73.259
  280.750    6.031    0.228    0.412   78.786
  281.000    6.143    0.209    0.425   83.948
  281.250    6.400    0.224    0.417   87.038
  281.500    6.884    0.256    0.392   60.447
  281.750    7.309    0.280    0.353   52.385
  282.000    7.643    0.303    0.325   51.391
  282.250    7.771    0.258    0.314   58.319
  282.500    7.827    0.222    0.332   66.889
  282.750    7.450    0.209    0.352   71.264
  283.000    6.907    0.206    0.370   76.609
  283.250    6.501    0.203    0.385   80.368
  283.500    6.211    0.196    0.398   79.374
  283.750    6.162    0.189    0.392   74.602
  284.000    6.067    0.183    0.377   74.584
  284.250    5.885    0.183    0.378   77.916
  284.500    5.676    0.212    0.401   79.788
  284.750    5.506    0.248    0.414   75.442
  285.000    5.442    0.282    0.426   68.050
  285.250    5.439    0.296    0.421   62.119
  285.500    5.529    0.300    0.412   60.821
  285.750    5.622    0.289    0.419   65.311
  286.000    5.879    0.280    0.429   68.581
  286.250    6.011    0.273    0.436   72.284
  286.500    6.169    0.261    0.448   75.983
  286.750    6.296    0.250    0.469   78.760
  287.000    6.401    0.236    0.437   79.481
  287.250    6.618    0.228    0.423   82.936
  287.500    6.908    0.224    0.441   85.051
  287.750    7.156    0.228    0.451   79.363
  288.000    7.303    0.238    0.436   74.348
  288.250    7.410    0.228    0.426   72.076
  288.500    7.477    0.221    0.421   70.350
  288.750    7.517    0.219    0.422   69.234
  289.000    7.514    0.237    0.431   69.884
  289.250    7.512    0.248    0.452   71.755
  289.500    7.438    0.254    0.465   73.202
  289.750    7.310    0.253    0.469   74.217
  290.000    7.171    0.248    0.455   75.051
  290.250    6.981    0.242    0.444   75.706
  290.500    6.848    0.245    0.434   77.512
  290.750    6.782    0.245    0.446   79.137
  291.000    6.741    0.218    0.461   77.722
  291.250    6.776    0.184    0.463   78.008
  291.500    6.941    0.161    0.460   81.158
  291.750    7.110    0.183    0.457   88.451
  292.000    6.884    0.212    0.450   99.954
  292.250    6.043    0.195    0.438  110.356
  292.500    5.447    0.176    0.445  114.422
  292.750    4.993    0.173    0.489  113.118
  293.000    4.612    0.176    0.506  114.445
  293.250    4.292    0.178    0.513  116.926
  293.500    4.085    0.178    0.506  114.164
  293.750    3.948    0.179    0.506  113.596
  294.000    3.880    0.180    0.481  112.601
  294.250    3.841    0.184    0.466  110.878
  294.500    3.913    0.194    0.444  108.238
  294.750    4.354    0.194    0.432  108.586
  295.000    5.079    0.196    0.422  110.519
  295.250    5.546    0.213    0.433  105.136
  295.500    6.125    0.229    0.449   97.378
  295.750    6.490    0.239    0.444   91.388
  296.000    6.826    0.245    0.435   85.882
  296.250    6.992    0.256    0.447   82.756
  296.500    7.135    0.269    0.443   81.338
  296.750    7.213    0.264    0.439   82.598
  297.000    7.184    0.240    0.429   82.397
  297.250    7.073    0.217    0.420   85.789
  297.500    6.978    0.205    0.421   90.587
  297.750    6.768    0.209    0.430   95.322
  298.000    6.565    0.212    0.429   98.838
  298.250    6.464    0.210    0.431   86.571
  298.500    6.412    0.243    0.441   73.997
  298.750    6.422    0.272    0.453   66.666
  299.000    6.420    0.296    0.439   60.004
  299.250    6.453    0.295    0.425   59.620
  299.500    6.536    0.277    0.399   69.596
  299.750    6.770    0.254    0.389   81.889
  300.000    6.859    0.236    0.385   94.547
  300.250    7.012    0.221    0.386   94.528
  300.500    7.102    0.211    0.393   93.961
  300.750    7.276    0.208    0.408   93.940
  301.000    7.396    0.203    0.418   94.472
  301.250    7.463    0.188    0.426   99.876
  301.500    7.474    0.179    0.416  103.821
  301.750    7.388    0.180    0.412  106.422
  302.000    7.219    0.183    0.416  105.916
  302.250    6.950    0.184    0.422  101.023
  302.500    6.754    0.187    0.431   94.176
  302.750    6.726    0.187    0.440   89.711
  303.000    6.903    0.189    0.454   85.426
  303.250    6.939    0.193    0.448   84.981
