~VERSION INFORMATION
 VERS.                 2.0:   CWLS LOG ASCII STANDARD -VERSION 2.0
 WRAP.                  NO:   ONE LINE PER DEPTH STEP
~WELL INFORMATION BLOCK
#MNEM.UNIT           DATA                    DESCRIPTION OF MNEMONIC
#---------    -------------------            -------------------------------
# Generated from Intellog Unique Number	CW_82_90/WELL/1030
WELL.         AMOCO BRINTNELL 13-16          : Well_name    - WELL
LOC .         00/13-16-084-23W4/0            : Location     - LOCATION
UWI .         00/13-16-084-23W4/0            : Uwi          - UNIQUE WELL ID
ENTR.         JAYE                           : Entered      - ENTERED BY
SRVC.         SCHLUMBERGER                   : Scn          - SERVICE COMPANY
DATE.         25 FEB 86                      : Date         - LOG DATE
STRT.M        190                            : top_depth    - START DEPTH
STOP.M        410                            : bot_depth    - STOP DEPTH
STEP.M        0.25                           : increment    - STEP LENGTH
 NULL. -999.2500:NULL Value
~CURVE INFORMATION BLOCK
#MNEM UNIT       ERCB CURVE CODE    CURVE DESCRIPTION
#-----------   ------------------   ----------------------------------
DEPT.M        00 001 00 00         : DEPTH        - DEPTH
CALI.MM       00 280 01 00         : CAL          - CALIPER
GR  .API      00 310 00 00         : GR           - GAMMA RAY
NPHI.V/V      00 330 00 00         : PHIN         - NEUTRON POROSITY (SANDSTONE)
DPHI.V/V      00 890 00 00         : PHID         - DENSITY POROSITY (SANDSTONE)
ILD .OHMM     00 120 00 00         : RESD         - DEEP RESISTIVITY (DIL)
~PARAMETER INFORMATION
#MNEM.UNIT           DATA             DESCRIPTION OF MNEMONIC
#---------         -----------     ------------------------------
GL  .M        584.4                : gl           - GROUND LEVEL ELEVATION
EREF.M        588                  : kb           - ELEVATION OF DEPTH REFERENCE
DATM.M        584.4                : datum        - DATUM ELEVATION
TDD .M        413                  : tdd          - TOTAL DEPTH DRILLER
RUN .         ONE                  : Run          - RUN NUMBER
ENG .         VERNER               : Engineer     - RECORDING ENGINEER
WIT .         KOSS                 : Witness      - WITNESSED BY
BASE.         S.L.                 : Branch       - HOME BASE OF LOGGING UNIT
MUD .         GEL CHEM             : Mud_type     - MUD TYPE
MATR.         SANDSTONE            : Logunit      - NEUTRON MATRIX
TMAX.C        20                   : BHT          - MAXIMUM RECORDED TEMPERATURE
BHTD.M        413                  : BHTDEP       - MAXIMUM RECORDED TEMPERATURE
RMT .C        18.3                 : MDTP         - TEMPERATURE OF MUD
MUDD.KG/M     1130                 : MWT          - MUD DENSITY
NEUT.         1                    : NEUTRON      - NEUTRON TYPE
RESI.         0                    : RESIST       - RESISTIVITY TYPE
RM  .OHMM     4.13                 : RM           - RESISTIVITY OF MUD
RMC .OHMM     0                    : RMC          - RESISTIVITY OF MUD CAKE
RMF .OHMM     4.22                 : RMF          - RESISTIVITY OF MUD FILTRATE
SUFT.C        0                    : SUFT         - SURFACE TEMPERATURE
~A  DEPTH      CAL       GR     PHIN     PHID     RESD
# ...
  299.500  242.735   81.239    0.424    0.236    9.801
  299.750  243.286   77.493    0.421    0.230    9.980
  300.000  242.684   68.855    0.446    0.233   10.314
  300.250  241.565   62.349    0.453    0.287   10.901
  300.500  240.235   59.544    0.444    0.286   11.286
  300.750  239.218   58.243    0.435    0.290   11.448
  301.000  237.889   59.204    0.414    0.270   11.467
  301.250  237.283   60.348    0.407    0.275   11.518
  301.500  237.102   60.613    0.420    0.313   11.685
  301.750  237.241   58.314    0.448    0.296   11.897
  302.000  237.371   58.828    0.433    0.271   12.091
  302.250  237.503   62.423    0.445    0.241   12.059
  302.500  237.634   63.566    0.452    0.258   12.009
  302.750  237.979   63.144    0.428    0.294   12.110
  303.000  238.319   61.718    0.400    0.297   12.220
  303.250  238.762   60.919    0.398    0.302   12.232
  303.500  238.891   60.496    0.422    0.308   12.291
  303.750  238.923   59.699    0.451    0.314   12.306
  304.000  238.951   63.605    0.442    0.315   12.322
  304.250  239.288   63.431    0.419    0.317   12.268
  304.500  240.053   62.131    0.412    0.318   12.235
  304.750  240.389   62.653    0.421    0.316   12.181
  305.000  240.945   64.361    0.430    0.308   12.061
  305.250  241.285   68.267    0.415    0.292   11.898
  305.500  242.043   72.232    0.393    0.280   11.646
  305.750  242.802   77.893    0.410    0.262   11.196
  306.000  243.873   82.930    0.437    0.265   11.018
  306.250  244.842   85.138    0.457    0.261   10.689
  306.500  245.922   83.901    0.501    0.258   10.350
  306.750  246.673   70.559    0.488    0.269   10.073
  307.000  247.017   66.940    0.457    0.304    9.607
  307.250  246.630   71.344    0.444    0.291    8.979
  307.500  245.193   77.635    0.464    0.267    8.467
  307.750  243.858   81.666    0.483    0.246    7.666
  308.000  242.738   82.496    0.476    0.235    6.811
  308.250  241.934   69.530    0.453    0.251    6.246
  308.500  242.061   71.742    0.458    0.256    6.003
  308.750  242.824   73.890    0.450    0.244    6.379
  309.000  243.793   75.416    0.442    0.232    7.143
  309.250  244.447   76.184    0.423    0.239    7.749
  309.500  245.314   76.951    0.412    0.284    8.359
  309.750  245.548   77.723    0.433    0.287    8.851
  310.000  245.885   77.486    0.455    0.254    9.029
  310.250  245.603   75.058    0.463    0.259    9.057
  310.500  244.898   69.367    0.467    0.268    9.118
  310.750  243.881   67.442    0.468    0.244    9.286
  311.000  243.179   67.016    0.441    0.180    9.314
  311.250  242.473   67.849    0.350    0.157    9.255
  311.500  242.188   68.494    0.401    0.126    9.199
  311.750  242.006   68.761    0.424    0.161    9.209
  312.000  241.511   68.902    0.432    0.241    9.237
  312.250  239.970   68.545    0.444    0.244    9.351
  312.500  239.056   67.869    0.468    0.231    9.573
  312.750  238.249   66.946    0.454    0.202    9.641
  313.000  237.440   66.460    0.424    0.177    9.527
  313.250  236.633   66.290    0.351    0.179    9.291
  313.500  235.928   66.180    0.370    0.210    8.796
  313.750  236.270   66.135    0.417    0.236    8.312
  314.000  239.118   70.352    0.464    0.231    7.943
  314.250  244.894   75.010    0.457    0.217    7.647
  314.500  250.253   80.546    0.454    0.203    7.403
  314.750  251.547   84.513    0.469    0.223    7.288
  315.000  251.462   85.284    0.496    0.227    7.243
  315.250  250.878   82.100    0.513    0.227    7.443
  315.500  250.788   81.427    0.515    0.234    7.736
  315.750  250.292   83.203    0.508    0.223    8.178
  316.000  250.002   82.401    0.489    0.221    8.481
  316.250  250.344   81.602    0.468    0.209    8.766
  316.500  251.421   84.567    0.449    0.220    8.909
  316.750  251.132   85.087    0.443    0.227    9.018
  317.000  250.427   86.610    0.461    0.230    9.148
  317.250  248.161   88.066    0.455    0.236    9.246
  317.500  246.407   90.780    0.451    0.239    9.377
  317.750  246.751   92.553    0.487    0.226    9.603
  318.000  247.618   85.858    0.466    0.214    9.720
  318.250  246.494   84.809    0.440    0.205    9.917
  318.500  244.217   85.204    0.412    0.208   10.171
  318.750  241.004   86.347    0.428    0.213   10.649
  319.000  238.320   86.867    0.429    0.222   11.193
  319.250  236.783   87.637    0.412    0.234   11.784
  319.500  236.804   88.594    0.411    0.242   12.503
  319.750  236.627   85.098    0.417    0.247   13.113
  320.000  237.379   76.836    0.426    0.253   13.835
  320.250  238.354   73.468    0.434    0.267   14.348
  320.500  239.218   72.736    0.439    0.257   15.168
  320.750  239.873   72.370    0.425    0.229   15.967
  321.000  239.587   71.633    0.374    0.189   16.907
  321.250  239.088   73.156    0.347    0.226   17.573
  321.500  238.698   80.134    0.343    0.355   16.461
  321.750  239.457   86.297    0.405    0.313   16.407
  322.000  240.320   91.959    0.470    0.286   14.769
  322.250  240.249   92.477    0.479    0.261   12.785
  322.500  239.442   89.043    0.459    0.234   11.340
  322.750  239.673   73.319    0.427    0.220   11.100
  323.000  240.959   73.532    0.382    0.203   11.156
  323.250  241.507   73.668    0.389    0.209   11.445
  323.500  240.384   73.244    0.397    0.224   11.893
  323.750  237.278   71.819    0.414    0.225   12.405
  324.000  235.633   69.513    0.411    0.222   12.751
  324.250  234.519   57.365    0.331    0.203   13.400
  324.500  234.229   45.779    0.279    0.151   15.089
  324.750  236.759   44.855    0.231    0.051   18.581
  325.000  240.235   48.697    0.196    0.036   25.121
  325.250  242.994   55.487    0.217    0.049   33.650
  325.500  243.219   60.333    0.275    0.038   32.401
  325.750  243.148   62.920    0.365    0.038   28.897
  326.000  242.440   64.254    0.377    0.160   25.766
  326.250  240.587   65.587    0.351    0.143   22.597
  326.500  240.200   67.485    0.333    0.099   19.819
  326.750  240.225   68.822    0.309    0.097   19.262
  327.000  240.252   69.024    0.325    0.132   18.511
  327.250  241.220   69.480    0.378    0.188   17.847
  327.500  242.501   68.997    0.371    0.190   16.399
  327.750  243.475   68.448    0.361    0.160   15.555
  328.000  243.811   68.152    0.372    0.146   15.260
  328.250  244.470   68.483    0.399    0.192   14.775
  328.500  245.014   68.626    0.430    0.208   14.380
  328.750  245.880   68.892    0.444    0.225   13.871
  329.000  246.957   69.600    0.427    0.239   13.306
  329.250  247.720   70.367    0.409    0.222   12.931
  329.500  248.365   71.388    0.387    0.211   12.730
  329.750  248.502   72.845    0.406    0.200   12.625
  330.000  248.738   72.297    0.408    0.201   12.616
  330.250  249.082   74.321    0.411    0.210   12.680
  330.500  249.524   76.406    0.428    0.214   12.744
  330.750  249.345   79.309    0.425    0.213   12.739
  331.000  248.429   81.207    0.423    0.212   12.258
  331.250  245.528   81.724    0.425    0.216   11.413
  331.500  244.201   81.053    0.454    0.216   10.989
  331.750  243.504   79.941    0.455    0.214   10.678
  332.000  243.530   78.515    0.442    0.209   10.515
  332.250  243.556   77.842    0.427    0.202   10.466
  332.500  244.413   78.424    0.435    0.189   10.518
  332.750  249.042   79.442    0.428    0.177   10.890
  333.000  252.101   81.591    0.403    0.161   11.508
  333.250  252.963   81.107    0.369    0.199   12.323
  333.500  252.260   79.306    0.384    0.180   13.194
  333.750  251.243   78.254    0.405    0.162   14.101
  334.000  250.119   78.585    0.411    0.189   15.100
  334.250  249.103   79.604    0.417    0.222   15.286
  334.500  244.535   81.378    0.408    0.223   14.747
  334.750  241.216   81.645    0.398    0.218   14.275
  335.000  240.719   80.782    0.395    0.208   13.640
  335.250  241.795   82.370    0.387    0.182   13.255
  335.500  243.603   84.768    0.385    0.150   13.001
  335.750  244.670   85.980    0.397    0.163   12.429
