~VERSION INFORMATION
 VERS.                 2.0:   CWLS LOG ASCII STANDARD -VERSION 2.0
 WRAP.                  NO:   ONE LINE PER DEPTH STEP
~WELL INFORMATION BLOCK
#MNEM.UNIT           DATA                    DESCRIPTION OF MNEMONIC
#---------    -------------------            -------------------------------
# Generated from Intellog Unique Number	CS_73_76/WELL/818
WELL.         BOW VALLEY INDUSTRIES LTD      : Well_name    - WELL
LOC .         00/10-11-073-17W4/0            : Location     - LOCATION
UWI .         00/10-11-073-17W4/0            : Uwi          - UNIQUE WELL ID
ENTR.         SP                             : Entered      - ENTERED BY
SRVC.         SCHLUMBERGER                   : Scn          - SERVICE COMPANY
STRT.M        234.696                        : top_depth    - START DEPTH
STOP.M        423.446                        : bot_depth    - STOP DEPTH
STEP.M        0.25                           : increment    - STEP LENGTH
 NULL. -999.2500:NULL Value
~CURVE INFORMATION BLOCK
#MNEM UNIT       ERCB CURVE CODE    CURVE DESCRIPTION
#-----------   ------------------   ----------------------------------
DEPT.M        00 001 00 00         : DEPTH        - DEPTH
GR  .API      00 310 00 00         : GR           - GAMMA RAY
DPHI.V/V      00 890 00 00         : PHID         - DENSITY POROSITY (SANDSTONE)
NPHI.V/V      00 330 00 00         : PHIN         - NEUTRON POROSITY (SANDSTONE)
ILD .OHMM     00 120 00 00         : RESD         - DEEP RESISTIVITY (DIL)
~PARAMETER INFORMATION
#MNEM.UNIT           DATA             DESCRIPTION OF MNEMONIC
#---------         -----------     ------------------------------
GL  .M        567.385              : gl           - GROUND LEVEL ELEVATION
EREF.M        570.433              : kb           - ELEVATION OF DEPTH REFERENCE
DATM.M        567.385              : datum        - DATUM ELEVATION
TDD .M        568.147              : tdd          - TOTAL DEPTH DRILLER
RUN .         ONE                  : Run          - RUN NUMBER
ENG .         BILL                 : Engineer     - RECORDING ENGINEER
WIT .         JIM                  : Witness      - WITNESSED BY
MUD .         GEL                  : Mud_type     - MUD TYPE
MATR.         SANDSTONE            : Logunit      - NEUTRON MATRIX
TMAX.C        11.6667              : BHT          - MAXIMUM RECORDED TEMPERATURE
BHTD.M        568.147              : BHTDEP       - MAXIMUM RECORDED TEMPERATURE
MATR.         1                    : LOGUNIT      - NEUTRON MATRIX
RMT .C        25                   : MDTP         - TEMPERATURE OF MUD
NEUT.         1                    : NEUTRON      - NEUTRON TYPE
RESI.         0                    : RESIST       - RESISTIVITY TYPE
RMC .OHMM     0.25                 : RMC          - RESISTIVITY OF MUD CAKE
RMF .OHMM     0.25                 : RMF          - RESISTIVITY OF MUD FILTRATE
SUFT.C        15                   : SUFT         - SURFACE TEMPERATURE
~A  DEPTH       GR     PHID     PHIN     RESD
  234.696  125.592    0.212    0.512    3.465
  234.946  124.151    0.215    0.502    3.593
  235.196  121.713    0.210    0.492    3.677
  235.446  121.971    0.203    0.492    3.546
  235.696  125.213    0.209    0.496    3.342
  235.946  128.332    0.222    0.493    3.158
  236.196  129.406    0.217    0.501    3.013
  236.446  125.587    0.219    0.514    2.954
  236.696  123.175    0.210    0.526    2.895
  236.946  121.609    0.212    0.526    2.845
  237.196  121.479    0.208    0.511    2.865
  237.446  122.812    0.195    0.500    2.958
  237.696  123.498    0.210    0.497    3.051
  237.946  121.880    0.217    0.510    3.162
  238.196  122.163    0.207    0.530    3.302
  238.446  124.739    0.213    0.549    3.407
  238.696  127.481    0.219    0.553    3.415
  238.946  129.413    0.224    0.544    3.371
  239.196  127.100    0.222    0.533    3.283
  239.446  122.526    0.234    0.510    3.122
  239.696  119.138    0.246    0.502    3.028
  239.946  115.710    0.258    0.492    3.115
  240.196  109.944    0.280    0.525    3.215
  240.446   99.614    0.308    0.602    4.025
  240.696   84.682    0.379    0.615    5.097
  240.946   79.520    0.431    0.455    6.538
  241.196   82.422    0.378    0.372    7.889
  241.446   82.518    0.360    0.346    8.450
  241.696   85.346    0.376    0.345    6.839
  241.946   87.440    0.364    0.360    5.970
  242.196   87.827    0.358    0.382    5.720
  242.446   85.860    0.343    0.404    5.560
  242.696   81.895    0.330    0.450    5.448
  242.946   79.481    0.321    0.444    5.460
  243.196   77.295    0.323    0.437    5.547
  243.446   78.382    0.315    0.436    5.566
  243.696   77.903    0.306    0.444    5.572
  243.946   79.875    0.300    0.441    5.576
  244.196   81.584    0.302    0.433    5.581
  244.446   84.404    0.308    0.425    5.578
  244.696   87.308    0.313    0.427    5.949
  244.946   94.470    0.303    0.429    6.031
  245.196   99.698    0.290    0.423    6.122
  245.446  106.643    0.277    0.424    6.317
  245.696  110.033    0.264    0.430    6.375
  245.946  114.630    0.245    0.437    6.474
  246.196  113.352    0.248    0.436    6.619
  246.446  109.468    0.279    0.429    6.616
  246.696  106.854    0.282    0.426    6.726
  246.946  105.626    0.284    0.432    6.873
  247.196  110.833    0.285    0.426    6.863
  247.446  114.114    0.264    0.417    6.861
  247.696  118.169    0.251    0.410    6.840
  247.946  120.320    0.240    0.407    6.635
  248.196  118.447    0.234    0.427    6.238
  248.446  109.290    0.250    0.439    6.185
  248.696  104.716    0.258    0.432    6.384
  248.946  111.877    0.262    0.407    6.642
  249.196  112.863    0.233    0.383    6.917
  249.446  105.217    0.206    0.357    7.347
  249.696   98.855    0.193    0.338    7.999
  249.946   90.371    0.210    0.332    8.138
  250.196   84.722    0.197    0.337    8.296
  250.446   78.106    0.173    0.357    8.258
  250.696   72.934    0.185    0.365    7.862
  250.946   69.765    0.196    0.386    7.137
  251.196   72.850    0.207    0.381    6.412
  251.446   77.567    0.226    0.378    5.793
  251.696   87.723    0.246    0.392    5.513
  251.946   92.350    0.237    0.409    5.257
  252.196   98.176    0.248    0.415    5.188
  252.446  104.921    0.249    0.408    5.144
  252.696  112.734    0.230    0.406    4.985
  252.946  122.282    0.193    0.424    4.833
  253.196  127.421    0.199    0.452    4.613
  253.446  132.009    0.203    0.472    4.240
  253.696  136.165    0.175    0.498    3.937
  253.946  139.623    0.171    0.523    3.777
  254.196  139.197    0.178    0.526    3.485
  254.446  140.057    0.199    0.523    3.311
  254.696  143.879    0.184    0.509    3.306
  254.946  147.808    0.191    0.522    3.358
  255.196  148.429    0.202    0.531    3.357
  255.446  144.553    0.183    0.521    3.354
  255.696  146.400    0.166    0.504    3.212
  255.946  146.077    0.167    0.491    2.956
  256.196  148.893    0.171    0.514    2.849
  256.446  149.603    0.195    0.538    2.884
  256.696  148.301    0.192    0.534    3.494
  256.946  144.660    0.214    0.511    4.349
  257.196  141.835    0.217    0.464    5.019
  257.446  140.139    0.235    0.439    5.705
  257.696  138.269    0.247    0.433    6.368
  257.946  134.027    0.237    0.425    6.498
  258.196  132.594    0.238    0.426    6.807
  258.446  132.015    0.243    0.429    7.473
  258.696  133.722    0.248    0.433    8.389
  258.946  130.413    0.234    0.442    9.643
  259.196  114.864    0.253    0.448   11.598
  259.446  101.128    0.268    0.450   13.027
  259.696   89.084    0.296    0.457   14.915
  259.946   78.612    0.317    0.461   16.024
  260.196   77.507    0.333    0.466   16.957
  260.446   78.128    0.339    0.472   15.509
  260.696   80.007    0.347    0.472   14.158
  260.946   82.582    0.352    0.472   13.229
  261.196   83.979    0.341    0.473   12.059
  261.446   87.234    0.329    0.489   11.428
  261.696   89.634    0.322    0.505   11.361
  261.946   93.328    0.309    0.530   11.553
  262.196   91.350    0.302    0.493   11.680
  262.446   89.521    0.309    0.458   11.818
  262.696   87.788    0.317    0.440   11.899
  262.946   89.472    0.316    0.450   11.574
  263.196   91.406    0.309    0.448   10.597
  263.446   93.824    0.297    0.454    9.858
  263.696   95.139    0.283    0.451    9.470
  263.946   96.171    0.281    0.437    9.169
  264.196   97.459    0.279    0.431    9.461
  264.446   99.554    0.276    0.448    9.518
  264.696  102.011    0.287    0.447    9.522
  264.946  105.231    0.283    0.441    9.452
  265.196  107.780    0.275    0.442    9.143
  265.446  109.921    0.270    0.444    8.452
  265.696  111.248    0.254    0.444    7.917
  265.946  114.292    0.236    0.441    7.377
  266.196  118.084    0.218    0.436    6.820
  266.446  119.898    0.209    0.451    6.437
  266.696  123.045    0.218    0.459    6.060
  266.946  127.909    0.225    0.463    6.051
  267.196  132.604    0.213    0.459    6.186
  267.446  136.409    0.230    0.454    6.176
  267.696  143.497    0.240    0.447    6.168
  267.946  146.778    0.240    0.446    6.307
  268.196  145.226    0.246    0.451    6.295
  268.446  142.753    0.248    0.457    6.529
  268.696  128.402    0.252    0.436    6.797
  268.946  118.737    0.273    0.419    7.015
  269.196  108.387    0.268    0.407    7.223
  269.446  110.817    0.243    0.402    7.447
  269.696  114.322    0.229    0.401    7.448
  269.946  119.649    0.231    0.407    7.464
  270.196  122.046    0.221    0.414    7.214
  270.446  123.439    0.212    0.416    6.637
  270.696  124.863    0.215    0.413    5.710
  270.946  126.891    0.209    0.426    5.160
  271.196  127.853    0.198    0.434    4.528
  271.446  127.983    0.198    0.467    4.188
  271.696  122.723    0.220    0.488    4.695
  271.946  111.602    0.232    0.484    5.027
  272.196  100.565    0.265    0.474    5.399
  272.446   96.785    0.272    0.476    5.689
  272.696   95.350    0.277    0.480    5.590
  272.946   95.507    0.287    0.474    5.499
  273.196   94.574    0.267    0.468    5.506
  273.446   93.841    0.255    0.458    5.537
  273.696   97.118    0.238    0.452    5.907
  273.946  101.168    0.236    0.439    6.154
  274.196  108.143    0.271    0.426    6.395
  274.446  113.178    0.287    0.416    6.602
  274.696  113.201    0.283    0.410    6.569
  274.946  112.282    0.279    0.409    6.361
  275.196  113.578    0.271    0.409    5.887
  275.446  117.897    0.256    0.417    5.372
  275.696  123.682    0.238    0.436    4.859
  275.946  125.011    0.216    0.456    4.433
  276.196  122.673    0.226    0.469    4.300
  276.446  119.636    0.239    0.486    4.437
  276.696  114.748    0.243    0.500    4.919
  276.946  104.762    0.267    0.512    5.302
  277.196   99.782    0.292    0.519    6.225
  277.446   93.170    0.312    0.499    6.904
  277.696   88.839    0.327    0.485    7.634
  277.946   89.367    0.317    0.459    8.141
