~VERSION INFORMATION
 VERS.                 2.0:   CWLS LOG ASCII STANDARD -VERSION 2.0
 WRAP.                  NO:   ONE LINE PER DEPTH STEP
~WELL INFORMATION BLOCK
#MNEM.UNIT           DATA                    DESCRIPTION OF MNEMONIC
#---------    -------------------            -------------------------------
# Generated from Intellog Unique Number	CW_79_81/WELL/2466
WELL.         10-15-080-23W4                 : Well_name    - WELL
LOC .         00/10-15-080-23W4/0            : Location     - LOCATION
UWI .         00/10-15-080-23W4/0            : Uwi          - UNIQUE WELL ID
ENTR.         MAX                            : Entered      - ENTERED BY
SRVC.         SCHLUMBERGER                   : Scn          - SERVICE COMPANY
STRT.M        220                            : top_depth    - START DEPTH
STOP.M        464.75                         : bot_depth    - STOP DEPTH
STEP.M        0.25                           : increment    - STEP LENGTH
 NULL. -999.2500:NULL Value
~CURVE INFORMATION BLOCK
#MNEM UNIT       ERCB CURVE CODE    CURVE DESCRIPTION
#-----------   ------------------   ----------------------------------
DEPT.M        00 001 00 00         : DEPTH        - DEPTH
ILD .OHMM     00 120 00 00         : RESD         - DEEP RESISTIVITY (DIL)
NPHI.V/V      00 330 00 00         : PHIN         - NEUTRON POROSITY (SANDSTONE)
DPHI.V/V      00 890 00 00         : PHID         - DENSITY POROSITY (SANDSTONE)
GR  .API      00 310 00 00         : GR           - GAMMA RAY
CALI.MM       00 280 01 00         : CAL          - CALIPER
~PARAMETER INFORMATION
#MNEM.UNIT           DATA             DESCRIPTION OF MNEMONIC
#---------         -----------     ------------------------------
GL  .M        586.4                : gl           - GROUND LEVEL ELEVATION
EREF.M        590                  : kb           - ELEVATION OF DEPTH REFERENCE
DATM.M        586.4                : datum        - DATUM ELEVATION
TDD .M        469                  : tdd          - TOTAL DEPTH DRILLER
RUN .         ONE                  : Run          - RUN NUMBER
ENG .         BILL                 : Engineer     - RECORDING ENGINEER
WIT .         JIM                  : Witness      - WITNESSED BY
MUD .         GEL                  : Mud_type     - MUD TYPE
MATR.         SANDSTONE            : Logunit      - NEUTRON MATRIX
TMAX.C        23                   : BHT          - MAXIMUM RECORDED TEMPERATURE
BHTD.M        469                  : BHTDEP       - MAXIMUM RECORDED TEMPERATURE
MATR.         1                    : LOGUNIT      - NEUTRON MATRIX
RMT .C        17                   : MDTP         - TEMPERATURE OF MUD
NEUT.         1                    : NEUTRON      - NEUTRON TYPE
RESI.         0                    : RESIST       - RESISTIVITY TYPE
RMC .OHMM     6.73                 : RMC          - RESISTIVITY OF MUD CAKE
RMF .OHMM     6.46                 : RMF          - RESISTIVITY OF MUD FILTRATE
SUFT.C        -25                  : SUFT         - SURFACE TEMPERATURE
~A  DEPTH     RESD     PHIN     PHID       GR      CAL
# ...
  366.000   10.624    0.425    0.245   67.711  220.013
  366.250   10.796    0.413    0.248   66.535  220.057
  366.500   10.767    0.396    0.248   64.697  220.202
  366.750   10.540    0.403    0.241   65.656  220.737
  367.000   10.154    0.421    0.230   67.938  221.192
  367.250    9.865    0.425    0.228   70.606  222.038
  367.500    9.749    0.426    0.230   71.114  222.586
  367.750    9.652    0.427    0.232   70.298  222.829
  368.000    9.521    0.429    0.231   69.244  222.867
  368.250    9.364    0.437    0.226   69.177  223.175
  368.500    9.230    0.447    0.227   68.698  224.469
  368.750    8.970    0.441    0.231   68.004  225.715
  369.000    8.766    0.436    0.237   67.848  226.057
  369.250    8.614    0.430    0.241   68.956  225.698
  369.500    8.496    0.424    0.242   70.667  225.142
  369.750    8.330    0.426    0.234   70.487  225.282
  370.000    8.087    0.432    0.231   68.260  225.736
  370.250    7.628    0.446    0.242   75.986  230.193
  370.500    7.235    0.446    0.238   79.016  232.543
  370.750    7.008    0.451    0.227   78.076  232.585
  371.000    7.002    0.462    0.216   74.614  230.020
  371.250    7.437    0.461    0.218   70.145  223.708
  371.500    8.372    0.441    0.233   66.920  220.001
  371.750    9.216    0.433    0.249   69.348  220.037
  372.000   10.046    0.441    0.249   70.516  216.773
  372.250   10.759    0.453    0.249   69.581  211.609
  372.500   11.444    0.457    0.252   66.662  207.446
  372.750   12.782    0.440    0.251   62.144  210.446
  373.000   14.159    0.419    0.257   58.660  219.259
  373.250   14.816    0.436    0.266   59.407  224.117
  373.500   15.336    0.433    0.269   58.713  225.669
  373.750   16.042    0.430    0.259   55.612  225.913
  374.000   17.387    0.412    0.230   50.767  225.653
  374.250   21.623    0.316    0.158   45.567  224.248
  374.500   32.820    0.232    0.062   41.089  223.037
  374.750   40.488    0.206    0.030   40.151  223.077
  375.000   38.581    0.191    0.024   40.475  221.617
  375.250   32.161    0.199    0.033   43.867  218.259
  375.500   25.179    0.237    0.062   49.424  215.201
  375.750   17.874    0.315    0.146   54.699  218.497
  376.000   15.030    0.382    0.210   60.484  224.806
  376.250   12.070    0.426    0.251   62.680  225.255
  376.500   10.819    0.453    0.262   62.346  224.793
  376.750   10.411    0.458    0.262   60.566  224.232
  377.000   10.381    0.447    0.264   58.847  224.077
  377.250   10.194    0.440    0.275   59.117  224.453
  377.500    9.974    0.457    0.285   59.148  224.086
  377.750   10.059    0.458    0.293   60.614  223.716
  378.000   10.257    0.450    0.293   61.001  221.854
  378.250   10.613    0.448    0.293   60.665  218.894
  378.500   11.108    0.452    0.295   60.209  215.534
  378.750   11.754    0.452    0.295   60.532  212.527
  379.000   12.426    0.444    0.292   60.810  211.316
  379.250   12.810    0.461    0.291   61.074  211.360
  379.500   13.136    0.468    0.291   61.701  211.404
  379.750   13.448    0.460    0.286   62.571  212.248
  380.000   13.718    0.443    0.272   63.020  214.893
  380.250   13.838    0.438    0.256   61.548  221.394
  380.500   13.849    0.451    0.271   60.068  225.619
  380.750   13.559    0.467    0.266   59.611  224.457
  381.000   13.276    0.444    0.249   59.518  221.190
  381.250   13.144    0.408    0.229   59.666  217.823
  381.500   13.206    0.377    0.218   59.872  215.660
  381.750   13.484    0.366    0.227   60.049  215.480
  382.000   13.815    0.392    0.237   60.828  216.361
  382.250   14.245    0.427    0.246   62.057  220.016
  382.500   14.208    0.426    0.255   63.466  222.463
  382.750   13.908    0.411    0.272   65.174  224.910
  383.000   13.543    0.413    0.300   67.063  227.959
  383.250   13.262    0.479    0.332   68.881  232.371
  383.500   13.277    0.481    0.299   69.407  236.175
  383.750   13.493    0.451    0.275   69.436  238.214
  384.000   13.483    0.437    0.263   68.016  236.356
  384.250   13.247    0.440    0.255   67.320  233.797
  384.500   12.849    0.452    0.243   68.310  232.238
  384.750   12.264    0.460    0.223   71.244  231.808
  385.000   11.635    0.461    0.220   73.774  231.436
  385.250   11.136    0.457    0.226   75.967  231.476
  385.500   10.723    0.446    0.230   76.896  231.513
  385.750   10.462    0.440    0.229   76.921  230.352
  386.000   10.356    0.440    0.223   75.984  227.794
  386.250   10.402    0.440    0.222   73.511  224.136
  386.500   10.576    0.423    0.224   73.038  221.677
  386.750   10.825    0.408    0.225   72.579  221.316
  387.000   11.142    0.413    0.230   71.764  220.965
  387.250   11.490    0.419    0.235   71.311  220.611
  387.500   11.828    0.419    0.238   71.337  220.349
  387.750   12.148    0.420    0.236   71.516  220.395
  388.000   12.350    0.412    0.231   72.293  220.446
  388.250   12.455    0.415    0.223   74.248  220.080
  388.500   12.422    0.421    0.223   74.755  219.722
  388.750   12.298    0.423    0.225   74.779  219.367
  389.000   12.131    0.423    0.224   75.163  219.113
  389.250   11.949    0.436    0.221   76.285  219.162
  389.500   11.869    0.438    0.221   74.559  219.208
  389.750   11.970    0.425    0.218   73.140  219.253
  390.000   12.072    0.410    0.219   73.889  218.993
  390.250   12.132    0.399    0.221   74.998  218.432
  390.500   12.122    0.391    0.221   75.565  217.371
  390.750   12.029    0.381    0.220   75.652  214.835
  391.000   11.952    0.375    0.221   75.927  211.954
  391.250   11.786    0.388    0.221   76.670  211.197
  391.500   11.690    0.409    0.218   78.683  211.942
  391.750   11.703    0.420    0.216   80.994  213.993
  392.000   11.803    0.419    0.218   82.400  216.243
  392.250   11.850    0.421    0.221   81.172  216.777
  392.500   11.592    0.423    0.216   79.694  217.240
  392.750   11.433    0.432    0.205   81.641  218.090
  393.000   11.340    0.426    0.198   84.490  218.627
  393.250   11.312    0.420    0.197   85.237  218.865
  393.500   11.326    0.418    0.196   83.040  218.909
  393.750   11.341    0.414    0.189   79.176  218.962
  394.000   11.359    0.413    0.185   78.948  219.003
  394.250   11.450    0.422    0.193   78.494  219.453
  394.500   11.609    0.423    0.203   77.498  219.895
  394.750   11.751    0.423    0.209   75.844  220.136
  395.000   11.829    0.426    0.206   74.371  220.177
  395.250   11.826    0.429    0.199   75.078  220.063
  395.500   11.749    0.429    0.201   76.105  219.274
  395.750   11.587    0.440    0.203   78.055  217.716
  396.000   11.112    0.437    0.204   80.186  218.858
  396.250   10.684    0.432    0.203   81.775  221.105
  396.500   10.442    0.433    0.200   82.222  222.952
  396.750   10.441    0.431    0.192   80.598  222.672
  397.000   10.781    0.416    0.185   78.368  221.048
  397.250   10.873    0.403    0.191   79.356  221.088
  397.500   10.664    0.393    0.196   81.247  221.135
  397.750   10.285    0.394    0.196   83.678  221.780
  398.000    9.850    0.406    0.193   86.709  223.324
  398.250    9.435    0.425    0.185   90.376  225.364
  398.500    9.445    0.437    0.177   88.149  223.323
  398.750    9.810    0.415    0.178   84.329  221.359
  399.000    9.913    0.396    0.185   84.473  221.202
  399.250    9.814    0.400    0.189   86.665  221.044
  399.500    9.718    0.418    0.187   88.919  219.280
  399.750   10.097    0.413    0.190   88.537  214.187
  400.000   10.927    0.404    0.196   85.303  212.568
  400.250   12.119    0.398    0.196   78.600  215.422
  400.500   13.662    0.391    0.180   73.874  216.462
  400.750   15.977    0.377    0.152   70.412  216.502
  401.000   19.643    0.349    0.117   68.036  216.047
  401.250   25.677    0.299    0.088   67.306  215.302
  401.500   27.791    0.294    0.112   68.333  215.344
  401.750   24.663    0.342    0.158   71.483  215.379
  402.000   21.909    0.387    0.202   71.388  215.424
  402.250   20.105    0.398    0.228   68.770  215.674
