~VERSION INFORMATION
 VERS.                 2.0:   CWLS LOG ASCII STANDARD -VERSION 2.0
 WRAP.                  NO:   ONE LINE PER DEPTH STEP
~WELL INFORMATION BLOCK
#MNEM.UNIT           DATA                    DESCRIPTION OF MNEMONIC
#---------    -------------------            -------------------------------
# Generated from Intellog Unique Number	CW_82_90/WELL/3446
WELL.         NUMAC LIEGE 11-4               : Well_name    - WELL
LOC .         00/11-04-088-21W4/0            : Location     - LOCATION
UWI .         00/11-04-088-21W4/0            : Uwi          - UNIQUE WELL ID
ENTR.         MAX                            : Entered      - ENTERED BY
SRVC.         WESTERN ATLAS                  : Scn          - SERVICE COMPANY
STRT.M        110                            : top_depth    - START DEPTH
STOP.M        321                            : bot_depth    - STOP DEPTH
STEP.M        0.25                           : increment    - STEP LENGTH
 NULL. -999.2500:NULL Value
~CURVE INFORMATION BLOCK
#MNEM UNIT       ERCB CURVE CODE    CURVE DESCRIPTION
#-----------   ------------------   ----------------------------------
DEPT.M        00 001 00 00         : DEPTH        - DEPTH
ILD .OHMM     00 120 00 00         : RESD         - DEEP RESISTIVITY (DIL)
NPHI.V/V      00 330 00 00         : PHIN         - NEUTRON POROSITY (SANDSTONE)
DPHI.V/V      00 890 00 00         : PHID         - DENSITY POROSITY (SANDSTONE)
CALI.MM       00 280 01 00         : CAL          - CALIPER
GR  .API      00 310 00 00         : GR           - GAMMA RAY
~PARAMETER INFORMATION
#MNEM.UNIT           DATA             DESCRIPTION OF MNEMONIC
#---------         -----------     ------------------------------
GL  .M        532.2                : gl           - GROUND LEVEL ELEVATION
EREF.M        535.2                : kb           - ELEVATION OF DEPTH REFERENCE
DATM.M        532.2                : datum        - DATUM ELEVATION
TDD .M        322.5                : tdd          - TOTAL DEPTH DRILLER
RUN .         ONE                  : Run          - RUN NUMBER
ENG .         BILL                 : Engineer     - RECORDING ENGINEER
WIT .         JIM                  : Witness      - WITNESSED BY
MUD .         GEL                  : Mud_type     - MUD TYPE
MATR.         SANDSTONE            : Logunit      - NEUTRON MATRIX
TMAX.C        18.8                 : BHT          - MAXIMUM RECORDED TEMPERATURE
BHTD.M        322.5                : BHTDEP       - MAXIMUM RECORDED TEMPERATURE
MATR.         1                    : LOGUNIT      - NEUTRON MATRIX
RMT .C        16                   : MDTP         - TEMPERATURE OF MUD
NEUT.         1                    : NEUTRON      - NEUTRON TYPE
RESI.         0                    : RESIST       - RESISTIVITY TYPE
RMC .OHMM     5                    : RMC          - RESISTIVITY OF MUD CAKE
RMF .OHMM     3                    : RMF          - RESISTIVITY OF MUD FILTRATE
SUFT.C        -5                   : SUFT         - SURFACE TEMPERATURE
~A  DEPTH     RESD     PHIN     PHID      CAL       GR
# ...
  183.000   37.378    0.315    0.416  258.695   24.520
  183.250   36.984    0.331    0.395  243.198   30.183
  183.500   36.581    0.334    0.377  237.675   26.869
  183.750   35.861    0.333    0.371  235.643   19.666
  184.000   35.149    0.339    0.373  233.606   19.943
  184.250   35.090    0.348    0.375  232.073   20.818
  184.500   35.038    0.349    0.373  231.034   23.189
  184.750   34.992    0.329    0.369  230.997   25.262
  185.000   34.933    0.316    0.366  230.960   23.441
  185.250   34.887    0.329    0.363  231.421   27.309
  185.500   34.822    0.326    0.355  231.389   27.879
  185.750   34.449    0.302    0.350  233.342   26.959
  186.000   34.404    0.302    0.339  234.801   25.746
  186.250   33.721    0.326    0.331  233.766   31.110
  186.500   33.353    0.330    0.331  229.744   31.982
  186.750   33.303    0.333    0.343  223.219   31.361
  187.000   32.952    0.330    0.357  222.678   28.948
  187.250   32.599    0.326    0.366  221.145   23.540
  187.500   32.238    0.322    0.365  217.118   16.633
  187.750   32.453    0.329    0.361  215.580   17.807
  188.000   32.141    0.342    0.347  214.555   26.759
  188.250   32.087    0.355    0.347  213.017   25.842
  188.500   31.743    0.352    0.345  211.983   27.016
  188.750   31.708    0.341    0.349  211.447   27.293
  189.000   31.660    0.335    0.364  211.410   26.672
  189.250   31.613    0.337    0.372  211.372   27.844
  189.500   30.979    0.324    0.371  210.832   24.231
  189.750   30.364    0.331    0.352  210.799   26.007
  190.000   29.767    0.341    0.348  210.753   33.465
  190.250   28.901    0.325    0.342  210.222   37.333
  190.500   23.528    0.309    0.316  210.180   45.689
  190.750   18.795    0.290    0.295  210.138   58.233
  191.000   16.331    0.305    0.284  210.609   67.487
  191.250   14.454    0.338    0.288  212.068   71.953
  191.500   13.026    0.360    0.288  214.524   74.920
  191.750   12.189    0.390    0.288  213.988   79.987
  192.000   11.302    0.393    0.292  213.947   87.445
  192.250   10.379    0.446    0.304  215.401   92.812
  192.500    9.802    0.447    0.299  215.872   94.280
  192.750    9.342    0.448    0.285  216.329   98.752
  193.000    9.243    0.448    0.249  216.790   94.238
  193.250    9.144    0.448    0.245  217.256   90.625
  193.500    9.298    0.445    0.264  217.214   86.713
  193.750    9.639    0.424    0.283  217.173   87.289
  194.000   10.461    0.393    0.266  217.135   91.456
  194.250   12.460    0.418    0.281  217.103   81.557
  194.500   12.441    0.404    0.286  217.061   71.960
  194.750   12.892    0.345    0.279  216.525   65.953
  195.000   13.739    0.331    0.308  216.991   57.849
  195.250   14.640    0.318    0.337  216.954   59.921
  195.500   15.028    0.409    0.362  217.416   58.702
  195.750   15.145    0.393    0.358  217.369   61.373
  196.000   15.261    0.388    0.340  216.330   66.736
  196.250   15.526    0.373    0.305  216.796   73.297
  196.500   16.239    0.359    0.302  216.260   75.668
  196.750   16.062    0.342    0.328  215.230   79.536
  197.000   15.598    0.355    0.338  214.191   75.025
  197.250   15.153    0.354    0.325  215.156   63.031
  197.500   14.305    0.379    0.299  217.603   75.280
  197.750   13.892    0.399    0.258  219.071   88.124
  198.000   13.365    0.443    0.271  220.526   83.611
  198.250   12.506    0.444    0.269  220.983   80.599
  198.500   12.032    0.427    0.288  220.447   79.075
  198.750   11.152    0.407    0.315  215.921   76.961
  199.000   10.057    0.391    0.332  213.889   67.962
  199.250   10.042    0.385    0.349  214.355   58.963
  199.500   10.898    0.369    0.368  214.817   49.363
  199.750   11.399    0.359    0.380  214.780   45.448
  200.000   12.146    0.350    0.371  214.239   52.310
  200.250   12.472    0.340    0.380  212.701   63.958
  200.500   14.311    0.331    0.381  211.662   71.117
  200.750   15.394    0.344    0.349  211.136   65.409
  201.000   16.403    0.362    0.341  209.104   63.589
  201.250   16.685    0.384    0.346  205.571   63.868
  201.500   16.354    0.352    0.328  207.533   64.442
  201.750   15.296    0.328    0.284  211.486   61.430
  202.000   15.563    0.290    0.206  217.433   56.917
  202.250   17.373    0.260    0.148  217.396   57.191
  202.500   21.881    0.236    0.140  216.860   57.770
  202.750   32.263    0.223    0.134  216.315   58.346
  203.000   39.154    0.223    0.132  216.277   57.725
  203.250   42.897    0.225    0.151  215.238   56.506
  203.500   42.438    0.236    0.207  213.211   55.885
  203.750   38.971    0.260    0.239  209.683   59.753
  204.000   38.197    0.263    0.291  206.155   58.234
  204.250   37.086    0.272    0.291  205.116   49.828
  204.500   36.021    0.279    0.264  204.589   51.903
  204.750   34.013    0.288    0.219  206.034   52.779
  205.000   34.920    0.305    0.212  208.001   51.557
  205.250   35.846    0.300    0.249  210.951   52.435
  205.500   29.460    0.296    0.236  213.412   44.929
  205.750   19.370    0.322    0.221  215.370   53.587
  206.000   16.064    0.362    0.220  215.328   59.549
  206.250   13.819    0.416    0.268  215.296   81.071
  206.500   13.927    0.423    0.287  215.748   81.647
  206.750   14.981    0.431    0.305  216.209   68.758
  207.000   16.880    0.424    0.321  216.675   59.757
  207.250   19.016    0.357    0.304  218.134   55.844
  207.500   22.236    0.384    0.315  219.099   54.924
  207.750   25.758    0.403    0.334  219.048   51.012
  208.000   27.440    0.372    0.347  219.020   53.979
  208.250   28.178    0.375    0.351  218.978   52.763
  208.500   28.930    0.445    0.326  218.447   46.454
  208.750   29.697    0.427    0.312  218.410   44.936
  209.000   34.720    0.309    0.295  218.368   44.911
  209.250   37.340    0.283    0.125  218.336   41.301
  209.500   35.919    0.275    0.076  218.294   37.087
  209.750   32.699    0.280    0.212  217.758   41.256
  210.000   27.874    0.339    0.271  217.716   50.510
  210.250   26.087    0.347    0.295  217.679   51.086
  210.500   25.332    0.383    0.298  218.141   55.848
  210.750   26.733    0.394    0.316  218.108   48.645
  211.000   27.971    0.394    0.324  218.066   47.725
  211.250   28.185    0.410    0.325  218.029   53.687
  211.500   27.122    0.429    0.306  217.992   60.546
  211.750   26.821    0.399    0.261  217.955   67.409
  212.000   26.539    0.346    0.265  217.423   71.573
  212.250   27.000    0.338    0.276  217.377   64.968
  212.500   27.455    0.328    0.304  216.841   59.559
  212.750   27.659    0.357    0.312  216.804   57.739
  213.000   27.628    0.380    0.301  216.767   62.507
  213.250   27.332    0.383    0.291  217.727   65.477
  213.500   26.054    0.364    0.291  219.689   69.345
  213.750   23.934    0.355    0.259  221.642   72.910
  214.000   20.789    0.397    0.140  222.603   69.300
  214.250   18.918    0.422    0.169  223.059   75.262
  214.500   17.702    0.371    0.264  221.531   82.720
  214.750   18.171    0.388    0.262  219.499   83.892
  215.000   17.980    0.381    0.241  217.467   86.266
  215.250   16.980    0.391    0.225  216.432   92.228
  215.500   15.886    0.399    0.226  216.395   97.293
  215.750   16.462    0.396    0.242  216.857   85.598
  216.000   17.704    0.370    0.255  217.812   74.206
  216.250   18.009    0.366    0.249  218.772   77.175
  216.500   18.319    0.402    0.242  220.231   87.626
  216.750   18.288    0.366    0.220  221.196   95.982
  217.000   18.257    0.335    0.177  221.150   85.484
  217.250   18.068    0.403    0.235  221.117   88.457
  217.500   17.542    0.410    0.250  220.577   94.119
  217.750   17.848    0.404    0.258  219.043   98.283
  218.000   18.491    0.393    0.256  217.012   94.374
  218.250   19.344    0.368    0.258  214.975   88.664
  218.500   20.422    0.341    0.259  213.950   85.347
  218.750   21.959    0.349    0.261  213.414   84.128
  219.000   22.971    0.436    0.260  213.372   80.518
  219.250   23.146    0.403    0.261  214.332   76.606
