~VERSION INFORMATION
 VERS.                 2.0:   CWLS LOG ASCII STANDARD -VERSION 2.0
 WRAP.                  NO:   ONE LINE PER DEPTH STEP
~WELL INFORMATION BLOCK
#MNEM.UNIT           DATA                    DESCRIPTION OF MNEMONIC
#---------    -------------------            -------------------------------
# Generated from Intellog Unique Number	CW_73_75/WELL/1040
WELL.         11-16-074-21W4                 : Well_name    - WELL
LOC .         00/11-16-074-21W4/0            : Location     - LOCATION
UWI .         00/11-16-074-21W4/0            : Uwi          - UNIQUE WELL ID
ENTR.         JAYE                           : Entered      - ENTERED BY
SRVC.         SCHLUMBERGER                   : Scn          - SERVICE COMPANY
DATE.         2 JAN 77                       : Date         - LOG DATE
STRT.M        387.096                        : top_depth    - START DEPTH
STOP.M        600.346                        : bot_depth    - STOP DEPTH
STEP.M        0.25                           : increment    - STEP LENGTH
 NULL. -999.2500:NULL Value
~CURVE INFORMATION BLOCK
#MNEM UNIT       ERCB CURVE CODE    CURVE DESCRIPTION
#-----------   ------------------   ----------------------------------
DEPT.M        00 001 00 00         : DEPTH        - DEPTH
DPHI.V/V      00 890 00 00         : PHID         - DENSITY POROSITY (SANDSTONE)
NPHI.V/V      00 330 00 00         : PHIN         - NEUTRON POROSITY (SANDSTONE)
GR  .API      00 310 00 00         : GR           - GAMMA RAY
CALI.MM       00 280 01 00         : CAL          - CALIPER
ILD .OHMM     00 120 00 00         : RESD         - DEEP RESISTIVITY (DIL)
~PARAMETER INFORMATION
#MNEM.UNIT           DATA             DESCRIPTION OF MNEMONIC
#---------         -----------     ------------------------------
GL  .M        685.495              : gl           - GROUND LEVEL ELEVATION
EREF.M        689.458              : kb           - ELEVATION OF DEPTH REFERENCE
DATM.M        685.495              : datum        - DATUM ELEVATION
TDD .M        664.464              : tdd          - TOTAL DEPTH DRILLER
RUN .         ONE                  : Run          - RUN NUMBER
ENG .         MCDONALD             : Engineer     - RECORDING ENGINEER
WIT .         SMAILES              : Witness      - WITNESSED BY
BASE.         EDMONTON             : Branch       - HOME BASE OF LOGGING UNIT
MUD .         GEL CHEM             : Mud_type     - MUD TYPE
MATR.         SANDSTONE            : Logunit      - NEUTRON MATRIX
TMAX.C        26.1111              : BHT          - MAXIMUM RECORDED TEMPERATURE
BHTD.M        663.245              : BHTDEP       - MAXIMUM RECORDED TEMPERATURE
RMT .C        10                   : MDTP         - TEMPERATURE OF MUD
MUDD.KG/M     0                    : MWT          - MUD DENSITY
NEUT.         1                    : NEUTRON      - NEUTRON TYPE
RESI.         0                    : RESIST       - RESISTIVITY TYPE
RM  .OHMM     4.63                 : RM           - RESISTIVITY OF MUD
RMC .OHMM     4.67                 : RMC          - RESISTIVITY OF MUD CAKE
RMF .OHMM     4.66                 : RMF          - RESISTIVITY OF MUD FILTRATE
SUFT.C        -17.7778             : SUFT         - SURFACE TEMPERATURE
~A  DEPTH     PHID     PHIN       GR      CAL     RESD
# ...
  496.596    0.325    0.578   79.283  200.649    4.213
  496.846    0.333    0.553   82.140  200.874    4.232
  497.096    0.329    0.501   86.936  201.817    4.259
  497.346    0.328    0.477   87.735  203.067    4.279
  497.596    0.340    0.470   85.809  203.804    4.322
  497.846    0.342    0.477   85.881  204.235    4.399
  498.096    0.334    0.474   86.437  204.971    4.535
  498.346    0.319    0.472   87.660  205.915    4.556
  498.596    0.313    0.469   90.882  207.063    4.379
  498.846    0.311    0.467   94.224  208.005    4.147
  499.096    0.306    0.469   97.385  210.997    3.750
  499.346    0.300    0.480   99.759  216.144    3.133
  499.596    0.299    0.483   98.680  222.317    2.661
  499.846    0.307    0.501   98.389  228.591    2.465
  500.096    0.343    0.557   98.946  250.350    2.477
  500.346    0.381    0.548   99.562  263.085    2.625
  500.596    0.367    0.539   99.513  241.572    2.929
  500.846    0.340    0.548   99.343  235.438    3.287
  501.096    0.330    0.545   99.416  233.612    3.695
  501.346    0.322    0.539   99.366  240.810    4.170
  501.596    0.317    0.502  100.528  231.088    4.577
  501.846    0.284    0.465  102.298  225.472    4.806
  502.096    0.272    0.463  103.156  225.591    4.927
  502.346    0.267    0.465  102.562  225.200    4.977
  502.596    0.264    0.467   98.637  225.117    4.882
  502.846    0.254    0.477   97.983  224.727    4.744
  503.096    0.255    0.476   99.206  224.849    4.468
  503.346    0.266    0.455   96.795  224.973    4.033
  503.596    0.261    0.436   95.898  224.888    3.688
  503.846    0.248    0.452   97.060  225.113    3.740
  504.096    0.243    0.463   98.344  225.030    3.949
  504.346    0.259    0.445  100.778  225.050    4.263
  504.596    0.265    0.433  103.878  224.866    4.636
  504.846    0.254    0.434  105.646  224.987    5.023
  505.096    0.247    0.443  105.598  224.802    5.246
  505.346    0.238    0.462  105.911  223.899    5.319
  505.596    0.235    0.471  103.683  222.893    5.403
  505.846    0.242    0.471  103.512  221.683    5.448
  506.096    0.258    0.471  100.435  219.241    5.453
  506.346    0.266    0.472   98.267  217.004    5.449
  506.596    0.267    0.477   98.279  215.896    5.443
  506.846    0.268    0.467  101.076  214.582    5.428
  507.096    0.274    0.465  101.633  213.784    5.403
  507.346    0.267    0.477  100.918  213.290    5.388
  507.596    0.266    0.483  102.019  212.900    5.383
  507.846    0.271    0.478  105.240  212.305    5.388
  508.096    0.261    0.456  107.734  211.708    5.393
  508.346    0.261    0.446  107.565  211.727    5.388
  508.596    0.257    0.461  104.367  212.055    5.433
  508.846    0.258    0.471  102.138  211.972    5.488
  509.096    0.262    0.476  102.938  211.376    5.544
  509.346    0.263    0.485  104.099  210.780    5.570
  509.596    0.262    0.504  101.022  209.980    5.585
  509.846    0.262    0.537   99.521  209.180    5.684
  510.096    0.262    0.600   98.623  208.277    5.859
  510.346    0.258    0.600   97.727  207.477    5.996
  510.596    0.261    0.497   95.861  206.471    6.113
  510.846    0.250    0.426   94.056  205.669    6.314
  511.096    0.234    0.427   89.889  204.564    6.437
  511.346    0.209    0.402   81.726  203.453    6.407
  511.596    0.167    0.330   80.042  202.346    6.308
  511.846    0.210    0.420   94.284  202.776    6.187
  512.096    0.251    0.459   99.140  203.204    6.023
  512.346    0.259    0.541   97.760  204.046    5.694
  512.596    0.259    0.587   98.195  204.475    5.422
  512.846    0.267    0.575   98.691  204.493    5.221
  513.096    0.276    0.562   98.218  204.925    5.112
  513.346    0.270    0.570   99.502  208.431    5.014
  513.596    0.262    0.549   98.910  213.679    4.936
  513.846    0.281    0.527   97.950  209.803    4.850
  514.096    0.280    0.509   97.659  209.720    4.783
  514.346    0.272    0.489   97.671  210.662    4.744
  514.596    0.285    0.575   97.016  207.708    4.740
  514.846    0.285    0.586   96.485  214.392    4.824
  515.096    0.290    0.574   95.949  209.285    5.028
  515.346    0.281    0.552   92.933  203.358    5.387
  515.596    0.254    0.532   83.498  199.480    6.024
  515.846    0.222    0.514   73.094  198.681    6.797
  516.096    0.218    0.571   65.415  198.802    7.855
  516.346    0.223    0.567   62.641  198.620    8.798
  516.596    0.207    0.531   59.504  198.843    9.447
  516.846    0.189    0.327   55.579  198.557    9.613
  517.096    0.160    0.288   49.353  198.574    9.359
  517.346    0.083    0.231   49.547  198.800    8.946
  517.596    0.074    0.235   52.162  199.228    8.001
  517.846    0.103    0.274   56.291  199.659    6.885
  518.096    0.144    0.354   60.422  199.268    6.679
  518.346    0.213    0.431   62.310  198.571    6.860
  518.596    0.278    0.418   62.019  197.872    7.571
  518.846    0.223    0.387   62.818  197.995    8.234
  519.096    0.169    0.331   63.011  198.424    8.425
  519.346    0.150    0.375   61.508  198.752    8.496
  519.596    0.175    0.566   62.065  198.873    8.472
  519.846    0.225    0.566   63.288  198.996    8.083
  520.096    0.239    0.545   64.088  199.016    6.981
  520.346    0.220    0.553   64.826  198.629    6.074
  520.596    0.237    0.572   65.503  198.238    5.784
  520.846    0.273    0.560   66.181  197.641    5.631
  521.096    0.286    0.548   67.040  197.352    5.503
  521.346    0.265    0.589   68.263  197.064    5.328
  521.596    0.258    0.549   70.879  196.265    5.102
  521.846    0.304    0.474   72.343  195.565    4.850
  522.096    0.360    0.466   72.416  194.764    4.610
  522.346    0.351    0.484   71.520  193.761    4.423
  522.596    0.342    0.549   70.925  193.060    4.251
  522.846    0.340    0.530   73.541  193.079    4.063
  523.096    0.345    0.506   74.099  192.895    3.993
  523.346    0.357    0.471   73.867  192.708    3.989
  523.596    0.358    0.459   75.211  192.011    3.993
  523.846    0.344    0.473   77.101  191.723    4.048
  524.096    0.334    0.514   76.687  191.538    4.082
  524.346    0.325    0.567   75.852  191.968    4.162
  524.596    0.320    0.519   76.530  193.013    4.181
  524.846    0.326    0.496   78.237  193.955    4.162
  525.096    0.331    0.460   81.821  195.206    4.158
  525.346    0.333    0.440   85.163  196.457    4.078
  525.596    0.329    0.441   87.839  197.399    3.941
  525.846    0.330    0.458   90.394  198.341    3.740
  526.096    0.305    0.517   93.494  205.743    3.509
  526.346    0.300    0.535   97.200  234.373    3.360
  526.596    0.330    0.561   94.547  240.854    3.320
  526.846    0.351    0.583   92.258  231.746    3.342
  527.096    0.357    0.578   90.695  222.024    3.432
  527.346    0.353    0.576   91.918  213.533    3.624
  527.596    0.339    0.602   90.294  214.578    3.771
  527.846    0.321    0.610   88.428  216.649    3.989
  528.096    0.311    0.538   87.471  213.080    4.306
  528.346    0.299    0.482   88.634  210.333    4.555
  528.596    0.303    0.464   90.523  208.914    4.757
  528.846    0.306    0.434   92.472  204.731    4.868
  529.096    0.302    0.440   93.876  202.391    4.981
  529.346    0.297    0.429   90.073  201.899    5.116
  529.596    0.294    0.421   85.906  203.149    5.314
  529.846    0.293    0.422   84.282  204.706    5.457
  530.096    0.271    0.419   82.356  207.085    5.584
  530.346    0.250    0.398   83.761  206.796    5.725
  530.596    0.268    0.397   85.470  202.714    5.575
  530.846    0.288    0.430   86.572  200.888    5.427
  531.096    0.287    0.456   87.008  200.602    5.274
  531.346    0.281    0.475   87.320  200.723    5.221
  531.596    0.275    0.519   87.151  201.461    5.178
  531.846    0.277    0.534   87.647  201.685    5.251
  532.096    0.277    0.482   88.929  201.501    5.383
  532.346    0.273    0.439   90.698  201.521    5.549
  532.596    0.274    0.445   92.345  201.540    5.422
  532.846    0.273    0.451   94.415  202.379    5.408
